rosbagTimestamp,header,seq,stamp,secs,nsecs,frame_id,pose,position,x,y,z,orientation,x,y,z,w
106044000000,,347,,105,932000000,"""map""",,,-0.00422572670504,-0.00301590911113,0.0176178459078,,0.00899741089118,-0.0102702619329,0.0357104768342,-0.999268945798
106044000000,,348,,105,932000000,"""map""",,,-0.00403963122517,-0.00309196999297,0.0173160396516,,0.00897234141885,-0.0102028467316,0.0356856944873,-0.999270715966
106044000000,,349,,105,932000000,"""map""",,,-0.00379250827245,-0.00317065045238,0.0169869605452,,0.00898685837398,-0.0102129171942,0.0356485631138,-0.999271853931
106044000000,,350,,105,932000000,"""map""",,,-0.00372807472013,-0.00324151106179,0.0166366640478,,0.00897793982919,-0.010108853209,0.0356317465212,-0.999273581952
106072000000,,351,,106,72000000,"""map""",,,-0.00379546848126,-0.00328371184878,0.0163864046335,,0.00898202008864,-0.010108952073,0.0355961324342,-0.99927480421
106108000000,,352,,106,108000000,"""map""",,,-0.00377338565886,-0.00327983428724,0.0160400643945,,0.00895701704699,-0.00989550931922,0.0355219539809,-0.999279777538
106140000000,,353,,106,140000000,"""map""",,,-0.0036697324831,-0.00327881169505,0.0158061441034,,0.00895521798571,-0.00996667155644,0.0355195094636,-0.999279187482
106172000000,,354,,106,172000000,"""map""",,,-0.00355815561488,-0.00332134123892,0.015675323084,,0.00894838702701,-0.00997861940597,0.0354944742356,-0.999280030419
106208000000,,355,,106,208000000,"""map""",,,-0.0034296605736,-0.00338124064729,0.0155262546614,,0.00891120572756,-0.00997727453461,0.0354216444814,-0.999282980699
106240000000,,356,,106,240000000,"""map""",,,-0.00336228846572,-0.00341871846467,0.0153124127537,,0.00893942102585,-0.00996092489127,0.0354132572586,-0.999283107139
106272000000,,357,,106,272000000,"""map""",,,-0.0033325268887,-0.0033998854924,0.0150319132954,,0.00893994448641,-0.00996026840471,0.035346075182,-0.999285551657
106308000000,,358,,106,308000000,"""map""",,,-0.00326552242041,-0.00338676944375,0.0150074698031,,0.00899084228014,-0.010031290907,0.0353079322841,-0.999285678097
106340000000,,359,,106,340000000,"""map""",,,-0.00314677460119,-0.00341961043887,0.0150275239721,,0.00892579154176,-0.0100636159346,0.0352133969029,-0.999289344873
106372000000,,360,,106,372000000,"""map""",,,-0.00300896307454,-0.00345430523157,0.0149946017191,,0.00894705582044,-0.0101491162087,0.0351633264469,-0.999290019223
106408000000,,361,,106,408000000,"""map""",,,-0.00284313992597,-0.00350473821163,0.0151120303199,,0.0088916374891,-0.0101273676116,0.0350911710422,-0.999293222383
106440000000,,362,,106,440000000,"""map""",,,-0.0027915649116,-0.00366666982882,0.0156304463744,,0.00887449059531,-0.0101520798647,0.0350629326537,-0.999294149614
106472000000,,363,,106,472000000,"""map""",,,-0.00285811070353,-0.00388146867044,0.0163795799017,,0.00887150080325,-0.0101654390986,0.0349897657247,-0.999296594131
106508000000,,364,,106,508000000,"""map""",,,-0.00287364656106,-0.00412086863071,0.0171988755465,,0.00886279344544,-0.0101828734882,0.0349349748216,-0.999298448592
106540000000,,365,,106,540000000,"""map""",,,-0.00283407582901,-0.00429986370727,0.0177714023739,,0.00883746956914,-0.0101671226265,0.0349259132492,-0.999299165089
106572000000,,366,,106,572000000,"""map""",,,-0.00275653391145,-0.00446456577629,0.0181936845183,,0.00885841457722,-0.0101403626704,0.0349412547021,-0.999298659327
106608000000,,367,,106,608000000,"""map""",,,-0.00262135476805,-0.00464235525578,0.0188287943602,,0.00881419051469,-0.0100579354532,0.0349023953078,-0.999301272431
106640000000,,368,,106,640000000,"""map""",,,-0.00265015591867,-0.00467099668458,0.0191561691463,,0.00882130571767,-0.0100298469247,0.0348796360096,-0.999302283955
106672000000,,369,,106,672000000,"""map""",,,-0.00275341817178,-0.00466626277193,0.0196080487221,,0.00874581840708,-0.00998089566506,0.0348502596561,-0.999304433445
106708000000,,370,,106,708000000,"""map""",,,-0.00275532947853,-0.00464843399823,0.0199854969978,,0.00876835861575,-0.00997645357656,0.0347614983932,-0.999307383724
106740000000,,371,,106,740000000,"""map""",,,-0.00270436727442,-0.00463330699131,0.0203098934144,,0.00871098761762,-0.00993503236178,0.0347056538189,-0.999310291857
106772000000,,372,,106,772000000,"""map""",,,-0.00259467307478,-0.00464290520176,0.0206748042256,,0.00874064800951,-0.00993851783206,0.0347169070275,-0.99930957536
106808000000,,373,,106,808000000,"""map""",,,-0.00246209604666,-0.00468100002035,0.0210569966584,,0.00872098778061,-0.00987920803775,0.0346614417748,-0.999312272759
106840000000,,374,,106,840000000,"""map""",,,-0.00244185305201,-0.00468949694186,0.0213224999607,,0.00864685579578,-0.00990141247103,0.0346737065077,-0.999312230612
106872000000,,375,,106,872000000,"""map""",,,-0.00251780659892,-0.00467538833618,0.0215002037585,,0.00868495103152,-0.00992091222087,0.0346519165871,-0.999312441346
106908000000,,376,,106,908000000,"""map""",,,-0.00252297194675,-0.00470323208719,0.0216629877687,,0.00864818045806,-0.00982512173615,0.0346617789496,-0.99931345287
106940000000,,377,,106,940000000,"""map""",,,-0.00244492967613,-0.00474212644622,0.021759705618,,0.00866597136721,-0.00974260117021,0.0346511157969,-0.999314422248
106972000000,,378,,106,972000000,"""map""",,,-0.00227889139205,-0.00480831088498,0.0221317280084,,0.00864890938451,-0.00971672341682,0.0346191684858,-0.999315939534
107008000000,,379,,107,8000000,"""map""",,,-0.00209168693982,-0.00485634757206,0.0224561486393,,0.00863352385033,-0.00964305661136,0.034622160912,-0.999316656031
107040000000,,380,,107,40000000,"""map""",,,-0.00201360811479,-0.00471333088353,0.0226342976093,,0.00882519425835,-0.0096419386909,0.0345796768887,-0.999316487443
107072000000,,381,,107,72000000,"""map""",,,-0.00209403643385,-0.00439468212426,0.0230899862945,,0.00884826426608,-0.00963945873576,0.0345655155476,-0.999316824618
107108000000,,382,,107,108000000,"""map""",,,-0.00218210997991,-0.00417133327574,0.0234328210354,,0.00879855399273,-0.00965681208325,0.0345701517009,-0.999316908912
107140000000,,383,,107,140000000,"""map""",,,-0.00222841324285,-0.0039790389128,0.0238724332303,,0.008816743239,-0.0096169777961,0.0345227364964,-0.99931880552
107172000000,,384,,107,172000000,"""map""",,,-0.00222764327191,-0.00382110150531,0.0242585968226,,0.00880260494696,-0.00961157048714,0.0345068049876,-0.99931947987
107208000000,,385,,107,208000000,"""map""",,,-0.00220719678327,-0.00368263432756,0.024456821382,,0.00876265405627,-0.00961338769955,0.0345023374217,-0.999319985632
107240000000,,386,,107,240000000,"""map""",,,-0.00216363091022,-0.00355888041668,0.0247678793967,,0.00871736236962,-0.00957205970998,0.0344906627446,-0.99932120789
107272000000,,387,,107,272000000,"""map""",,,-0.00199979078025,-0.00340092438273,0.0251806862652,,0.00869654396672,-0.00958462391601,0.0344656275166,-0.999322135121
107308000000,,388,,107,308000000,"""map""",,,-0.00179992197081,-0.00327370851301,0.0254834201187,,0.00867787476499,-0.00961062930356,0.034435197492,-0.999323062352
107340000000,,389,,107,340000000,"""map""",,,-0.00178561487701,-0.00300719356164,0.0257698800415,,0.00866747622373,-0.00956674402103,0.0344224269969,-0.999324031729
107372000000,,390,,107,372000000,"""map""",,,-0.00193754676729,-0.00263826362789,0.0261672995985,,0.00875384129018,-0.00953521990702,0.0344384006525,-0.999322978058
107408000000,,391,,107,408000000,"""map""",,,-0.00206126924604,-0.00231742602773,0.0265230983496,,0.00874469225481,-0.00950083915041,0.0344797467109,-0.999322008681
107440000000,,392,,107,440000000,"""map""",,,-0.00216578319669,-0.00202745688148,0.0268147122115,,0.00879214730133,-0.00949185759114,0.0344650796076,-0.999322177268
107472000000,,393,,107,472000000,"""map""",,,-0.0022264465224,-0.00176141737029,0.0269917137921,,0.00876301477402,-0.00942595029215,0.0344066219287,-0.999325085401
107508000000,,394,,107,508000000,"""map""",,,-0.00222994550131,-0.00147037464194,0.0270008295774,,0.00878690207664,-0.00937985818581,0.0343994569645,-0.999325506869
107540000000,,395,,107,540000000,"""map""",,,-0.00264356797561,-0.00129185873084,0.0265101734549,,0.00882229327719,-0.00910677456473,0.0343885409307,-0.99932816212
107572000000,,396,,107,572000000,"""map""",,,-0.00337811326608,-0.00114128529094,0.0258309971541,,0.00886344629972,-0.00912638412686,0.0343549920393,-0.999328752176
107608000000,,397,,107,608000000,"""map""",,,-0.00404108688235,-0.00101790763438,0.0252316724509,,0.00887070784363,-0.00915106594285,0.0343020977444,-0.99933031161
107640000000,,398,,107,640000000,"""map""",,,-0.00461530825123,-0.000923431070987,0.0245727542788,,0.00888862352639,-0.00916057073631,0.0342989788776,-0.999330143022
107672000000,,399,,107,672000000,"""map""",,,-0.00511613208801,-0.00082956434926,0.0238795969635,,0.00889799440895,-0.00917863350087,0.0342984309686,-0.999329932288
107708000000,,400,,107,708000000,"""map""",,,-0.00566053437069,-0.000738312373869,0.0230621434748,,0.0089450379063,-0.00918997655959,0.0342085317407,-0.999332503246
107740000000,,401,,107,740000000,"""map""",,,-0.00604454427958,-0.000559774751309,0.0226239990443,,0.00898156015704,-0.00924742861014,0.0341550052431,-0.999333430477
107772000000,,402,,107,772000000,"""map""",,,-0.00639460794628,-0.000298765429761,0.0223976057023,,0.0089440603793,-0.00925096329634,0.0341584612847,-0.999333599064
107808000000,,403,,107,808000000,"""map""",,,-0.00671162782237,-3.19685204886e-05,0.0220746416599,,0.00894151243973,-0.00920188924902,0.0341498633276,-0.999334357707
107840000000,,404,,107,840000000,"""map""",,,-0.00700582563877,0.0002347624104,0.0216285567731,,0.00889845597662,-0.00921090291234,0.0341271883231,-0.999335453525
107872000000,,405,,107,872000000,"""map""",,,-0.00726490374655,0.000503391085658,0.0211412217468,,0.00885711812945,-0.00920612947305,0.0341084329755,-0.999336507196
107908000000,,406,,107,908000000,"""map""",,,-0.00753197353333,0.000860785425175,0.020626258105,,0.00886054964025,-0.00920497916043,0.0340957467741,-0.999336970812
107940000000,,407,,107,940000000,"""map""",,,-0.00784596800804,0.00111469428521,0.0202593449503,,0.00894012200532,-0.00915385591811,0.0340511132615,-0.99933819307
107972000000,,408,,107,972000000,"""map""",,,-0.00825155992061,0.00131364178378,0.0200423710048,,0.00888255008938,-0.00913348777444,0.0340664547144,-0.999338361658
108008000000,,409,,108,8000000,"""map""",,,-0.00860874447972,0.00151473900769,0.0196835547686,,0.0089143389177,-0.00915273087713,0.0340214418802,-0.999339457476
108040000000,,410,,108,40000000,"""map""",,,-0.00892481673509,0.00168746244162,0.0193851329386,,0.00884577774607,-0.0091826275836,0.0339543019505,-0.999342028434
108072000000,,411,,108,72000000,"""map""",,,-0.00918817520142,0.0018532408867,0.0189876668155,,0.00884677046076,-0.00917076625036,0.0339180978076,-0.99934341928
108108000000,,412,,108,108000000,"""map""",,,-0.00947939045727,0.00205052201636,0.0182736907154,,0.00883814489624,-0.00916075895657,0.0338681116453,-0.999345273741
108140000000,,413,,108,140000000,"""map""",,,-0.00965501181781,0.0021942073945,0.0174277238548,,0.00893940031257,-0.00923818115324,0.0338205700002,-0.999345273741
108172000000,,414,,108,172000000,"""map""",,,-0.00979986228049,0.00230280100368,0.0164393298328,,0.0089137204518,-0.00917833979002,0.0337656948034,-0.999347886846
108208000000,,415,,108,208000000,"""map""",,,-0.0099163968116,0.00243225251324,0.0151988305151,,0.0089453305676,-0.00921061771112,0.0337073635651,-0.999349319838
108240000000,,416,,108,240000000,"""map""",,,-0.00997223798186,0.00252961460501,0.0144150750712,,0.00898166232405,-0.00918228463626,0.0336426260058,-0.999351427181
108272000000,,417,,108,272000000,"""map""",,,-0.0100374314934,0.00267392676324,0.0133302453905,,0.00899358585888,-0.00918189353285,0.0336355031884,-0.999351553621
108308000000,,418,,108,308000000,"""map""",,,-0.0100691821426,0.00283496989869,0.0119550339878,,0.00899576742133,-0.00915225593278,0.0336121116874,-0.999352607293
108340000000,,419,,108,340000000,"""map""",,,-0.0102365799248,0.00292895780876,0.0109158949926,,0.00907214213093,-0.00917822167389,0.0335848848233,-0.999352607293
108372000000,,420,,108,372000000,"""map""",,,-0.0105427810922,0.00295315054245,0.00995263736695,,0.00910092510488,-0.00919587135612,0.0336070119188,-0.999351385034
108408000000,,421,,108,408000000,"""map""",,,-0.0108207855374,0.00299475784414,0.00901149213314,,0.0090963288012,-0.00910901558397,0.0335918390533,-0.999352733733
108440000000,,422,,108,440000000,"""map""",,,-0.0110695380718,0.00303807086311,0.00811812654138,,0.00909380486506,-0.00912507524393,0.0335475427155,-0.999354124579
108472000000,,423,,108,472000000,"""map""",,,-0.0112970685586,0.00311914761551,0.00723011791706,,0.00909898721933,-0.00912829196631,0.033504847958,-0.999355431131
108508000000,,424,,108,508000000,"""map""",,,-0.0114979716018,0.00324222282507,0.00611693412066,,0.00911107384104,-0.00909031137455,0.0334801499048,-0.99935652695
108540000000,,425,,108,540000000,"""map""",,,-0.0116062220186,0.0033863701392,0.00532993953675,,0.00909053804377,-0.0091113410802,0.033453091628,-0.99935745418
108572000000,,426,,108,572000000,"""map""",,,-0.011736003682,0.0035582894925,0.00459718611091,,0.00912357063436,-0.00907770394575,0.0334582335435,-0.999357285593
108608000000,,427,,108,608000000,"""map""",,,-0.0118292560801,0.00376090803184,0.00376440398395,,0.00904647375112,-0.00905062962454,0.033417477541,-0.999359603669
108640000000,,428,,108,640000000,"""map""",,,-0.0118753090501,0.00398390600458,0.00305983657017,,0.00925305662412,-0.00906926238783,0.0333480195347,-0.999359856551
108672000000,,429,,108,672000000,"""map""",,,-0.0118910912424,0.00422354927287,0.00241291336715,,0.00925423518727,-0.00913629586482,0.0333389158154,-0.999359519376
108708000000,,430,,108,708000000,"""map""",,,-0.011887377128,0.00455483142287,0.00170824420638,,0.00922255268816,-0.00916520984281,0.0333062520078,-0.999360657341
108740000000,,431,,108,740000000,"""map""",,,-0.0118447262794,0.00469319662079,0.00129656190984,,0.00924073759729,-0.00916138647231,0.0332232227162,-0.999363270445
108772000000,,432,,108,772000000,"""map""",,,-0.0117603028193,0.00471213785931,0.00103897927329,,0.00923667779902,-0.00911313676322,0.0332386063159,-0.999363228298
108808000000,,433,,108,808000000,"""map""",,,-0.011693013832,0.00473653385416,0.000792167382315,,0.00927497126695,-0.00916715279606,0.0332090192283,-0.999363396886
108840000000,,434,,108,840000000,"""map""",,,-0.0116254156455,0.00474146660417,0.000578277395107,,0.00926311577829,-0.00916286077339,0.0331817080704,-0.99936440841
108872000000,,435,,108,872000000,"""map""",,,-0.0115169864148,0.00474448967725,0.000367956294212,,0.00924329657263,-0.00919421636174,0.0331942678313,-0.999363902648
108908000000,,436,,108,908000000,"""map""",,,-0.0113495253026,0.00474250828847,2.63896217803e-05,,0.00918508777533,-0.00919001884728,0.0331415842707,-0.999366262872
108940000000,,437,,108,940000000,"""map""",,,-0.0111873215064,0.00467853713781,6.47969573038e-05,,0.00911389370868,-0.00918120502457,0.0330795019628,-0.999369002417
108972000000,,438,,108,972000000,"""map""",,,-0.0110185621306,0.00457685440779,0.000349682813976,,0.00911050223791,-0.00919590502163,0.0330615895522,-0.999369466032
109008000000,,439,,109,8000000,"""map""",,,-0.0108803035691,0.00451056612656,0.000402899750043,,0.00904679224212,-0.00918826698834,0.0329824799175,-0.999372795633
109040000000,,440,,109,40000000,"""map""",,,-0.0107351411134,0.0044351555407,0.000504746858496,,0.00898884554233,-0.00922975270961,0.0328770706494,-0.999376378115
109072000000,,441,,109,72000000,"""map""",,,-0.0105743389577,0.00439349329099,0.000698627671227,,0.00900560449166,-0.00920200265244,0.0328814117748,-0.999376335968
109108000000,,442,,109,108000000,"""map""",,,-0.0103754848242,0.00437043001875,0.00100682594348,,0.00894552731806,-0.00918143578268,0.0328575566585,-0.999377853255
109140000000,,443,,109,140000000,"""map""",,,-0.0101174078882,0.00436888169497,0.00131181953475,,0.0089468337366,-0.00915809709908,0.0328125438243,-0.999379539129
109172000000,,444,,109,172000000,"""map""",,,-0.00983185973018,0.00441036326811,0.001713175443,,0.00895382404249,-0.00918760069564,0.0327925662181,-0.999379876304
109208000000,,445,,109,208000000,"""map""",,,-0.00952622015029,0.00445163110271,0.00222420482896,,0.0089662529292,-0.00893870428118,0.0327729257867,-0.999382657996
109240000000,,446,,109,240000000,"""map""",,,-0.00924066547304,0.00451318500564,0.00277953105979,,0.00897139720622,-0.00894217508342,0.0328039880141,-0.999381520031
109272000000,,447,,109,272000000,"""map""",,,-0.00894613284618,0.00458880886436,0.003268240951,,0.00897855720309,-0.0089526601281,0.0327841789953,-0.999382025793
109308000000,,448,,109,308000000,"""map""",,,-0.00854936894029,0.00467565422878,0.00395488133654,,0.00892562277558,-0.00896293535947,0.0328390120452,-0.999380634947
109340000000,,449,,109,340000000,"""map""",,,-0.00825837347656,0.00479395268485,0.00469151465222,,0.00890960703102,-0.00897491422619,0.0328658595877,-0.999379749863
109372000000,,450,,109,372000000,"""map""",,,-0.00798355415463,0.00496328156441,0.00550438789651,,0.00893791829674,-0.00897366255431,0.0328515718061,-0.999380044891
109408000000,,451,,109,408000000,"""map""",,,-0.0077166208066,0.00515043130144,0.00618250574917,,0.0089475119548,-0.00894779757855,0.0328477785897,-0.999380297772
109440000000,,452,,109,440000000,"""map""",,,-0.00744597008452,0.005358051043,0.00669408496469,,0.00900254290703,-0.00900352459294,0.0328247242636,-0.999380087038
109472000000,,453,,109,472000000,"""map""",,,-0.00716609647498,0.00557560939342,0.00708458852023,,0.00899884257787,-0.00900300892015,0.0328326900179,-0.99937979201
109508000000,,454,,109,508000000,"""map""",,,-0.00679596187547,0.00587409129366,0.00748713407665,,0.00906593152855,-0.00906089196075,0.0328164213344,-0.999379201954
109540000000,,455,,109,540000000,"""map""",,,-0.00652203755453,0.00597716355696,0.00761324074119,,0.00899591068049,-0.00905250781679,0.0328200459634,-0.99937979201
109572000000,,456,,109,572000000,"""map""",,,-0.0062589966692,0.00597543967888,0.00780199049041,,0.0089840426023,-0.00907818820748,0.0327986353643,-0.999380382066
109608000000,,457,,109,608000000,"""map""",,,-0.00598658528179,0.00599900214002,0.00799750071019,,0.0089669131831,-0.00901607760022,0.032749492139,-0.999382742289
109640000000,,458,,109,640000000,"""map""",,,-0.00569210620597,0.00608255714178,0.00815445184708,,0.00905949317331,-0.00901604813807,0.0327447295451,-0.999382025793
109672000000,,459,,109,672000000,"""map""",,,-0.00529243936762,0.00625930307433,0.00830048136413,,0.00905720587202,-0.00902500649522,0.0327380281962,-0.999382236527
109708000000,,460,,109,708000000,"""map""",,,-0.00494107790291,0.00647675385699,0.00841561332345,,0.00898093269757,-0.00898561291229,0.0327438444613,-0.999383079464
109740000000,,461,,109,740000000,"""map""",,,-0.00466260034591,0.00665749190375,0.00872928742319,,0.00894330869319,-0.00894123232036,0.0326884213555,-0.999385650422
109772000000,,462,,109,772000000,"""map""",,,-0.0044224280864,0.00678302207962,0.00917007401586,,0.00891935946423,-0.00891342785353,0.0326519643315,-0.999387294149
109808000000,,463,,109,808000000,"""map""",,,-0.00416405452415,0.00692268041894,0.00949612166733,,0.00895077774519,-0.00895364867833,0.032597847778,-0.999388389967
109840000000,,464,,109,840000000,"""map""",,,-0.00390095240436,0.00706343492493,0.0096740545705,,0.00886878900443,-0.00897195484808,0.0325806940107,-0.999389527932
109872000000,,465,,109,872000000,"""map""",,,-0.0035893979948,0.00726930424571,0.00984294712543,,0.0089298188424,-0.00899360132181,0.0325720117599,-0.99938902217
109908000000,,466,,109,908000000,"""map""",,,-0.00333028752357,0.00747093046084,0.00995139684528,,0.00890124589014,-0.00896614530734,0.0325186959965,-0.999391255953
109944000000,,467,,109,940000000,"""map""",,,-0.0031861171592,0.00773213477805,0.0100059267133,,0.00897789309825,-0.00899247075267,0.0325454170985,-0.999389485785
109972000000,,468,,109,972000000,"""map""",,,-0.00312056625262,0.00805847905576,0.00996255688369,,0.0089741871982,-0.00896251185747,0.0325307078483,-0.999390286575
110008000000,,469,,110,8000000,"""map""",,,-0.00302020041272,0.00842500850558,0.00991433300078,,0.00902490403882,-0.00891186745675,0.032516883682,-0.999390792337
110040000000,,470,,110,40000000,"""map""",,,-0.00286777177826,0.00883775483817,0.00981795135885,,0.00904581011559,-0.00887678686798,0.0324690891558,-0.999392478211
110072000000,,471,,110,72000000,"""map""",,,-0.00267980317585,0.0092741549015,0.00966332573444,,0.00902798939701,-0.00887582721429,0.0324510503047,-0.999393152561
110108000000,,472,,110,108000000,"""map""",,,-0.00242950441316,0.00984738860279,0.00930237304419,,0.00907002618627,-0.00865689483347,0.0324320842228,-0.999395344197
110140000000,,473,,110,140000000,"""map""",,,-0.00246023316868,0.0101993577555,0.00921071507037,,0.00908771827259,-0.00864539569971,0.0324344865932,-0.999395217756
110172000000,,474,,110,172000000,"""map""",,,-0.00275527895428,0.0104907331988,0.00929106213152,,0.00909252914602,-0.00863734215312,0.0324404292988,-0.999395007022
110208000000,,475,,110,208000000,"""map""",,,-0.00300976168364,0.0108151081949,0.00940176658332,,0.00910865177672,-0.00867340917468,0.0323874085634,-0.999396271428
110240000000,,476,,110,240000000,"""map""",,,-0.00319435237907,0.0111612370238,0.00951373763382,,0.00911301506625,-0.0086775411093,0.0323931826817,-0.999396060693
110272000000,,477,,110,272000000,"""map""",,,-0.0033402137924,0.0116575378925,0.0096378037706,,0.00912050098863,-0.00872771339277,0.0323545340216,-0.99939677719
110308000000,,478,,110,308000000,"""map""",,,-0.00344203179702,0.0121121667325,0.00965341180563,,0.00910884013074,-0.00876582403228,0.0322785854006,-0.999398968826
110340000000,,479,,110,340000000,"""map""",,,-0.00356671726331,0.0125681720674,0.00976573675871,,0.00912649263236,-0.00875621104202,0.0322758880022,-0.999398968826
110372000000,,480,,110,372000000,"""map""",,,-0.00372308492661,0.0130496015772,0.00998707301915,,0.0091576379598,-0.00876720597764,0.0322291050004,-0.999400148938
110408000000,,481,,110,408000000,"""map""",,,-0.00387291028164,0.0135517502204,0.0101457489654,,0.00908907496689,-0.00874444465237,0.0321493210162,-0.999403562832
110440000000,,482,,110,440000000,"""map""",,,-0.00403657462448,0.0140585359186,0.0102584166452,,0.00906826293335,-0.00875006011283,0.0321395008005,-0.999404026448
110476000000,,483,,110,476000000,"""map""",,,-0.00421132007614,0.0147320674732,0.0103975553066,,0.00904466718073,-0.00877068978099,0.0321495317504,-0.999403689273
110508000000,,484,,110,508000000,"""map""",,,-0.0043067666702,0.0152913993225,0.0104982051998,,0.00912010627352,-0.00876716769975,0.0321141283977,-0.999404195035
110540000000,,485,,110,540000000,"""map""",,,-0.0044412733987,0.0156093612313,0.0107167512178,,0.00907010988316,-0.00878094019089,0.032116825796,-0.999404447916
110572000000,,486,,110,572000000,"""map""",,,-0.00459770904854,0.0157444048673,0.0110149942338,,0.00907465075334,-0.00874039537537,0.0321380678076,-0.999404026448
110608000000,,487,,110,608000000,"""map""",,,-0.00472443178296,0.0159370265901,0.011365477927,,0.00910662743148,-0.00870554217482,0.0320804530657,-0.999405923056
110640000000,,488,,110,640000000,"""map""",,,-0.0048153870739,0.0161862242967,0.0116361891851,,0.00916765705594,-0.00865394554189,0.0320006269346,-0.999408367573
110672000000,,489,,110,672000000,"""map""",,,-0.00493100145832,0.0165155511349,0.0119400834665,,0.00913500812733,-0.00862806435172,0.0320031135987,-0.999408831189
110708000000,,490,,110,708000000,"""map""",,,-0.00502150366083,0.0168157108128,0.0122357225046,,0.00915594955458,-0.00859113741509,0.0319059651129,-0.999412076496
110740000000,,491,,110,740000000,"""map""",,,-0.00504253990948,0.0169539060444,0.0124742453918,,0.0091698259517,-0.00858757382496,0.0318615001877,-0.999413383048
110772000000,,492,,110,772000000,"""map""",,,-0.00496626319364,0.016987061128,0.0125911505893,,0.00918486492683,-0.00855492010133,0.0318088166271,-0.999415153216
110808000000,,493,,110,808000000,"""map""",,,-0.00488526094705,0.0171022489667,0.0125388493761,,0.00915004179295,-0.00849943175847,0.0317503589482,-0.999417808467
110840000000,,494,,110,840000000,"""map""",,,-0.00474213343114,0.0173100791872,0.0126343201846,,0.00912472775366,-0.0084266318857,0.0317031544778,-0.999420168691
110872000000,,495,,110,872000000,"""map""",,,-0.00458549102768,0.0175954643637,0.0126512469724,,0.00914007128505,-0.00846007464856,0.0317098136799,-0.999419494341
110908000000,,496,,110,908000000,"""map""",,,-0.00438143732026,0.0179791357368,0.012573893182,,0.00914377351937,-0.00850795883972,0.0317077063375,-0.999419157166
110940000000,,497,,110,940000000,"""map""",,,-0.0042330827564,0.0181654244661,0.0125361634418,,0.00911903531551,-0.00851949190911,0.0317077906312,-0.999419325754
110972000000,,498,,110,972000000,"""map""",,,-0.0041138259694,0.0182837676257,0.0125243328512,,0.00908956166215,-0.00854427804266,0.0316533369029,-0.999421095921
111008000000,,499,,111,8000000,"""map""",,,-0.00397682609037,0.0184885561466,0.0124466279522,,0.00914154321434,-0.00854196786853,0.0316364781635,-0.999421180215
111040000000,,500,,111,40000000,"""map""",,,-0.00379841611721,0.01873883605,0.0124527262524,,0.00914758803554,-0.00856873173472,0.0315649971084,-0.99942311897
111072000000,,501,,111,72000000,"""map""",,,-0.00362538220361,0.0190249569714,0.0124570736662,,0.00916852534687,-0.0085811747274,0.031583204547,-0.999422276033
111108000000,,502,,111,108000000,"""map""",,,-0.00345191825181,0.0194252189249,0.012413341552,,0.00919433983884,-0.008568374392,0.0315763346107,-0.99942231818
111140000000,,503,,111,140000000,"""map""",,,-0.00339228403755,0.0196195393801,0.0124004753307,,0.0091969719795,-0.00861677945071,0.0315057807863,-0.999424088348
111172000000,,504,,111,172000000,"""map""",,,-0.00338057731278,0.0197053812444,0.0124481599778,,0.00915798635042,-0.00860249936581,0.0314947804588,-0.999424973431
111208000000,,505,,111,208000000,"""map""",,,-0.00336218671873,0.0198660120368,0.0125205572695,,0.00921322302638,-0.00861188566242,0.0314816727889,-0.999424762697
111240000000,,506,,111,240000000,"""map""",,,-0.00331949745305,0.0200697742403,0.0125999236479,,0.00918109329838,-0.00857305063424,0.0314746342652,-0.999425647781
111272000000,,507,,111,272000000,"""map""",,,-0.00320226838812,0.0204219296575,0.0127410488203,,0.00923105202822,-0.00857773792767,0.0314632546161,-0.999425479194
111308000000,,508,,111,308000000,"""map""",,,-0.00310569931753,0.0207490604371,0.012730371207,,0.00915567529137,-0.00854158620083,0.0314361120457,-0.999427333655
111340000000,,509,,111,340000000,"""map""",,,-0.00308852572925,0.0207985527813,0.0128298122436,,0.00920596796501,-0.00859335080376,0.0314385565629,-0.999426406424
111372000000,,510,,111,372000000,"""map""",,,-0.0031351656653,0.02060707286,0.0130232283846,,0.00920517314295,-0.00858828326262,0.0314239737533,-0.999426912187
111408000000,,511,,111,408000000,"""map""",,,-0.00312370341271,0.0205236021429,0.0133156357333,,0.00915899913013,-0.00853946486433,0.0314527600508,-0.999426785746
111440000000,,512,,111,440000000,"""map""",,,-0.0030638189055,0.0205234885216,0.013593939133,,0.00919464894317,-0.00850996453991,0.0314283991724,-0.999427460096
111472000000,,513,,111,472000000,"""map""",,,-0.00297036627308,0.0205921828747,0.0137752825394,,0.00919801015433,-0.00852044988557,0.0314074521887,-0.999428008005
111508000000,,514,,111,508000000,"""map""",,,-0.00285500893369,0.0207876581699,0.0140125751495,,0.00918110192119,-0.00849034989464,0.0313894554844,-0.999429061676
111540000000,,515,,111,540000000,"""map""",,,-0.00280275871046,0.0207750760019,0.0142648015171,,0.00906149719113,-0.00844056644054,0.031375926346,-0.999430958284
111572000000,,516,,111,572000000,"""map""",,,-0.00279257120565,0.0206194669008,0.0145419985056,,0.00909759467037,-0.00842622595475,0.0313749569685,-0.999430831843
111608000000,,517,,111,608000000,"""map""",,,-0.00276274373755,0.0205382071435,0.0148053998128,,0.00903176528542,-0.00835193945892,0.0313916049736,-0.99943154834
111640000000,,518,,111,640000000,"""map""",,,-0.00270704901777,0.0205132868141,0.0149624710903,,0.00901107970273,-0.00842655720264,0.0313593204877,-0.999432054102
111672000000,,519,,111,672000000,"""map""",,,-0.00264135189354,0.0205569937825,0.0151165295392,,0.0090355435199,-0.00836255173903,0.0313385420914,-0.99943302348
111712000000,,520,,111,712000000,"""map""",,,-0.00257620145567,0.0206865761429,0.0152956908569,,0.00895070714105,-0.00835291068859,0.0313164571427,-0.999434540766
111740000000,,521,,111,740000000,"""map""",,,-0.00254592462443,0.0206549800932,0.0153017984703,,0.00891122212944,-0.00827257352697,0.031331419274,-0.999435088675
111772000000,,522,,111,772000000,"""map""",,,-0.00248955981806,0.0204770043492,0.0152092520148,,0.00912879722944,-0.00829979127438,0.0312977860889,-0.999433992857
111808000000,,523,,111,808000000,"""map""",,,-0.0024209744297,0.0203874763101,0.0152436615899,,0.00915953862214,-0.00829673640989,0.0312854370622,-0.999434119298
111840000000,,524,,111,840000000,"""map""",,,-0.00238355994225,0.0203480683267,0.0153953516856,,0.00903150900871,-0.0082811282465,0.0312557656809,-0.999436310934
111872000000,,525,,111,872000000,"""map""",,,-0.00232004723512,0.0203682687134,0.01553162653,,0.00906181403336,-0.00832172739194,0.0312481792482,-0.999435973759
111908000000,,526,,111,908000000,"""map""",,,-0.00225097127259,0.0204717088491,0.0156112704426,,0.00908397599053,-0.00836950154444,0.0312134080981,-0.999436437374
111940000000,,527,,111,940000000,"""map""",,,-0.00232422631234,0.0203357171267,0.0157384257764,,0.00907412640785,-0.00840136231874,0.0312119751053,-0.999436268787
111972000000,,528,,111,972000000,"""map""",,,-0.00255170906894,0.0199886709452,0.0158499740064,,0.00901722618673,-0.00840578839638,0.0312275694392,-0.999436353081
112012000000,,529,,112,8000000,"""map""",,,-0.00275645195507,0.0197286400944,0.015958160162,,0.00894496998361,-0.00840468932676,0.0312316155367,-0.999436858843
112040000000,,530,,112,40000000,"""map""",,,-0.00294843944721,0.0195585321635,0.0160253364593,,0.00895835852273,-0.00841297743866,0.0312106264061,-0.999437280311
112072000000,,531,,112,72000000,"""map""",,,-0.00315275974572,0.0194734428078,0.0159361325204,,0.00899492751984,-0.00842047297167,0.0312289602852,-0.999436310934
112108000000,,532,,112,108000000,"""map""",,,-0.00342564750463,0.0194971766323,0.0157347675413,,0.00902187972976,-0.0084525698136,0.0311755180813,-0.999437491046
112140000000,,533,,112,140000000,"""map""",,,-0.00366268353537,0.0193816795945,0.0155690433457,,0.00893211797305,-0.00850518175753,0.0311554561814,-0.99943850257
112172000000,,534,,112,172000000,"""map""",,,-0.00392664968967,0.0191113557667,0.0153503324836,,0.0089780422946,-0.00851281159246,0.0311407047845,-0.999438418276
112208000000,,535,,112,208000000,"""map""",,,-0.00419117417186,0.0189309697598,0.0152445854619,,0.00892240658183,-0.0084901503145,0.0310874311679,-0.9994407785
112240000000,,536,,112,240000000,"""map""",,,-0.00442966027185,0.0188246443868,0.0151771930978,,0.00894882909559,-0.00850148874282,0.0310607522128,-0.999441326409
112272000000,,537,,112,272000000,"""map""",,,-0.00467797601596,0.0187755022198,0.0151929492131,,0.00890299750534,-0.00845590381865,0.0310609208002,-0.999442085052
112308000000,,538,,112,308000000,"""map""",,,-0.00494866631925,0.0187725480646,0.0152443191037,,0.00893420706145,-0.00840461919177,0.0310258124754,-0.999443391604
112340000000,,539,,112,340000000,"""map""",,,-0.00513152265921,0.0186807587743,0.0151697685942,,0.00899662751133,-0.00818402688778,0.0309412658973,-0.999447269114
112372000000,,540,,112,372000000,"""map""",,,-0.00525839580223,0.0185190420598,0.0153015283868,,0.00900814553709,-0.00817819210112,0.03095192905,-0.999446805499
112408000000,,541,,112,408000000,"""map""",,,-0.00540540507063,0.0184179656208,0.0153717109933,,0.00906265491238,-0.00820511043716,0.0310001871915,-0.99944465601
112440000000,,542,,112,440000000,"""map""",,,-0.00554035184905,0.0183840356767,0.0154247637838,,0.00911537230574,-0.00819530907229,0.0309647838388,-0.999445330359
112472000000,,543,,112,472000000,"""map""",,,-0.0056822556071,0.0184112861753,0.0155524685979,,0.00909765535936,-0.00816286863476,0.0310360963065,-0.999443560192
112508000000,,544,,112,508000000,"""map""",,,-0.00591138284653,0.0185220725834,0.0157573446631,,0.00907335868901,-0.00821585940641,0.0310156129381,-0.99944398166
112540000000,,545,,112,540000000,"""map""",,,-0.00613154377788,0.0186924617738,0.015939347446,,0.00904250851299,-0.0083215241898,0.0310662313031,-0.999441832171
112572000000,,546,,112,572000000,"""map""",,,-0.00635556783527,0.0189224220812,0.0160829015076,,0.00903187849334,-0.00834937909961,0.0310580969614,-0.999441874318
112608000000,,547,,112,608000000,"""map""",,,-0.00656838249415,0.019198153168,0.0160968117416,,0.00901132083291,-0.00836180768663,0.031018984686,-0.999443223017
112640000000,,548,,112,640000000,"""map""",,,-0.00682658096775,0.0193368587643,0.0162197742611,,0.0090326572428,-0.00844637708743,0.0310006508069,-0.999442843695
112672000000,,549,,112,672000000,"""map""",,,-0.00711959274486,0.0193470008671,0.0164160691202,,0.00903131963601,-0.00843346774233,0.0309934436958,-0.999443223017
112708000000,,550,,112,708000000,"""map""",,,-0.00749003235251,0.0194229539484,0.0166172292084,,0.00898623528798,-0.00837291760001,0.0309795773826,-0.999444613863
112740000000,,551,,112,740000000,"""map""",,,-0.00780423684046,0.0195361915976,0.0167881064117,,0.00906594812883,-0.00835792387924,0.0310020416529,-0.999443307311
112772000000,,552,,112,772000000,"""map""",,,-0.00814236328006,0.0196935273707,0.0168210994452,,0.00902944333981,-0.00837019686454,0.0309590518674,-0.999444824597
112808000000,,553,,112,808000000,"""map""",,,-0.00848366320133,0.0198791678995,0.0168784428388,,0.00911369301724,-0.00842972852662,0.0309281160806,-0.999444571716
112840000000,,554,,112,840000000,"""map""",,,-0.00865473970771,0.0196889173239,0.0172232147306,,0.00909409814889,-0.00837226446792,0.0309135754178,-0.999445625387
112872000000,,555,,112,872000000,"""map""",,,-0.00865241326392,0.0191970579326,0.017697121948,,0.00907255151924,-0.00841560233533,0.030921330438,-0.999445288212
112908000000,,556,,112,908000000,"""map""",,,-0.00870446488261,0.0187317300588,0.0182426851243,,0.00907144963022,-0.00844663770642,0.0308525467812,-0.999447142674
112940000000,,557,,112,940000000,"""map""",,,-0.00876006577164,0.0184715520591,0.018644740805,,0.0090687775653,-0.00850150205777,0.0308024341783,-0.999448280639
112972000000,,558,,112,972000000,"""map""",,,-0.008863132447,0.0182830598205,0.0190269313753,,0.00908579338815,-0.00848053628496,0.0308215267007,-0.999447648436
113008000000,,559,,113,8000000,"""map""",,,-0.00898577552289,0.0181916300207,0.0193913970143,,0.0091261714067,-0.00856013190489,0.0308106949606,-0.99944693194
113040000000,,560,,113,40000000,"""map""",,,-0.00895085558295,0.018068458885,0.0197836179286,,0.0090774400186,-0.00854625283243,0.0307916445851,-0.999448112051
113072000000,,561,,113,72000000,"""map""",,,-0.00877236016095,0.0179230161011,0.0203953608871,,0.00908166596045,-0.00854781022845,0.0307322596755,-0.999449840072
113108000000,,562,,113,108000000,"""map""",,,-0.00864037126303,0.0178582593799,0.0212646890432,,0.00912948151893,-0.00861340788805,0.0306901971207,-0.999450177247
113140000000,,563,,113,140000000,"""map""",,,-0.00855893082917,0.0178728532046,0.0219000987709,,0.00911214866863,-0.0086237430444,0.030699848749,-0.999449966513
113172000000,,564,,113,172000000,"""map""",,,-0.00850719865412,0.017921667546,0.0224885158241,,0.00910783112736,-0.00862999275526,0.0306869518134,-0.999450303687
113208000000,,565,,113,208000000,"""map""",,,-0.00848886370659,0.0180000066757,0.0229891259223,,0.00907230065494,-0.00858015215184,0.030623057191,-0.999453001086
113244000000,,566,,113,244000000,"""map""",,,-0.00843993201852,0.0179157983512,0.0233879555017,,0.00924661621318,-0.00858614607989,0.0305935122502,-0.999452284589
113272000000,,567,,113,272000000,"""map""",,,-0.00837468355894,0.0176767855883,0.0239007305354,,0.00928527127349,-0.00861635765296,0.0305595418903,-0.999452706058
113308000000,,568,,113,308000000,"""map""",,,-0.00839916802943,0.0174910835922,0.0246060341597,,0.00923402356625,-0.00864354741223,0.0305630400788,-0.999452832498
113340000000,,569,,113,340000000,"""map""",,,-0.00846822559834,0.0174090862274,0.0250778477639,,0.0091839550447,-0.00867594718463,0.0305780865037,-0.99945253747
113372000000,,570,,113,372000000,"""map""",,,-0.00856861937791,0.0173796061426,0.0254584290087,,0.00917374445616,-0.0086641874113,0.0306067042138,-0.999451905268
113408000000,,571,,113,408000000,"""map""",,,-0.00871230009943,0.0173846501857,0.0257881525904,,0.00914079636313,-0.00865912431533,0.0305918263763,-0.999452706058
113440000000,,572,,113,440000000,"""map""",,,-0.00882453471422,0.0171663463116,0.0264969263226,,0.00919612397997,-0.0086974443617,0.0305101879307,-0.999454349785
113472000000,,573,,113,472000000,"""map""",,,-0.00887398887426,0.0169758945704,0.02693522349,,0.00918821765924,-0.00871698584679,0.0304931184571,-0.9994548134
113508000000,,574,,113,508000000,"""map""",,,-0.00903133861721,0.0167918987572,0.0276769828051,,0.00912287621461,-0.00869908199726,0.0304749953122,-0.999456077806
113540000000,,575,,113,540000000,"""map""",,,-0.00921743735671,0.0167171694338,0.0281527172774,,0.00910294398625,-0.00869076661749,0.0304178863325,-0.999458058708
113572000000,,576,,113,572000000,"""map""",,,-0.00941302254796,0.0167376622558,0.0285498257726,,0.00909777616112,-0.00872089196238,0.0304033035229,-0.999458311589
113608000000,,577,,113,608000000,"""map""",,,-0.00961963273585,0.0168042071164,0.0289434697479,,0.00910580169898,-0.00871615914706,0.0304038514319,-0.999458269442
113640000000,,578,,113,640000000,"""map""",,,-0.00971959065646,0.0167255494744,0.0294834356755,,0.00906995028902,-0.00871449064223,0.0303332554607,-0.999460671812
113672000000,,579,,113,672000000,"""map""",,,-0.00975248962641,0.016541255638,0.0300448909402,,0.00906594147135,-0.00873161371523,0.0303160595465,-0.999461093281
113708000000,,580,,113,708000000,"""map""",,,-0.00989088974893,0.0164017435163,0.0307340100408,,0.00900186800273,-0.00868999869286,0.0302180681237,-0.999465012938
113740000000,,581,,113,740000000,"""map""",,,-0.0100984061137,0.0163708273321,0.031256493181,,0.00900928683588,-0.00871184294346,0.0302354747721,-0.999464296441
113772000000,,582,,113,772000000,"""map""",,,-0.0103428764269,0.0163862258196,0.0317089706659,,0.00895503365499,-0.00868073163396,0.0302001557131,-0.999466066609
113808000000,,583,,113,808000000,"""map""",,,-0.0106390779838,0.0164640489966,0.0321069136262,,0.00895641440674,-0.0086901799881,0.0302001978599,-0.999466024462
113840000000,,584,,113,840000000,"""map""",,,-0.010866034776,0.0162917990237,0.0325241200626,,0.00893667804392,-0.00869153242244,0.0301752047788,-0.999466909546
113872000000,,585,,113,872000000,"""map""",,,-0.0110717294738,0.0158357284963,0.0330547094345,,0.00896120350703,-0.0086709424213,0.0301970368463,-0.999466235196
113908000000,,586,,113,908000000,"""map""",,,-0.0112925088033,0.0155885657296,0.0334527119994,,0.00893068221226,-0.00865373636141,0.0301603269412,-0.999467710336
113940000000,,587,,113,940000000,"""map""",,,-0.0115274786949,0.0154010225087,0.0338207408786,,0.00894574785844,-0.00863643824934,0.0300714392377,-0.999470449881
113972000000,,588,,113,972000000,"""map""",,,-0.0118028577417,0.0152848511934,0.0340431444347,,0.00912406610164,-0.00858424840157,0.0300620404905,-0.999469564797
114008000000,,589,,114,8000000,"""map""",,,-0.0120773985982,0.0152288572863,0.03437596187,,0.00910959154031,-0.00858668740348,0.0300765390064,-0.999469227622
114040000000,,590,,114,40000000,"""map""",,,-0.0122672589496,0.0150632467121,0.0346340760589,,0.00904956514667,-0.00855715174403,0.0300493542891,-0.99947087135
114076000000,,591,,114,72000000,"""map""",,,-0.0123915858567,0.0147827733308,0.0348425358534,,0.00906885152808,-0.00859844092064,0.0300691633079,-0.999469691238
114108000000,,592,,114,108000000,"""map""",,,-0.0125501509756,0.014651697129,0.0348456762731,,0.00913027304827,-0.00868091137545,0.0300668030844,-0.999468511126
114140000000,,593,,114,140000000,"""map""",,,-0.0127303199843,0.0146278450266,0.0347556322813,,0.00908332061526,-0.00868222403987,0.0300961794378,-0.999468047511
114172000000,,594,,114,172000000,"""map""",,,-0.0129398554564,0.0146448230371,0.0345877334476,,0.00909205719598,-0.00870291254486,0.0300557606101,-0.999469016888
114208000000,,595,,114,208000000,"""map""",,,-0.0131630115211,0.0147138480097,0.034380428493,,0.00907826513371,-0.0086398458776,0.0300268900189,-0.999470576322
114240000000,,596,,114,240000000,"""map""",,,-0.0132399015129,0.0145200928673,0.0344178490341,,0.00905382418038,-0.00867636058595,0.0300177441527,-0.999470787056
114272000000,,597,,114,272000000,"""map""",,,-0.0132228313014,0.0140788154677,0.034760415554,,0.00903322894175,-0.00861544381955,0.0299889578552,-0.999472262196
114308000000,,598,,114,308000000,"""map""",,,-0.0132437208667,0.0136755108833,0.0351165346801,,0.00903716113159,-0.0086289485712,0.0299392667208,-0.999473653042
114340000000,,599,,114,340000000,"""map""",,,-0.0133181912825,0.0134546188638,0.0352015718818,,0.00903876668368,-0.00857946815047,0.0298904606702,-0.999475507503
114372000000,,600,,114,372000000,"""map""",,,-0.0134559106082,0.0133168529719,0.0350377485156,,0.0090706981692,-0.00858259889164,0.029890249936,-0.999475212475
114408000000,,601,,114,408000000,"""map""",,,-0.0136487856507,0.013232733123,0.0347204580903,,0.00906561587254,-0.0085805465171,0.0298906714045,-0.999475212475
114440000000,,602,,114,440000000,"""map""",,,-0.0137028088793,0.0131339384243,0.0342349261045,,0.00909521594587,-0.00868720588792,0.0299184883245,-0.99947327372
114476000000,,603,,114,472000000,"""map""",,,-0.0135940853506,0.0130091821775,0.0336409136653,,0.00907992802033,-0.0086711444607,0.0299080359061,-0.999473863776
114508000000,,604,,114,508000000,"""map""",,,-0.0135278971866,0.0129776904359,0.0332528874278,,0.00909026799229,-0.00860433824845,0.0298737283714,-0.999475381062
114540000000,,605,,114,540000000,"""map""",,,-0.0134965917096,0.0129955038428,0.0329746901989,,0.00900761915423,-0.00859655048631,0.0298693029523,-0.999476266146
114572000000,,606,,114,572000000,"""map""",,,-0.0134886130691,0.0130928233266,0.0325780138373,,0.0090377992818,-0.00861518958021,0.0298677435189,-0.999475886824
114608000000,,607,,114,608000000,"""map""",,,-0.0135252391919,0.0132425650954,0.0320505090058,,0.009249605038,-0.00853547073015,0.0298257231109,-0.999475844678
114640000000,,608,,114,640000000,"""map""",,,-0.0135009465739,0.0132135571912,0.0317496545613,,0.00924887312752,-0.00862051345981,0.0298190639089,-0.999475338915
114672000000,,609,,114,672000000,"""map""",,,-0.0134015185758,0.0130294263363,0.0313953869045,,0.00924868910549,-0.00868978670326,0.0298547622895,-0.999473695188
114708000000,,610,,114,708000000,"""map""",,,-0.0133884493262,0.0129403350875,0.031023517251,,0.00921116291394,-0.00867117197551,0.029799002009,-0.999475928971
114740000000,,611,,114,740000000,"""map""",,,-0.0134197548032,0.0129232537001,0.0307224672288,,0.00920224739434,-0.00871219812532,0.0298155657204,-0.999475128181
114772000000,,612,,114,772000000,"""map""",,,-0.0135040758178,0.0129416985437,0.0304270107299,,0.00916691481454,-0.00873048889034,0.0298202440206,-0.999475170328
114808000000,,613,,114,808000000,"""map""",,,-0.013616531156,0.0129998940974,0.0300987102091,,0.00917428199311,-0.00871392447917,0.0298134162312,-0.999475423209
114840000000,,614,,114,840000000,"""map""",,,-0.0136554632336,0.0129952514544,0.0298141352832,,0.00913757396079,-0.00865301382489,0.0297922163664,-0.999476898349
114872000000,,615,,114,872000000,"""map""",,,-0.0136217502877,0.0129535133019,0.029684599489,,0.00910197450584,-0.00866926392512,0.0297783922,-0.999477488405
114908000000,,616,,114,908000000,"""map""",,,-0.0136094903573,0.0129788955674,0.0295763593167,,0.00910941087274,-0.00867691876416,0.0297488894061,-0.999478247048
114940000000,,617,,114,940000000,"""map""",,,-0.0136420279741,0.0130481999367,0.029468504712,,0.00913269336397,-0.00865662211373,0.0296734465472,-0.999480522978
114972000000,,618,,114,972000000,"""map""",,,-0.0137371774763,0.0131657114252,0.0295194443315,,0.00916057836102,-0.00862601864494,0.0296517409203,-0.999481070887
115012000000,,619,,115,12000000,"""map""",,,-0.0138563187793,0.0133517030627,0.0295766368508,,0.00910751486136,-0.00862014636241,0.0296603388774,-0.999481408062
115040000000,,620,,115,40000000,"""map""",,,-0.0138986026868,0.0133980875835,0.030412228778,,0.00911389335883,-0.00863897694871,0.0296600438494,-0.999481197327
115072000000,,621,,115,72000000,"""map""",,,-0.0138607714325,0.0133340638131,0.0311574600637,,0.00907418876379,-0.00864210993304,0.0296282229788,-0.99948250388
115108000000,,622,,115,108000000,"""map""",,,-0.0138404089957,0.0132814329118,0.0324406176805,,0.00911868715126,-0.00865729411724,0.0296147781341,-0.999482293145
115140000000,,623,,115,140000000,"""map""",,,-0.0138724120334,0.0132866054773,0.0334123745561,,0.00909059098779,-0.00867957401561,0.029628728741,-0.999481998118
115172000000,,624,,115,172000000,"""map""",,,-0.0139240119606,0.0133172674105,0.0343016050756,,0.00910456960337,-0.0086703961895,0.0295981722758,-0.999482798908
115208000000,,625,,115,208000000,"""map""",,,-0.0139666944742,0.0134104769677,0.0350507944822,,0.00910777788816,-0.00859435024795,0.0295137521382,-0.999485959921
115240000000,,626,,115,240000000,"""map""",,,-0.0139309279621,0.0133602898568,0.0355129875243,,0.00904510517457,-0.00862569336512,0.0294575703892,-0.999487940823
115272000000,,627,,115,272000000,"""map""",,,-0.0138159198686,0.0132150258869,0.035622484982,,0.00904518329441,-0.00859358100623,0.0294582868856,-0.999488151557
115308000000,,628,,115,308000000,"""map""",,,-0.013718415983,0.0131118930876,0.0356948934495,,0.00904844064076,-0.00862972437779,0.0294227149455,-0.999488910201
115340000000,,629,,115,340000000,"""map""",,,-0.0136896343902,0.0130676701665,0.0357579439878,,0.00907836134295,-0.00859336837867,0.0293922849208,-0.999489837431
115372000000,,630,,115,372000000,"""map""",,,-0.0137047767639,0.0130804562941,0.0358302071691,,0.00906906246812,-0.00858221681235,0.0293704950002,-0.999490638221
115408000000,,631,,115,408000000,"""map""",,,-0.0137558560818,0.013170612976,0.0356854498386,,0.00924367089344,-0.00854666137698,0.029355237841,-0.999489795285
115440000000,,632,,115,440000000,"""map""",,,-0.0137679213658,0.0132280318066,0.035604622215,,0.00924048312643,-0.00851743426621,0.0293096349509,-0.999491396865
115472000000,,633,,115,472000000,"""map""",,,-0.0137606887147,0.0132524156943,0.0354634225368,,0.00924726691689,-0.00848410718082,0.0292974545117,-0.999492029067
115508000000,,634,,115,508000000,"""map""",,,-0.0138026811182,0.0133790904656,0.0351731553674,,0.00919313122445,-0.00844415398522,0.029314903307,-0.999492281949
115540000000,,635,,115,540000000,"""map""",,,-0.0138768702745,0.0135626923293,0.0348960906267,,0.00911752870973,-0.00845213056442,0.0292725457242,-0.999494178557
115572000000,,636,,115,572000000,"""map""",,,-0.0139835383743,0.0137977525592,0.0345748849213,,0.00914502718232,-0.00850314113389,0.02926538076,-0.999493672795
115608000000,,637,,115,608000000,"""map""",,,-0.0141308475286,0.0140863517299,0.0341921299696,,0.00911606464181,-0.00853893146386,0.0292476790836,-0.999494178557
115640000000,,638,,115,640000000,"""map""",,,-0.0142237897962,0.0141017893329,0.0334760732949,,0.0091041721306,-0.00852687007714,0.0292617139841,-0.999493967823
115676000000,,639,,115,672000000,"""map""",,,-0.0142787434161,0.0138651942834,0.0324775390327,,0.00915309054533,-0.00858892563162,0.0293003204974,-0.99949186048
115708000000,,640,,115,708000000,"""map""",,,-0.0144167719409,0.0136542329565,0.0312976278365,,0.00911418050482,-0.00850626572179,0.0293256086065,-0.999492197655
115740000000,,641,,115,740000000,"""map""",,,-0.0145622715354,0.0136063247919,0.0303525608033,,0.00915438900989,-0.0085089271471,0.0293036079516,-0.999492450536
115772000000,,642,,115,772000000,"""map""",,,-0.0147454645485,0.0136448843405,0.0294494517148,,0.00909072506334,-0.00849308238102,0.0292997725883,-0.999493251326
115808000000,,643,,115,808000000,"""map""",,,-0.0149528831244,0.0137469181791,0.0286135990173,,0.00905333685744,-0.00852381138485,0.0292688789484,-0.999494304997
115840000000,,644,,115,840000000,"""map""",,,-0.0150850396603,0.013649366796,0.0280133970082,,0.00901601903349,-0.00850755002764,0.0292276171837,-0.999495948724
115872000000,,645,,115,872000000,"""map""",,,-0.0151583189145,0.0134238637984,0.0275413524359,,0.00904598322019,-0.00848445314306,0.0292644113824,-0.999494810759
115908000000,,646,,115,908000000,"""map""",,,-0.0153473792598,0.0132973296568,0.0268358923495,,0.0089919067556,-0.00854306434513,0.0292488591953,-0.999495274375
115944000000,,647,,115,940000000,"""map""",,,-0.0155015103519,0.0132805109024,0.0264620520175,,0.00898096261022,-0.00834077177883,0.0292565720686,-0.999496833808
115972000000,,648,,115,972000000,"""map""",,,-0.0156884677708,0.0133455013856,0.0261910427362,,0.00900498135421,-0.0084034043212,0.0292810593876,-0.999495358669
116008000000,,649,,116,8000000,"""map""",,,-0.015928434208,0.0134902251884,0.0259247031063,,0.00901165146341,-0.00839774573636,0.0292985503297,-0.999494810759
116040000000,,650,,116,40000000,"""map""",,,-0.0160632859915,0.013542259112,0.0260195024312,,0.00900950952682,-0.00841028477364,0.0292862013031,-0.999495105787
116072000000,,651,,116,72000000,"""map""",,,-0.0160984620452,0.0134902866557,0.0262786559761,,0.00901584227603,-0.00840902676842,0.0292843046949,-0.999495147934
116108000000,,652,,116,108000000,"""map""",,,-0.0161906536669,0.0135092996061,0.0265667233616,,0.00896616219283,-0.00845077139029,0.0292917225403,-0.999494979347
116144000000,,653,,116,136000000,"""map""",,,-0.0163121521473,0.0135691119358,0.0266879945993,,0.00901304831863,-0.00847867089591,0.0292668558997,-0.999495063641
116172000000,,654,,116,172000000,"""map""",,,-0.0164652578533,0.0136596355587,0.0267033427954,,0.00899967836282,-0.00851888312587,0.0292875500023,-0.99949426285
116208000000,,655,,116,208000000,"""map""",,,-0.0166661273688,0.0138312457129,0.0265439301729,,0.00890135445737,-0.00850694955852,0.0292716606404,-0.999495653696
116236000000,,656,,116,236000000,"""map""",,,-0.0166868306696,0.013864390552,0.0263554174453,,0.00889212180743,-0.00855508374964,0.0292939563233,-0.999494684319
116272000000,,657,,116,272000000,"""map""",,,-0.0165384914726,0.0137732671574,0.0262252893299,,0.0088866488601,-0.00855939502445,0.0293053359724,-0.999494347144
116308000000,,658,,116,308000000,"""map""",,,-0.0164504610002,0.0137679232284,0.0260147489607,,0.00891916274593,-0.0086166486576,0.0293036500984,-0.999493672795
116344000000,,659,,116,344000000,"""map""",,,-0.0164474509656,0.0138634052128,0.0256942082196,,0.00875007171968,-0.00848847005876,0.0293281795642,-0.999495527256
116372000000,,660,,116,372000000,"""map""",,,-0.0165037214756,0.0140404999256,0.0253202933818,,0.0087587376715,-0.00849709353446,0.0293127959645,-0.999495822284
116408000000,,661,,116,408000000,"""map""",,,-0.0166094582528,0.0142761347815,0.0249220039696,,0.00878885853006,-0.00853421138726,0.0293147347196,-0.999495147934
116440000000,,662,,116,440000000,"""map""",,,-0.0168428048491,0.0142200859264,0.0244769025594,,0.00884569811364,-0.00856039319271,0.0293385898358,-0.999493799235
116472000000,,663,,116,472000000,"""map""",,,-0.0171801764518,0.0138922985643,0.0239771325141,,0.00886476014746,-0.00860204632834,0.0293516553589,-0.999492872004
116508000000,,664,,116,508000000,"""map""",,,-0.0176453217864,0.0136146210134,0.023640377447,,0.0088196592535,-0.00864425226065,0.0293011212875,-0.999494347144
116540000000,,665,,116,540000000,"""map""",,,-0.0180227011442,0.0134813701734,0.0232726018876,,0.00880308466576,-0.00866989764044,0.0293054624129,-0.999494220704
116572000000,,666,,116,572000000,"""map""",,,-0.0184086170048,0.0133981108665,0.0227974895388,,0.0087981288611,-0.00867044383108,0.0292981710081,-0.999494431438
116608000000,,667,,116,608000000,"""map""",,,-0.0188192985952,0.0133993206546,0.0221889521927,,0.00878806316264,-0.00866043972711,0.0292924811836,-0.999494726466
116640000000,,668,,116,640000000,"""map""",,,-0.0191067457199,0.0133340004832,0.0214919541031,,0.00878514538859,-0.00864844937059,0.0293599161412,-0.999492956298
116672000000,,669,,116,672000000,"""map""",,,-0.0192767884582,0.0132187735289,0.0208066962659,,0.00882716917674,-0.00870213580705,0.0293675447208,-0.999491818333
116708000000,,670,,116,708000000,"""map""",,,-0.019543863833,0.0131717231125,0.0200880356133,,0.00882521364683,-0.00875785754477,0.029385836453,-0.999490806809
116740000000,,671,,116,740000000,"""map""",,,-0.0197740830481,0.0131982965395,0.0195084325969,,0.00882649469983,-0.00878961040138,0.029422841386,-0.99948945811
116772000000,,672,,116,772000000,"""map""",,,-0.0200673528016,0.0132778817788,0.0192139334977,,0.00887042502899,-0.00889136855663,0.029441217412,-0.999487603648
116808000000,,673,,116,808000000,"""map""",,,-0.0209298320115,0.0132157159969,0.022476201877,,0.00639955193872,-0.00612742130357,0.0292590587327,-0.999532616483
116840000000,,674,,116,840000000,"""map""",,,-0.0224083382636,0.012681838125,0.030679455027,,-0.00425082729657,0.00397664187908,0.0283550931258,-0.999581001065
116872000000,,675,,116,872000000,"""map""",,,-0.0245435964316,0.0116732083261,0.0419522412121,,-0.0133056388204,0.0130171464411,0.027515106435,-0.999448069904
116908000000,,676,,116,908000000,"""map""",,,-0.0280648618937,0.0101133119315,0.0568571202457,,-0.0274554386806,0.0286809867172,0.026132099748,-0.998869730849
116940000000,,677,,116,940000000,"""map""",,,-0.0313986167312,0.00857190322131,0.0678867772222,,-0.0419349255955,0.0458783388416,0.0242067474143,-0.997772901264
116972000000,,678,,116,972000000,"""map""",,,-0.0355634316802,0.00633995700628,0.0780140012503,,-0.0484537312395,0.0536493062814,0.0229260732754,-0.99712004658
117012000000,,679,,117,12000000,"""map""",,,-0.0408568792045,0.00317505514249,0.0882432982326,,-0.0584933963631,0.0648771727241,0.0197600441622,-0.995981449468
117040000000,,680,,117,40000000,"""map""",,,-0.047332059592,-0.00141581473872,0.0997515246272,,-0.0652475157648,0.0709786323715,0.0163230529598,-0.995207717623
117072000000,,681,,117,72000000,"""map""",,,-0.0551569834352,-0.007570263464,0.112991064787,,-0.068136119504,0.0728656985739,0.0146027028973,-0.994904428901
117108000000,,682,,117,108000000,"""map""",,,-0.067069709301,-0.0172956269234,0.1318641752,,-0.0730014018772,0.0747449656336,0.011429424526,-0.994461339082
117140000000,,683,,117,140000000,"""map""",,,-0.0782329365611,-0.026698416099,0.148421540856,,-0.0767048726208,0.0753178089703,0.00876064393147,-0.994166437583
117172000000,,684,,117,172000000,"""map""",,,-0.0908246710896,-0.0375004857779,0.166123107076,,-0.078244279348,0.0753505745231,0.00733751344466,-0.994055507078
117208000000,,685,,117,208000000,"""map""",,,-0.104710690677,-0.0496687665582,0.184898242354,,-0.0796252998648,0.074574814361,0.00536449302532,-0.994016942712
117240000000,,686,,117,240000000,"""map""",,,-0.119694247842,-0.0634418576956,0.204858779907,,-0.0802433410867,0.072950474984,0.00343146996521,-0.994096347374
117272000000,,687,,117,272000000,"""map""",,,-0.135745316744,-0.0787259712815,0.226117491722,,-0.0804332096758,0.0723681349416,0.00235672532818,-0.994126693105
117308000000,,688,,117,308000000,"""map""",,,-0.157351911068,-0.0995353832841,0.254642128944,,-0.0808859438785,0.0725352860501,0.000848626794767,-0.994080247278
117340000000,,689,,117,340000000,"""map""",,,-0.175833880901,-0.117500692606,0.278920322657,,-0.0817307958961,0.0733574051113,-0.000635827356635,-0.9939508986
117372000000,,690,,117,372000000,"""map""",,,-0.195312336087,-0.136660426855,0.304472833872,,-0.0822494915631,0.0738340599555,-0.00130967117063,-0.993872168287
117408000000,,691,,117,408000000,"""map""",,,-0.215768903494,-0.156994536519,0.331178247929,,-0.0828510054582,0.0742904846416,-0.00211834275301,-0.993786820919
117440000000,,692,,117,440000000,"""map""",,,-0.237036898732,-0.178602129221,0.35955041647,,-0.0828909955734,0.0743807177515,-0.00284314210685,-0.993774893361
117472000000,,693,,117,472000000,"""map""",,,-0.259053885937,-0.201419278979,0.389383584261,,-0.0827114717307,0.0742766354506,-0.00319565834779,-0.993796556841
117508000000,,694,,117,508000000,"""map""",,,-0.287793248892,-0.231295049191,0.428407162428,,-0.0823268718599,0.0741287941842,-0.00371081927714,-0.993837734312
117540000000,,695,,117,540000000,"""map""",,,-0.311676114798,-0.256245702505,0.461022406816,,-0.082008972011,0.0745292280992,-0.00416136908772,-0.993832339515
117572000000,,696,,117,572000000,"""map""",,,-0.336239099503,-0.282033890486,0.494902849197,,-0.0817927099459,0.0746735771041,-0.00438773981108,-0.993838366515
117608000000,,697,,117,608000000,"""map""",,,-0.36144438386,-0.308649301529,0.530086815357,,-0.0811714910821,0.0744975672549,-0.00480638445733,-0.993900533116
117640000000,,698,,117,640000000,"""map""",,,-0.3873052001,-0.336043387651,0.566554427147,,-0.0804595751637,0.0743709189385,-0.00521297510492,-0.993965818584
117672000000,,699,,117,672000000,"""map""",,,-0.413779467344,-0.364154517651,0.604181945324,,-0.0800859910961,0.0744920855304,-0.00544402412846,-0.993985711897
117708000000,,700,,117,708000000,"""map""",,,-0.447646766901,-0.400214523077,0.653063178062,,-0.0795136431495,0.0746611092102,-0.00577504547666,-0.994017069152
117740000000,,701,,117,740000000,"""map""",,,-0.474325299263,-0.429024010897,0.692568719387,,-0.0789274336642,0.074693804134,-0.0061120095305,-0.994059342441
117772000000,,702,,117,772000000,"""map""",,,-0.500642955303,-0.457762092352,0.73251003027,,-0.0786418777349,0.0747632099507,-0.0062495346972,-0.994075906153
117808000000,,703,,117,808000000,"""map""",,,-0.527581989765,-0.487131416798,0.773839473724,,-0.0780283207072,0.0749570897344,-0.00650536606766,-0.994108022051
117840000000,,704,,117,840000000,"""map""",,,-0.55510532856,-0.517096340656,0.816710054874,,-0.0774832647383,0.0749892080201,-0.00667749379697,-0.994147134327
117872000000,,705,,117,872000000,"""map""",,,-0.583184659481,-0.547622203827,0.861051619053,,-0.0771552936036,0.0750293056428,-0.00677965775777,-0.994168882101
117908000000,,706,,117,908000000,"""map""",,,-0.611785888672,-0.578656435013,0.906948685646,,-0.0766992551538,0.0751775351212,-0.00685514276345,-0.994192442189
117940000000,,707,,117,940000000,"""map""",,,-0.640681266785,-0.609981417656,0.954126775265,,-0.0762472794709,0.0753701390984,-0.00700029650972,-0.994211661152
117972000000,,708,,117,972000000,"""map""",,,-0.669446408749,-0.641265630722,1.00215339661,,-0.076034295414,0.0754233865995,-0.00706819508267,-0.994223420123
118008000000,,709,,118,8000000,"""map""",,,-0.706135332584,-0.68104082346,1.06445384026,,-0.0755074914183,0.07552641457,-0.00723943772817,-0.99425448235
118040000000,,710,,118,40000000,"""map""",,,-0.736003994942,-0.713356077671,1.11590909958,,-0.074919354352,0.0757039465014,-0.00732857831277,-0.994284785934
118072000000,,711,,118,72000000,"""map""",,,-0.766257405281,-0.746077239513,1.16881632805,,-0.0746605976034,0.0757838847086,-0.00736275940691,-0.994297977898
118108000000,,712,,118,108000000,"""map""",,,-0.796910881996,-0.779158711433,1.22325360775,,-0.0742160063858,0.076059709408,-0.00743015221768,-0.994309652575
118140000000,,713,,118,140000000,"""map""",,,-0.835728287697,-0.820766925812,1.29319751263,,-0.0737632412315,0.0762409961743,-0.00741143901694,-0.994329630181
