rosbagTimestamp,header,seq,stamp,secs,nsecs,frame_id,pose,position,x,y,z,orientation,x,y,z,w
96912000000,,145,,96,912000000,"""map""",,,0.0154393548146,0.0046032499522,0.116607174277,,0.0112242951558,-0.0178657520802,0.0519104188495,-0.998428832667
96944000000,,146,,96,944000000,"""map""",,,0.0134692154825,0.00401531066746,0.109815366566,,0.0111736231193,-0.0179476865415,0.0519072578359,-0.998428116171
96976000000,,147,,96,976000000,"""map""",,,0.0117902765051,0.0035292331595,0.103630132973,,0.0111193017585,-0.0179120322833,0.0519471287546,-0.998427273234
97012000000,,148,,97,12000000,"""map""",,,0.0101797934622,0.00304010952823,0.0968897268176,,0.0111029365982,-0.0179209848666,0.0519757464647,-0.998425798094
97044000000,,149,,97,44000000,"""map""",,,0.00923683028668,0.00273769372143,0.0921481624246,,0.0111580976033,-0.0179506391258,0.0520194105998,-0.998422426346
97076000000,,150,,97,76000000,"""map""",,,0.00857601501048,0.00253505050205,0.0878724828362,,0.0111613692524,-0.0179754135702,0.052058565022,-0.998419855388
97112000000,,151,,97,112000000,"""map""",,,0.00819128379226,0.00242420169525,0.0838557034731,,0.0111188457164,-0.0180648044017,0.0521064016951,-0.998416272906
97144000000,,152,,97,144000000,"""map""",,,0.00792739260942,0.00233398634009,0.0802195519209,,0.0111325375153,-0.0181111297151,0.0521728672752,-0.998411763193
97176000000,,153,,97,176000000,"""map""",,,0.00776527402923,0.00226875161752,0.0768719241023,,0.0111489517372,-0.0181757665171,0.0521432380407,-0.998411973928
97212000000,,154,,97,212000000,"""map""",,,0.0079540759325,0.00229637394659,0.0729916393757,,0.0110971055159,-0.0182177767177,0.0521273486788,-0.99841260613
97244000000,,155,,97,244000000,"""map""",,,0.0083676520735,0.00241553247906,0.0701657831669,,0.0111524222667,-0.0182450783266,0.0520832209284,-0.998413828389
97276000000,,156,,97,276000000,"""map""",,,0.00899935606867,0.00262639857829,0.0676240101457,,0.0111129718287,-0.0182597174417,0.0520575956445,-0.998415345675
97312000000,,157,,97,312000000,"""map""",,,0.00982139538974,0.00287722912617,0.0651747062802,,0.0111253992221,-0.0183729666822,0.0520669100981,-0.99841260613
97344000000,,158,,97,344000000,"""map""",,,0.0104689262807,0.0030673854053,0.0627241134644,,0.0110695045985,-0.018454815862,0.0521185821343,-0.998409065795
97376000000,,159,,97,376000000,"""map""",,,0.0110029950738,0.00321296858601,0.0603996403515,,0.0110491740124,-0.0184639801674,0.0521641428776,-0.998406747718
97412000000,,160,,97,412000000,"""map""",,,0.0119725223631,0.00351686077192,0.0579722896218,,0.0110289968672,-0.0185540525925,0.0522253401016,-0.998402027271
97444000000,,161,,97,444000000,"""map""",,,0.0129553582519,0.00383996893652,0.0562433563173,,0.0110335618978,-0.0185917213384,0.0522858629761,-0.998398149761
97476000000,,162,,97,476000000,"""map""",,,0.0141423260793,0.00424400949851,0.0546376854181,,0.0109949734945,-0.0185739304292,0.0522941659052,-0.998398444789
97512000000,,163,,97,512000000,"""map""",,,0.0155512336642,0.00469757663086,0.053301166743,,0.0109959731651,-0.0186692810885,0.0523018366317,-0.998396253153
97544000000,,164,,97,544000000,"""map""",,,0.0166165586561,0.00501688942313,0.0519232600927,,0.0111834370789,-0.0186543874459,0.0523552788356,-0.998391701293
97576000000,,165,,97,576000000,"""map""",,,0.0174122992903,0.00518274167553,0.0505188405514,,0.0111670761991,-0.0186731401593,0.0523429719558,-0.998392122762
97612000000,,166,,97,612000000,"""map""",,,0.0187218803912,0.00550010614097,0.0489895381033,,0.0111190116697,-0.018720793757,0.0523328567122,-0.998392291349
97644000000,,167,,97,644000000,"""map""",,,0.0200174301863,0.00582431163639,0.0479798913002,,0.0109896544305,-0.0187003874383,0.0523958662507,-0.99839081621
97676000000,,168,,97,676000000,"""map""",,,0.0215158779174,0.00619137426838,0.0471089817584,,0.0109671631599,-0.018701483915,0.052428319324,-0.998389383217
97712000000,,169,,97,712000000,"""map""",,,0.0231940187514,0.00657990481704,0.0463104210794,,0.0108831931375,-0.0187263324456,0.0525146360698,-0.998385252826
97744000000,,170,,97,744000000,"""map""",,,0.0244432743639,0.00684246513993,0.0455229543149,,0.0108155793851,-0.018769990983,0.0525290081451,-0.998384452035
97776000000,,171,,97,776000000,"""map""",,,0.0253024697304,0.00697425473481,0.0450390428305,,0.0107870881155,-0.0187224993873,0.0525693426792,-0.998383566952
97812000000,,172,,97,812000000,"""map""",,,0.0267004258931,0.00719741685316,0.0447356142104,,0.0106986360392,-0.0187101335678,0.0525709021125,-0.998384620623
97844000000,,173,,97,844000000,"""map""",,,0.028082113713,0.00746134249493,0.0446679927409,,0.0106306297942,-0.0186676860937,0.0525984240046,-0.99838466277
97876000000,,174,,97,876000000,"""map""",,,0.0296782627702,0.00776827521622,0.0445769913495,,0.010620359134,-0.0186553634089,0.052640065091,-0.998382808308
97912000000,,175,,97,912000000,"""map""",,,0.0314416252077,0.00813047308475,0.0446810908616,,0.0106183331219,-0.0186415290351,0.0526355553782,-0.998383356217
97944000000,,176,,97,944000000,"""map""",,,0.0326446592808,0.00849531963468,0.0445278994739,,0.0105609363582,-0.0185605893053,0.0526621921864,-0.998384030567
97976000000,,177,,97,976000000,"""map""",,,0.033302359283,0.00887490622699,0.0441789664328,,0.0105262383066,-0.0185567098196,0.0527095652441,-0.998382007518
98012000000,,178,,98,12000000,"""map""",,,0.0344398058951,0.00942894723266,0.0439127646387,,0.01055294064,-0.0184902893498,0.0527331253325,-0.99838171249
98044000000,,179,,98,44000000,"""map""",,,0.0355913192034,0.00990651361644,0.0436683930457,,0.0105717358296,-0.018476225144,0.0527498576313,-0.9983809117
98076000000,,180,,98,76000000,"""map""",,,0.0369799509645,0.0104223238304,0.0435496158898,,0.0105871000022,-0.0181895406341,0.0527302171999,-0.998386980846
98112000000,,181,,98,112000000,"""map""",,,0.0386068671942,0.0109779182822,0.0436312817037,,0.0105375293815,-0.0181707385298,0.0527501948061,-0.998386812259
98144000000,,182,,98,144000000,"""map""",,,0.0397870093584,0.0112928934395,0.0433141738176,,0.0106039034239,-0.0181469143652,0.0527227150609,-0.998387992371
98176000000,,183,,98,176000000,"""map""",,,0.04053305462,0.0113982195035,0.042725071311,,0.0106335813907,-0.0181153187168,0.05270320107,-0.998389298923
98212000000,,184,,98,212000000,"""map""",,,0.0417420193553,0.011604978703,0.0419651120901,,0.0105753667147,-0.0179766944393,0.0526248922255,-0.998396548181
98244000000,,185,,98,244000000,"""map""",,,0.0429710559547,0.0118419807404,0.0411375313997,,0.0105400272408,-0.0179669420537,0.0525879294393,-0.998399034845
98276000000,,186,,98,276000000,"""map""",,,0.0444399118423,0.0121047981083,0.0402184873819,,0.0105578398819,-0.0178786835894,0.0526222791209,-0.998398655523
98312000000,,187,,98,312000000,"""map""",,,0.0461148358881,0.0124186621979,0.0393748395145,,0.0105673976676,-0.0178469223171,0.0525642429105,-0.998402153712
98344000000,,188,,98,344000000,"""map""",,,0.047124337405,0.0125249326229,0.0386367328465,,0.0104061849842,-0.0177972321705,0.0525269850964,-0.998406705571
98376000000,,189,,98,376000000,"""map""",,,0.0475353524089,0.0124566964805,0.0380183421075,,0.0103496222672,-0.0177296065642,0.0525099156228,-0.998409360823
98412000000,,190,,98,412000000,"""map""",,,0.0484020449221,0.0124420411885,0.0377387106419,,0.0102292238675,-0.0175373359341,0.0525562771561,-0.998411636753
98444000000,,191,,98,444000000,"""map""",,,0.0493696816266,0.0124857099727,0.0374708585441,,0.0102272097091,-0.0175154396584,0.0525515988559,-0.998412268955
98476000000,,192,,98,476000000,"""map""",,,0.0505495853722,0.0126070268452,0.0374415405095,,0.0102460569237,-0.0174784192497,0.0525373110743,-0.998413491214
98512000000,,193,,98,512000000,"""map""",,,0.0519421175122,0.0127780335024,0.0376541055739,,0.0102157414858,-0.0174391318014,0.0525477634927,-0.998413912683
98544000000,,194,,98,544000000,"""map""",,,0.0525735653937,0.012983109802,0.0377740859985,,0.0101314385692,-0.0173733208145,0.0524758609692,-0.998419644654
98576000000,,195,,98,576000000,"""map""",,,0.0524978376925,0.0132053233683,0.037827398628,,0.0101540408045,-0.0173112375189,0.0524498985105,-0.998421920584
98612000000,,196,,98,612000000,"""map""",,,0.0527536831796,0.0135351950303,0.0380544997752,,0.0101907329288,-0.0170920495405,0.0523283469994,-0.998431698653
98644000000,,197,,98,644000000,"""map""",,,0.0532258525491,0.0138640552759,0.0383409112692,,0.0101921320066,-0.0169590969776,0.052259184021,-0.998437557065
98676000000,,198,,98,676000000,"""map""",,,0.0539351291955,0.0142419654876,0.0386134013534,,0.0101729057997,-0.0169239958967,0.0521640585839,-0.998443331183
98712000000,,199,,98,712000000,"""map""",,,0.0548808202147,0.0146831171587,0.0390179008245,,0.0101852512044,-0.0167910736269,0.0520831787816,-0.998449695357
98744000000,,200,,98,744000000,"""map""",,,0.0550589337945,0.0148936240003,0.0395510420203,,0.01018247511,-0.016625022617,0.0520278821163,-0.998455343035
98776000000,,201,,98,776000000,"""map""",,,0.0544970408082,0.0148874912411,0.0400670655072,,0.0101541873306,-0.0165023509217,0.0520090846219,-0.998458630489
98812000000,,202,,98,812000000,"""map""",,,0.0541440099478,0.014969044365,0.040559399873,,0.0101702890731,-0.0163872778422,0.0520047013497,-0.998460653538
98844000000,,203,,98,844000000,"""map""",,,0.0541430562735,0.0150871165097,0.0407383516431,,0.0100988975801,-0.0162313424052,0.0519668534797,-0.998465879747
98876000000,,204,,98,876000000,"""map""",,,0.0543795190752,0.0152319613844,0.0411931797862,,0.0101041975463,-0.0161675663209,0.0519342739658,-0.998468534998
98912000000,,205,,98,912000000,"""map""",,,0.0548223368824,0.015422154218,0.0417318940163,,0.00998340665411,-0.0159682940455,0.0519024109483,-0.998474604144
98944000000,,206,,98,944000000,"""map""",,,0.0545239038765,0.0155878951773,0.0417569838464,,0.00994324037821,-0.0158930701527,0.0518660803649,-0.998478060186
98976000000,,207,,98,976000000,"""map""",,,0.0535582080483,0.0157206505537,0.0415519699454,,0.00991531611544,-0.0157670793931,0.0518443325911,-0.998481516228
99012000000,,208,,99,12000000,"""map""",,,0.0527465417981,0.0160109531134,0.0413005948067,,0.0098879361397,-0.0156409737174,0.0517033935296,-0.998491041415
99044000000,,209,,99,44000000,"""map""",,,0.0523495189846,0.016321061179,0.0411131829023,,0.0098351547852,-0.0154985493089,0.0516672736805,-0.998495719716
99072000000,,210,,99,72000000,"""map""",,,0.0521942749619,0.0166967492551,0.0410553999245,,0.00986028780708,-0.0154249421429,0.0516417748371,-0.998497869205
99112000000,,211,,99,112000000,"""map""",,,0.0522520914674,0.0171743184328,0.0409195907414,,0.010041540823,-0.0152866235947,0.0515569753779,-0.998502589652
99144000000,,212,,99,144000000,"""map""",,,0.0515934936702,0.0175243839622,0.0403958112001,,0.0100227090843,-0.0151964267047,0.0514731031494,-0.998508490211
99176000000,,213,,99,176000000,"""map""",,,0.050273090601,0.017735587433,0.0396465808153,,0.0100014576883,-0.0151189596447,0.0514051202827,-0.998513421392
99212000000,,214,,99,212000000,"""map""",,,0.0489728078246,0.0180375855416,0.0388819947839,,0.00993850676028,-0.0149148022861,0.0512952434487,-0.998522735845
99244000000,,215,,99,244000000,"""map""",,,0.0481960773468,0.018343847245,0.03851172328,,0.00988644107903,-0.0148578077285,0.0511970412916,-0.998529142166
99276000000,,216,,99,276000000,"""map""",,,0.0476596206427,0.0186782311648,0.0383280105889,,0.00983192643539,-0.0147699450495,0.0511635766939,-0.998532682502
99312000000,,217,,99,312000000,"""map""",,,0.0473610311747,0.0190608371049,0.0382080636919,,0.00983713124191,-0.0146315878118,0.0511136326784,-0.998537192214
99344000000,,218,,99,344000000,"""map""",,,0.046447083354,0.0190885607153,0.0374532081187,,0.00978378716113,-0.0145071011679,0.0509732836729,-0.998546717402
99376000000,,219,,99,376000000,"""map""",,,0.0449947007,0.0187749359757,0.0364220999181,,0.00978225769151,-0.0144692839202,0.0509321483487,-0.998549414801
99412000000,,220,,99,412000000,"""map""",,,0.0435648560524,0.0185411740094,0.0354713276029,,0.00966852343298,-0.0142916912593,0.0508745336068,-0.998556031856
99444000000,,221,,99,444000000,"""map""",,,0.042703602463,0.0184480007738,0.0349592640996,,0.0095498981644,-0.0141794729702,0.0507271039307,-0.998566231393
99476000000,,222,,99,476000000,"""map""",,,0.0420911535621,0.0184284634888,0.0346158407629,,0.00952676464829,-0.0141242581291,0.0506768648873,-0.998569856022
99512000000,,223,,99,512000000,"""map""",,,0.0416912548244,0.0184618961066,0.0344103090465,,0.00942996058125,-0.0140439743096,0.0505324697843,-0.998579212622
99544000000,,224,,99,544000000,"""map""",,,0.0407724268734,0.0182921364903,0.0340709537268,,0.0093687414606,-0.0138870676842,0.0504823150346,-0.998584438832
99576000000,,225,,99,576000000,"""map""",,,0.039379093796,0.0179259758443,0.0336090885103,,0.00934540939332,-0.013831145237,0.0504480074999,-0.998587220524
99612000000,,226,,99,612000000,"""map""",,,0.038022197783,0.0175091475248,0.0332263223827,,0.00931693886788,-0.0136968946829,0.0503632080407,-0.998593626845
99644000000,,227,,99,644000000,"""map""",,,0.0372226759791,0.0172263588756,0.032996147871,,0.0092186548867,-0.013547860957,0.0503018000824,-0.998599653844
99676000000,,228,,99,676000000,"""map""",,,0.0366605855525,0.0170076806098,0.0327472612262,,0.00918307191593,-0.0135191278369,0.0502421622918,-0.998603404913
99712000000,,229,,99,712000000,"""map""",,,0.0363051667809,0.0168147906661,0.0324987992644,,0.00907737469922,-0.0134275804368,0.050164190622,-0.99860947406
99744000000,,230,,99,744000000,"""map""",,,0.0354226566851,0.016321580857,0.0324016176164,,0.0090324420428,-0.0134058420472,0.050039562391,-0.99861642829
99776000000,,231,,99,776000000,"""map""",,,0.034069724381,0.0155354207382,0.0322649255395,,0.00901325814738,-0.0133704431396,0.0500286042104,-0.998617608401
99812000000,,232,,99,812000000,"""map""",,,0.0327424183488,0.0146514717489,0.0321367532015,,0.00899438195687,-0.0132529821777,0.0499142176635,-0.99862511054
99844000000,,233,,99,844000000,"""map""",,,0.0319633670151,0.0140354149044,0.0321451947093,,0.00912087847869,-0.0131752469255,0.0497974287463,-0.998630800365
99876000000,,234,,99,876000000,"""map""",,,0.031456682831,0.0134464744478,0.0322603695095,,0.00909819672411,-0.0131435118303,0.0497377909556,-0.998634382847
99912000000,,235,,99,912000000,"""map""",,,0.0311644859612,0.0128779998049,0.0324730910361,,0.00902267928511,-0.0130798630097,0.0495634715902,-0.998644582384
99944000000,,236,,99,944000000,"""map""",,,0.0303777642548,0.0122014116496,0.032526973635,,0.00898010849857,-0.0130116112922,0.0494555335112,-0.99865119944
99976000000,,237,,99,976000000,"""map""",,,0.0291434023529,0.0114295054227,0.0325195454061,,0.00896979289276,-0.0130088679604,0.0493763817297,-0.998655245537
100012000000,,238,,100,12000000,"""map""",,,0.0279714632779,0.010570014827,0.0325764864683,,0.00887323215792,-0.0129272686983,0.0492465694363,-0.998663590613
100044000000,,239,,100,44000000,"""map""",,,0.0273143909872,0.00993881095201,0.0327459983528,,0.0088213042771,-0.0128654040394,0.0491662796898,-0.998668858969
100076000000,,240,,100,76000000,"""map""",,,0.0268918406218,0.00935032963753,0.0329445712268,,0.0087588973068,-0.0128459012438,0.0491285161136,-0.998671472074
100112000000,,241,,100,112000000,"""map""",,,0.0266569592059,0.0088206846267,0.0332012139261,,0.00878615001881,-0.0127593505501,0.0489696646415,-0.998680112178
100144000000,,242,,100,144000000,"""map""",,,0.0258609764278,0.00810670480132,0.033416647464,,0.00872648094731,-0.0126972125952,0.0488339517893,-0.998688120079
100176000000,,243,,100,176000000,"""map""",,,0.0252346936613,0.00764956697822,0.0335306227207,,0.0087247619815,-0.0126632634734,0.0487709422508,-0.998691618267
100212000000,,244,,100,212000000,"""map""",,,0.0244596656412,0.0069175590761,0.0337446928024,,0.00870064805726,-0.0125024660023,0.0486218267008,-0.998701143455
100244000000,,245,,100,244000000,"""map""",,,0.0240789316595,0.00634654797614,0.034088909626,,0.00875875769537,-0.0125540553913,0.0484782323879,-0.998706917573
100276000000,,246,,100,276000000,"""map""",,,0.0238899625838,0.0058166962117,0.0342428423464,,0.00870177235737,-0.0125372455488,0.0483791872939,-0.998712480957
100312000000,,247,,100,312000000,"""map""",,,0.0238676629961,0.00535853300244,0.0344234742224,,0.0087298163106,-0.0124684930082,0.0481620467304,-0.998723607725
100344000000,,248,,100,344000000,"""map""",,,0.0234151221812,0.00477453367785,0.0346953310072,,0.00862124981547,-0.012445398017,0.0480788067046,-0.998728791788
100376000000,,249,,100,376000000,"""map""",,,0.0225848164409,0.00406860467046,0.0350156649947,,0.00860276941021,-0.0124282182371,0.0480131840614,-0.99873237427
100412000000,,250,,100,412000000,"""map""",,,0.0218161214143,0.00321207172237,0.0355261079967,,0.00856679921528,-0.0123374489073,0.0479204609947,-0.998738274829
100444000000,,251,,100,444000000,"""map""",,,0.0214031022042,0.00254409085028,0.0359786562622,,0.00856849793084,-0.0123604047811,0.0477650234174,-0.998745355499
100476000000,,252,,100,476000000,"""map""",,,0.0211624894291,0.00189665937796,0.0364467874169,,0.00858547685462,-0.0122719671927,0.0477074086755,-0.998749106569
100512000000,,253,,100,512000000,"""map""",,,0.021110991016,0.00130838796031,0.0370947755873,,0.00857638235496,-0.0120485441146,0.0476462535983,-0.998754796393
100544000000,,254,,100,544000000,"""map""",,,0.0204734224826,0.000924828113057,0.0373269282281,,0.00856102295676,-0.0120446068416,0.0475338058065,-0.998760359777
100576000000,,255,,100,576000000,"""map""",,,0.0199262592942,0.000841395871248,0.0372529141605,,0.00854520471768,-0.012026827457,0.0474523780951,-0.998764574462
100612000000,,256,,100,612000000,"""map""",,,0.0192888174206,0.000706042570528,0.037204887718,,0.00854256033221,-0.0119867625969,0.0472784801982,-0.998773341007
100644000000,,257,,100,644000000,"""map""",,,0.0189882908016,0.000608553236816,0.0371660143137,,0.00850560330833,-0.0119681687574,0.0471492579607,-0.998780000209
100676000000,,258,,100,676000000,"""map""",,,0.0188467632979,0.000487601326313,0.0372213944793,,0.00847848279913,-0.0119725879203,0.0470879764429,-0.998783034782
100712000000,,259,,100,712000000,"""map""",,,0.0188685301691,0.000338999408996,0.0372572243214,,0.00844749054213,-0.0119558594081,0.0469818506784,-0.998788513872
100744000000,,260,,100,744000000,"""map""",,,0.0182791166008,0.000149255851284,0.0372519232333,,0.00850854683765,-0.0118983816434,0.046882636997,-0.998793318613
100776000000,,261,,100,776000000,"""map""",,,0.0171193629503,-5.94978191657e-05,0.0371958948672,,0.00852816010409,-0.0118032781029,0.0467830439939,-0.998798924144
100812000000,,262,,100,812000000,"""map""",,,0.0159858092666,-0.000312988966471,0.0371072180569,,0.0085498950363,-0.0117099369922,0.0466564770079,-0.99880579408
100844000000,,263,,100,844000000,"""map""",,,0.0152996433899,-0.000489302445203,0.0372199825943,,0.00848919896464,-0.0116747661057,0.0464991428224,-0.998814097009
100876000000,,264,,100,876000000,"""map""",,,0.0148179987445,-0.000671215413604,0.0374258197844,,0.00850011549231,-0.0116838258671,0.0464161978245,-0.998817721638
100912000000,,265,,100,912000000,"""map""",,,0.0144613618031,-0.000846505747177,0.0376759134233,,0.00849474325085,-0.0115954147852,0.0462474418431,-0.99882665677
100944000000,,266,,100,944000000,"""map""",,,0.0138685144484,-0.000962530612014,0.038308288902,,0.00852169286775,-0.0115658784054,0.0461843480108,-0.998829649196
100976000000,,267,,100,976000000,"""map""",,,0.0130649758503,-0.0010667280294,0.0393328592181,,0.00848378605805,-0.0115024628742,0.0461310322475,-0.998833147385
101012000000,,268,,101,12000000,"""map""",,,0.0123018594459,-0.00120252382476,0.040546156466,,0.00846257104673,-0.0114474013094,0.0459640885805,-0.998841618901
101044000000,,269,,101,44000000,"""map""",,,0.011859934777,-0.00130719132721,0.0416371226311,,0.00843067921793,-0.0114425911357,0.0458968222103,-0.998845074943
101076000000,,270,,101,76000000,"""map""",,,0.0115601029247,-0.00145255459938,0.0426439270377,,0.00841164530602,-0.0114175736883,0.0458299351617,-0.998848573131
101112000000,,271,,101,112000000,"""map""",,,0.0113953398541,-0.00163366948254,0.0436346046627,,0.00843870078395,-0.011417929467,0.0457069928046,-0.998854010075
101144000000,,272,,101,144000000,"""map""",,,0.0113036865368,-0.00179805362131,0.04438142851,,0.00842322910391,-0.0114137831062,0.0455383211169,-0.998861933682
101176000000,,273,,101,176000000,"""map""",,,0.0112812146544,-0.0019298705738,0.0449157617986,,0.00843188040312,-0.0114425634768,0.0454517936369,-0.998865431871
101212000000,,274,,101,212000000,"""map""",,,0.0114152170718,-0.00207827845588,0.045649971813,,0.00843030944519,-0.0114066355933,0.0452597304482,-0.998874577737
101244000000,,275,,101,244000000,"""map""",,,0.0116380611435,-0.00219821115024,0.0463896095753,,0.00850446880078,-0.011450079116,0.0451227953374,-0.998879593212
101276000000,,276,,101,276000000,"""map""",,,0.0119840139523,-0.00232932250947,0.0470828562975,,0.00849493422876,-0.0114083380955,0.0450580999249,-0.998883175694
101312000000,,277,,101,312000000,"""map""",,,0.0124166207388,-0.00246429350227,0.0477284230292,,0.00851954222602,-0.0113887389878,0.0448842863217,-0.998891015008
101344000000,,278,,101,344000000,"""map""",,,0.012584451586,-0.00263007008471,0.0480749309063,,0.00872779375578,-0.0113757761977,0.0447432208197,-0.998895609014
101376000000,,279,,101,376000000,"""map""",,,0.0125699359924,-0.00285221310332,0.0483930930495,,0.00867441329042,-0.0113662801505,0.0446573255424,-0.99890007658
101412000000,,280,,101,412000000,"""map""",,,0.0127507327124,-0.00314112356864,0.0488972775638,,0.00867719695805,-0.011249331207,0.0444418708529,-0.998910950467
101444000000,,281,,101,444000000,"""map""",,,0.0130054838955,-0.00338735152036,0.0494135767221,,0.00867928421487,-0.0112946789111,0.0443353657667,-0.998915207299
101476000000,,282,,101,476000000,"""map""",,,0.0133752236143,-0.00364421214908,0.0499713122845,,0.00873525127843,-0.0113138083119,0.0442793104582,-0.998916977466
101512000000,,283,,101,512000000,"""map""",,,0.0138231888413,-0.0039055601228,0.0504675284028,,0.00870554869853,-0.0112949010875,0.0441311642856,-0.99892401599
101544000000,,284,,101,544000000,"""map""",,,0.0138427009806,-0.00400086073205,0.0507310330868,,0.00867951569327,-0.0112971487823,0.0440584188251,-0.998927387738
101576000000,,285,,101,576000000,"""map""",,,0.0135184871033,-0.00394703121856,0.0507319271564,,0.00860343355235,-0.0112685895179,0.0439867270358,-0.998931560276
101612000000,,286,,101,612000000,"""map""",,,0.0133246481419,-0.00391748920083,0.0507750622928,,0.00864762616938,-0.0112780353511,0.0438457036807,-0.998937292247
101644000000,,287,,101,644000000,"""map""",,,0.0133180432022,-0.00391253177077,0.0508335009217,,0.00864740045325,-0.0112408754955,0.0437112552339,-0.998943529981
101676000000,,288,,101,676000000,"""map""",,,0.013434085995,-0.0039557791315,0.0509990751743,,0.00862898392681,-0.0112778682454,0.0436230840268,-0.99894715461
101712000000,,289,,101,712000000,"""map""",,,0.0136664332822,-0.00402360968292,0.0512631237507,,0.00857500114017,-0.0112629633253,0.0435210886534,-0.998952212232
101744000000,,290,,101,744000000,"""map""",,,0.0140252709389,-0.00409824075177,0.0516456849873,,0.00861510905257,-0.0112652604108,0.0433518690567,-0.998959250755
101776000000,,291,,101,776000000,"""map""",,,0.0145008368418,-0.00415041390806,0.0520006380975,,0.00862822668294,-0.011243688386,0.0432762154636,-0.99896266465
101812000000,,292,,101,812000000,"""map""",,,0.0152342999354,-0.00421242648736,0.0526623725891,,0.00859335181216,-0.0111593640667,0.0430353883712,-0.99897429718
101844000000,,293,,101,844000000,"""map""",,,0.0148385521024,-0.00410707574338,0.0528827160597,,0.00851508116321,-0.0110941852826,0.0429518954643,-0.998979312655
101876000000,,294,,101,876000000,"""map""",,,0.0142456814647,-0.0039863307029,0.0530156418681,,0.00854725493137,-0.0110352508998,0.042877126955,-0.998982852991
101912000000,,295,,101,912000000,"""map""",,,0.0138145461679,-0.00389246456325,0.0530916377902,,0.0085341778838,-0.0109733987532,0.0427521194024,-0.99898900643
101944000000,,296,,101,944000000,"""map""",,,0.0135083952919,-0.00383112765849,0.0531466305256,,0.00848534639695,-0.0109968578373,0.0426150999979,-0.99899503343
101976000000,,297,,101,976000000,"""map""",,,0.0132988104597,-0.00378210609779,0.0531063489616,,0.00851065664961,-0.0107878637163,0.0425190473301,-0.999001229017
102012000000,,298,,102,12000000,"""map""",,,0.0132106021047,-0.00372722512111,0.0533825904131,,0.00853884358933,-0.0107940093359,0.0423581728093,-0.999007677484
102044000000,,299,,102,44000000,"""map""",,,0.0125267682597,-0.00342008913867,0.0532908849418,,0.00856301250204,-0.0108222381755,0.0421683855505,-0.99901522177
102076000000,,300,,102,76000000,"""map""",,,0.0117544848472,-0.00305037433282,0.0531449578702,,0.00855346739331,-0.0108562126514,0.0420737237287,-0.999018930693
102112000000,,301,,102,112000000,"""map""",,,0.0110869519413,-0.00270691863261,0.0529226772487,,0.00854497126365,-0.0108125902516,0.0419011323841,-0.99902672786
102144000000,,302,,102,144000000,"""map""",,,0.0105298506096,-0.00238507078029,0.052772488445,,0.00861126529291,-0.010818778265,0.0417714886781,-0.999031532601
102176000000,,303,,102,176000000,"""map""",,,0.010096010752,-0.00209033070132,0.0527640096843,,0.0086495466498,-0.0108347122433,0.0417489401141,-0.999031996216
102212000000,,304,,102,212000000,"""map""",,,0.00979531183839,-0.00177870993502,0.0528330467641,,0.00865595330004,-0.0108717142128,0.0415634518338,-0.999039287621
102244000000,,305,,102,244000000,"""map""",,,0.00914711132646,-0.00152624282055,0.0527980551124,,0.00863203084761,-0.0108415767466,0.0414602763487,-0.999044092362
102276000000,,306,,102,276000000,"""map""",,,0.00843678042293,-0.00126676878426,0.0527537204325,,0.00865070634668,-0.0107834346752,0.0413821360915,-0.999047801284
102312000000,,307,,102,312000000,"""map""",,,0.00785614084452,-0.00102617999073,0.052819699049,,0.00864280875166,-0.0107513810091,0.041188092001,-0.999056230654
102344000000,,308,,102,344000000,"""map""",,,0.00739871384576,-0.000789522717241,0.0529596172273,,0.00864974865832,-0.0107049692617,0.0410931351513,-0.999060571779
102376000000,,309,,102,376000000,"""map""",,,0.00704624457285,-0.000565140100662,0.0530141890049,,0.00868325449739,-0.0106479362615,0.0410638009447,-0.999062089066
102412000000,,310,,102,412000000,"""map""",,,0.00672188540921,-0.000264350237558,0.0530320331454,,0.00863675030683,-0.0106000407311,0.0410104851813,-0.999065165786
102444000000,,311,,102,444000000,"""map""",,,0.00600069807842,0.000146406528074,0.0524056330323,,0.00862413514591,-0.0105453394724,0.0409097120666,-0.999070012673
102476000000,,312,,102,476000000,"""map""",,,0.00526938587427,0.00056816090364,0.051523655653,,0.00863066980075,-0.0105608252288,0.0408722435182,-0.999071319226
102512000000,,313,,102,512000000,"""map""",,,0.00465441076085,0.000980323879048,0.050698004663,,0.0086715303472,-0.010591958085,0.0408133643709,-0.999073047246
102544000000,,314,,102,544000000,"""map""",,,0.00415733410046,0.00138035370037,0.050026524812,,0.00869737064588,-0.0105725688884,0.0407611444256,-0.999075196736
102576000000,,315,,102,576000000,"""map""",,,0.00378138106316,0.00174070708454,0.0494500920177,,0.00871108376512,-0.0105657586327,0.0407129705777,-0.999077093344
102612000000,,316,,102,612000000,"""map""",,,0.00344032142311,0.00221276655793,0.0487376339734,,0.00871935393169,-0.0105798249787,0.0406019979256,-0.999081350176
102644000000,,317,,102,644000000,"""map""",,,0.00290511432104,0.00254763755947,0.048602886498,,0.00869321778189,-0.0105282923892,0.0405091062715,-0.999085902035
102676000000,,318,,102,676000000,"""map""",,,0.00234681088477,0.00286188977771,0.04861292243,,0.00869202902673,-0.0105598900956,0.0404563384171,-0.999087756497
102712000000,,319,,102,712000000,"""map""",,,0.00186576764099,0.00314351799898,0.0486534275115,,0.00866542563961,-0.0104865870125,0.0403965741859,-0.999091128244
102744000000,,320,,102,744000000,"""map""",,,0.00148960971273,0.00340423360467,0.0487033389509,,0.00864146655564,-0.0105112402024,0.0403190661315,-0.999094204964
102776000000,,321,,102,776000000,"""map""",,,0.00115635152906,0.00363561045378,0.0487678013742,,0.0087067170388,-0.0104816367334,0.0402432439511,-0.999097028803
102812000000,,322,,102,812000000,"""map""",,,0.000834460719489,0.00393347209319,0.0488683283329,,0.00871343320497,-0.0104413374315,0.0401613947712,-0.999100653432
102844000000,,323,,102,844000000,"""map""",,,0.000369293877156,0.00420481199399,0.0486960560083,,0.00875160104525,-0.0104288172657,0.0400801356473,-0.999103772299
102876000000,,324,,102,876000000,"""map""",,,-8.56860569911e-05,0.00449974369258,0.0484324507415,,0.00889162547066,-0.0103372050812,0.0400054092849,-0.99910642755
102912000000,,325,,102,912000000,"""map""",,,-0.000467950274469,0.00477638700977,0.048438500613,,0.0089404536648,-0.0103014871911,0.0399587527236,-0.999108239865
102944000000,,326,,102,944000000,"""map""",,,-0.000804702867754,0.00502376258373,0.0485819429159,,0.00888737736468,-0.0102669770717,0.0398946895139,-0.999111611613
102976000000,,327,,102,976000000,"""map""",,,-0.00107980368193,0.00521317729726,0.0488260649145,,0.00887621923349,-0.0102465435058,0.0398500981481,-0.999113718955
103012000000,,328,,103,12000000,"""map""",,,-0.00133103516418,0.00542230857536,0.0490573346615,,0.00887041770333,-0.0102728481606,0.0397716628631,-0.999116627088
103044000000,,329,,103,44000000,"""map""",,,-0.00163975032046,0.00528029631823,0.0488543063402,,0.00878509692383,-0.0102495354381,0.0396663800355,-0.999121853297
103076000000,,330,,103,76000000,"""map""",,,-0.00192450382747,0.00504097249359,0.0485433973372,,0.00878816335401,-0.0102685407856,0.0396371722695,-0.999122738381
103112000000,,331,,103,112000000,"""map""",,,-0.00210461113602,0.00481691211462,0.0481843687594,,0.00873268624757,-0.0101781134051,0.0395490853561,-0.999127711709
103144000000,,332,,103,144000000,"""map""",,,-0.00223636836745,0.00461921235546,0.0479158759117,,0.00869533911839,-0.0101996001483,0.0395328588194,-0.999128428205
103176000000,,333,,103,176000000,"""map""",,,-0.00233526481315,0.00446467613801,0.0476519875228,,0.00864536308117,-0.0101796967107,0.0395192875342,-0.999129608317
103212000000,,334,,103,212000000,"""map""",,,-0.00239541660994,0.00433529959992,0.0472005568445,,0.00868150104032,-0.0101618992161,0.0394459941646,-0.999132347862
103244000000,,335,,103,244000000,"""map""",,,-0.00270521105267,0.00415180390701,0.0467513091862,,0.00861035024532,-0.0101891119215,0.0393237683039,-0.999137489778
103276000000,,336,,103,276000000,"""map""",,,-0.00304532470182,0.00397439207882,0.046308003366,,0.00862305900187,-0.010191880278,0.0392679658765,-0.999139512827
103312000000,,337,,103,312000000,"""map""",,,-0.00332932616584,0.00381771964021,0.0459571108222,,0.00860193832705,-0.0102151820522,0.0391282069268,-0.999144991917
103344000000,,338,,103,344000000,"""map""",,,-0.00354651245289,0.00368338334374,0.0456746928394,,0.00859664074807,-0.0102567496285,0.0390550399978,-0.999147436434
103376000000,,339,,103,376000000,"""map""",,,-0.00370744778775,0.00358768925071,0.0454241335392,,0.00861821005634,-0.0103011888705,0.0389973409622,-0.999149080161
103412000000,,340,,103,412000000,"""map""",,,-0.00382078718394,0.00353792728856,0.0450940914452,,0.00856440507672,-0.0102705276144,0.0388700153329,-0.999154854279
103444000000,,341,,103,444000000,"""map""",,,-0.00394025538117,0.00336362188682,0.0443337634206,,0.00861502319483,-0.0102636065586,0.0387986607183,-0.99915725665
103476000000,,342,,103,476000000,"""map""",,,-0.00401155091822,0.00314801349305,0.0434016622603,,0.00854954238572,-0.0102310511639,0.0388035497528,-0.999157930999
103512000000,,343,,103,512000000,"""map""",,,-0.00403526704758,0.00295148557052,0.0422316752374,,0.00869099700517,-0.0102527061653,0.0386419165887,-0.999162777887
103544000000,,344,,103,544000000,"""map""",,,-0.0039860829711,0.00271126907319,0.0411744788289,,0.00869179557271,-0.0103552648412,0.0385488142004,-0.999165264551
103576000000,,345,,103,576000000,"""map""",,,-0.00389587762766,0.0024632664863,0.0403154827654,,0.00871103248097,-0.0103985514656,0.0385150124279,-0.999165938901
103612000000,,346,,103,612000000,"""map""",,,-0.00372463255189,0.00217093294486,0.0397383160889,,0.00874565751642,-0.0103435418434,0.0384581563292,-0.999168425565
103644000000,,347,,103,644000000,"""map""",,,-0.00393709354103,0.00187424942851,0.0392607375979,,0.00879473727456,-0.0103468493009,0.0383624408363,-0.999171670872
103676000000,,348,,103,676000000,"""map""",,,-0.00418497016653,0.0015385291772,0.0388371124864,,0.00878007354632,-0.0103408399999,0.0382836262295,-0.999174874032
103712000000,,349,,103,712000000,"""map""",,,-0.00432810327038,0.00121599214617,0.0383899919689,,0.00872963636332,-0.0103367655028,0.038127977918,-0.9991813225
103744000000,,350,,103,744000000,"""map""",,,-0.00442787073553,0.000894853146747,0.0378977842629,,0.0086543576467,-0.0102667785205,0.0380038133023,-0.999187391646
103776000000,,351,,103,776000000,"""map""",,,-0.00449253898114,0.000546100665815,0.0375143997371,,0.00869293287907,-0.010276968509,0.0379294662615,-0.99918975187
103812000000,,352,,103,812000000,"""map""",,,-0.00457142433152,6.9277761213e-05,0.0370629169047,,0.00869608105109,-0.0103578005668,0.037816091239,-0.999193207912
103844000000,,353,,103,844000000,"""map""",,,-0.00506059871987,-0.000198839305085,0.0367454923689,,0.00856830094371,-0.0101451882376,0.0377190270469,-0.999200162142
103876000000,,354,,103,876000000,"""map""",,,-0.0056286836043,-0.000429742562119,0.0365392901003,,0.00860100599266,-0.0101647637201,0.0377052871743,-0.999200246435
103912000000,,355,,103,912000000,"""map""",,,-0.00614323327318,-0.00065545598045,0.0362063087523,,0.00855846278267,-0.0101514044039,0.0376590099346,-0.999202438071
103944000000,,356,,103,944000000,"""map""",,,-0.00667132530361,-0.000831078039482,0.0358809009194,,0.0085146682558,-0.0101762776299,0.0374339879104,-0.999211078175
103976000000,,357,,103,976000000,"""map""",,,-0.00735235866159,-0.000829948810861,0.0359777137637,,0.00827952061588,-0.0100598560159,0.0371111430508,-0.999226251041
104012000000,,358,,104,12000000,"""map""",,,-0.00854538846761,-0.000676565454341,0.037507943809,,0.00632587004847,-0.00867894539372,0.0357795976658,-0.999301988928
104044000000,,359,,104,44000000,"""map""",,,-0.00982354395092,-0.000558686791919,0.0404169298708,,0.00308124825797,-0.0059285204267,0.0341386522659,-0.999394796288
104076000000,,360,,104,76000000,"""map""",,,-0.0113152926788,-0.000430715852417,0.0444261692464,,0.000732343968998,-0.00372599444751,0.0330589764476,-0.99944625759
104112000000,,361,,104,112000000,"""map""",,,-0.0129900667816,-0.000304176530335,0.0492639839649,,-0.00497511442626,0.00208516890269,0.0306776795067,-0.999514788366
104144000000,,362,,104,144000000,"""map""",,,-0.0148106925189,-0.000226228105021,0.0547028817236,,-0.0118778167802,0.00961636341523,0.0280005538362,-0.99949105969
104176000000,,363,,104,176000000,"""map""",,,-0.0167746916413,-0.000211143167689,0.0608614161611,,-0.0155908071139,0.0136569878735,0.0265826495585,-0.999431716927
104212000000,,364,,104,212000000,"""map""",,,-0.0194304343313,-0.000383945356589,0.0693121552467,,-0.02371315497,0.0225393181531,0.023650956923,-0.999184862836
104244000000,,365,,104,244000000,"""map""",,,-0.0216324534267,-0.000696606875863,0.0756925567985,,-0.0336394927333,0.0335985811497,0.0203492992512,-0.998661862592
104276000000,,366,,104,276000000,"""map""",,,-0.0239827483892,-0.00126289098989,0.0823219716549,,-0.0386499558943,0.03903489401,0.0188329399355,-0.998312465218
104312000000,,367,,104,312000000,"""map""",,,-0.0265585593879,-0.00217773253098,0.089499309659,,-0.0494383425361,0.0507234848994,0.0157947843605,-0.997363276043
104344000000,,368,,104,344000000,"""map""",,,-0.0294712278992,-0.0035863367375,0.0971834883094,,-0.0600489399002,0.0621421812415,0.0130344186642,-0.996173976272
104376000000,,369,,104,376000000,"""map""",,,-0.0334195233881,-0.00614293012768,0.105338566005,,-0.0659329899687,0.0683919665149,0.0115039401542,-0.995410991873
104412000000,,370,,104,412000000,"""map""",,,-0.0403346829116,-0.011362619698,0.116540521383,,-0.0763475317182,0.0801856529171,0.00820700292944,-0.993817883146
104444000000,,371,,104,444000000,"""map""",,,-0.0475613251328,-0.0172552801669,0.126471564174,,-0.0820739112496,0.0869209585254,0.00576206424732,-0.992811922166
104476000000,,372,,104,476000000,"""map""",,,-0.0565012767911,-0.0249026753008,0.137496188283,,-0.0846694888598,0.0893129336008,0.00454334597578,-0.992387840576
104512000000,,373,,104,512000000,"""map""",,,-0.0671912953258,-0.034395955503,0.149949505925,,-0.0883414848803,0.0909311467852,0.0022275452375,-0.991928608515
104544000000,,374,,104,544000000,"""map""",,,-0.0793118476868,-0.0454210005701,0.162046164274,,-0.0900472884355,0.0876914086784,0.000148820522092,-0.992069421136
104576000000,,375,,104,576000000,"""map""",,,-0.0920873805881,-0.0571905523539,0.169128030539,,-0.0896747932712,0.0803522633605,-0.00124801033126,-0.992723708812
104612000000,,376,,104,612000000,"""map""",,,-0.108625389636,-0.0726540088654,0.169487208128,,-0.0781608379722,0.0541621642806,-0.0048299866925,-0.99545676335
104644000000,,377,,104,644000000,"""map""",,,-0.12106847018,-0.0849407836795,0.163541078568,,-0.055224545403,0.0292990310672,-0.0074594442774,-0.998016172873
104676000000,,378,,104,676000000,"""map""",,,-0.133173003793,-0.0975360870361,0.155112013221,,-0.040280987771,0.015782555189,-0.00859041281034,-0.9990268543
104712000000,,379,,104,712000000,"""map""",,,-0.144933864474,-0.110348932445,0.147066742182,,-0.0129748921676,-0.00655187182227,-0.0101460951357,-0.999842943728
104744000000,,380,,104,744000000,"""map""",,,-0.15585924685,-0.122923567891,0.142839118838,,0.000204782317291,-0.0145603334607,-0.0108942859905,-0.999834598652
104776000000,,381,,104,772000000,"""map""",,,-0.165481120348,-0.134881332517,0.148177877069,,-0.00292010389859,-0.00956027073431,-0.0108498632122,-0.999891159723
104812000000,,382,,104,812000000,"""map""",,,-0.176121428609,-0.149263069034,0.17381747067,,-0.00928921546118,-0.000674203379293,-0.010275949576,-0.999903845924
104844000000,,383,,104,844000000,"""map""",,,-0.184569254518,-0.16029715538,0.207574993372,,-0.0195579296087,0.0108953179297,-0.00994884788469,-0.999699897324
104876000000,,384,,104,876000000,"""map""",,,-0.193182125688,-0.171368226409,0.245873004198,,-0.0297930724742,0.0220094557115,-0.0100287583095,-0.999263424561
104912000000,,385,,104,912000000,"""map""",,,-0.202151462436,-0.182829335332,0.283637911081,,-0.0505515787703,0.0468007502801,-0.0103271579969,-0.997570891419
104944000000,,386,,104,944000000,"""map""",,,-0.211697384715,-0.19491109252,0.318974584341,,-0.066005101004,0.0669901224091,-0.0104154977914,-0.995513535155
104976000000,,387,,104,976000000,"""map""",,,-0.222130283713,-0.207795113325,0.352158665657,,-0.0721942391849,0.0752366907749,-0.0102413048665,-0.994496152379
105012000000,,388,,105,12000000,"""map""",,,-0.236839264631,-0.225472763181,0.393020689487,,-0.0780850292919,0.0828370331194,-0.00977608795265,-0.993451163417
105044000000,,389,,105,44000000,"""map""",,,-0.251370877028,-0.241504400969,0.424934864044,,-0.081610498583,0.0867614091608,-0.00924752432547,-0.992837716037
105076000000,,390,,105,76000000,"""map""",,,-0.267722904682,-0.259092897177,0.45829975605,,-0.082596074812,0.0876170180091,-0.00899729848586,-0.992683416425
105112000000,,391,,105,112000000,"""map""",,,-0.28548002243,-0.278080701828,0.494039475918,,-0.0837547514404,0.0887961322371,-0.00871643188739,-0.992483977538
105144000000,,392,,105,144000000,"""map""",,,-0.304461270571,-0.298353821039,0.531784236431,,-0.0840511522807,0.0890479565289,-0.0086225287089,-0.992437194536
105176000000,,393,,105,176000000,"""map""",,,-0.32452082634,-0.319788634777,0.570999979973,,-0.0841690566077,0.0887189386377,-0.00862096927551,-0.992456708527
105212000000,,394,,105,212000000,"""map""",,,-0.351065009832,-0.348123252392,0.621631681919,,-0.0842516160277,0.0877741706009,-0.00865902787971,-0.992533373644
105244000000,,395,,105,244000000,"""map""",,,-0.374262243509,-0.371316045523,0.662847816944,,-0.0840123065512,0.0874967807882,-0.00864950269195,-0.992578217891
105276000000,,396,,105,276000000,"""map""",,,-0.39857506752,-0.395323693752,0.705070316792,,-0.0838267603189,0.0872539253787,-0.00865940720135,-0.992615180677
105312000000,,397,,105,312000000,"""map""",,,-0.423669099808,-0.420346975327,0.748727858067,,-0.083322210188,0.0865636228911,-0.00865030348207,-0.992718187575
105344000000,,398,,105,344000000,"""map""",,,-0.449504762888,-0.446338683367,0.793923199177,,-0.0827694659589,0.0863140386385,-0.00863639502206,-0.992786296882
105376000000,,399,,105,376000000,"""map""",,,-0.476045787334,-0.473243683577,0.841019392014,,-0.0824902979114,0.0861813371457,-0.00863896597982,-0.992820983738
105412000000,,400,,105,412000000,"""map""",,,-0.510164022446,-0.508050143719,0.902149140835,,-0.0818748938309,0.085595429603,-0.0086479854054,-0.992922557643
105444000000,,401,,105,444000000,"""map""",,,-0.538977265358,-0.537104249001,0.952647864819,,-0.0812862138159,0.0851257601051,-0.0085957654601,-0.993011782522
105476000000,,402,,105,476000000,"""map""",,,-0.568579673767,-0.5669516325,1.00448906422,,-0.0809882856463,0.0850151694088,-0.00858425937046,-0.993045626441
105512000000,,403,,105,512000000,"""map""",,,-0.598639965057,-0.597468614578,1.05779194832,,-0.0802954016642,0.0846398309786,-0.00856289091826,-0.99313417697
105544000000,,404,,105,544000000,"""map""",,,-0.629108190536,-0.628570318222,1.11261308193,,-0.0797045384095,0.0843390987265,-0.00857427056736,-0.993207259605
105576000000,,405,,105,576000000,"""map""",,,-0.65996414423,-0.66024762392,1.1688863039,,-0.0793771935506,0.0842300235058,-0.00856335453359,-0.993242789398
105612000000,,406,,105,612000000,"""map""",,,-0.699025273323,-0.70059221983,1.24116313457,,-0.0787141990928,0.0839607823581,-0.00849849053374,-0.993318948753
105644000000,,407,,105,644000000,"""map""",,,-0.732274413109,-0.733620166779,1.29991400242,,-0.0780916364689,0.0838456486925,-0.00842115106672,-0.99337850225
105676000000,,408,,105,676000000,"""map""",,,-0.766234755516,-0.767130315304,1.36010551453,,-0.0777196026151,0.083769355982,-0.00839885538386,-0.993414284925
105712000000,,409,,105,712000000,"""map""",,,-0.800321817398,-0.800985515118,1.42187917233,,-0.0769742431724,0.0836546562972,-0.00838831867173,-0.993482057057
105744000000,,410,,105,744000000,"""map""",,,-0.834567964077,-0.835209071636,1.48506629467,,-0.0763774194314,0.0835432970795,-0.0083239182872,-0.993538028072
105776000000,,411,,105,776000000,"""map""",,,-0.868990123272,-0.86979842186,1.5494376421,,-0.076068433641,0.0835041182911,-0.00831034700198,-0.993565086349
105812000000,,412,,105,812000000,"""map""",,,-0.912241816521,-0.913473904133,1.63199257851,,-0.0754719987704,0.0834582035801,-0.0083184391969,-0.993614398162
105844000000,,413,,105,844000000,"""map""",,,-0.948638737202,-0.949151158333,1.69975030422,,-0.0746431352256,0.0832215737212,-0.00827363709693,-0.993697216719
105876000000,,414,,105,876000000,"""map""",,,-0.98556381464,-0.985146999359,1.7689012289,,-0.0738645538589,0.0826913373909,-0.00830507864592,-0.99379938068
105912000000,,415,,105,912000000,"""map""",,,-1.02239727974,-1.02125537395,1.83891415596,,-0.0715002901717,0.0806754898466,-0.00823852877212,-0.994138452076
105944000000,,416,,105,944000000,"""map""",,,-1.05898177624,-1.05737602711,1.90846931934,,-0.0691524374137,0.0783850187058,-0.00820658146095,-0.994488018037
105976000000,,417,,105,976000000,"""map""",,,-1.1042470932,-1.10231983662,1.99284732342,,-0.0677547962213,0.0775117350168,-0.00493876770851,-0.994674307108
106012000000,,418,,106,12000000,"""map""",,,-1.14003109932,-1.13808190823,2.05738306046,,-0.0664688418726,0.0764023785975,-0.00490243712509,-0.994847024893
106044000000,,419,,106,44000000,"""map""",,,-1.17687261105,-1.17429673672,2.11972141266,,-0.0653443432102,0.0755879957879,-0.00491444897692,-0.994983622829
106076000000,,420,,106,76000000,"""map""",,,-1.21374344826,-1.21045303345,2.17942357063,,-0.0643813660885,0.0748501368379,-0.00498862743029,-0.995101802592
106112000000,,421,,106,112000000,"""map""",,,-1.25014543533,-1.24634993076,2.23670387268,,-0.0614536520496,0.072308254148,-0.00509504822278,-0.995474254293
106144000000,,422,,106,144000000,"""map""",,,-1.28608882427,-1.28196847439,2.29188871384,,-0.0573997725721,0.0682684741085,-0.0051342447919,-0.996001258486
106176000000,,423,,106,176000000,"""map""",,,-1.32156634331,-1.31728875637,2.34525036812,,-0.0550959553682,0.065902799819,-0.00509407884527,-0.996290765189
106212000000,,424,,106,212000000,"""map""",,,-1.36520659924,-1.36093068123,2.40981125832,,-0.0496888709769,0.0600379203103,-0.00513251677111,-0.99694539004
106244000000,,425,,106,244000000,"""map""",,,-1.40090274811,-1.39538931847,2.46078372002,,-0.0453350699156,0.0550653297559,-0.00515030274118,-0.997439772573
106276000000,,426,,106,276000000,"""map""",,,-1.4363232851,-1.42938733101,2.51051616669,,-0.0430860106875,0.052461432259,-0.00519325037982,-0.997679545994
106312000000,,427,,106,312000000,"""map""",,,-1.47093176842,-1.46286809444,2.55867171288,,-0.0387459524623,0.047494460077,-0.00521988718807,-0.998106072101
106344000000,,428,,106,344000000,"""map""",,,-1.50471186638,-1.49581551552,2.60519194603,,-0.0350126211704,0.0432129411902,-0.00519767579891,-0.998438737176
106376000000,,429,,106,376000000,"""map""",,,-1.53765833378,-1.52823150158,2.65014982224,,-0.0333519731066,0.0413931288457,-0.00513664716227,-0.998572932742
106412000000,,430,,106,412000000,"""map""",,,-1.57769060135,-1.56798005104,2.70409059525,,-0.0302181731616,0.0380058208752,-0.00510756583679,-0.998807437807
106444000000,,431,,106,444000000,"""map""",,,-1.61042821407,-1.59941458702,2.74583029747,,-0.0279628491996,0.0357537079763,-0.00502993134184,-0.998956721945
106476000000,,432,,106,476000000,"""map""",,,-1.64273989201,-1.63032650948,2.786216259,,-0.0267122675813,0.0347224592162,-0.00500721419049,-0.999027402209
106512000000,,433,,106,512000000,"""map""",,,-1.67409193516,-1.66063678265,2.82516956329,,-0.0243112735742,0.0327638358969,-0.00490745260006,-0.999155402188
106544000000,,434,,106,544000000,"""map""",,,-1.70449650288,-1.69032597542,2.86279654503,,-0.0224682774996,0.031328112722,-0.00485894157743,-0.999244795654
106576000000,,435,,106,576000000,"""map""",,,-1.73398149014,-1.71941530704,2.89923787117,,-0.0215463675428,0.0305717931231,-0.00482505551122,-0.99928871267
106612000000,,436,,106,612000000,"""map""",,,-1.76966261864,-1.75487577915,2.9430513382,,-0.0198437198152,0.0290730347264,-0.00475011841457,-0.999369044564
106644000000,,437,,106,644000000,"""map""",,,-1.7987639904,-1.78241252899,2.97749137878,,-0.0182898800973,0.0277837534109,-0.00471463076813,-0.99943555229
106676000000,,438,,106,676000000,"""map""",,,-1.82749664783,-1.80931425095,3.01096320152,,-0.0175666408354,0.0271576771228,-0.00470110162975,-0.999465771581
106712000000,,439,,106,712000000,"""map""",,,-1.85538482666,-1.83562457561,3.04316878319,,-0.0164047967725,0.0258053352315,-0.00464125310487,-0.999521658302
106744000000,,440,,106,744000000,"""map""",,,-1.88241255283,-1.86137008667,3.07438158989,,-0.0153611275337,0.0243570378077,-0.00462511086189,-0.999574636891
106776000000,,441,,106,776000000,"""map""",,,-1.90858852863,-1.88655972481,3.10456061363,,-0.014892658727,0.0234878262287,-0.00459910625636,-0.999602664545
106812000000,,442,,106,812000000,"""map""",,,-1.94019436836,-1.91728878021,3.14085745811,,-0.0138034037203,0.0216138574888,-0.00450216850478,-0.999660995783
106844000000,,443,,106,844000000,"""map""",,,-1.96458673477,-1.94125461578,3.16869020462,,-0.0128672366041,0.0203148771297,-0.00440383990721,-0.99970116173
106876000000,,444,,106,876000000,"""map""",,,-1.98815786839,-1.96469306946,3.19554281235,,-0.0123588968788,0.019642665189,-0.00434782674554,-0.999721265777
106912000000,,445,,106,912000000,"""map""",,,-2.01095247269,-1.98760199547,3.22146821022,,-0.0112413531049,0.0184314111902,-0.00415458344511,-0.999758312856
106944000000,,446,,106,944000000,"""map""",,,-2.03408241272,-2.00981235504,3.24767637253,,-0.0104252956166,0.0177989183737,-0.00398068554816,-0.999779386281
106976000000,,447,,106,976000000,"""map""",,,-2.05747413635,-2.03138899803,3.27393221855,,-0.0099967303266,0.0175338729778,-0.00385921833075,-0.999788911468
107012000000,,448,,107,12000000,"""map""",,,-2.08564305305,-2.05775952339,3.30501818657,,-0.00923487862456,0.017042556628,-0.00357830958542,-0.999805812355
107044000000,,449,,107,44000000,"""map""",,,-2.10737633705,-2.07837724686,3.32876849174,,-0.00862651323245,0.0165647898314,-0.00343277651752,-0.999819678668
107076000000,,450,,107,76000000,"""map""",,,-2.12839818001,-2.09858012199,3.35137939453,,-0.00823726733012,0.0162391145475,-0.00340491745065,-0.999828403065
107112000000,,451,,107,112000000,"""map""",,,-2.14875388145,-2.11837220192,3.372859478,,-0.00737164909923,0.0152149708241,-0.00321757470902,-0.999851963154
107144000000,,452,,107,144000000,"""map""",,,-2.16968393326,-2.13746166229,3.39403176308,,-0.00658770158258,0.0143355257927,-0.00308384275869,-0.999870802795
107176000000,,453,,107,176000000,"""map""",,,-2.1910879612,-2.15586662292,3.41513538361,,-0.00611441815704,0.0138790536914,-0.00303621681988,-0.999880412277
107212000000,,454,,107,212000000,"""map""",,,-2.21681809425,-2.17839479446,3.44043755531,,-0.0053108206601,0.0129367008666,-0.00298222670693,-0.999897818925
107244000000,,455,,107,244000000,"""map""",,,-2.23659992218,-2.19604086876,3.45976185799,,-0.00457740655627,0.0122080776741,-0.00285561757401,-0.999910968742
107276000000,,456,,107,276000000,"""map""",,,-2.25571513176,-2.21332788467,3.4783270359,,-0.00422922057474,0.011709104098,-0.00279484181845,-0.999918639468
107312000000,,457,,107,312000000,"""map""",,,-2.27419114113,-2.23028731346,3.49605941772,,-0.00351754041532,0.0105632080075,-0.00275792117916,-0.999934233802
107344000000,,458,,107,344000000,"""map""",,,-2.29262685776,-2.24646639824,3.51305866241,,-0.00297403704743,0.00710072059592,-0.00266422873492,-0.999966813316
107376000000,,459,,107,376000000,"""map""",,,-2.31110239029,-2.26202988625,3.52684211731,,-0.00234871631567,-0.00137576380874,-0.00251026629731,-0.99999323939
107412000000,,460,,107,412000000,"""map""",,,-2.33328485489,-2.28125548363,3.53773260117,,0.0133139510515,-0.0368713235315,-0.00362011925915,-0.999224775901
107444000000,,461,,107,444000000,"""map""",,,-2.34975409508,-2.29619979858,3.54212331772,,0.0439743859117,-0.0685466782115,-0.00627827884788,-0.996658580736
107476000000,,462,,107,476000000,"""map""",,,-2.36442494392,-2.31017661095,3.54382705688,,0.0608698312699,-0.0826154687831,-0.00794914851025,-0.994689058505
107512000000,,463,,107,512000000,"""map""",,,-2.37682104111,-2.32256436348,3.54395651817,,0.0842952893824,-0.0982329545228,-0.0109199534212,-0.991526738314
107544000000,,464,,107,544000000,"""map""",,,-2.38741493225,-2.33226418495,3.54623508453,,0.0870855385115,-0.0932123573909,-0.0133273814082,-0.991740928598
107576000000,,465,,107,576000000,"""map""",,,-2.39553403854,-2.33865642548,3.55476331711,,0.0765665659264,-0.080444047672,-0.0143408445275,-0.993710535123
107612000000,,466,,107,612000000,"""map""",,,-2.40167975426,-2.34329581261,3.57586550713,,0.0432681173418,-0.0434143260764,-0.0161838419192,-0.997988608834
107644000000,,467,,107,644000000,"""map""",,,-2.40517640114,-2.34586834908,3.59827327728,,0.0178558385158,-0.0126993622491,-0.0170036402695,-0.999615350746
107676000000,,468,,107,676000000,"""map""",,,-2.40841341019,-2.34832167625,3.62130188942,,0.00387017297168,0.00524036882777,-0.0171754308241,-0.999831311198
107712000000,,469,,107,712000000,"""map""",,,-2.41178703308,-2.35106348991,3.64194345474,,-0.0229920344104,0.0397142259282,-0.017194649787,-0.998798544822
107744000000,,470,,107,744000000,"""map""",,,-2.41793084145,-2.35518860817,3.6574203968,,-0.0446538530373,0.0646966827966,-0.0168844068351,-0.996762472717
107776000000,,471,,107,776000000,"""map""",,,-2.42710661888,-2.36093020439,3.66835689545,,-0.0521541632941,0.0735283290213,-0.0166079235089,-0.995790060629
107812000000,,472,,107,812000000,"""map""",,,-2.43992543221,-2.36957359314,3.67960810661,,-0.0581828195291,0.0819303849314,-0.0157680211117,-0.994813349561
107844000000,,473,,107,844000000,"""map""",,,-2.45137500763,-2.37773633003,3.68765473366,,-0.0541734392211,0.0750441200131,-0.0150404400659,-0.995594035636
107876000000,,474,,107,876000000,"""map""",,,-2.46390199661,-2.38696670532,3.6955435276,,-0.0499069400882,0.0679852446523,-0.0146105000642,-0.996330214639
107912000000,,475,,107,912000000,"""map""",,,-2.47721481323,-2.39710187912,3.70367336273,,-0.0394393244258,0.0530022856438,-0.0136769473697,-0.997721566402
107944000000,,476,,107,944000000,"""map""",,,-2.49067187309,-2.40641021729,3.71383833885,,-0.0284574971261,0.037151395596,-0.0127134704128,-0.998823537903
107976000000,,477,,107,976000000,"""map""",,,-2.50399875641,-2.41481208801,3.72555589676,,-0.023315289214,0.0286910189843,-0.0122100684542,-0.999241803228
108012000000,,478,,108,12000000,"""map""",,,-2.52059555054,-2.42583489418,3.73947668076,,-0.0143524573425,0.0142243308407,-0.0111798308892,-0.999733319775
108044000000,,479,,108,44000000,"""map""",,,-2.5335187912,-2.43486404419,3.74999022484,,-0.00771166295501,0.00530174813937,-0.0102004224235,-0.999904183099
108076000000,,480,,108,76000000,"""map""",,,-2.54594922066,-2.44392895699,3.75969076157,,-0.00519785607547,0.00191144667248,-0.00971775671431,-0.999937479109
108112000000,,481,,108,112000000,"""map""",,,-2.5578558445,-2.4529967308,3.76850771904,,-0.00163914271665,-0.00405829328974,-0.00873594587825,-0.999952272653
108144000000,,482,,108,144000000,"""map""",,,-2.56894111633,-2.46049833298,3.77643680573,,0.00295652140988,-0.00828780732838,-0.00797135989941,-0.999929555502
108176000000,,483,,108,176000000,"""map""",,,-2.57922697067,-2.46652436256,3.78219532967,,0.0107790056341,-0.0134564227106,-0.00802172538338,-0.999819172906
108212000000,,484,,108,212000000,"""map""",,,-2.59118556976,-2.4738779068,3.78553771973,,0.0365491225638,-0.0325841791929,-0.00891620794933,-0.998760739099
108244000000,,485,,108,244000000,"""map""",,,-2.59980106354,-2.4791469574,3.78605651855,,0.0541964704982,-0.0475637234835,-0.00983581003699,-0.997348356059
108276000000,,486,,108,276000000,"""map""",,,-2.60722851753,-2.48344445229,3.78580999374,,0.0600990375212,-0.0526082629888,-0.0102877085467,-0.996752062446
108312000000,,487,,108,312000000,"""map""",,,-2.61326503754,-2.48654317856,3.78560209274,,0.064301617995,-0.0565626465986,-0.0110613982448,-0.996264887024
108344000000,,488,,108,344000000,"""map""",,,-2.61794662476,-2.48759007454,3.78886008263,,0.0546426935067,-0.0508561366721,-0.0115526197642,-0.9971431852
108376000000,,489,,108,376000000,"""map""",,,-2.62137269974,-2.48676896095,3.79680466652,,0.0428456795615,-0.0423383064148,-0.0116821791766,-0.998115934464
108412000000,,490,,108,412000000,"""map""",,,-2.62440347672,-2.48506164551,3.81065392494,,0.0149303212167,-0.0187519597051,-0.0120877582998,-0.999639669478
108444000000,,491,,108,444000000,"""map""",,,-2.62642669678,-2.4838886261,3.82234811783,,-0.00453102246776,-0.000574471258735,-0.0121451623074,-0.999915815629
108476000000,,492,,108,476000000,"""map""",,,-2.62851238251,-2.48325967789,3.83250260353,,-0.0141155883907,0.00773780149203,-0.0119621606912,-0.999798900271
108512000000,,493,,108,512000000,"""map""",,,-2.63092112541,-2.48337388039,3.84050130844,,-0.0309019254362,0.022495629158,-0.0113148693918,-0.999205219763
108544000000,,494,,108,544000000,"""map""",,,-2.63467121124,-2.48425555229,3.84577894211,,-0.0379104073249,0.0294385654532,-0.0106086146513,-0.998791126977
108576000000,,495,,108,576000000,"""map""",,,-2.63977622986,-2.48601007462,3.8491332531,,-0.0391815226902,0.0305748622698,-0.0100828327161,-0.998713366041
108612000000,,496,,108,612000000,"""map""",,,-2.64694309235,-2.48966574669,3.85272717476,,-0.0375735193329,0.0282812264933,-0.00932107057612,-0.998850174712
108644000000,,497,,108,644000000,"""map""",,,-2.65321207047,-2.49369263649,3.85584688187,,-0.0328328111901,0.0238544155658,-0.00843902133049,-0.999140482204
108676000000,,498,,108,676000000,"""map""",,,-2.65980315208,-2.49851965904,3.85928010941,,-0.0298536694349,0.0211545276336,-0.00795412183837,-0.99929874362
108712000000,,499,,108,712000000,"""map""",,,-2.66659903526,-2.50401473045,3.86274528503,,-0.0234731966625,0.0138455485932,-0.00707262050176,-0.999603591775
108744000000,,500,,108,744000000,"""map""",,,-2.67280220985,-2.50852680206,3.86673402786,,-0.0175465216421,0.00665809735631,-0.0062410210338,-0.999804421509
108776000000,,501,,108,776000000,"""map""",,,-2.6783657074,-2.51201915741,3.87128329277,,-0.0149595569709,0.00419190513801,-0.00583729637191,-0.999862289132
108812000000,,502,,108,812000000,"""map""",,,-2.68520903587,-2.51702785492,3.87633752823,,-0.0100405874152,-6.16302170518e-05,-0.00499988063885,-0.999937099788
108844000000,,503,,108,844000000,"""map""",,,-2.69058609009,-2.5214240551,3.87975883484,,-0.0071390465692,-0.00368263884056,-0.00432835490152,-0.999958383946
108868000000,,504,,108,868000000,"""map""",,,-2.69586801529,-2.5261080265,3.88295149803,,-0.00607498422379,-0.00485035740861,-0.00396749358457,-0.999961924282
108912000000,,505,,108,912000000,"""map""",,,-2.70094442368,-2.53103613853,3.88610720634,,-0.00486822666398,-0.00497215498898,-0.00330797969907,-0.999970353651
108944000000,,506,,108,944000000,"""map""",,,-2.7056453228,-2.53519392014,3.88908433914,,-0.00407910531299,-0.00540732710618,-0.00277288331038,-0.999973219637
108976000000,,507,,108,976000000,"""map""",,,-2.71116280556,-2.53957390785,3.892567873,,-0.00377501551287,-0.00595926079042,-0.00253677666502,-0.999971955231
109012000000,,508,,109,12000000,"""map""",,,-2.71551299095,-2.54336619377,3.89541101456,,-0.00360997388709,-0.0052166180085,-0.00203484984611,-0.999977813643
109044000000,,509,,109,44000000,"""map""",,,-2.71971774101,-2.54737019539,3.89839053154,,-0.00362757110184,-0.00392020309186,-0.00170416567269,-0.999984304258
109076000000,,510,,109,76000000,"""map""",,,-2.72380447388,-2.55160117149,3.90093255043,,-0.00364985474569,-0.00410965204405,-0.00151496846972,-0.999983756349
109112000000,,511,,109,112000000,"""map""",,,-2.7278854847,-2.5560503006,3.90311861038,,-0.00396660710135,-0.00499503712631,-0.00110901002487,-0.999979035902
109144000000,,512,,109,144000000,"""map""",,,-2.73157334328,-2.55994129181,3.90526342392,,-0.00436584728093,-0.00366792485714,-0.000851956395799,-0.999983461321
109176000000,,513,,109,176000000,"""map""",,,-2.73479557037,-2.56331729889,3.90737485886,,-0.00438949277424,-0.00308688465809,-0.000728171101723,-0.999985357929
109212000000,,514,,109,212000000,"""map""",,,-2.73879885674,-2.56793093681,3.9095916748,,-0.00415324537528,-0.00439591686562,-0.000526119109961,-0.999981649007
109244000000,,515,,109,244000000,"""map""",,,-2.74208593369,-2.57188892365,3.91132998466,,-0.00419440310023,-0.00448984439996,-0.000308809959039,-0.999981143244
109276000000,,516,,109,276000000,"""map""",,,-2.74533510208,-2.57603478432,3.91324472427,,-0.00432512367058,-0.00349792673728,-0.000209343396554,-0.999984514992
109312000000,,517,,109,312000000,"""map""",,,-2.74848651886,-2.58034491539,3.91497373581,,-0.00436149911734,-0.00297266496995,-7.50635371978e-05,-0.999986116573
109344000000,,518,,109,344000000,"""map""",,,-2.75128531456,-2.5839779377,3.916680336,,-0.00427425057227,-0.00487479632457,2.51195217126e-05,-0.999978993755
