rosbagTimestamp,header,seq,stamp,secs,nsecs,frame_id,pose,position,x,y,z,orientation,x,y,z,w
96828000000,,136,,96,792000000,"""map""",,,0.0,0.0,0.141979038715,,0.0111755641793,-0.0184913654115,0.0519729226259,-0.998414797766
96852000000,,137,,96,852000000,"""map""",,,0.0203153062612,-0.00292567256838,0.139128059149,,0.0111108536203,-0.0184550526088,0.052007398748,-0.998414376298
96884000000,,138,,96,884000000,"""map""",,,0.0178151912987,-0.00339627102949,0.134429916739,,0.0110859211252,-0.0183207885545,0.0520489555406,-0.998414966354
96920000000,,139,,96,920000000,"""map""",,,0.015365768224,-0.00378830661066,0.129189625382,,0.0111237976419,-0.0182536542225,0.0520144794185,-0.998417579458
96952000000,,140,,96,952000000,"""map""",,,0.0123642608523,-0.00420617358759,0.122039631009,,0.0110773639979,-0.0181962433001,0.0520209700332,-0.99841875957
96984000000,,141,,96,984000000,"""map""",,,0.0106280678883,-0.0044083413668,0.117553181946,,0.0111403751828,-0.0180816601777,0.0520501356523,-0.998418675276
97020000000,,142,,97,20000000,"""map""",,,0.00793304108083,-0.00464131077752,0.109940007329,,0.0111161269154,-0.0180731076602,0.052061641742,-0.998418464542
97052000000,,143,,97,52000000,"""map""",,,0.0061749285087,-0.00472890213132,0.104337498546,,0.0111138335342,-0.0180810961343,0.052083895278,-0.998417200137
97084000000,,144,,97,84000000,"""map""",,,0.00475447392091,-0.00474249850959,0.0993178337812,,0.0111368832505,-0.0180760615615,0.0521461461733,-0.998413786242
97120000000,,145,,97,120000000,"""map""",,,0.00365790328942,-0.00461337529123,0.0946165025234,,0.0113325707389,-0.0181544919075,0.0521491807463,-0.998409993026
97152000000,,146,,97,152000000,"""map""",,,0.00262951012701,-0.00424400763586,0.090399518609,,0.0113033412409,-0.0182237503749,0.0521578208503,-0.99840860218
97184000000,,147,,97,184000000,"""map""",,,0.00182414753363,-0.0037780480925,0.0865975022316,,0.0112494940321,-0.0182176937411,0.052190442511,-0.998407590655
97220000000,,148,,97,220000000,"""map""",,,0.00124580448028,-0.00317289936356,0.0825350731611,,0.0112477386817,-0.0182823585312,0.0522306506045,-0.998404387495
97252000000,,149,,97,252000000,"""map""",,,0.00108013325371,-0.00266111386009,0.0798890963197,,0.0112799368984,-0.0182768524406,0.0522697207331,-0.998402069418
97284000000,,150,,97,284000000,"""map""",,,0.00116354762577,-0.00210203556344,0.0774296298623,,0.0113153735076,-0.0183694948356,0.0523381672151,-0.998396337447
97320000000,,151,,97,320000000,"""map""",,,0.00149024254642,-0.00149994937237,0.0750637948513,,0.0112878012369,-0.0184405942641,0.0523991958517,-0.998392207056
97352000000,,152,,97,352000000,"""map""",,,0.00169653329067,-0.000951508351136,0.0726069808006,,0.0112716586646,-0.018458802032,0.0524533545521,-0.998389214629
97384000000,,153,,97,384000000,"""map""",,,0.00202519516461,-0.000390320841689,0.0703018680215,,0.0112431097724,-0.0185360094608,0.0524138208081,-0.99839014186
97420000000,,154,,97,420000000,"""map""",,,0.00280162761919,0.000353631621692,0.0674713402987,,0.0112629520477,-0.0186043410268,0.0524173189966,-0.998388413839
97452000000,,155,,97,452000000,"""map""",,,0.00366049702279,0.00100211589597,0.0653348118067,,0.011299769954,-0.0185983772477,0.0523671642468,-0.998390774063
97484000000,,156,,97,484000000,"""map""",,,0.00472432933748,0.00170377688482,0.0634534582496,,0.011227032396,-0.0186823021598,0.0523317608941,-0.998391869881
97520000000,,157,,97,520000000,"""map""",,,0.00595370633528,0.00240757409483,0.0618374235928,,0.0112044676977,-0.0187227529269,0.0523858353007,-0.99838854028
97552000000,,158,,97,552000000,"""map""",,,0.00670451810583,0.00292915152386,0.0599292293191,,0.0111722793593,-0.018771389073,0.0524243996671,-0.998385969322
97584000000,,159,,97,584000000,"""map""",,,0.00746067799628,0.00342151382938,0.0580907575786,,0.011146659673,-0.0188262007202,0.0525018655747,-0.998381164581
97620000000,,160,,97,620000000,"""map""",,,0.00869288761169,0.00412033358589,0.0561752691865,,0.0111058526333,-0.018898199062,0.0525570779462,-0.998377371365
97652000000,,161,,97,652000000,"""map""",,,0.00988441333175,0.00473155546933,0.0547674447298,,0.0111352553285,-0.0188775049594,0.0525788678669,-0.9983762334
97684000000,,162,,97,684000000,"""map""",,,0.0112785752863,0.00540543580428,0.0534289851785,,0.0110725447692,-0.0189278322478,0.052623922848,-0.998373662442
97720000000,,163,,97,720000000,"""map""",,,0.012887111865,0.00610317010432,0.052246645093,,0.0110551361451,-0.0189664143949,0.052628095386,-0.998372861652
97752000000,,164,,97,752000000,"""map""",,,0.0137816630304,0.00642360094935,0.0507075786591,,0.0111338974097,-0.0189368806493,0.0526615599837,-0.99837075431
97784000000,,165,,97,784000000,"""map""",,,0.0146296694875,0.00662956666201,0.0492988415062,,0.0111859606214,-0.0189444894726,0.0526683877732,-0.998369658492
97820000000,,166,,97,820000000,"""map""",,,0.0160070359707,0.00697425985709,0.0479529947042,,0.0110699619576,-0.0189291532881,0.0526766485555,-0.998370838603
97852000000,,167,,97,852000000,"""map""",,,0.017359836027,0.00730540649965,0.0471231639385,,0.0110065164626,-0.0189162524012,0.0527425240797,-0.998368351939
97884000000,,168,,97,884000000,"""map""",,,0.0189105197787,0.00766271259636,0.0464812926948,,0.0109245605986,-0.0189222043264,0.0527699195312,-0.99836767759
97920000000,,169,,97,920000000,"""map""",,,0.0206477604806,0.00803127419204,0.045874401927,,0.0108221338786,-0.0189452000421,0.0528531174102,-0.998363968667
97952000000,,170,,97,952000000,"""map""",,,0.0215571932495,0.00816616415977,0.0448991917074,,0.0107761345447,-0.0189691012565,0.0528693018,-0.99836312573
97984000000,,171,,97,984000000,"""map""",,,0.0223579723388,0.00823479611427,0.0437987633049,,0.0106852685735,-0.0189046139441,0.0528993103561,-0.99836380008
98020000000,,172,,98,20000000,"""map""",,,0.023696154356,0.00837396923453,0.0425475649536,,0.0105982992101,-0.0188724368009,0.0529331542755,-0.998363505052
98052000000,,173,,98,52000000,"""map""",,,0.025036463514,0.00856054667383,0.0418320558965,,0.0105483647435,-0.0188392629505,0.0529048737401,-0.998366160303
98084000000,,174,,98,84000000,"""map""",,,0.0265896748751,0.0087851844728,0.0413631647825,,0.0104758290294,-0.0187858085636,0.0529895889057,-0.998363462905
98120000000,,175,,98,120000000,"""map""",,,0.028331078589,0.00904193520546,0.0411452353001,,0.0104043153764,-0.0187460677074,0.0529629099505,-0.998366371037
98152000000,,176,,98,152000000,"""map""",,,0.0290482547134,0.00929807219654,0.0405907221138,,0.0104023700359,-0.018703877395,0.0529820446198,-0.998366118156
98184000000,,177,,98,184000000,"""map""",,,0.0295772962272,0.00957099441439,0.040247797966,,0.0103834744183,-0.0186066689816,0.0530685720998,-0.998363547199
98220000000,,178,,98,220000000,"""map""",,,0.0305756106973,0.00999145302922,0.039764020592,,0.0103792719166,-0.018567394375,0.0530867795383,-0.998363378611
98252000000,,179,,98,252000000,"""map""",,,0.0316089242697,0.0103532075882,0.0393373779953,,0.0103815656271,-0.0185496222343,0.0530838714058,-0.998363842227
98284000000,,180,,98,284000000,"""map""",,,0.0329057574272,0.0107532991096,0.0391227826476,,0.0104043894626,-0.0182383480017,0.0530719438476,-0.99836995352
98320000000,,181,,98,320000000,"""map""",,,0.0344348847866,0.0111906835809,0.0391132459044,,0.0103584395196,-0.018207361507,0.0530767907352,-0.99837075431
98352000000,,182,,98,352000000,"""map""",,,0.0349350199103,0.0111511545256,0.0383262038231,,0.0103925501495,-0.0182039864664,0.0530704687079,-0.99837075431
98384000000,,183,,98,384000000,"""map""",,,0.0352488420904,0.0110009405762,0.0373154357076,,0.0103904470876,-0.0180745439457,0.0529918226886,-0.998377329218
98420000000,,184,,98,420000000,"""map""",,,0.0359312444925,0.0108833396807,0.0361732020974,,0.0103180901683,-0.0179466901637,0.0529358938207,-0.998383356217
98452000000,,185,,98,452000000,"""map""",,,0.0367487519979,0.0108544379473,0.0352004505694,,0.0102991188181,-0.0179390036322,0.0529050423275,-0.998385294972
98484000000,,186,,98,484000000,"""map""",,,0.0378095693886,0.0108492281288,0.0343792028725,,0.0102816822059,-0.0178036315768,0.0529091727187,-0.99838773949
98520000000,,187,,98,520000000,"""map""",,,0.039075113833,0.0108942687511,0.0338036082685,,0.0102698356488,-0.0177437889788,0.052858175032,-0.998391617
98552000000,,188,,98,552000000,"""map""",,,0.0391845628619,0.0107841026038,0.033495079726,,0.0101470042564,-0.01767996515,0.0528411055584,-0.998394862307
98584000000,,189,,98,584000000,"""map""",,,0.0391044951975,0.0106666153297,0.03338618204,,0.0100329469818,-0.0174988733128,0.0528285036506,-0.998399877782
98620000000,,190,,98,620000000,"""map""",,,0.0393561981618,0.0105785606429,0.0334456861019,,0.00992588740115,-0.0173566132111,0.0528546346967,-0.998402069418
98652000000,,191,,98,652000000,"""map""",,,0.0398331284523,0.0105618098751,0.0334372930229,,0.00995751268406,-0.0173048680764,0.0528320018391,-0.998403797439
98684000000,,192,,98,684000000,"""map""",,,0.0405227504671,0.0106164868921,0.0335388593376,,0.00994054726044,-0.0171985039187,0.0528239096442,-0.998406241956
98720000000,,193,,98,720000000,"""map""",,,0.0414249561727,0.0107197044417,0.0336687788367,,0.0099539068236,-0.0171358483479,0.0527927209763,-0.998408855061
98752000000,,194,,98,752000000,"""map""",,,0.0411973334849,0.0108658336103,0.0334086082876,,0.00990562793791,-0.0171147587893,0.0527544516378,-0.998411721046
98784000000,,195,,98,784000000,"""map""",,,0.04078553617,0.0110567416996,0.0331243239343,,0.00995924037557,-0.0169711206832,0.0526919478615,-0.998416989403
98820000000,,196,,98,820000000,"""map""",,,0.040610730648,0.0113379694521,0.0328633859754,,0.00993453013927,-0.0167740963495,0.0525614190716,-0.998427399674
98852000000,,197,,98,852000000,"""map""",,,0.0407396964729,0.0116271628067,0.0327168665826,,0.00993316991559,-0.0167049369931,0.0524984938268,-0.998431909387
98884000000,,198,,98,884000000,"""map""",,,0.0410992056131,0.0119561199099,0.0326264724135,,0.00990846066711,-0.0165859044147,0.0523602943105,-0.998441392428
98920000000,,199,,98,920000000,"""map""",,,0.0416952669621,0.0123483268544,0.0326899215579,,0.00995109121656,-0.0164799745671,0.0522659696636,-0.998447630161
98952000000,,200,,98,952000000,"""map""",,,0.0410266593099,0.0124010499567,0.0321679450572,,0.00992579224147,-0.0164097687835,0.0522481415467,-0.998450032532
98984000000,,201,,98,984000000,"""map""",,,0.0401165485382,0.0123889679089,0.0314944311976,,0.00993131314935,-0.0161841201542,0.0522142133336,-0.998455385182
99020000000,,202,,99,20000000,"""map""",,,0.0393160507083,0.0124497506768,0.0307146348059,,0.00993198980383,-0.0160244155378,0.0521505715923,-0.99846128574
99052000000,,203,,99,52000000,"""map""",,,0.0389562733471,0.012540942058,0.0303352158517,,0.00987689564102,-0.0159452482805,0.0521324063006,-0.998464025285
99084000000,,204,,99,84000000,"""map""",,,0.0388224646449,0.0126508967951,0.0301877539605,,0.00987015346235,-0.0158288663437,0.0520715462514,-0.998469167201
99120000000,,205,,99,120000000,"""map""",,,0.038895059377,0.0128041859716,0.030146215111,,0.00976798851374,-0.0156467112865,0.0520305373678,-0.998475109907
99152000000,,206,,99,152000000,"""map""",,,0.0379213318229,0.0129301529378,0.029461460188,,0.00974187689473,-0.0156168439881,0.0519788231847,-0.998478523801
99184000000,,207,,99,184000000,"""map""",,,0.0368217565119,0.0130765372887,0.028802793473,,0.00970745049276,-0.0154310899851,0.0519144228001,-0.998485183003
99220000000,,208,,99,220000000,"""map""",,,0.0358119495213,0.0133689083159,0.028100123629,,0.00967535533835,-0.015334392273,0.051773694473,-0.99849432887
99252000000,,209,,99,252000000,"""map""",,,0.0352435931563,0.0136737059802,0.0276835411787,,0.00963286176615,-0.0152537959741,0.0517487856855,-0.998497237002
99284000000,,210,,99,284000000,"""map""",,,0.034907374531,0.0140289403498,0.0274485871196,,0.00967978948315,-0.0151379133788,0.0516969872087,-0.998501156659
99320000000,,211,,99,320000000,"""map""",,,0.034775018692,0.0144513295963,0.0272277798504,,0.00985153031757,-0.0150193302571,0.0515711788659,-0.998507773714
99352000000,,212,,99,352000000,"""map""",,,0.0332970060408,0.0141108641401,0.0260019376874,,0.00982933407493,-0.0149900836369,0.0515332467022,-0.998510386819
99384000000,,213,,99,384000000,"""map""",,,0.0323634594679,0.0138124804944,0.0251373704523,,0.00976233886041,-0.0148321885361,0.0514035608493,-0.998520122741
99420000000,,214,,99,420000000,"""map""",,,0.0310892667621,0.0133542437106,0.0239651929587,,0.00969228026147,-0.014684018656,0.0512982358749,-0.99852842567
99452000000,,215,,99,452000000,"""map""",,,0.0303106140345,0.0130465589464,0.0233020130545,,0.00964827203691,-0.0146669060477,0.0512325289381,-0.998532429621
99484000000,,216,,99,484000000,"""map""",,,0.0297589544207,0.0127607882023,0.0229452550411,,0.0095641775496,-0.0145478474568,0.0511639138687,-0.998538498767
99520000000,,217,,99,520000000,"""map""",,,0.0294297784567,0.0125208059326,0.0227522198111,,0.00952820208631,-0.0144538420393,0.0510947508903,-0.998543767123
99552000000,,218,,99,552000000,"""map""",,,0.0283521227539,0.0121087217703,0.0225136466324,,0.00948983577718,-0.0143957078704,0.0509891308879,-0.998550342031
99584000000,,219,,99,584000000,"""map""",,,0.0272427927703,0.0116758719087,0.0223645456135,,0.00944888566868,-0.0143200824301,0.0508998638628,-0.998556411177
99620000000,,220,,99,620000000,"""map""",,,0.0261914953589,0.0112651428208,0.0222880523652,,0.00930120558104,-0.0141565027732,0.0508227772769,-0.998564039757
99652000000,,221,,99,652000000,"""map""",,,0.0256071779877,0.0110030518845,0.022419642657,,0.00924937582336,-0.0141069324817,0.0507327516084,-0.998569856022
99684000000,,222,,99,684000000,"""map""",,,0.0252416394651,0.0107964398339,0.0226549040526,,0.00912786119074,-0.0140044102727,0.0505886936802,-0.998579718385
99720000000,,223,,99,720000000,"""map""",,,0.0250675510615,0.0106325540692,0.0229432564229,,0.00913797215385,-0.0139633003025,0.0504866983068,-0.998585366062
99752000000,,224,,99,752000000,"""map""",,,0.0240974910557,0.0102942660451,0.0228278376162,,0.00911452467664,-0.0139271600384,0.0504686173088,-0.998586925496
99784000000,,225,,99,784000000,"""map""",,,0.0230427235365,0.00994144752622,0.0225508864969,,0.00905237025816,-0.0137503365575,0.0503508168672,-0.998595902774
99820000000,,226,,99,820000000,"""map""",,,0.0220710597932,0.00949976779521,0.0224484074861,,0.00899916545954,-0.0136575789172,0.0503163407452,-0.99859944311
99852000000,,227,,99,852000000,"""map""",,,0.0215451214463,0.00918014906347,0.0226670708507,,0.00898589084862,-0.013592033653,0.050282454679,-0.998602140508
99884000000,,228,,99,884000000,"""map""",,,0.0212307628244,0.00890057906508,0.0229503959417,,0.00891035134838,-0.0135490930938,0.0501810915083,-0.998608504682
99920000000,,229,,99,920000000,"""map""",,,0.0211045481265,0.00863678939641,0.0231925975531,,0.00886205863325,-0.0134880121028,0.0501195149626,-0.998612845808
99952000000,,230,,99,952000000,"""map""",,,0.0201569199562,0.00819400139153,0.0230550840497,,0.00886730097681,-0.0135156047884,0.0500518692707,-0.998615838234
99984000000,,231,,99,984000000,"""map""",,,0.0191225912422,0.00772735243663,0.0228832866997,,0.00881111313621,-0.0134052098445,0.0499254708721,-0.998624141163
100020000000,,232,,100,20000000,"""map""",,,0.0181508287787,0.00718990340829,0.0228228177875,,0.0088165602871,-0.0133068578686,0.0498458554752,-0.998629409519
100052000000,,233,,100,52000000,"""map""",,,0.0176333412528,0.00682025263086,0.0228563323617,,0.00877739697449,-0.0132574667012,0.0497759760004,-0.998633877085
100084000000,,234,,100,84000000,"""map""",,,0.0173601917922,0.00645046960562,0.0230902172625,,0.00900179996685,-0.0131975799807,0.0496355005543,-0.998639651203
100120000000,,235,,100,120000000,"""map""",,,0.0172719955444,0.00607939064503,0.0234879925847,,0.00894104758962,-0.0131687940125,0.0494974696254,-0.99864744837
100152000000,,236,,100,152000000,"""map""",,,0.0164171233773,0.00544634088874,0.0236519854516,,0.00890221684198,-0.013154623781,0.0494307933111,-0.998651241587
100184000000,,237,,100,184000000,"""map""",,,0.0154661731794,0.00476369680837,0.0238822996616,,0.00879047040006,-0.0130568253118,0.0492999694933,-0.998660008131
100220000000,,238,,100,220000000,"""map""",,,0.0146178184077,0.00398466829211,0.0242344718426,,0.00881459683665,-0.0130408384853,0.0491779965137,-0.998665992984
100252000000,,239,,100,252000000,"""map""",,,0.0141875278205,0.00339271291159,0.0245409682393,,0.008817831278,-0.0130197350973,0.0491348802877,-0.998668395354
100284000000,,240,,100,284000000,"""map""",,,0.0139655135572,0.00282727275044,0.0248666983098,,0.0087174737048,-0.012941097639,0.0490211680904,-0.998675897493
100320000000,,241,,100,320000000,"""map""",,,0.0139090307057,0.00229985732585,0.0251916646957,,0.00869558352072,-0.0128585005173,0.0488933788457,-0.998683399632
100352000000,,242,,100,352000000,"""map""",,,0.0133142732084,0.00181435770355,0.0252998769283,,0.00868581944593,-0.0128211536351,0.0488201697699,-0.99868757217
100384000000,,243,,100,384000000,"""map""",,,0.0126804113388,0.00133827398531,0.0253805089742,,0.00869347469657,-0.0127780370798,0.0486986604056,-0.998693936344
100420000000,,244,,100,420000000,"""map""",,,0.0121649168432,0.000730531814042,0.0254558045417,,0.00869338496988,-0.0126663322908,0.0485406518705,-0.99870308221
100452000000,,245,,100,452000000,"""map""",,,0.0119641590863,0.000239310058532,0.0256524626166,,0.00873879293079,-0.0126636111849,0.0484553045023,-0.99870683328
100484000000,,246,,100,484000000,"""map""",,,0.0119323320687,-0.000227461539907,0.025907330215,,0.00867369811108,-0.012674528865,0.0482908053526,-0.998715304796
100520000000,,247,,100,520000000,"""map""",,,0.0120466332883,-0.000647946435492,0.0260918345302,,0.00868780396981,-0.012648255738,0.0480877418364,-0.998725251453
100552000000,,248,,100,552000000,"""map""",,,0.0111787589267,-0.00101239222568,0.0259226057678,,0.00862178801097,-0.0125890731662,0.0480614000561,-0.998727906704
100584000000,,249,,100,584000000,"""map""",,,0.0101574454457,-0.00136150536127,0.0257451925427,,0.00858732028533,-0.0125626808426,0.0479167099252,-0.99873545099
100620000000,,250,,100,620000000,"""map""",,,0.00913233775645,-0.00181606027763,0.0255823433399,,0.00859535008315,-0.012452250008,0.0478146724049,-0.998741646577
100652000000,,251,,100,652000000,"""map""",,,0.00850798003376,-0.00219704629853,0.025594625622,,0.00859080678459,-0.0124753668958,0.0477324860503,-0.998745355499
100684000000,,252,,100,684000000,"""map""",,,0.00805081799626,-0.00258379662409,0.0256352797151,,0.00862559851413,-0.0122318020693,0.0476416595918,-0.998752394023
100720000000,,253,,100,720000000,"""map""",,,0.00777311623096,-0.00293772830628,0.0259222276509,,0.00861330661625,-0.0121373728784,0.0475903247303,-0.998756102946
100752000000,,254,,100,752000000,"""map""",,,0.007003180217,-0.00291697587818,0.0256297625601,,0.00860535304496,-0.012137030106,0.0475197287591,-0.99875951684
100784000000,,255,,100,784000000,"""map""",,,0.00621937029064,-0.00277684582397,0.0252523720264,,0.00857701472232,-0.0120921303768,0.0473534172948,-0.998768199091
100820000000,,256,,100,820000000,"""map""",,,0.00552418082952,-0.00262900721282,0.0249737277627,,0.00861291428836,-0.0120590915281,0.0472191374355,-0.998774689706
100852000000,,257,,100,852000000,"""map""",,,0.00515242572874,-0.00253023114055,0.0248245391995,,0.00857451521664,-0.012054910429,0.0471482885831,-0.998778440775
100884000000,,258,,100,884000000,"""map""",,,0.00493080401793,-0.00247898441739,0.0247012805194,,0.00854507728932,-0.0120615587651,0.0470323426029,-0.998784046306
100920000000,,259,,100,920000000,"""map""",,,0.0048578302376,-0.00247572618537,0.0246513802558,,0.00856924126295,-0.0120181270962,0.0469147528955,-0.998789862571
100952000000,,260,,100,952000000,"""map""",,,0.00424155639485,-0.00249520153739,0.0239960104227,,0.00859032703492,-0.0120106929519,0.0468675905721,-0.998792012061
100984000000,,261,,100,984000000,"""map""",,,0.0035684837494,-0.00252599013038,0.0232889205217,,0.00864079541647,-0.0118720678513,0.0467152297147,-0.99880031499
101020000000,,262,,101,20000000,"""map""",,,0.00298830657266,-0.00258453073911,0.0225277151912,,0.00862758633073,-0.011809047776,0.0466395339748,-0.998804782556
101052000000,,263,,101,52000000,"""map""",,,0.00270720385015,-0.00262792990543,0.022056736052,,0.00861969449798,-0.01179531169,0.0465291092317,-0.998810177352
101084000000,,264,,101,84000000,"""map""",,,0.00260091992095,-0.00269893137738,0.0217504929751,,0.00864458336448,-0.0118119348351,0.0463773384302,-0.998816794407
101120000000,,265,,101,120000000,"""map""",,,0.00258684670553,-0.00277459737845,0.0215448103845,,0.0086231434602,-0.0117620267103,0.0462601280445,-0.998822989994
101152000000,,266,,101,152000000,"""map""",,,0.0018615743611,-0.00290394597687,0.0209932215512,,0.00865378537152,-0.0117454249679,0.0462202992726,-0.998824802309
101184000000,,267,,101,184000000,"""map""",,,0.00100510625634,-0.00308430194855,0.0203772708774,,0.00856688466143,-0.0116773872774,0.0460942380487,-0.998832093713
101220000000,,268,,101,220000000,"""map""",,,0.000176414323505,-0.00332416966558,0.0196061898023,,0.00852083396108,-0.0116454821131,0.0459800200893,-0.99883816286
101252000000,,269,,101,252000000,"""map""",,,-0.000330996554112,-0.00352778076194,0.0191066339612,,0.00851105276413,-0.0116213970002,0.045959789602,-0.998839427265
101284000000,,270,,101,284000000,"""map""",,,-0.00070197659079,-0.00378388888203,0.0187633372843,,0.00850435618967,-0.0116129931491,0.045843759328,-0.998844948502
101320000000,,271,,101,320000000,"""map""",,,-0.000944203056861,-0.00407265126705,0.0184440538287,,0.00850347686812,-0.0115535550621,0.045708004329,-0.998851818439
101352000000,,272,,101,352000000,"""map""",,,-0.00104859052226,-0.00424413569272,0.0179540980607,,0.00849703630283,-0.0115755306923,0.0456378719731,-0.998854853012
101384000000,,273,,101,384000000,"""map""",,,-0.00104981381446,-0.00437127007172,0.0173267237842,,0.00851060923441,-0.0116091661823,0.0454880820734,-0.998861175039
101420000000,,274,,101,420000000,"""map""",,,-0.000936103519052,-0.00450766319409,0.0170467272401,,0.00853682506809,-0.0113858795875,0.045303478877,-0.998871964632
101452000000,,275,,101,452000000,"""map""",,,-0.000728094018996,-0.0046587777324,0.0169136375189,,0.00855932522902,-0.01143920029,0.0452283310461,-0.99887453559
101484000000,,276,,101,484000000,"""map""",,,-0.000413598521845,-0.00483154132962,0.0168746616691,,0.00859625986239,-0.0114485060178,0.0451131015622,-0.998879340331
101520000000,,277,,101,520000000,"""map""",,,8.85597764864e-05,-0.00507346726954,0.0167128480971,,0.00860323319018,-0.0114566515548,0.0449609092923,-0.99888604168
101552000000,,278,,101,552000000,"""map""",,,-4.61524177808e-06,-0.00526545615867,0.0165350139141,,0.0086324641699,-0.0114733882988,0.0448914512859,-0.998888739078
101584000000,,279,,101,584000000,"""map""",,,-0.000126389466459,-0.00546191027388,0.016461584717,,0.00860837296543,-0.0114562309095,0.0447170897736,-0.998896957713
101620000000,,280,,101,620000000,"""map""",,,-0.000124410857097,-0.00568442419171,0.0164687726647,,0.00863156723228,-0.0113966942054,0.0445334138078,-0.998905639964
101652000000,,281,,101,652000000,"""map""",,,-3.90973145841e-05,-0.0059379376471,0.0166195817292,,0.00862581435209,-0.0114412906749,0.0444580130958,-0.998908548097
101684000000,,282,,101,684000000,"""map""",,,0.000152221997268,-0.00621642172337,0.0167970452458,,0.0086720685427,-0.0114456008487,0.0443563548972,-0.998912594194
101720000000,,283,,101,720000000,"""map""",,,0.000484748336021,-0.00659254705533,0.0169492140412,,0.00863860773161,-0.0114024136645,0.0442164273602,-0.998919590571
101752000000,,284,,101,752000000,"""map""",,,0.000377850345103,-0.00673105986789,0.0166403967887,,0.00862148491586,-0.0113994877512,0.044187261741,-0.998921107858
101784000000,,285,,101,784000000,"""map""",,,0.000261058477918,-0.00684177363291,0.0162395015359,,0.0085849221955,-0.0113749586147,0.0440574915944,-0.998927387738
101820000000,,286,,101,820000000,"""map""",,,0.000252733618254,-0.00699433125556,0.0158876739442,,0.00860901405851,-0.0113706059648,0.0439281007695,-0.998932951122
101852000000,,287,,101,852000000,"""map""",,,0.00035979351378,-0.00715880515054,0.0155941583216,,0.0086359394739,-0.0113531517365,0.0438499605124,-0.99893632287
101884000000,,288,,101,884000000,"""map""",,,0.000563617853913,-0.0073903570883,0.0154610536993,,0.00859630810077,-0.0113730768238,0.04369953841,-0.998943024219
101920000000,,289,,101,920000000,"""map""",,,0.000966450897977,-0.0077113523148,0.0154302958399,,0.00858743157935,-0.0114105631528,0.0435682509769,-0.998948376869
101952000000,,290,,101,952000000,"""map""",,,0.000546801718883,-0.00774957658723,0.0153253916651,,0.00856591989373,-0.0113884712894,0.0434743477984,-0.998952928728
101984000000,,291,,101,984000000,"""map""",,,7.75666558184e-06,-0.00771398330107,0.0151017354801,,0.00862806780908,-0.0113440290017,0.0433051282017,-0.998960304427
102020000000,,292,,102,20000000,"""map""",,,-0.00041704979958,-0.0076929749921,0.0150413652882,,0.00858530250496,-0.0110219171845,0.0431127278382,-0.99897256916
102052000000,,293,,102,52000000,"""map""",,,-0.000676624360494,-0.00769488606602,0.0151472520083,,0.00856234021042,-0.011023114583,0.0430484117474,-0.998975519439
102084000000,,294,,102,84000000,"""map""",,,-0.000824164075311,-0.00774344895035,0.0152325481176,,0.0085648388106,-0.0109848333085,0.0429412323116,-0.998980534914
102120000000,,295,,102,120000000,"""map""",,,-0.000854348705616,-0.00785264745355,0.0150647377595,,0.00854303958798,-0.0109936117891,0.0428061516622,-0.998986393326
102152000000,,296,,102,152000000,"""map""",,,-0.000796166597866,-0.00797794386744,0.0148394638672,,0.00851666537434,-0.0110357779,0.0427413298091,-0.998988922137
102184000000,,297,,102,184000000,"""map""",,,-0.000658814620692,-0.00811334419996,0.0146559458226,,0.00851839759335,-0.0110654806446,0.0425478757745,-0.998996845744
102220000000,,298,,102,220000000,"""map""",,,-0.000454620894743,-0.00826822500676,0.0145993633196,,0.00855715433705,-0.0111042833217,0.0424051665454,-0.999002156247
102252000000,,299,,102,252000000,"""map""",,,-0.000675261195283,-0.00835796073079,0.0141695328057,,0.00858383518548,-0.011108950509,0.0423043512838,-0.999006202345
102284000000,,300,,102,284000000,"""map""",,,-0.000957248790655,-0.00844950322062,0.0136724887416,,0.008560008222,-0.0111943421643,0.0421065561237,-0.999013746631
102320000000,,301,,102,320000000,"""map""",,,-0.00121899694204,-0.00858972687274,0.0130810532719,,0.00848147530769,-0.0110700960537,0.0419809163683,-0.999021122329
102352000000,,302,,102,352000000,"""map""",,,-0.00134528358467,-0.00871986523271,0.0127064995468,,0.00851457013267,-0.0110763466289,0.0419021439084,-0.999024030462
102384000000,,303,,102,384000000,"""map""",,,-0.00137010775506,-0.00888090208173,0.0124235898256,,0.00858062107669,-0.0111358801226,0.0418230342738,-0.999026179951
102420000000,,304,,102,420000000,"""map""",,,-0.00126935320441,-0.00908133760095,0.0121361073107,,0.00846662833944,-0.0110122620988,0.0416498528733,-0.999035747285
102452000000,,305,,102,452000000,"""map""",,,-0.00158618041314,-0.00904299411923,0.0119780236855,,0.00847808503825,-0.0110218906781,0.0415853260482,-0.99903823395
102484000000,,306,,102,484000000,"""map""",,,-0.00199432321824,-0.00894620455801,0.0119244717062,,0.0085280083919,-0.0109526930438,0.0414001749427,-0.999046283998
102520000000,,307,,102,520000000,"""map""",,,-0.00238973135129,-0.00888704974204,0.0120284054428,,0.00834981645548,-0.0107740236626,0.0412403540931,-0.999056314948
102552000000,,308,,102,552000000,"""map""",,,-0.00257586035877,-0.00884498562664,0.0122896749526,,0.00837130138773,-0.0107596984262,0.0411889770848,-0.999058380143
102584000000,,309,,102,584000000,"""map""",,,-0.00268219225109,-0.00883241184056,0.0125834364444,,0.00839856447182,-0.0107231827918,0.0411252931967,-0.999061203982
102620000000,,310,,102,620000000,"""map""",,,-0.00273828674108,-0.0088130813092,0.012806029059,,0.00846786368662,-0.0106873916386,0.0410688164197,-0.999063311324
102652000000,,311,,102,652000000,"""map""",,,-0.00331109995022,-0.00854684598744,0.0129424864426,,0.00846945250757,-0.0107227721893,0.041005301119,-0.999065545107
102684000000,,312,,102,684000000,"""map""",,,-0.00412543211132,-0.0080882795155,0.0133737456053,,0.00804503489551,-0.0106573775672,0.040366776364,-0.999095722251
102720000000,,313,,102,720000000,"""map""",,,-0.00538798747584,-0.00734950229526,0.0150985727087,,0.00577724978976,-0.00944394362142,0.0389733172586,-0.99917892013
102752000000,,314,,102,752000000,"""map""",,,-0.00661485781893,-0.00671555567533,0.017877953127,,0.00413554854538,-0.00832447706222,0.0380431784588,-0.999232910243
102784000000,,315,,102,784000000,"""map""",,,-0.00801214389503,-0.00609793467447,0.0217461399734,,-0.000476911347236,-0.00448942468074,0.0357738656944,-0.999349783454
102820000000,,316,,102,820000000,"""map""",,,-0.00959470216185,-0.00548577494919,0.0264866854995,,-0.00638878706149,0.00119533747197,0.0330750343969,-0.999431801221
102852000000,,317,,102,852000000,"""map""",,,-0.0115222875029,-0.00502212997526,0.0323115065694,,-0.00963575080091,0.00472717472391,0.0316145618023,-0.99944250652
102884000000,,318,,102,884000000,"""map""",,,-0.0136499479413,-0.00469017121941,0.0388201512396,,-0.0168099486649,0.0126839312342,0.0286129053982,-0.999368791682
102920000000,,319,,102,920000000,"""map""",,,-0.0164766535163,-0.00451025273651,0.0475648604333,,-0.0248011457359,0.0217130961949,0.0254620912972,-0.999132179275
102956000000,,320,,102,952000000,"""map""",,,-0.0188808273524,-0.00459906086326,0.0549610108137,,-0.0300184925886,0.0275668150205,0.0235304590831,-0.998892068679
102984000000,,321,,102,984000000,"""map""",,,-0.0214420389384,-0.00495068123564,0.0627704188228,,-0.0394424791421,0.0381254027208,0.0202520664717,-0.998288820836
103020000000,,322,,103,20000000,"""map""",,,-0.0241672806442,-0.00558122992516,0.0710706263781,,-0.0488699273349,0.0483953579366,0.0173333550654,-0.997481413659
103052000000,,323,,103,52000000,"""map""",,,-0.0270386058837,-0.00630524894223,0.0788773074746,,-0.0544534264981,0.0545072193769,0.0157380968493,-0.996903327485
103084000000,,324,,103,84000000,"""map""",,,-0.0303228478879,-0.00761756720021,0.0868387743831,,-0.0663716834675,0.067558451876,0.0124867625146,-0.995426965529
103120000000,,325,,103,120000000,"""map""",,,-0.0361848026514,-0.0111895706505,0.0973188057542,,-0.0774904678158,0.0801543610223,0.00935086839802,-0.993721872625
103152000000,,326,,103,152000000,"""map""",,,-0.0427163913846,-0.0159387420863,0.106684394181,,-0.0818969272484,0.0855503418594,0.00780214030264,-0.992931619216
103184000000,,327,,103,184000000,"""map""",,,-0.0510750263929,-0.0225781425834,0.117161870003,,-0.0888722203049,0.0932480210333,0.00457466108422,-0.991658067894
103220000000,,328,,103,220000000,"""map""",,,-0.0612723492086,-0.0311438981444,0.128966912627,,-0.0929646756733,0.0958662711785,0.00212736217859,-0.991041290913
103252000000,,329,,103,252000000,"""map""",,,-0.0730703398585,-0.0410769507289,0.141756340861,,-0.0941550808939,0.096235109692,0.00122773769712,-0.990894662027
103284000000,,330,,103,284000000,"""map""",,,-0.0865357890725,-0.0527492240071,0.155624553561,,-0.0960348888039,0.0961935787267,-0.000799483569403,-0.990718698935
103320000000,,331,,103,320000000,"""map""",,,-0.105651214719,-0.0699273273349,0.17466750741,,-0.0970232168228,0.0955063899404,-0.00286219248237,-0.990685023603
103352000000,,332,,103,352000000,"""map""",,,-0.122716270387,-0.0856583565474,0.191387265921,,-0.0972763477491,0.0953196403004,-0.0035223385706,-0.990676046324
103384000000,,333,,103,384000000,"""map""",,,-0.141253232956,-0.10305801034,0.209506884217,,-0.097793270532,0.0949773951312,-0.00505597809422,-0.990651432564
103420000000,,334,,103,420000000,"""map""",,,-0.16117426753,-0.12206093967,0.228886514902,,-0.0982131372722,0.0947026821373,-0.0063782933194,-0.990628588972
103452000000,,335,,103,452000000,"""map""",,,-0.180806323886,-0.140587493777,0.24843069911,,-0.0984201441529,0.0945247355087,-0.00693842493611,-0.990621255421
103484000000,,336,,103,484000000,"""map""",,,-0.201263949275,-0.160069063306,0.269043833017,,-0.0985752522933,0.0942212493881,-0.00795370036988,-0.990627113833
103520000000,,337,,103,520000000,"""map""",,,-0.228668123484,-0.186682671309,0.296909034252,,-0.0987906424455,0.0941746362907,-0.00858042400724,-0.990604860297
103552000000,,338,,103,552000000,"""map""",,,-0.252017498016,-0.209731131792,0.320850104094,,-0.0989086009378,0.094224295815,-0.00881960737254,-0.990586273537
103584000000,,339,,103,584000000,"""map""",,,-0.276524424553,-0.234203726053,0.346278190613,,-0.098461353234,0.0938121692776,-0.0090853432524,-0.990667574807
103620000000,,340,,103,620000000,"""map""",,,-0.302096635103,-0.260006815195,0.373106300831,,-0.097712164355,0.0931079240857,-0.00932570672946,-0.990805858617
103652000000,,341,,103,652000000,"""map""",,,-0.328151613474,-0.28630182147,0.40037754178,,-0.0973300231601,0.0925880173554,-0.00943937677989,-0.990891121692
103684000000,,342,,103,684000000,"""map""",,,-0.355020582676,-0.313624024391,0.428830981255,,-0.0965197852296,0.0921361257603,-0.009614623376,-0.991010818742
103720000000,,343,,103,720000000,"""map""",,,-0.389882445335,-0.349493503571,0.466604024172,,-0.0955302116356,0.0922285193902,-0.0098523316016,-0.991095786788
103752000000,,344,,103,752000000,"""map""",,,-0.418672740459,-0.379487633705,0.498658776283,,-0.09493680146,0.0919233166087,-0.00997851926605,-0.991179911898
103784000000,,345,,103,784000000,"""map""",,,-0.448240607977,-0.410526573658,0.532239615917,,-0.0935788432541,0.0909116314772,-0.0101278034035,-0.991400845678
103820000000,,346,,103,820000000,"""map""",,,-0.478527784348,-0.442508965731,0.567465484142,,-0.0923876531308,0.0907559347627,-0.0102380174123,-0.991525642496
103852000000,,347,,103,852000000,"""map""",,,-0.509542703629,-0.475181519985,0.603428661823,,-0.091756755803,0.0906737074137,-0.0103465876941,-0.991590632937
103884000000,,348,,103,884000000,"""map""",,,-0.541149675846,-0.508640468121,0.640718340874,,-0.0905020657416,0.0902194481351,-0.0105102439069,-0.991745691192
103920000000,,349,,103,920000000,"""map""",,,-0.581404626369,-0.551521420479,0.689403712749,,-0.089246523359,0.0899101412527,-0.0107191236881,-0.991885281555
103952000000,,350,,103,952000000,"""map""",,,-0.614206850529,-0.586618423462,0.729966521263,,-0.0885865364534,0.0898451180703,-0.0107766119894,-0.991949681939
103984000000,,351,,103,984000000,"""map""",,,-0.647511363029,-0.622379779816,0.772050261497,,-0.0871051114421,0.0896672638026,-0.0108358283116,-0.992096310825
104020000000,,352,,104,20000000,"""map""",,,-0.681292235851,-0.658729374409,0.815692782402,,-0.0860175592668,0.089494309106,-0.0108488516878,-0.992206693421
104052000000,,353,,104,52000000,"""map""",,,-0.71695971489,-0.696065664291,0.860482633114,,-0.0853785898297,0.0895264060714,-0.0108258395085,-0.992259292688
104084000000,,354,,104,84000000,"""map""",,,-0.753393471241,-0.73396730423,0.906745016575,,-0.0841525610556,0.0895038976787,-0.0107855049745,-0.99236638783
104120000000,,355,,104,120000000,"""map""",,,-0.799309909344,-0.781860232353,0.966667473316,,-0.0829568697806,0.0893105236572,-0.0107699527874,-0.992484694034
104152000000,,356,,104,148000000,"""map""",,,-0.836319386959,-0.82055336237,1.01624071598,,-0.0821300948097,0.0889361029088,-0.0107597111032,-0.992587153023
104184000000,,357,,104,184000000,"""map""",,,-0.873534560204,-0.85950499773,1.06724965572,,-0.0795103491099,0.0870568727276,-0.0106760496089,-0.992967865505
104220000000,,358,,104,220000000,"""map""",,,-0.910916626453,-0.898639321327,1.11957979202,,-0.0756091321031,0.0836747244533,-0.0105504520003,-0.993564580587
104252000000,,359,,104,252000000,"""map""",,,-0.949632585049,-0.938455820084,1.17342758179,,-0.0732476817181,0.0814651067729,-0.0104957875378,-0.993925652638
104284000000,,360,,104,284000000,"""map""",,,-0.988611280918,-0.978398323059,1.22878646851,,-0.0676031531775,0.0758449206715,-0.0103325949404,-0.994771624181
104320000000,,361,,104,320000000,"""map""",,,-1.03695225716,-1.02807557583,1.30024421215,,-0.0628849099635,0.0708300657184,-0.0100948867148,-0.995453054428
104352000000,,362,,104,352000000,"""map""",,,-1.07518351078,-1.06751406193,1.35916304588,,-0.0603580918085,0.0680712159914,-0.00993978631226,-0.995803463326
104384000000,,363,,104,384000000,"""map""",,,-1.11295068264,-1.10657858849,1.4196600914,,-0.0550902283359,0.0622928646214,-0.00965993123815,-0.996489529726
104420000000,,364,,104,420000000,"""map""",,,-1.15015935898,-1.14522457123,1.48170399666,,-0.0511589774191,0.0580620411493,-0.00936148940385,-0.996957401892
104452000000,,365,,104,452000000,"""map""",,,-1.18822598457,-1.18425154686,1.54510164261,,-0.0490960291252,0.0560223519889,-0.00918877161865,-0.99717943149
104484000000,,366,,104,484000000,"""map""",,,-1.22600805759,-1.22296619415,1.60995066166,,-0.045408110404,0.0526249745436,-0.0088888124978,-0.99754185224
104520000000,,367,,104,520000000,"""map""",,,-1.2721208334,-1.27050185204,1.69323706627,,-0.0422075673023,0.049797464637,-0.00856942367978,-0.997830305271
104552000000,,368,,104,552000000,"""map""",,,-1.3080933094,-1.30778050423,1.7616276741,,-0.0407374239816,0.0485665639506,-0.00840311221556,-0.997953458363
104584000000,,369,,104,584000000,"""map""",,,-1.34324407578,-1.34434425831,1.83138298988,,-0.0376791564575,0.0460307540289,-0.00811086596798,-0.99819622421
104620000000,,370,,104,620000000,"""map""",,,-1.37757980824,-1.3801857233,1.90181231499,,-0.0354997774946,0.0444587789831,-0.00790261838949,-0.998349006536
104652000000,,371,,104,652000000,"""map""",,,-1.41313803196,-1.41633939743,1.97198021412,,-0.0349210808496,0.0436902042002,-0.014886014013,-0.998323718427
104684000000,,372,,104,684000000,"""map""",,,-1.44841063023,-1.45206522942,2.04035997391,,-0.0338865976482,0.0436739506632,-0.0145583644126,-0.998364853751
104720000000,,373,,104,720000000,"""map""",,,-1.49126386642,-1.49572372437,2.12190532684,,-0.0334194805041,0.0443313977067,-0.0141143052167,-0.998358025961
104752000000,,374,,104,752000000,"""map""",,,-1.52463519573,-1.52989959717,2.18335795403,,-0.0331120827938,0.0447058036379,-0.0137985831745,-0.998355960766
104784000000,,375,,104,784000000,"""map""",,,-1.55736160278,-1.56355118752,2.23820495605,,-0.0321393605305,0.042830436808,-0.0129939576896,-0.998480757584
104820000000,,376,,104,820000000,"""map""",,,-1.58962965012,-1.59683704376,2.28486013412,,-0.0307554252957,0.0348374726974,-0.0118178920288,-0.99884979539
104852000000,,377,,104,852000000,"""map""",,,-1.62362122536,-1.63074171543,2.32450294495,,-0.0296479926496,0.0287552483118,-0.0111236491401,-0.999084806217
104884000000,,378,,104,884000000,"""map""",,,-1.65771079063,-1.66457796097,2.35572576523,,-0.0248930245486,0.0131310429486,-0.00991580475546,-0.999554743578
104920000000,,379,,104,920000000,"""map""",,,-1.69942617416,-1.70635056496,2.38225793839,,-0.0142981448308,-0.00534941861226,-0.00948131289416,-0.999838518309
104952000000,,380,,104,952000000,"""map""",,,-1.73175573349,-1.73918712139,2.39552640915,,-0.00692994979756,-0.0147026235262,-0.00962246268983,-0.999821617423
104984000000,,381,,104,984000000,"""map""",,,-1.76173734665,-1.77061903477,2.41215062141,,0.00316248482675,-0.0224240819192,-0.00997152288919,-0.999693828178
105020000000,,382,,105,20000000,"""map""",,,-1.78874731064,-1.80017495155,2.43946456909,,0.00207657654322,-0.0163020559267,-0.00978194636459,-0.999817149857
105052000000,,383,,105,52000000,"""map""",,,-1.81472170353,-1.82805562019,2.48481750488,,0.00176852127619,-0.0135567603628,-0.0095524989213,-0.999860982579
105084000000,,384,,105,84000000,"""map""",,,-1.83891034126,-1.85432958603,2.54384088516,,0.00120196111263,-0.00612748186908,-0.00901483157484,-0.999939839333
105120000000,,385,,105,120000000,"""map""",,,-1.86674499512,-1.88538336754,2.62448549271,,-0.00376253263708,0.00920939410455,-0.00842224688478,-0.999915056986
105152000000,,386,,105,152000000,"""map""",,,-1.88790535927,-1.90935111046,2.68624687195,,-0.00779450875961,0.0188354638073,-0.00821935195605,-0.999758439297
105184000000,,387,,105,184000000,"""map""",,,-1.90859103203,-1.93285000324,2.74226593971,,-0.0181451744906,0.0436336971301,-0.00786375899516,-0.998851902732
105220000000,,388,,105,220000000,"""map""",,,-1.92892849445,-1.95601558685,2.79202365875,,-0.0262208043761,0.0645681434697,-0.00762870602102,-0.99753957631
105252000000,,389,,105,252000000,"""map""",,,-1.95157003403,-1.97949266434,2.83220052719,,-0.0290299853427,0.0728187064842,-0.00742484171477,-0.996895024556
105284000000,,390,,105,284000000,"""map""",,,-1.97501254082,-2.00294446945,2.86740970612,,-0.0300879739732,0.0787617097863,-0.0068678711117,-0.996415688448
105320000000,,391,,105,320000000,"""map""",,,-2.00465989113,-2.03198337555,2.90901994705,,-0.0264394082255,0.075190889169,-0.00608760650522,-0.996800025559
105352000000,,392,,105,352000000,"""map""",,,-2.02849555016,-2.05490136147,2.9410905838,,-0.0234845216524,0.0706552270906,-0.00571549197971,-0.997207964906
105384000000,,393,,105,384000000,"""map""",,,-2.05204391479,-2.07752037048,2.96811056137,,-0.0168811444056,0.0535640833781,-0.00495946181113,-0.99840940297
105420000000,,394,,105,420000000,"""map""",,,-2.07530283928,-2.09993863106,2.98788666725,,-0.00974421373992,0.0254126589708,-0.00401427658642,-0.999621546333
105452000000,,395,,105,452000000,"""map""",,,-2.09960007668,-2.12208366394,3.00250411034,,-0.00616454228445,0.00808136383257,-0.00342211336484,-0.999942536731
105484000000,,396,,105,484000000,"""map""",,,-2.12348103523,-2.14386940002,3.01181435585,,0.00772646695323,-0.0380565534977,-0.00319098004761,-0.999240623116
105520000000,,397,,105,520000000,"""map""",,,-2.15108537674,-2.17028021812,3.01785302162,,0.04356992368,-0.0895423731416,-0.00599593710971,-0.995011524043
105552000000,,398,,105,552000000,"""map""",,,-2.17015504837,-2.18994069099,3.0209710598,,0.0636802450317,-0.107965703661,-0.00811225681398,-0.992079831407
105584000000,,399,,105,584000000,"""map""",,,-2.18550920486,-2.20730400085,3.02503252029,,0.0904904480596,-0.113439101509,-0.0133442822944,-0.989325534857
105620000000,,400,,105,620000000,"""map""",,,-2.19653606415,-2.22129058838,3.03368544579,,0.0792825684427,-0.0909886132723,-0.0164271978225,-0.992555037124
105652000000,,401,,105,652000000,"""map""",,,-2.20452737808,-2.23091673851,3.05598950386,,0.0666239653242,-0.0777829914753,-0.016914752566,-0.994597894872
105684000000,,402,,105,684000000,"""map""",,,-2.21042561531,-2.23876357079,3.10124230385,,0.0472591668988,-0.0501098628404,-0.017684311873,-0.997468221696
105720000000,,403,,105,720000000,"""map""",,,-2.21319413185,-2.24341726303,3.14462828636,,0.0212981528981,-0.0104750101293,-0.0186182017423,-0.999544881216
105752000000,,404,,105,752000000,"""map""",,,-2.21558856964,-2.24774575233,3.18755340576,,0.00142507648584,0.0171613083371,-0.0193630208492,-0.99966424109
105784000000,,405,,105,784000000,"""map""",,,-2.21825361252,-2.25231575966,3.22624969482,,-0.0347513251976,0.0673279520374,-0.0206315145488,-0.99691209403
105820000000,,406,,105,820000000,"""map""",,,-2.22153711319,-2.25741910934,3.26005554199,,-0.0627687377732,0.109908839331,-0.0216610777642,-0.991721203873
105852000000,,407,,105,852000000,"""map""",,,-2.22856616974,-2.26324295998,3.28782200813,,-0.0738322407263,0.127023391667,-0.0221820549587,-0.988899345925
105884000000,,408,,105,884000000,"""map""",,,-2.23807859421,-2.27028059959,3.3119533062,,-0.0836763642291,0.142130118188,-0.0230525559678,-0.986035467569
105920000000,,409,,105,920000000,"""map""",,,-2.25262594223,-2.28105902672,3.33914661407,,-0.0793082042634,0.137548479167,-0.0232565045678,-0.987040964934
105952000000,,410,,105,952000000,"""map""",,,-2.26619887352,-2.29119181633,3.3586397171,,-0.073473476215,0.129086342924,-0.0231730538077,-0.988636138856
105984000000,,411,,105,984000000,"""map""",,,-2.28055381775,-2.30208802223,3.37321901321,,-0.0570560762178,0.0966626261676,-0.0233047627093,-0.993407204254
106020000000,,412,,106,20000000,"""map""",,,-2.2952299118,-2.31343221664,3.38205051422,,-0.0412294690109,0.0542863954093,-0.0244087994061,-0.997375287895
106052000000,,413,,106,52000000,"""map""",,,-2.31107568741,-2.32387185097,3.38728523254,,-0.027682383984,0.025498493662,-0.0254431673622,-0.998967511538
106084000000,,414,,106,84000000,"""map""",,,-2.32662963867,-2.33405613899,3.38955354691,,0.0119222364304,-0.0295095697221,-0.0279245630683,-0.999103266537
106120000000,,415,,106,120000000,"""map""",,,-2.34391713142,-2.34618401527,3.39050006866,,0.0476182819203,-0.0664366535342,-0.030260004238,-0.996194291053
106152000000,,416,,106,152000000,"""map""",,,-2.35534381866,-2.35468912125,3.39092469215,,0.0594185888351,-0.076785316302,-0.0312205730624,-0.994785785522
106184000000,,417,,106,184000000,"""map""",,,-2.36451792717,-2.36171078682,3.39134550095,,0.0723979923618,-0.0828981401228,-0.0328252300257,-0.993382590495
106220000000,,418,,106,220000000,"""map""",,,-2.37155389786,-2.36722874641,3.39183950424,,0.0747187343241,-0.0757618889104,-0.0340632937007,-0.993738857805
106252000000,,419,,106,252000000,"""map""",,,-2.37814164162,-2.37047529221,3.39355444908,,0.0732333234722,-0.069888544306,-0.0345169623781,-0.994264091831
106284000000,,420,,106,284000000,"""map""",,,-2.38366532326,-2.37225341797,3.39505600929,,0.0671154077853,-0.0561662946718,-0.0352577775344,-0.995538907558
106320000000,,421,,106,320000000,"""map""",,,-2.38881087303,-2.37305641174,3.39619684219,,0.058644086493,-0.0413490376445,-0.0356738933697,-0.996784051904
106352000000,,422,,106,352000000,"""map""",,,-2.39150762558,-2.3722922802,3.40116715431,,0.0528805497402,-0.0336865008751,-0.03579679358,-0.997390376466
106384000000,,423,,106,380000000,"""map""",,,-2.3930516243,-2.37011504173,3.41688609123,,0.0306127088226,-0.0127044681093,-0.0352606013732,-0.998828426938
106420000000,,424,,106,420000000,"""map""",,,-2.39432215691,-2.3674633503,3.44235682487,,0.00730488552774,0.00914375582099,-0.0337129269491,-0.999363059711
106452000000,,425,,106,452000000,"""map""",,,-2.397315979,-2.36387372017,3.47242045403,,-0.00416038653932,0.0205376745906,-0.0326710990007,-0.999246523675
106484000000,,426,,106,484000000,"""map""",,,-2.40100908279,-2.36054515839,3.50119352341,,-0.0288262566966,0.0451357884205,-0.0306363755952,-0.998094861039
106520000000,,427,,106,520000000,"""map""",,,-2.40599751472,-2.35753273964,3.53072690964,,-0.0535693853199,0.0665342445619,-0.028674987706,-0.995932348389
106552000000,,428,,106,552000000,"""map""",,,-2.41064739227,-2.35631513596,3.5488960743,,-0.0639018716005,0.0751431315213,-0.0277019434145,-0.994737527381
106584000000,,429,,106,584000000,"""map""",,,-2.41581773758,-2.35609555244,3.56112766266,,-0.080859308552,0.0856655346293,-0.0258801880344,-0.99270006443
106620000000,,430,,106,620000000,"""map""",,,-2.42153787613,-2.35694789886,3.56740069389,,-0.0914696247176,0.0787983433002,-0.0256643118763,-0.992353533041
106652000000,,431,,106,652000000,"""map""",,,-2.42960786819,-2.35827994347,3.57028794289,,-0.090492259057,0.0670844394005,-0.0261975116569,-0.993289740987
106684000000,,432,,106,684000000,"""map""",,,-2.43875098228,-2.36099743843,3.57104969025,,-0.0639923529817,0.0367259182212,-0.0273774969746,-0.996898564891
106720000000,,433,,106,720000000,"""map""",,,-2.45024037361,-2.36631178856,3.57078146935,,-0.0247559392896,0.00738743111836,-0.02827492982,-0.999266332694
106752000000,,434,,106,752000000,"""map""",,,-2.45887327194,-2.37127256393,3.57124376297,,-0.00696892147373,-0.00552738466791,-0.0286647460218,-0.999549517369
106784000000,,435,,106,784000000,"""map""",,,-2.4665491581,-2.37616443634,3.57619857788,,0.0109609000724,-0.0160011606848,-0.0289089027153,-0.999393869057
106820000000,,436,,106,820000000,"""map""",,,-2.47318434715,-2.38064455986,3.5885925293,,0.00669749169457,-0.00744777565074,-0.0280599808926,-0.999556134424
106852000000,,437,,106,852000000,"""map""",,,-2.48022603989,-2.38331389427,3.6071100235,,0.00232209774086,-3.98170826777e-05,-0.0271747284864,-0.999628036948
106884000000,,438,,106,884000000,"""map""",,,-2.48738026619,-2.38569140434,3.62728261948,,-0.00501427444616,0.0120144076368,-0.0251208282648,-0.999599714265
106920000000,,439,,106,920000000,"""map""",,,-2.49632763863,-2.38922262192,3.64982366562,,-0.0124634474049,0.0233556286871,-0.0230054357912,-0.999384807485
106952000000,,440,,106,952000000,"""map""",,,-2.50354933739,-2.39256811142,3.66419696808,,-0.0173266662289,0.0302456776022,-0.0215950757995,-0.999159026817
106984000000,,441,,106,984000000,"""map""",,,-2.51097798347,-2.39647126198,3.67584514618,,-0.0225735372782,0.0363278004073,-0.0196328028265,-0.998892068679
107020000000,,442,,107,20000000,"""map""",,,-2.51882433891,-2.40102863312,3.68567943573,,-0.0246503482632,0.0372902776937,-0.0174708380853,-0.998847645901
107052000000,,443,,107,52000000,"""map""",,,-2.52711129189,-2.40624713898,3.69483137131,,-0.0244450773059,0.0364811161542,-0.0164466696665,-0.998899907993
107084000000,,444,,107,84000000,"""map""",,,-2.53571629524,-2.41209936142,3.70390057564,,-0.0219779670766,0.0314124014799,-0.0143942867314,-0.99916113416
107120000000,,445,,107,120000000,"""map""",,,-2.54683208466,-2.42018175125,3.71518754959,,-0.0187017618207,0.0246116060898,-0.012835822714,-0.999439766975
107152000000,,446,,107,152000000,"""map""",,,-2.55663013458,-2.4250125885,3.72679924965,,-0.0168552616308,0.0209874190012,-0.0120550523453,-0.999564985262
107184000000,,447,,107,184000000,"""map""",,,-2.5666217804,-2.42962908745,3.73870611191,,-0.0130187939549,0.0145725561291,-0.0103796729702,-0.99975519399
107220000000,,448,,107,220000000,"""map""",,,-2.57648158073,-2.43469190598,3.7496573925,,-0.0103255515599,0.00963950145883,-0.00915699289487,-0.999858369475
107252000000,,449,,107,252000000,"""map""",,,-2.58619308472,-2.44012570381,3.75966882706,,-0.00913946013516,0.00696501399989,-0.0085434612211,-0.999897523897
107284000000,,450,,107,284000000,"""map""",,,-2.59569478035,-2.44587182999,3.76877355576,,-0.00749980581175,0.00345697407692,-0.00748207713505,-0.999937942725
107320000000,,451,,107,320000000,"""map""",,,-2.6071665287,-2.45340633392,3.77915978432,,-0.00649203646827,0.00156793718013,-0.00644534895538,-0.9999569931
107352000000,,452,,107,352000000,"""map""",,,-2.61653375626,-2.45781636238,3.78695511818,,-0.00604880539208,0.000456569895201,-0.00597326210521,-0.999963778743
107384000000,,453,,107,384000000,"""map""",,,-2.62576699257,-2.46192193031,3.79439783096,,-0.00526218566646,-0.00158981320551,-0.00509677624357,-0.999971955231
107420000000,,454,,107,416000000,"""map""",,,-2.63469839096,-2.46634817123,3.80154442787,,-0.00508668750635,-0.00132554719699,-0.00448632128974,-0.999976169916
107452000000,,455,,107,452000000,"""map""",,,-2.64325094223,-2.47105813026,3.80840587616,,-0.00494061311485,-0.00108695783884,-0.00413494301371,-0.99997865658
107484000000,,456,,107,484000000,"""map""",,,-2.65149760246,-2.47601151466,3.81481075287,,-0.00479372031717,-0.0020204227823,-0.00354973402213,-0.999980216014
107520000000,,457,,107,520000000,"""map""",,,-2.66149020195,-2.48256087303,3.82225418091,,-0.005036523537,-0.00241266325114,-0.0030384927497,-0.999979794545
107552000000,,458,,107,552000000,"""map""",,,-2.66962718964,-2.48661398888,3.82804012299,,-0.004584078353,-0.00236503410192,-0.00283062449284,-0.999982744825
107584000000,,459,,107,584000000,"""map""",,,-2.67758631706,-2.49045920372,3.83198714256,,0.00887007921145,-0.01077518196,-0.00297409236517,-0.999898198247
107620000000,,460,,107,620000000,"""map""",,,-2.68523216248,-2.49438643456,3.83349275589,,0.0273997668096,-0.0237498065939,-0.00352920850691,-0.999336170022
107652000000,,461,,107,652000000,"""map""",,,-2.69236183167,-2.49805593491,3.83352589607,,0.036453740459,-0.0299833641781,-0.00389091276083,-0.998877865191
107684000000,,462,,107,684000000,"""map""",,,-2.69865584373,-2.5010972023,3.83291721344,,0.0481572742583,-0.0383247187483,-0.00453436869704,-0.998093975956
107720000000,,463,,107,720000000,"""map""",,,-2.70515942574,-2.50374984741,3.83178901672,,0.0525226021534,-0.0433198265858,-0.00489889678982,-0.997667660583
107752000000,,464,,107,752000000,"""map""",,,-2.70940589905,-2.50410532951,3.83216667175,,0.0522977678144,-0.0440190237048,-0.00500198798127,-0.997648357326
107784000000,,465,,107,784000000,"""map""",,,-2.71255707741,-2.50326347351,3.83544826508,,0.0421644408689,-0.0374643059825,-0.0051244245762,-0.998394904454
107820000000,,466,,107,820000000,"""map""",,,-2.71470999718,-2.50175094604,3.84167337418,,0.019579987063,-0.0229580000071,-0.00540103434297,-0.999530129819
107852000000,,467,,107,852000000,"""map""",,,-2.71638393402,-2.50020074844,3.84943771362,,0.00830052283501,-0.0161858267723,-0.00558483674933,-0.999818962171
107884000000,,468,,107,884000000,"""map""",,,-2.71803164482,-2.49905776978,3.85722064972,,-0.0132739721315,-0.00122715422669,-0.00566040604871,-0.999895121527
107920000000,,469,,107,920000000,"""map""",,,-2.72023367882,-2.4985127449,3.86565136909,,-0.0265579468955,0.0105726574626,-0.00549000634018,-0.999576280618
107952000000,,470,,107,952000000,"""map""",,,-2.72311806679,-2.49925422668,3.86999225616,,-0.0316465999926,0.0145605125848,-0.00538801096678,-0.999378611898
107984000000,,471,,107,984000000,"""map""",,,-2.72671031952,-2.50102496147,3.87283539772,,-0.0371393017554,0.0170605549786,-0.00507856880502,-0.999151524678
108020000000,,472,,108,20000000,"""map""",,,-2.7307498455,-2.50378298759,3.87516093254,,-0.0375718943744,0.0184057006248,-0.00459914840321,-0.999113887543
108052000000,,473,,108,52000000,"""map""",,,-2.73508358002,-2.50744104385,3.87758660316,,-0.0362191300268,0.0182224494202,-0.00433834370462,-0.999168341271
108084000000,,474,,108,84000000,"""map""",,,-2.73967123032,-2.5119509697,3.87988781929,,-0.0316079533081,0.0127563041232,-0.00389171355095,-0.999411402146
108120000000,,475,,108,120000000,"""map""",,,-2.74583506584,-2.51865887642,3.88295650482,,-0.0261335676437,0.00657304797946,-0.00342396782618,-0.999630987227
108152000000,,476,,108,152000000,"""map""",,,-2.75040221214,-2.52291965485,3.88668370247,,-0.0234757695959,0.00545497308944,-0.00318166559409,-0.999704533478
108184000000,,477,,108,184000000,"""map""",,,-2.75472187996,-2.52718138695,3.89068484306,,-0.0181907596,0.00284193236059,-0.00273495114672,-0.999826801485
108220000000,,478,,108,220000000,"""map""",,,-2.75908303261,-2.53190541267,3.89409208298,,-0.0135089062384,-0.00325421513763,-0.00231837169604,-0.999900811351
108252000000,,479,,108,252000000,"""map""",,,-2.76356196404,-2.53701734543,3.89732289314,,-0.0117236948102,-0.00489764588452,-0.00212677212271,-0.999916995741
108284000000,,480,,108,284000000,"""map""",,,-2.76794624329,-2.54237365723,3.90065383911,,-0.00917992588418,-0.0040327252169,-0.00184443038453,-0.999948057968
108320000000,,481,,108,320000000,"""map""",,,-2.77306318283,-2.54935669899,3.9044470787,,-0.00716004035072,-0.00601799765102,-0.00159281369892,-0.999954970052
108352000000,,482,,108,352000000,"""map""",,,-2.77670574188,-2.5532848835,3.9069981575,,-0.0064122295173,-0.00817046548073,-0.00141423750178,-0.999945065542
108384000000,,483,,108,384000000,"""map""",,,-2.78026890755,-2.55687022209,3.90969753265,,-0.00572069439901,-0.00747987504453,-0.00105468273714,-0.999955138639
108420000000,,484,,108,420000000,"""map""",,,-2.78360128403,-2.5606648922,3.91265320778,,-0.00520151216023,-0.00518708935638,-0.000934269190941,-0.999972629581
108452000000,,485,,108,452000000,"""map""",,,-2.78677988052,-2.56465911865,3.91520595551,,-0.00480748644925,-0.00635367338601,-0.000875642924662,-0.999967866987
108484000000,,486,,108,484000000,"""map""",,,-2.79007291794,-2.56888699532,3.91736531258,,-0.00462929294879,-0.00936758587963,-0.000648218530098,-0.999945191983
108520000000,,487,,108,520000000,"""map""",,,-2.79423594475,-2.5744035244,3.92041182518,,-0.00526673734088,-0.00573188514873,-0.000489830673394,-0.999969637155
108552000000,,488,,108,552000000,"""map""",,,-2.79643654823,-2.57850909233,3.9234213829,,-0.00535981007416,-0.00440331706403,-0.000508459580435,-0.999975790595
108584000000,,489,,108,584000000,"""map""",,,-2.7984187603,-2.5827050209,3.92581605911,,-0.00517385739651,-0.00794736533635,-0.000354665730219,-0.999955012198
108620000000,,490,,108,620000000,"""map""",,,-2.80071258545,-2.58716797829,3.92811250687,,-0.00559084810823,-0.00831621710309,-0.000134659180992,-0.999949785989
108652000000,,491,,108,652000000,"""map""",,,-2.80295801163,-2.59183740616,3.93088841438,,-0.00587234198065,-0.00571990767499,-0.000128337153716,-0.999966476141
108684000000,,492,,108,684000000,"""map""",,,-2.80498504639,-2.59668660164,3.93353152275,,-0.00548288212338,-0.00514605850415,-0.000119949930862,-0.999971744497
108720000000,,493,,108,720000000,"""map""",,,-2.80773043633,-2.60307860374,3.9358420372,,-0.00492667172762,-0.00994815756541,-4.70780297866e-05,-0.99993840634
108752000000,,494,,108,752000000,"""map""",,,-2.8093457222,-2.60785007477,3.93840646744,,-0.00496324531396,-0.0089720069194,2.45294658334e-05,-0.999947467912
108784000000,,495,,108,784000000,"""map""",,,-2.81055402756,-2.61254572868,3.94160819054,,-0.00457681065581,-0.0036435409708,-2.60467523797e-05,-0.999982955559
108820000000,,496,,108,820000000,"""map""",,,-2.81174254417,-2.61740899086,3.9440870285,,-0.00346291299593,-0.00772114970023,-8.77497385997e-05,-0.999964242358
108852000000,,497,,108,852000000,"""map""",,,-2.81329798698,-2.62249326706,3.94587612152,,-0.00318790727893,-0.0102254695053,-7.66229705927e-05,-0.999942663172
108884000000,,498,,108,884000000,"""map""",,,-2.81506943703,-2.62767672539,3.94816541672,,-0.00350728136202,-0.00609853200556,2.36443820147e-05,-0.999975242686
108920000000,,499,,108,920000000,"""map""",,,-2.81697154045,-2.63422679901,3.95134234428,,-0.00297184631681,-0.00364147626913,-0.000105114240186,-0.999988940411
108952000000,,500,,108,952000000,"""map""",,,-2.8173186779,-2.63881087303,3.9527463913,,-0.00244989422954,-0.00723151082793,-9.53361713316e-05,-0.99997090156
108984000000,,501,,108,984000000,"""map""",,,-2.81780314445,-2.64332485199,3.95403337479,,-0.00238866671245,-0.00999377181539,4.37062819059e-05,-0.999947257178
109020000000,,502,,109,20000000,"""map""",,,-2.81831669807,-2.64790582657,3.95609951019,,-0.00251430778495,-0.0027603439644,-1.15482364919e-05,-0.999993070803
109052000000,,503,,109,52000000,"""map""",,,-2.81865048409,-2.65253949165,3.95794010162,,-0.00206468460823,-0.00274196227909,-6.056502131e-05,-0.999994124474
109084000000,,504,,109,84000000,"""map""",,,-2.81932520866,-2.6573445797,3.95877075195,,-0.00125356515418,-0.0104655438813,2.85755632904e-05,-0.999944517633
109120000000,,505,,109,120000000,"""map""",,,-2.82079076767,-2.66352891922,3.96041488647,,-0.00196260092814,-0.00630955971201,0.000112489938676,-0.999978192965
109152000000,,506,,109,152000000,"""map""",,,-2.82046937943,-2.66767978668,3.96307206154,,-0.00206299818379,-0.00191755499692,2.36022351661e-05,-0.999996021082
109184000000,,507,,109,184000000,"""map""",,,-2.81975340843,-2.67169189453,3.96484780312,,-0.000963932669759,-0.00651955967744,-0.000130739524081,-0.999978319406
109220000000,,508,,109,220000000,"""map""",,,-2.8197555542,-2.67589592934,3.96600937843,,-0.00101686351386,-0.0103337556251,-4.21889953593e-05,-0.999946077066
109252000000,,509,,109,252000000,"""map""",,,-2.82008624077,-2.68014383316,3.96798014641,,-0.00158381584067,-0.00590850100293,-4.45070720275e-05,-0.999981353979
109284000000,,510,,109,284000000,"""map""",,,-2.82010936737,-2.68437194824,3.9705145359,,-0.00150978169086,3.45410710341e-05,-0.000365413176589,-0.999998802774
