rosbagTimestamp,header,seq,stamp,secs,nsecs,frame_id,pose,position,x,y,z,orientation,x,y,z,w
104144000000,,183,,104,144000000,"""map""",,,-0.00898654945195,-0.00200160010718,0.0243414845318,,0.00856073229168,-0.0101076834693,0.0371363890131,-0.999222415678
104176000000,,184,,104,176000000,"""map""",,,-0.00918033346534,-0.00214279606007,0.0240381006151,,0.00855664042538,-0.0100672603611,0.0370449303518,-0.999226293188
104212000000,,185,,104,212000000,"""map""",,,-0.00936791207641,-0.00233936309814,0.0236352887005,,0.00851795200567,-0.0100665335749,0.0370439609743,-0.999226672509
104244000000,,186,,104,244000000,"""map""",,,-0.00959551241249,-0.00242193834856,0.0232935044914,,0.0085262493372,-0.0101015302764,0.0370068717476,-0.99922759974
104276000000,,187,,104,276000000,"""map""",,,-0.00982552953064,-0.00250866170973,0.0228976272047,,0.00850335956487,-0.0100624233517,0.0369418391603,-0.999230592166
104312000000,,188,,104,312000000,"""map""",,,-0.0100341457874,-0.00265044625849,0.0226125046611,,0.00855528752801,-0.0100460778654,0.0369037805561,-0.999231730131
104344000000,,189,,104,344000000,"""map""",,,-0.0102085852996,-0.00282716634683,0.0224073790014,,0.00851962865999,-0.010001254692,0.0368553538272,-0.999234301089
104376000000,,190,,104,376000000,"""map""",,,-0.0103469742462,-0.00300570088439,0.022289423272,,0.00855997019105,-0.0100346635604,0.0367652438651,-0.999236914193
104412000000,,191,,104,412000000,"""map""",,,-0.0104802614078,-0.00320664723404,0.0220961309969,,0.00855411564806,-0.0100336297278,0.0367255836806,-0.999238389333
104444000000,,192,,104,444000000,"""map""",,,-0.0104105724022,-0.00326543976553,0.0220076180995,,0.00877765376568,-0.0100629015785,0.036619205035,-0.999240075207
104476000000,,193,,104,476000000,"""map""",,,-0.010246087797,-0.00331109971739,0.0218832753599,,0.0087692600397,-0.00998903650995,0.0365693874601,-0.999242772605
104512000000,,194,,104,512000000,"""map""",,,-0.010062825866,-0.00340487621725,0.0218344479799,,0.00879515903116,-0.0100160660577,0.036514301529,-0.999244247745
104544000000,,195,,104,544000000,"""map""",,,-0.00986780505627,-0.00353122525848,0.0217361282557,,0.00883727237622,-0.0100468786144,0.0364386057891,-0.999246355088
104576000000,,196,,104,576000000,"""map""",,,-0.00964236538857,-0.00367659097537,0.0215383730829,,0.00882372422237,-0.010058707967,0.0363782093552,-0.999248504577
104612000000,,197,,104,612000000,"""map""",,,-0.00932315550745,-0.00384535011835,0.021293412894,,0.00878935708941,-0.01011006028,0.0363533848614,-0.999249221073
104644000000,,198,,104,644000000,"""map""",,,-0.00889223907143,-0.00403719395399,0.0209272056818,,0.00879133642724,-0.0101244207484,0.0362856970227,-0.999251497003
104676000000,,199,,104,676000000,"""map""",,,-0.00839868094772,-0.00423243409023,0.02054913342,,0.00875035063386,-0.0101465273879,0.0362445195517,-0.99925314073
104712000000,,200,,104,712000000,"""map""",,,-0.00789821427315,-0.00441452814266,0.0202396642417,,0.00867388472613,-0.0101279139566,0.0362148060235,-0.999255121632
104744000000,,201,,104,744000000,"""map""",,,-0.00739484420046,-0.00459650531411,0.0199462193996,,0.00867184208571,-0.0101580290323,0.036100883092,-0.999258872702
104776000000,,202,,104,776000000,"""map""",,,-0.00687951268628,-0.0047881747596,0.0196477770805,,0.00862627195821,-0.0101714463828,0.0360284326594,-0.999261780834
104812000000,,203,,104,812000000,"""map""",,,-0.00627848133445,-0.00502093276009,0.019346665591,,0.00864055249586,-0.0101712600147,0.0360344596588,-0.999261485806
104844000000,,204,,104,844000000,"""map""",,,-0.00588924903423,-0.00508084287867,0.0192141663283,,0.00863999561416,-0.0101532880881,0.0359772663853,-0.999263719589
104876000000,,205,,104,876000000,"""map""",,,-0.00553503306583,-0.00510853948072,0.0190981514752,,0.00871355124907,-0.0101662533477,0.0358456839243,-0.999267681393
104912000000,,206,,104,912000000,"""map""",,,-0.00518336892128,-0.00513373222202,0.018909772858,,0.00873997312487,-0.0101664234992,0.0358380553447,-0.99926772354
104944000000,,207,,104,944000000,"""map""",,,-0.00480559235439,-0.0051668100059,0.0187748055905,,0.00867926684576,-0.0101763876069,0.0357480296763,-0.999271348169
104976000000,,208,,104,976000000,"""map""",,,-0.00444799335673,-0.00517241097987,0.0186632405967,,0.00871415225325,-0.0101308311442,0.0356948403535,-0.999273455511
105012000000,,209,,105,12000000,"""map""",,,-0.00399094587192,-0.00519186584279,0.0183921679854,,0.00875173645846,-0.0101655722481,0.035683840026,-0.999273160483
105044000000,,210,,105,44000000,"""map""",,,-0.00373185402714,-0.00510395877063,0.0174558274448,,0.00873015974156,-0.0101815184094,0.0356672341677,-0.999273750539
105076000000,,211,,105,76000000,"""map""",,,-0.00348501629196,-0.00500004040077,0.016180716455,,0.00874964837846,-0.0101305790039,0.0356799625159,-0.999273666245
105112000000,,212,,105,112000000,"""map""",,,-0.00324083282612,-0.00492200255394,0.015092054382,,0.00871153725533,-0.010139777389,0.035690794256,-0.999273539805
105144000000,,213,,105,144000000,"""map""",,,-0.00296764960513,-0.00482655176893,0.0140820946544,,0.00891958982233,-0.0101320356221,0.0356859473684,-0.999271896078
105176000000,,214,,105,176000000,"""map""",,,-0.00263309828006,-0.00473289983347,0.0132357953116,,0.00891493251325,-0.0101288707395,0.0356838821728,-0.999272022518
105212000000,,215,,105,212000000,"""map""",,,-0.00221184245311,-0.00462530227378,0.0122382128611,,0.00883740593728,-0.0101169445808,0.0356417774712,-0.999274340595
105244000000,,216,,105,244000000,"""map""",,,-0.00224829139188,-0.00420466857031,0.0113363415003,,0.00884452130489,-0.0101324172898,0.035622642802,-0.999274846357
105276000000,,217,,105,276000000,"""map""",,,-0.00237263180315,-0.00369230331853,0.0105264158919,,0.00877073040495,-0.0101235345122,0.0355763655623,-0.999277206581
105312000000,,218,,105,312000000,"""map""",,,-0.00244752177969,-0.00322676589713,0.00975959654897,,0.00876804111498,-0.0101288974929,0.0355737524577,-0.999277290874
105344000000,,219,,105,344000000,"""map""",,,-0.00247002462856,-0.00281010568142,0.00899541843683,,0.00883576764318,-0.0101147909756,0.0355226283304,-0.99927868172
105376000000,,220,,105,376000000,"""map""",,,-0.00245162239298,-0.00243555940688,0.00842834636569,,0.00881616371983,-0.0100318239576,0.0354522009466,-0.999282179909
105412000000,,221,,105,412000000,"""map""",,,-0.00239059748128,-0.00199654232711,0.00781982019544,,0.0088315642359,-0.0100411254461,0.0354187363489,-0.999283107139
105444000000,,222,,105,444000000,"""map""",,,-0.00239902245812,-0.00166930956766,0.0074125030078,,0.00881955966922,-0.010030332519,0.0353963563723,-0.999284160811
105476000000,,223,,105,476000000,"""map""",,,-0.0024339009542,-0.00135786924511,0.00707578426227,,0.00878550357506,-0.00995094905326,0.0353360020852,-0.999287363971
105512000000,,224,,105,512000000,"""map""",,,-0.00243899249472,-0.00109503034037,0.00667523825541,,0.00878053045273,-0.00999818492794,0.0353178789404,-0.999287532559
105544000000,,225,,105,544000000,"""map""",,,-0.00239462917671,-0.000833260302898,0.00626357086003,,0.00882590528063,-0.00998437940667,0.0352115002947,-0.999291072894
105576000000,,226,,105,576000000,"""map""",,,-0.00230917381123,-0.0006091252435,0.00581896677613,,0.00882186893786,-0.00995213258122,0.0351733573968,-0.999292716621
105612000000,,227,,105,612000000,"""map""",,,-0.00212398567237,-0.000359306082828,0.00516151217744,,0.00882292610759,-0.00992455714124,0.0351443603651,-0.99929406532
105644000000,,228,,105,644000000,"""map""",,,-0.0022991206497,-8.6188345449e-05,0.00402725441381,,0.00881765668139,-0.00981939260472,0.0351246777868,-0.999295793341
105676000000,,229,,105,676000000,"""map""",,,-0.00250663235784,0.000213724735659,0.00283913081512,,0.00879825756539,-0.00982667977013,0.0350582543535,-0.999298237858
105712000000,,230,,105,712000000,"""map""",,,-0.00264030951075,0.000540036184248,0.00167908356525,,0.00880278666408,-0.00960334794157,0.035012229995,-0.999302031074
105744000000,,231,,105,744000000,"""map""",,,-0.00269674137235,0.000841592496727,0.00068295863457,,0.00880414149593,-0.00967304347669,0.0350076781353,-0.999301441019
105776000000,,232,,105,776000000,"""map""",,,-0.00274498993531,0.00108396634459,-0.000159460149007,,0.00879979020425,-0.00965325647797,0.0349769109359,-0.999302789718
105812000000,,233,,105,812000000,"""map""",,,-0.00277888798155,0.00134210661054,-0.00102698989213,,0.00875714142135,-0.0096818374331,0.0349039547411,-0.999305444969
105844000000,,234,,105,844000000,"""map""",,,-0.00280455197208,0.00149565143511,-0.00170204904862,,0.00879374184338,-0.0096644309493,0.0348966211895,-0.999305529263
105876000000,,235,,105,876000000,"""map""",,,-0.0028011216782,0.00165303889662,-0.00236075255089,,0.00885125183556,-0.00971180997508,0.0348003156407,-0.999307931633
105912000000,,236,,105,912000000,"""map""",,,-0.00277192029171,0.00180228962563,-0.00295282737352,,0.00884584436197,-0.0097353801062,0.0347888516979,-0.999308184514
105944000000,,237,,105,944000000,"""map""",,,-0.00269945152104,0.00190179189667,-0.00346954213455,,0.00878080107337,-0.00976835754562,0.0346927147364,-0.999311766996
105976000000,,238,,105,976000000,"""map""",,,-0.00261546857655,0.00199553137645,-0.00391055876389,,0.00878725299855,-0.00983645285875,0.0345825428744,-0.999314885863
106012000000,,239,,106,12000000,"""map""",,,-0.00248185615055,0.00207915320061,-0.00434817606583,,0.00874617249823,-0.00983329760737,0.0345677071837,-0.9993157288
106044000000,,240,,106,44000000,"""map""",,,-0.00246496661566,0.00192708719987,-0.00415899883956,,0.00872838751597,-0.0098590233193,0.0345374878933,-0.999316698178
106076000000,,241,,106,76000000,"""map""",,,-0.00247664190829,0.00174403947312,-0.00394225632772,,0.00872036376853,-0.00987635098356,0.0344222162627,-0.999320533541
106112000000,,242,,106,112000000,"""map""",,,-0.00244794273749,0.00158350914717,-0.0038092720788,,0.00871461582743,-0.00989269885706,0.0344065797819,-0.999320997156
106144000000,,243,,106,144000000,"""map""",,,-0.00238825730048,0.00143648579251,-0.00378966145217,,0.00868789563097,-0.00987878817446,0.0343951158391,-0.999321755799
106176000000,,244,,106,176000000,"""map""",,,-0.00230202986859,0.00130648678169,-0.00384364440106,,0.00871817896481,-0.0098123678693,0.0343765290789,-0.999322809471
106212000000,,245,,106,212000000,"""map""",,,-0.00217028544284,0.0011752411956,-0.00380367645994,,0.00866259682052,-0.00977216208072,0.0343684790308,-0.999323947436
106244000000,,246,,106,244000000,"""map""",,,-0.00202411529608,0.00150410144124,-0.00359019404277,,0.00866918996234,-0.00974588240938,0.0343449610893,-0.99932495896
106276000000,,247,,106,276000000,"""map""",,,-0.00185214460362,0.0019489248516,-0.00337160588242,,0.00860950697908,-0.00966503858008,0.03425240661,-0.999329426526
106312000000,,248,,106,312000000,"""map""",,,-0.00163886346854,0.00239169225097,-0.00329504534602,,0.00862479171479,-0.00969860072471,0.0342257698018,-0.999329847994
106344000000,,249,,106,344000000,"""map""",,,-0.00139816827141,0.00281306356192,-0.00307560525835,,0.00857335790699,-0.00966100458338,0.0341698409338,-0.99933258754
106376000000,,250,,106,376000000,"""map""",,,-0.00112026417628,0.00319173606113,-0.00275852857158,,0.00862767712755,-0.0096760920027,0.0341446371184,-0.999332840421
106412000000,,251,,106,412000000,"""map""",,,-0.000764445867389,0.00360802188516,-0.00245219888166,,0.00859259744943,-0.00961048022555,0.0341268932952,-0.999334399854
106444000000,,252,,106,444000000,"""map""",,,-0.000626384513453,0.00383258308284,-0.00249555218033,,0.00852445348633,-0.00963600977353,0.0341401274056,-0.99933431556
106476000000,,253,,106,476000000,"""map""",,,-0.00050991383614,0.0040150959976,-0.00267774099484,,0.00854855353998,-0.00957042009879,0.0341141649469,-0.999335579966
106512000000,,254,,106,512000000,"""map""",,,-0.000344895903254,0.00416597956792,-0.00285960221663,,0.00853151398895,-0.00956456864272,0.0341286213159,-0.999335284938
106544000000,,255,,106,544000000,"""map""",,,-0.000126514511066,0.0043031880632,-0.00298843975179,,0.00855226592001,-0.00948470970789,0.0341180003101,-0.999336212169
106576000000,,256,,106,576000000,"""map""",,,0.000162944357726,0.00441282987595,-0.00292997504584,,0.00853481963543,-0.00943920440587,0.0340950724245,-0.999337560868
106612000000,,257,,106,612000000,"""map""",,,0.000532529549673,0.00458099599928,-0.00298224040307,,0.00852294908256,-0.00938839996082,0.0340882867819,-0.999338445952
106644000000,,258,,106,644000000,"""map""",,,0.0006920460728,0.00484312511981,-0.00293486588635,,0.00871580373882,-0.00938889265501,0.0340450862622,-0.999338235217
106676000000,,259,,106,676000000,"""map""",,,0.000764717522543,0.00510794017464,-0.00279387505725,,0.00872585109064,-0.00942214065333,0.0340135182727,-0.99933886742
106712000000,,260,,106,712000000,"""map""",,,0.000801485963166,0.00535846874118,-0.00273326667957,,0.00868830977315,-0.00940643074482,0.0340337487599,-0.999338698833
106744000000,,261,,106,744000000,"""map""",,,0.000864392146468,0.00558805279434,-0.00264106551185,,0.00870551433074,-0.0093679578338,0.033983931185,-0.999340553294
106776000000,,262,,106,776000000,"""map""",,,0.000960033386946,0.0057921516709,-0.0025373371318,,0.00864727919874,-0.009349774144,0.0339626470265,-0.999342028434
106812000000,,263,,106,812000000,"""map""",,,0.00108783249743,0.00602725846693,-0.00239769485779,,0.00864194679922,-0.00936428665396,0.0339642486067,-0.999341859846
106844000000,,264,,106,844000000,"""map""",,,0.00107602903154,0.00613349815831,-0.002163288882,,0.00860278130517,-0.00932525789022,0.0339456196997,-0.999343208545
106876000000,,265,,106,876000000,"""map""",,,0.00110625138041,0.00622039008886,-0.00189781782683,,0.00856794689372,-0.00936322038808,0.0338870777271,-0.999345105154
106912000000,,266,,106,912000000,"""map""",,,0.00119464332238,0.00632455339655,-0.00167551252525,,0.00855982535242,-0.00936137946807,0.0338870355803,-0.9993451473
106944000000,,267,,106,944000000,"""map""",,,0.00131886336021,0.0064596850425,-0.00154419755563,,0.00854724916911,-0.00931565075482,0.0338722420364,-0.999346200972
106976000000,,268,,106,976000000,"""map""",,,0.00147289375309,0.00660107983276,-0.00137932796497,,0.00863625384659,-0.00931016532603,0.033897403705,-0.999344641538
107012000000,,269,,107,12000000,"""map""",,,0.00165940111037,0.00675016921014,-0.000983872567303,,0.00861769466294,-0.0092544367379,0.0339279601702,-0.999344262217
107044000000,,270,,107,44000000,"""map""",,,0.00180830899626,0.00686438102275,-0.000696745933965,,0.00866092732787,-0.00924853432695,0.0339128715984,-0.999344515098
107076000000,,271,,107,76000000,"""map""",,,0.00198445119895,0.00696650194004,-0.000544629874639,,0.00866178257139,-0.0091507716249,0.0338190105668,-0.999348603342
107112000000,,272,,107,112000000,"""map""",,,0.00218719174154,0.00706551223993,-0.000472330837511,,0.00864983428969,-0.00914156482283,0.0338472911021,-0.999347802552
107144000000,,273,,107,144000000,"""map""",,,0.00201230728999,0.00706801656634,-0.000612584408373,,0.00868161886834,-0.00887194557803,0.0338365436558,-0.999350289216
107176000000,,274,,107,176000000,"""map""",,,0.00156772497576,0.00700480677187,-0.000737234135158,,0.00874729966404,-0.00890448406152,0.0337893813323,-0.999351005712
107212000000,,275,,107,212000000,"""map""",,,0.00109185604379,0.00692144129425,-0.000939379329793,,0.00872451103489,-0.00892067275762,0.0337512384344,-0.999352396558
107244000000,,276,,107,244000000,"""map""",,,0.000791361206211,0.00684767542407,-0.00114990712609,,0.0087393736127,-0.00893271435713,0.0337486253298,-0.999352227971
107276000000,,277,,107,276000000,"""map""",,,0.000546402996406,0.00679565314204,-0.00145566044375,,0.00877525729135,-0.00897754979591,0.0337012101252,-0.999353113055
107312000000,,278,,107,312000000,"""map""",,,0.000347344088368,0.00673751346767,-0.00173757760786,,0.00879211556772,-0.00896516303676,0.0336587261019,-0.999354546048
107344000000,,279,,107,344000000,"""map""",,,0.000429183186498,0.00666613318026,-0.0020459627267,,0.00882675746809,-0.0090241687996,0.0336068433314,-0.999355431131
107376000000,,280,,107,376000000,"""map""",,,0.00075732805999,0.0065692467615,-0.00245788856409,,0.00882669334232,-0.00904394447958,0.0336251772105,-0.999354630341
107412000000,,281,,107,412000000,"""map""",,,0.00114965997636,0.00649931374937,-0.0027700571809,,0.00879827998677,-0.00901291102239,0.0335935670741,-0.999356231922
107444000000,,282,,107,444000000,"""map""",,,0.00145506474655,0.00647995295003,-0.00289271585643,,0.00873435271503,-0.0090068402813,0.0335852641449,-0.999357117005
107476000000,,283,,107,476000000,"""map""",,,0.00175771070644,0.00648865569383,-0.0030699132476,,0.0086560859556,-0.0089981752144,0.0335511673445,-0.999359013614
107512000000,,284,,107,512000000,"""map""",,,0.00207792012952,0.00653699925169,-0.00345831154846,,0.00869181815873,-0.00901168896958,0.0335591752457,-0.999358339264
107544000000,,285,,107,544000000,"""map""",,,0.00219096825458,0.00654663331807,-0.00371047132649,,0.00876864902359,-0.00896732961732,0.0335181242153,-0.999359435082
107576000000,,286,,107,576000000,"""map""",,,0.00210810173303,0.00648835767061,-0.00372653012164,,0.00869432715156,-0.00896646941414,0.03349372119,-0.999360910222
107612000000,,287,,107,612000000,"""map""",,,0.00204922724515,0.00644252728671,-0.00395269459113,,0.00874113248218,-0.0089730615064,0.0334926253719,-0.999360488753
107644000000,,288,,107,644000000,"""map""",,,0.00203772820532,0.0064003621228,-0.00426365016028,,0.00866837896477,-0.0090055147341,0.0334275927847,-0.999362975417
107676000000,,289,,107,676000000,"""map""",,,0.00206188089214,0.00636813184246,-0.00486930366606,,0.00868189580689,-0.00901388264308,0.03336546833,-0.999364829879
107712000000,,290,,107,712000000,"""map""",,,0.00210236944258,0.00635210610926,-0.00550838606432,,0.00865832650923,-0.00898681118515,0.0333442684652,-0.999366052137
107744000000,,291,,107,744000000,"""map""",,,0.00212608743459,0.0063157021068,-0.0062554012984,,0.00875843795143,-0.00906534969708,0.0332977804912,-0.99936600999
107776000000,,292,,107,776000000,"""map""",,,0.00211878330447,0.00624153483659,-0.00702766235918,,0.00875423410169,-0.00899667110903,0.0332115058923,-0.999369508179
107812000000,,293,,107,812000000,"""map""",,,0.00217400258407,0.00616550631821,-0.00786006171256,,0.00876273500579,-0.0090369169865,0.0331865128112,-0.999369971794
107844000000,,294,,107,844000000,"""map""",,,0.00223907339387,0.00615178002045,-0.00869247037917,,0.00879827729085,-0.00900755053184,0.0331230818042,-0.999371952696
107876000000,,295,,107,876000000,"""map""",,,0.00231466372497,0.00616224110126,-0.00954109616578,,0.00885362783327,-0.00901817824658,0.0330900386749,-0.999372542752
107912000000,,296,,107,912000000,"""map""",,,0.0024302911479,0.00616411864758,-0.0103349350393,,0.00881155235967,-0.00897561889711,0.033094759122,-0.999373132808
107944000000,,297,,107,944000000,"""map""",,,0.00251158629544,0.00613059103489,-0.0109521104023,,0.00888758058225,-0.00900016622597,0.0330699346282,-0.999373006367
107976000000,,298,,107,976000000,"""map""",,,0.00255514425226,0.00602314481512,-0.0113480687141,,0.00887794464582,-0.0089878699961,0.0330718312364,-0.999373217102
108012000000,,299,,108,12000000,"""map""",,,0.00262967986055,0.00592865422368,-0.0118701867759,,0.00891141168993,-0.00893357187212,0.033084180263,-0.999372922074
108044000000,,300,,108,44000000,"""map""",,,0.00270627858117,0.00587095879018,-0.0123362848535,,0.00890880410964,-0.00895157095465,0.0330454473092,-0.999374060038
108076000000,,301,,108,76000000,"""map""",,,0.00279560801573,0.00586549937725,-0.0128351012245,,0.00895350187532,-0.00893174509795,0.0329834914419,-0.9993759145
108112000000,,302,,108,112000000,"""map""",,,0.00294205965474,0.00587597908452,-0.0133106485009,,0.00892603778403,-0.00892007979166,0.0329877482736,-0.999376125234
108144000000,,303,,108,144000000,"""map""",,,0.00304018915631,0.00592823093757,-0.0137078650296,,0.00890555560605,-0.00894344771168,0.0329658740592,-0.99937684173
108176000000,,304,,108,176000000,"""map""",,,0.00303558353335,0.00600439868867,-0.0141087789088,,0.00891034019043,-0.0088891037018,0.0329474980333,-0.999377853255
108212000000,,305,,108,212000000,"""map""",,,0.00309437001124,0.00615203566849,-0.0146175315604,,0.00886136303918,-0.00888372985771,0.0329369191743,-0.999378654045
108244000000,,306,,108,244000000,"""map""",,,0.00318560493179,0.00630430085585,-0.0148503147066,,0.00906792103042,-0.00890261535916,0.0328691891887,-0.999378949073
108276000000,,307,,108,276000000,"""map""",,,0.00331583246589,0.00647816201672,-0.0151106696576,,0.00900999233256,-0.00896199022077,0.0328267894591,-0.999380297772
108312000000,,308,,108,312000000,"""map""",,,0.00345813948661,0.00668494822457,-0.0153504246846,,0.00903743143453,-0.00899861959689,0.0328239656203,-0.999379834157
108344000000,,309,,108,344000000,"""map""",,,0.00357117550448,0.00674904743209,-0.0152578707784,,0.00905559541558,-0.00899454451704,0.0327388711331,-0.999382489408
108376000000,,310,,108,376000000,"""map""",,,0.00366293103434,0.00668674428016,-0.0152273140848,,0.00905962411563,-0.00896547927189,0.0327417371188,-0.999382573702
108412000000,,311,,108,412000000,"""map""",,,0.00376994349062,0.00662321923301,-0.0153382141143,,0.00908948443751,-0.00899787116234,0.0327205794009,-0.999382742289
108444000000,,312,,108,444000000,"""map""",,,0.00388445029967,0.00655802153051,-0.0154072698206,,0.0090774121385,-0.00899195992793,0.0326896857609,-0.999383880254
108476000000,,313,,108,476000000,"""map""",,,0.00404541753232,0.00649979291484,-0.0154202496633,,0.00907162169298,-0.00903249254751,0.0326663785537,-0.99938434387
108512000000,,314,,108,512000000,"""map""",,,0.00423676241189,0.0064408541657,-0.0153514947742,,0.00899908195816,-0.00901674517142,0.0326447572204,-0.999385903303
108544000000,,315,,108,544000000,"""map""",,,0.00438954634592,0.00639980426058,-0.014766103588,,0.00892767748975,-0.00900646773032,0.0325822534441,-0.999388642848
108576000000,,316,,108,576000000,"""map""",,,0.00449272897094,0.00639199092984,-0.013704800047,,0.00884381188782,-0.00899929087111,0.0325374513441,-0.999390876631
108612000000,,317,,108,612000000,"""map""",,,0.00460671028122,0.00641689356416,-0.0124859400094,,0.0088613849628,-0.00900579550043,0.03248240756,-0.999392478211
108644000000,,318,,108,644000000,"""map""",,,0.00473319320008,0.00642903614789,-0.0115049434826,,0.00880707304797,-0.00904813902738,0.0323657029364,-0.999396397868
108676000000,,319,,108,676000000,"""map""",,,0.00487870769575,0.00647313008085,-0.0105335898697,,0.00880399715121,-0.00899603943108,0.0323514573016,-0.999397325099
108712000000,,320,,108,712000000,"""map""",,,0.00503672659397,0.00652777869254,-0.00959918927401,,0.00876646928243,-0.00899628577818,0.0323363687299,-0.999398168036
108744000000,,321,,108,744000000,"""map""",,,0.00524012185633,0.00657594809309,-0.00874282140285,,0.00876958551504,-0.00897086596017,0.0322848231341,-0.99939998035
108776000000,,322,,108,776000000,"""map""",,,0.00542423734441,0.00664592068642,-0.00799393467605,,0.00876751062072,-0.00877050427273,0.0322556153681,-0.999402719895
108812000000,,323,,108,812000000,"""map""",,,0.00570351537317,0.00673527689651,-0.00711135519668,,0.00879088597766,-0.00874747399312,0.0322396417125,-0.999403267805
108844000000,,324,,108,844000000,"""map""",,,0.00593214342371,0.0068318634294,-0.00653373356909,,0.00879710437164,-0.00874873929893,0.0322681329821,-0.99940225628
108876000000,,325,,108,876000000,"""map""",,,0.00618314929307,0.0069369636476,-0.00599183421582,,0.00877725864412,-0.0087482412695,0.0323072874044,-0.999401202609
108912000000,,326,,108,912000000,"""map""",,,0.00647651357576,0.00703190406784,-0.00561152212322,,0.00875255763002,-0.00876678620954,0.0323010918177,-0.999401497637
108944000000,,327,,108,944000000,"""map""",,,0.00652848090976,0.00699766865,-0.00508990511298,,0.00873712126829,-0.00877733485393,0.0323266749547,-0.999400612553
108976000000,,328,,108,976000000,"""map""",,,0.00637819105759,0.00685412529856,-0.00449595181271,,0.00875619109661,-0.00874537467542,0.032335230765,-0.999400486113
109012000000,,329,,109,12000000,"""map""",,,0.00624006008729,0.00673252018169,-0.00388061534613,,0.00876904295797,-0.0087416186308,0.0323078774603,-0.999401286903
109044000000,,330,,109,44000000,"""map""",,,0.00617083301768,0.00668202806264,-0.00326144509017,,0.00881996260328,-0.00879193966688,0.0322864247144,-0.999401076168
109076000000,,331,,109,76000000,"""map""",,,0.00614906661212,0.00665638083592,-0.00260864407755,,0.00883481564538,-0.0088308515155,0.0322747078905,-0.999400991875
109112000000,,332,,109,112000000,"""map""",,,0.00617524096742,0.00666773924604,-0.00211482960731,,0.00886504220387,-0.008837378326,0.0322908079866,-0.999400148938
109144000000,,333,,109,144000000,"""map""",,,0.00617357576266,0.00656787259504,-0.00184063822962,,0.00880268243527,-0.00882846250542,0.0322879841478,-0.999400865434
109176000000,,334,,109,176000000,"""map""",,,0.00616221362725,0.00638774503022,-0.00179291772656,,0.00881485161878,-0.00883881027572,0.0322264076021,-0.999402677749
109212000000,,335,,109,212000000,"""map""",,,0.00620300881565,0.00621703732759,-0.0018521300517,,0.00876849656796,-0.00878545510258,0.0322230358542,-0.999403604979
109244000000,,336,,109,244000000,"""map""",,,0.00628461875021,0.00615947321057,-0.00192454026546,,0.00885824242699,-0.00878182842595,0.0322221929172,-0.99940293063
109276000000,,337,,109,276000000,"""map""",,,0.00641102902591,0.00615849718451,-0.00201927684247,,0.00879865503816,-0.00874436347647,0.0322309594617,-0.999403520686
109312000000,,338,,109,312000000,"""map""",,,0.00658783875406,0.00623604189605,-0.00223583448678,,0.00879481748322,-0.00873645391447,0.0322252274903,-0.999403773567
109344000000,,339,,109,344000000,"""map""",,,0.00668600574136,0.00629772339016,-0.00223872601055,,0.00873713227962,-0.0087008457518,0.0321750305938,-0.999406175937
109376000000,,340,,109,376000000,"""map""",,,0.00674167880788,0.00632295012474,-0.00207805540413,,0.00870360243278,-0.00870686687746,0.0321026644549,-0.999408746895
109412000000,,341,,109,412000000,"""map""",,,0.006862714421,0.00637808162719,-0.00200749654323,,0.00874337904889,-0.00871047385644,0.0320900204003,-0.999408831189
109444000000,,342,,109,444000000,"""map""",,,0.00698007876053,0.00643177051097,-0.00208549830131,,0.00866098011176,-0.00872752542205,0.03207758708,-0.999409800566
109476000000,,343,,109,476000000,"""map""",,,0.00710266688839,0.00651187822223,-0.00227065524086,,0.00867895956529,-0.00872116796199,0.0320189186669,-0.999411570734
109512000000,,344,,109,512000000,"""map""",,,0.00725008454174,0.0066298507154,-0.00241531594656,,0.00869328898316,-0.00872037163376,0.03202195324,-0.999411317853
109544000000,,345,,109,544000000,"""map""",,,0.0074323695153,0.00666581885889,-0.00241463305429,,0.00877006626796,-0.00874609548454,0.0320514138871,-0.999409505538
109576000000,,346,,109,576000000,"""map""",,,0.00767016364262,0.00664093159139,-0.00237473170273,,0.00878214927861,-0.0086798959204,0.0320329114206,-0.999410559209
109612000000,,347,,109,612000000,"""map""",,,0.00801296439022,0.0066996710375,-0.0024225411471,,0.00881245946357,-0.00867023242286,0.0320254514284,-0.999410601356
109644000000,,348,,109,644000000,"""map""",,,0.00833438150585,0.00681015336886,-0.00235445168801,,0.00883035547746,-0.00863852409646,0.0319789213076,-0.999412202936
109676000000,,349,,109,676000000,"""map""",,,0.00868562143296,0.00696664908901,-0.00229497998953,,0.0088324622025,-0.00864015790422,0.0319304524319,-0.999413720223
109712000000,,350,,109,712000000,"""map""",,,0.00903703458607,0.00715327681974,-0.0023739147,,0.00884996108832,-0.00842385760233,0.0319412841719,-0.999415111069
109744000000,,351,,109,744000000,"""map""",,,0.00909867230803,0.0072827222757,-0.00226028659381,,0.00886469637154,-0.00841584079018,0.0319430964864,-0.999414984628
109776000000,,352,,109,776000000,"""map""",,,0.00884991697967,0.00740037532523,-0.00202537374571,,0.00887323446282,-0.00841388155853,0.0318946276106,-0.999416417621
109812000000,,353,,109,812000000,"""map""",,,0.00860627181828,0.00759891187772,-0.00164547993336,,0.00888283369569,-0.00844709298704,0.0318957655755,-0.9994160383
109844000000,,354,,109,844000000,"""map""",,,0.00849908031523,0.00779017852619,-0.00127677421551,,0.00888574205461,-0.00845289453779,0.0319016239875,-0.999415827565
109876000000,,355,,109,876000000,"""map""",,,0.00844502076507,0.00803831964731,-0.00076465215534,,0.00889179720672,-0.00848151307111,0.0318178781995,-0.999418145642
109912000000,,356,,109,912000000,"""map""",,,0.00840538367629,0.00834046211094,-0.0004199941759,,0.00888009977903,-0.00854286343761,0.0317871531469,-0.999418693551
109944000000,,357,,109,944000000,"""map""",,,0.00830425042659,0.00868912320584,-0.00012469117064,,0.00889713610937,-0.00853391271674,0.0317845821892,-0.999418735698
109976000000,,358,,109,976000000,"""map""",,,0.00813767407089,0.00910299085081,0.000103514983493,,0.00886584499664,-0.0084951728894,0.031673904565,-0.999422866089
110012000000,,359,,110,12000000,"""map""",,,0.00794708356261,0.00964257121086,0.000406439648941,,0.00886023184108,-0.00852176859008,0.0316578466157,-0.999423161117
110044000000,,360,,110,44000000,"""map""",,,0.00778899667785,0.010080832988,0.000595604418777,,0.00883996091504,-0.00852689562661,0.0316468884351,-0.999423666879
110076000000,,361,,110,76000000,"""map""",,,0.00766690960154,0.0105512971058,0.00077472825069,,0.00885215149996,-0.00856950779855,0.0316559078607,-0.999422908236
110112000000,,362,,110,112000000,"""map""",,,0.00758938770741,0.0110353101045,0.000915433396585,,0.0088928328297,-0.00854299307827,0.0316188607808,-0.999423961907
110144000000,,363,,110,144000000,"""map""",,,0.00743993045762,0.0111585985869,0.00126655073836,,0.00884357871161,-0.00855605885855,0.0316191979556,-0.999424299082
110176000000,,364,,110,176000000,"""map""",,,0.00724003696814,0.0109921926633,0.00154250964988,,0.00889850736367,-0.00853856055924,0.0316369839257,-0.999423371851
110212000000,,365,,110,212000000,"""map""",,,0.00704894261435,0.0108869709074,0.00181297492236,,0.00887644844814,-0.0084791140552,0.0315797485054,-0.999425900662
110244000000,,366,,110,244000000,"""map""",,,0.00693653523922,0.0108673367649,0.00196712743491,,0.00893497305161,-0.00842654927953,0.0314976464445,-0.999428429473
110276000000,,367,,110,276000000,"""map""",,,0.00682684918866,0.0108715388924,0.00216819299385,,0.00889899448081,-0.00836928058217,0.0314566375609,-0.999430494669
110312000000,,368,,110,312000000,"""map""",,,0.0067273103632,0.0109186545014,0.00235509150662,,0.00891932134197,-0.00836250129863,0.0314004979587,-0.999432096249
110344000000,,369,,110,344000000,"""map""",,,0.00666963122785,0.010876018554,0.00253933039494,,0.00893054689165,-0.00835824710111,0.0313551479497,-0.999433444948
110376000000,,370,,110,376000000,"""map""",,,0.00668535474688,0.0107920859009,0.00276144198142,,0.00891832945046,-0.00835440000757,0.0312580416107,-0.999436648109
110412000000,,371,,110,412000000,"""map""",,,0.00673637818545,0.0107995513827,0.00280074682087,,0.00890864977227,-0.00826853278019,0.0312431216263,-0.999437996808
110444000000,,372,,110,444000000,"""map""",,,0.00685041211545,0.0109111564234,0.00279294303618,,0.0088822685616,-0.00819484683578,0.0311958328623,-0.999440272738
110476000000,,373,,110,476000000,"""map""",,,0.00697253691033,0.0110795339569,0.00270068994723,,0.00887234481035,-0.00826942648682,0.0312167376992,-0.999439092626
110512000000,,374,,110,512000000,"""map""",,,0.0071146604605,0.0112637067214,0.00255783530883,,0.00890036104298,-0.0082750447564,0.0311999211066,-0.99943930336
110544000000,,375,,110,544000000,"""map""",,,0.00744723994285,0.0113068465143,0.00216652080417,,0.00887531680114,-0.0082859684869,0.031199541785,-0.999439429801
110576000000,,376,,110,576000000,"""map""",,,0.00793644506484,0.0112647749484,0.00162568234373,,0.00886732437572,-0.0083301874457,0.031145003763,-0.999440862793
110612000000,,377,,110,612000000,"""map""",,,0.00854866299778,0.0113304052502,0.00092408224009,,0.00889687133331,-0.00831541822687,0.0311273863803,-0.999441284262
110644000000,,378,,110,644000000,"""map""",,,0.00905848201364,0.0114280637354,0.000490384292789,,0.0089024237896,-0.00834697870488,0.0310555681505,-0.999443223017
110676000000,,379,,110,676000000,"""map""",,,0.00953291077167,0.0115593196824,7.43601194699e-05,,0.00891924484791,-0.00835377041844,0.0310965348872,-0.99944170573
110712000000,,380,,110,712000000,"""map""",,,0.00996843632311,0.0117275221273,-0.000394302420318,,0.00894850863137,-0.00835402259983,0.0310661891563,-0.99944238008
110744000000,,381,,110,744000000,"""map""",,,0.0102458475158,0.0118324588984,-0.000861673732288,,0.00895078254439,-0.00840734696544,0.0309963518283,-0.999444108101
110776000000,,382,,110,776000000,"""map""",,,0.0104041984305,0.0118904681876,-0.00130525545683,,0.00896493382211,-0.00842893621526,0.0309582510773,-0.999444951038
110812000000,,383,,110,812000000,"""map""",,,0.0106145432219,0.0120501853526,-0.00175371498335,,0.008967995519,-0.00840732727084,0.0309731289148,-0.99944465601
110844000000,,384,,110,844000000,"""map""",,,0.010814236477,0.012220219709,-0.00205321097746,,0.00893655518421,-0.00837106527895,0.0309656267757,-0.999445498947
110876000000,,385,,110,876000000,"""map""",,,0.0110556818545,0.0124501399696,-0.00230381521396,,0.0090023164098,-0.00836467315784,0.0309464921065,-0.999445498947
110912000000,,386,,110,912000000,"""map""",,,0.0112955011427,0.0127124069259,-0.00259209494106,,0.00891227201402,-0.00834233825042,0.0309242807174,-0.999447226968
110944000000,,387,,110,944000000,"""map""",,,0.0113916490227,0.0127558642998,-0.00269242096692,,0.00896335512629,-0.0083952235109,0.0309257137102,-0.999446299737
110976000000,,388,,110,976000000,"""map""",,,0.0113677419722,0.0126094706357,-0.00267896405421,,0.00891883634452,-0.00834363430717,0.03095580656,-0.999446131149
111012000000,,389,,111,12000000,"""map""",,,0.0114301927388,0.0125526422635,-0.0025695997756,,0.00891857809217,-0.00834098969533,0.0309377677089,-0.999446721205
111044000000,,390,,111,44000000,"""map""",,,0.0115399723873,0.0125871794298,-0.00244715437293,,0.00895558179039,-0.00831086120177,0.0309120159844,-0.999447437702
111076000000,,391,,111,76000000,"""map""",,,0.0116833178326,0.012669310905,-0.00235364609398,,0.00897293565237,-0.00834113591279,0.0308947357765,-0.999447606289
111112000000,,392,,111,112000000,"""map""",,,0.0118244709447,0.0128273228183,-0.00225203926675,,0.00894387824029,-0.00828994835947,0.0308715550099,-0.999448954988
111144000000,,393,,111,144000000,"""map""",,,0.0118749439716,0.0128554794937,-0.00208277301863,,0.00882533456949,-0.0082392368721,0.0308575622562,-0.999450893743
111176000000,,394,,111,176000000,"""map""",,,0.0118373855948,0.0127850165591,-0.00190368643962,,0.00879063528314,-0.00819158385064,0.0308683518494,-0.999451230918
111212000000,,395,,111,212000000,"""map""",,,0.0118405073881,0.0127753196284,-0.00176206277683,,0.00879802164182,-0.00814799598327,0.0308732408838,-0.999451399506
111244000000,,396,,111,244000000,"""map""",,,0.0118656344712,0.0128074586391,-0.00178529054392,,0.00877881749615,-0.00822097423929,0.0308409563978,-0.999451989561
111276000000,,397,,111,276000000,"""map""",,,0.0119140530005,0.0128840189427,-0.00191500037909,,0.00873269923324,-0.00812654725039,0.0307999053674,-0.999454434079
111312000000,,398,,111,312000000,"""map""",,,0.0119765829295,0.0130334002897,-0.00204736879095,,0.00872028398175,-0.00814512121012,0.0307986831088,-0.999454391932
111344000000,,399,,111,344000000,"""map""",,,0.011959714815,0.0130671020597,-0.00222973758355,,0.00868181395186,-0.00806350828315,0.0308135609463,-0.999454939841
111376000000,,400,,111,376000000,"""map""",,,0.0119288293645,0.0129870371893,-0.00248052668758,,0.00892262958146,-0.00806121352308,0.0307722148879,-0.999454139051
111412000000,,401,,111,412000000,"""map""",,,0.0119204185903,0.0129938088357,-0.00252790958621,,0.0089324348976,-0.00808490573189,0.0307688852869,-0.999453928316
111444000000,,402,,111,444000000,"""map""",,,0.0119099393487,0.0130338091403,-0.00250427261926,,0.00880570294612,-0.00806785897803,0.0307398882551,-0.999456119953
111476000000,,403,,111,476000000,"""map""",,,0.0119314296171,0.0131153259426,-0.00252061570063,,0.00889095424917,-0.00817513974732,0.0306966034417,-0.999455824925
111512000000,,404,,111,512000000,"""map""",,,0.0119529766962,0.0132418181747,-0.00254869856872,,0.00885988292567,-0.00815430327562,0.030698752931,-0.999456204246
111544000000,,405,,111,544000000,"""map""",,,0.0118086552247,0.0131821362302,-0.00243864557706,,0.00885096841446,-0.00818512492843,0.0306980785814,-0.999456035659
111576000000,,406,,111,576000000,"""map""",,,0.0114768706262,0.0129463858902,-0.00230389623903,,0.0087403397901,-0.00816609535879,0.0307133778874,-0.999456667862
111612000000,,407,,111,612000000,"""map""",,,0.0111154587939,0.0127466376871,-0.00219422904775,,0.0087237810383,-0.00818628927628,0.0307183512155,-0.999456499274
111644000000,,408,,111,644000000,"""map""",,,0.0108515247703,0.0126741677523,-0.00218661618419,,0.00873829786996,-0.00819331738674,0.0306978257003,-0.99945696289
111676000000,,409,,111,676000000,"""map""",,,0.010581179522,0.0126620559022,-0.00230516958982,,0.00877085725709,-0.00822959302285,0.0306812619888,-0.999456920743
111712000000,,410,,111,712000000,"""map""",,,0.0103150783107,0.0127374315634,-0.00241571851075,,0.00880326470566,-0.00823127842346,0.0306632231377,-0.999457173624
111744000000,,411,,111,744000000,"""map""",,,0.00992091931403,0.0127774747089,-0.00259421928786,,0.00871431905023,-0.00828304660724,0.0306431612378,-0.999458100854
111776000000,,412,,111,776000000,"""map""",,,0.00940410792828,0.0127620790154,-0.00287534180097,,0.00869829853509,-0.00827175991581,0.030620275499,-0.999458985938
111812000000,,413,,111,812000000,"""map""",,,0.00879773311317,0.012827555649,-0.00316273281351,,0.00870878947837,-0.00826360417135,0.0305742932873,-0.999460461078
111844000000,,414,,111,844000000,"""map""",,,0.00836324039847,0.0129320016131,-0.00326459435746,,0.00873783793836,-0.0082721796762,0.0305464763673,-0.99946096684
111876000000,,415,,111,876000000,"""map""",,,0.00793245714158,0.0130681851879,-0.00332099595107,,0.0087239019018,-0.00818051678381,0.030515667021,-0.999462779155
111912000000,,416,,111,912000000,"""map""",,,0.00756092881784,0.0132216382772,-0.0033589345403,,0.00872688759854,-0.00817141057441,0.0305087549379,-0.999463032036
111944000000,,417,,111,944000000,"""map""",,,0.00719524454325,0.0134121635929,-0.00355223193765,,0.00879150863663,-0.00794836611821,0.0304226910732,-0.999466909546
111976000000,,418,,111,976000000,"""map""",,,0.00686781108379,0.0136454515159,-0.00363608938642,,0.00885557789675,-0.00795115361364,0.0304671138516,-0.999464970791
112012000000,,419,,112,12000000,"""map""",,,0.00646359845996,0.0139703163877,-0.00383298704401,,0.0088635522122,-0.0079656014216,0.0304779877385,-0.999464380735
112044000000,,420,,112,44000000,"""map""",,,0.00620480487123,0.014074632898,-0.00391175271943,,0.00891971745649,-0.00795368114862,0.0304403927496,-0.999465139378
112076000000,,421,,112,76000000,"""map""",,,0.00595676712692,0.0141626009718,-0.00390051933937,,0.00888830755879,-0.00792741703539,0.030488693038,-0.999464212147
112112000000,,422,,112,112000000,"""map""",,,0.00568085582927,0.014297154732,-0.00383744575083,,0.00887989950947,-0.0079724230372,0.0304894516813,-0.999463874973
112144000000,,423,,112,144000000,"""map""",,,0.00538285681978,0.0144986622036,-0.00375848822296,,0.00885016494901,-0.00807725406209,0.0305384684661,-0.999461809777
112176000000,,424,,112,176000000,"""map""",,,0.00509037775919,0.0147521449253,-0.00364255276509,,0.00883646627658,-0.00811753685921,0.0305053410432,-0.99946256842
112212000000,,425,,112,212000000,"""map""",,,0.00474585965276,0.0151203842834,-0.00360984075814,,0.00881974134519,-0.00811678797063,0.0304879765416,-0.999463327064
112244000000,,426,,112,244000000,"""map""",,,0.00450234953314,0.0151257328689,-0.00340812373906,,0.00884102791149,-0.00820126233522,0.0304671559984,-0.999463074183
112276000000,,427,,112,276000000,"""map""",,,0.00426486460492,0.0150656076148,-0.0031478095334,,0.00878455508575,-0.00813378918202,0.0304546805312,-0.999464507175
112312000000,,428,,112,312000000,"""map""",,,0.00402589794248,0.0150516796857,-0.00297199981287,,0.00879255043347,-0.00812987022481,0.0304425422389,-0.99946484435
112344000000,,429,,112,344000000,"""map""",,,0.00376905826852,0.0150823714212,-0.00277589890175,,0.00887075183235,-0.00811633262826,0.0304621405234,-0.999463622092
112376000000,,430,,112,376000000,"""map""",,,0.00348881795071,0.015156080015,-0.00276408041827,,0.0088678872049,-0.00816861048432,0.0304222696047,-0.999464465029
112412000000,,431,,112,412000000,"""map""",,,0.00313053070568,0.0152866402641,-0.00268552731723,,0.00891620453313,-0.00819044921962,0.0303835787978,-0.999464970791
112444000000,,432,,112,444000000,"""map""",,,0.00305349612609,0.0148949045688,-0.00220237253234,,0.00889510851256,-0.0081345126549,0.0303665936179,-0.999466193049
112476000000,,433,,112,476000000,"""map""",,,0.00303744454868,0.0144367376342,-0.0016156011261,,0.00890901427666,-0.00824179620244,0.0303660878557,-0.999465181525
112512000000,,434,,112,512000000,"""map""",,,0.00298587884754,0.0140694426373,-0.00101003365126,,0.00887126734922,-0.00821024844257,0.0303024882613,-0.999467668189
112544000000,,435,,112,544000000,"""map""",,,0.00293084420264,0.0137957148254,-0.000607983092777,,0.00886803733246,-0.00826578006414,0.0302492146448,-0.999468932594
112576000000,,436,,112,576000000,"""map""",,,0.00283306813799,0.0135872829705,-0.000281205051579,,0.00890831825685,-0.00831536280623,0.0302534714765,-0.999467963217
112612000000,,437,,112,612000000,"""map""",,,0.00268953084014,0.0134556004778,8.30935459817e-05,,0.00892492331256,-0.00832507845741,0.0302534714765,-0.99946779463
112644000000,,438,,112,644000000,"""map""",,,0.00277003599331,0.0133251696825,0.00072856596671,,0.00887607770816,-0.00831142818801,0.0302318079963,-0.999468974741
112676000000,,439,,112,676000000,"""map""",,,0.00289042689838,0.0132454140112,0.00145182572305,,0.00893574799386,-0.00834990869287,0.0301346595105,-0.999471039937
112712000000,,440,,112,712000000,"""map""",,,0.00294882548042,0.013231751509,0.00210720789619,,0.00892885015173,-0.00837813942579,0.0301268201967,-0.999471124231
112744000000,,441,,112,744000000,"""map""",,,0.00300031201914,0.0132674286142,0.00266901776195,,0.00891205994211,-0.00838814135862,0.0301345752168,-0.999470955643
112776000000,,442,,112,776000000,"""map""",,,0.00303402892314,0.0133368046954,0.0031165976543,,0.00890091066011,-0.00832631864078,0.0300578258057,-0.999473863776
112812000000,,443,,112,812000000,"""map""",,,0.00304055423476,0.0134653151035,0.00373717653565,,0.00887309927598,-0.00834395419517,0.0300547490857,-0.99947407451
112844000000,,444,,112,844000000,"""map""",,,0.0031862873584,0.0134677393362,0.00398220447823,,0.00904823027695,-0.00834953044137,0.0300238132989,-0.99947340016
112876000000,,445,,112,876000000,"""map""",,,0.00332085881382,0.0134726967663,0.00434663752094,,0.00908229011659,-0.00842603890753,0.0299994524205,-0.999473147279
112912000000,,446,,112,912000000,"""map""",,,0.00338376383297,0.0135277612135,0.00472967652604,,0.00903962618716,-0.00840821288972,0.0299913602256,-0.999473905923
112944000000,,447,,112,944000000,"""map""",,,0.00340356864035,0.0136236436665,0.00497526116669,,0.00899213654648,-0.00844156226273,0.0300053529793,-0.999473653042
112976000000,,448,,112,976000000,"""map""",,,0.00339107727632,0.0137548418716,0.0051190815866,,0.0089993060588,-0.00844415369711,0.0300114642723,-0.999473358014
113012000000,,449,,113,12000000,"""map""",,,0.00330793112516,0.0139483148232,0.00523001793772,,0.00895268886611,-0.008426248016,0.0300179127401,-0.999473821629
113044000000,,450,,113,44000000,"""map""",,,0.0032672630623,0.0138760367408,0.00562806334347,,0.00901039337587,-0.00846547994072,0.0299349677423,-0.999475423209
113076000000,,451,,113,76000000,"""map""",,,0.00319984531961,0.0137840136886,0.00606762059033,,0.00894226894273,-0.00845757541041,0.0299090474304,-0.999476898349
113112000000,,452,,113,112000000,"""map""",,,0.00308209261857,0.0137842092663,0.00651687243953,,0.00894022704317,-0.00846776482263,0.0298989321868,-0.999477066936
113144000000,,453,,113,144000000,"""map""",,,0.00291437283158,0.0138305593282,0.00685770343989,,0.00892197255984,-0.00845973416047,0.0298419075007,-0.999479047838
113176000000,,454,,113,176000000,"""map""",,,0.00274130376056,0.0139602441341,0.00719132972881,,0.0089650540888,-0.00847195456511,0.0298269453695,-0.999479005691
113212000000,,455,,113,212000000,"""map""",,,0.00251423381269,0.0141675779596,0.00756972748786,,0.00892679790066,-0.0084853230392,0.0298281676281,-0.999479216426
113244000000,,456,,113,244000000,"""map""",,,0.00244092289358,0.0141246300191,0.00808077771217,,0.00889192811302,-0.00848363306993,0.0297583303001,-0.999481618796
113276000000,,457,,113,276000000,"""map""",,,0.00235249311663,0.0140622612089,0.00864417664707,,0.00883467503552,-0.00846142880128,0.0296967116076,-0.999484147607
113312000000,,458,,113,312000000,"""map""",,,0.0022050072439,0.0140556041151,0.00924367737025,,0.008824985438,-0.00845845722209,0.0296428057884,-0.999485875628
113344000000,,459,,113,344000000,"""map""",,,0.00197630259208,0.0141100408509,0.00978035200387,,0.00883291528112,-0.00847979046273,0.0296602124368,-0.999485074837
113376000000,,460,,113,376000000,"""map""",,,0.00171726651024,0.0142018860206,0.0101920878515,,0.00880676100077,-0.00845472578543,0.0296025134012,-0.999487224327
113412000000,,461,,113,412000000,"""map""",,,0.00132910418324,0.0143891135231,0.0106700966135,,0.00878054500245,-0.00845734349985,0.0296211844551,-0.999486845005
113444000000,,462,,113,444000000,"""map""",,,0.00109695165884,0.0142796346918,0.0111174322665,,0.00876116268962,-0.0084581482721,0.0295950112622,-0.999487814383
113476000000,,463,,113,476000000,"""map""",,,0.000866411020979,0.0141453603283,0.0115870097652,,0.00877513707611,-0.0084146539695,0.0296070652608,-0.999487730089
113512000000,,464,,113,512000000,"""map""",,,0.000595547957346,0.0140977120027,0.0120745487511,,0.00875760115744,-0.00841906114485,0.0295779839354,-0.99948865732
113544000000,,465,,113,544000000,"""map""",,,0.000318917504046,0.0140934465453,0.0125158894807,,0.00877424334889,-0.0084009451308,0.0294874103579,-0.999491396865
113576000000,,466,,113,576000000,"""map""",,,9.49001696426e-06,0.0141460364684,0.0128260878846,,0.00892784583019,-0.00833492906906,0.0294985371259,-0.999490216753
113612000000,,467,,113,612000000,"""map""",,,-0.000375896430342,0.0142817609012,0.0130720315501,,0.00894035043795,-0.00835004776924,0.0294909506932,-0.999490216753
113644000000,,468,,113,644000000,"""map""",,,-0.000570281990804,0.0141892554238,0.0131469238549,,0.00888176189392,-0.00831992114842,0.0294626701578,-0.99949186048
113676000000,,469,,113,676000000,"""map""",,,-0.000747425947338,0.0141043169424,0.01318312902,,0.00893534940979,-0.00840913242365,0.0294670112832,-0.999490469634
113712000000,,470,,113,712000000,"""map""",,,-0.000966353574768,0.0140917859972,0.0131157394499,,0.00896424128024,-0.00844247696048,0.0294748505971,-0.999489710991
113744000000,,471,,113,744000000,"""map""",,,-0.00119826418813,0.0141776045784,0.0129587268457,,0.00891819846184,-0.00844316186734,0.0294998436782,-0.999489331669
113776000000,,472,,113,776000000,"""map""",,,-0.00145169487223,0.0142960827798,0.0127710513771,,0.00892888159723,-0.00842809941098,0.0294530185295,-0.999490806809
113812000000,,473,,113,812000000,"""map""",,,-0.00177190022077,0.0145115600899,0.0124817648903,,0.00891417345839,-0.00839993366817,0.0294248222879,-0.999492029067
113844000000,,474,,113,844000000,"""map""",,,-0.00186147412751,0.0144746545702,0.0123916435987,,0.00889052878826,-0.00843596951176,0.0294124732613,-0.999492239802
113876000000,,475,,113,876000000,"""map""",,,-0.0019207992591,0.0144080463797,0.0123131489381,,0.00887521425341,-0.00838726956917,0.0293441532198,-0.999494810759
113912000000,,476,,113,912000000,"""map""",,,-0.002006982686,0.0144254760817,0.0121075455099,,0.00887858180307,-0.00838759908838,0.0293312141373,-0.999495105787
113944000000,,477,,113,944000000,"""map""",,,-0.00213682767935,0.0145086990669,0.0118120517582,,0.00888321069184,-0.00833758462921,0.0292809750939,-0.999496960249
113976000000,,478,,113,976000000,"""map""",,,-0.0023222733289,0.0146550443023,0.0113591458648,,0.00891423173958,-0.00836072491598,0.0292875921491,-0.999496328046
114012000000,,479,,114,12000000,"""map""",,,-0.00261562177911,0.0148930326104,0.0108018899336,,0.00891447610075,-0.00833796755226,0.0292810593876,-0.999496707368
114044000000,,480,,114,44000000,"""map""",,,-0.0026625727769,0.0149707831442,0.0102753872052,,0.0089468639782,-0.00844420197665,0.0293091713356,-0.999494726466
114076000000,,481,,114,76000000,"""map""",,,-0.00265073729679,0.0150630250573,0.00972670130432,,0.00893705905307,-0.00837756437238,0.0292909217502,-0.999495864431
114112000000,,482,,114,112000000,"""map""",,,-0.00264725578018,0.0152026331052,0.00918597076088,,0.00894473072616,-0.00836058351413,0.0292657600816,-0.999496665221
114144000000,,483,,114,144000000,"""map""",,,-0.00267078052275,0.0153828402981,0.00862540490925,,0.00886355476406,-0.00835243976753,0.0292620933058,-0.999497634598
114176000000,,484,,114,176000000,"""map""",,,-0.00271053682081,0.0156344752759,0.00797179248184,,0.00890812106393,-0.00835779509263,0.0292354564975,-0.999497971773
114212000000,,485,,114,212000000,"""map""",,,-0.00281356531195,0.0160016678274,0.00693802814931,,0.00899078937021,-0.00830046626192,0.0292271535684,-0.999497929626
114244000000,,486,,114,244000000,"""map""",,,-0.00281023443677,0.0159910283983,0.00647038081661,,0.00910706447866,-0.00837549569886,0.0292145938075,-0.999496580927
114276000000,,487,,114,276000000,"""map""",,,-0.00280699832365,0.0159336067736,0.00604297919199,,0.00903994749514,-0.00842294459211,0.0292099576542,-0.999497002396
114312000000,,488,,114,312000000,"""map""",,,-0.0028533062432,0.015924975276,0.00561003340408,,0.00906937747877,-0.00842562787286,0.0291948690824,-0.999497086689
114344000000,,489,,114,344000000,"""map""",,,-0.0029368752148,0.0159866400063,0.00506832031533,,0.00906027433572,-0.00846635959155,0.0292114327939,-0.999496370193
114376000000,,490,,114,376000000,"""map""",,,-0.00306695816107,0.0160821117461,0.00446228170767,,0.00900349209696,-0.00847657614814,0.0291893899921,-0.999497423864
114412000000,,491,,114,412000000,"""map""",,,-0.00326085183769,0.016254875809,0.00376251200214,,0.00903180728822,-0.00846774728888,0.0292086932487,-0.999496665221
114444000000,,492,,114,444000000,"""map""",,,-0.00331567972898,0.0161398351192,0.00349293486215,,0.00899447001662,-0.00840665454704,0.0291876198245,-0.999498182507
114476000000,,493,,114,476000000,"""map""",,,-0.0033530567307,0.0160009581596,0.00338013307191,,0.00897339801235,-0.00846506339074,0.0291670100155,-0.999498477535
114512000000,,494,,114,512000000,"""map""",,,-0.00340031692758,0.0159284099936,0.00329348375089,,0.00896303023747,-0.00843021286552,0.0291438713957,-0.999499531207
114544000000,,495,,114,544000000,"""map""",,,-0.00348174222745,0.0159095562994,0.00317311263643,,0.00898414967752,-0.00840969928642,0.0290687235648,-0.999501680696
114576000000,,496,,114,576000000,"""map""",,,-0.00361993373372,0.0159485153854,0.00307944300584,,0.0089449685842,-0.00833339538064,0.0290683020963,-0.99950269222
114612000000,,497,,114,612000000,"""map""",,,-0.00382405472919,0.0161058045924,0.00295458827168,,0.00895578558934,-0.00837304527533,0.0290595776987,-0.999502481486
114644000000,,498,,114,644000000,"""map""",,,-0.00388414203189,0.0160155557096,0.00373741425574,,0.00896018892661,-0.00839182007056,0.0290621908033,-0.999502228605
114676000000,,499,,114,676000000,"""map""",,,-0.00389444059692,0.0158607009798,0.00464119110256,,0.00895994649991,-0.00841693177206,0.0290310021354,-0.999502987248
114712000000,,500,,114,712000000,"""map""",,,-0.00393435917795,0.0157543066889,0.00544726382941,,0.00896214822,-0.00841006755685,0.0290208447449,-0.999503282276
114744000000,,501,,114,744000000,"""map""",,,-0.00401172041893,0.0156993810087,0.00618573930115,,0.00893279098496,-0.00843225587638,0.0290374927501,-0.999502902954
114776000000,,502,,114,776000000,"""map""",,,-0.00410356558859,0.0156773738563,0.00683137681335,,0.00892194749399,-0.00836666078922,0.0289598582551,-0.99950576894
114812000000,,503,,114,812000000,"""map""",,,-0.00420463411137,0.0157449431717,0.00743264192715,,0.00894816087871,-0.00834685635965,0.0289261829231,-0.999506654024
114844000000,,504,,114,844000000,"""map""",,,-0.00417555170134,0.0155612379313,0.00759629067034,,0.00888517778486,-0.00837854541848,0.0288715606075,-0.999508592779
114876000000,,505,,114,876000000,"""map""",,,-0.00411690818146,0.0153810773045,0.00754570541903,,0.00888300788071,-0.00836913547601,0.0288652385802,-0.99950884566
114912000000,,506,,114,912000000,"""map""",,,-0.00409292941913,0.0152547573671,0.00743838539347,,0.00888695071015,-0.00838229768161,0.0288384331845,-0.99950952001
114944000000,,507,,114,944000000,"""map""",,,-0.00410610204563,0.0151685718447,0.00730626424775,,0.00891540392822,-0.00834510294374,0.0288086353627,-0.999510405093
114976000000,,508,,114,976000000,"""map""",,,-0.00415791245177,0.0151459360495,0.00720100849867,,0.00887965885261,-0.00828880061929,0.0287996159371,-0.999511416618
115012000000,,509,,115,12000000,"""map""",,,-0.00426390115172,0.0152287427336,0.00689789326862,,0.00897645228004,-0.00829689489274,0.0287714196954,-0.999511290177
115044000000,,510,,115,44000000,"""map""",,,-0.00429992424324,0.015001969412,0.00659683765844,,0.00908212033558,-0.00826984783183,0.0287232879944,-0.999511964527
115076000000,,511,,115,76000000,"""map""",,,-0.00435820827261,0.0147262811661,0.00619526812807,,0.00900962652137,-0.00817191164446,0.0286945016969,-0.999514282603
115112000000,,512,,115,112000000,"""map""",,,-0.00443588057533,0.0145553937182,0.00581915676594,,0.00903037832895,-0.00819691682639,0.0287276291198,-0.999512933904
115144000000,,513,,115,144000000,"""map""",,,-0.00454949215055,0.0144763765857,0.00548471556976,,0.00895270349814,-0.008205343068,0.0286846814812,-0.999514746219
115176000000,,514,,115,176000000,"""map""",,,-0.00469135167077,0.0144692435861,0.00513708218932,,0.00897520635499,-0.00829019350267,0.028665546812,-0.999514409044
115212000000,,515,,115,212000000,"""map""",,,-0.00492479233071,0.0145578775555,0.00462360214442,,0.00894655460633,-0.00829223215067,0.0286593090784,-0.999514830513
115244000000,,516,,115,244000000,"""map""",,,-0.00502486806363,0.0142422299832,0.00387263088487,,0.00893248218932,-0.00828131675487,0.0286734704195,-0.999514661925
115276000000,,517,,115,276000000,"""map""",,,-0.00515036005527,0.0138421542943,0.00302814692259,,0.0089404278375,-0.00827827331201,0.0287211385051,-0.999513271079
115312000000,,518,,115,312000000,"""map""",,,-0.0053095719777,0.0135265542194,0.0022545857355,,0.00893832965296,-0.00825923485202,0.02873926165,-0.999512849611
115344000000,,519,,115,344000000,"""map""",,,-0.00550033245236,0.0133279757574,0.00153685547411,,0.00898531668013,-0.00826308877796,0.0287173874356,-0.999513060345
115376000000,,520,,115,376000000,"""map""",,,-0.00571963330731,0.0132313538343,0.000896508921869,,0.00886423080115,-0.00827529354216,0.0287090002128,-0.999514282603
115412000000,,521,,115,412000000,"""map""",,,-0.0060305269435,0.0132045848295,0.000167828882695,,0.00887250244944,-0.00827770348579,0.028685018656,-0.999514830513
115444000000,,522,,115,444000000,"""map""",,,-0.00610019918531,0.0130163794383,-4.039198393e-05,,0.00883513218889,-0.00826167632346,0.0286467914644,-0.99951647424
115476000000,,523,,115,476000000,"""map""",,,-0.00615704245865,0.0128720421344,-0.000199340138352,,0.00883251688227,-0.00828660970346,0.0286891069003,-0.999515041247
115512000000,,524,,115,512000000,"""map""",,,-0.00627384893596,0.0128204813227,-0.000308368355036,,0.00878233599656,-0.00825784427355,0.028670267259,-0.999516263505
115544000000,,525,,115,544000000,"""map""",,,-0.00640425551683,0.0128428284079,-0.000348989386111,,0.0087835958951,-0.00826537989546,0.0286805932369,-0.999515884184
115576000000,,526,,115,576000000,"""map""",,,-0.00657677045092,0.0129438592121,-0.00030439189868,,0.00880771440858,-0.00824086098692,0.0287110654083,-0.9995149991
115612000000,,527,,115,612000000,"""map""",,,-0.006855789572,0.0131852841005,-0.000294079392916,,0.00881253279353,-0.00825524312564,0.0287242995188,-0.999514493338
115644000000,,528,,115,644000000,"""map""",,,-0.00693421624601,0.0131975486875,0.000218259199755,,0.00878482342206,-0.00819834664999,0.028711992639,-0.999515504862
115676000000,,529,,115,676000000,"""map""",,,-0.00698191812262,0.0132132098079,0.000688061700203,,0.00899895571312,-0.00822618073332,0.0287119083453,-0.99951339752
115712000000,,530,,115,712000000,"""map""",,,-0.00706034014001,0.0132652670145,0.00128046795726,,0.0089615979649,-0.0082380501749,0.0287186096942,-0.999513439667
115744000000,,531,,115,744000000,"""map""",,,-0.00717962998897,0.0133553491905,0.00184874166735,,0.00895688422679,-0.00824142311639,0.0286982949132,-0.999514029722
115776000000,,532,,115,776000000,"""map""",,,-0.00731837609783,0.0134859355167,0.00233055045828,,0.00896048284326,-0.00829703818791,0.0287079465416,-0.999513228932
115812000000,,533,,115,812000000,"""map""",,,-0.00756506249309,0.0137515477836,0.00285573676229,,0.00890778687317,-0.00831207858303,0.0286995171719,-0.999513818988
115844000000,,534,,115,844000000,"""map""",,,-0.00749081978574,0.0137339616194,0.00338846840896,,0.00890776870146,-0.00835959625301,0.0287210120646,-0.999512891757
115876000000,,535,,115,876000000,"""map""",,,-0.00736359413713,0.0136942975223,0.00391209963709,,0.00887008254533,-0.00836826825521,0.0287640018501,-0.999511880233
115912000000,,536,,115,912000000,"""map""",,,-0.00729099428281,0.013742685318,0.00434178998694,,0.00888180805377,-0.00838446108264,0.0287308744271,-0.999512554583
115944000000,,537,,115,944000000,"""map""",,,-0.00728149386123,0.0138762118295,0.00463553285226,,0.00882471524954,-0.00839879722614,0.028750936327,-0.999512385995
115976000000,,538,,115,976000000,"""map""",,,-0.00732856383547,0.0140916649252,0.00488189654425,,0.00885743266678,-0.00840682000635,0.0287148586247,-0.999513060345
116012000000,,539,,116,12000000,"""map""",,,-0.00747898872942,0.0144438501447,0.0049876337871,,0.00886312426116,-0.0082131179062,0.0287293992875,-0.99951419831
116044000000,,540,,116,44000000,"""map""",,,-0.00776941329241,0.0144818918779,0.00508933700621,,0.00890180757715,-0.0082476528857,0.028753465138,-0.999512891757
116076000000,,541,,116,76000000,"""map""",,,-0.00812150351703,0.0144767072052,0.00511943502352,,0.00891431494256,-0.00833005363769,0.0287533808443,-0.999512133114
116112000000,,542,,116,112000000,"""map""",,,-0.00849396549165,0.0145573085174,0.00514330156147,,0.00888911536653,-0.00839726440206,0.028703099654,-0.999513186785
116144000000,,543,,116,144000000,"""map""",,,-0.00887097138911,0.0146978925914,0.00505519052967,,0.00885592215089,-0.00844063213035,0.0287190311627,-0.999512681023
116176000000,,544,,116,176000000,"""map""",,,-0.00925067812204,0.0148824509233,0.0049387710169,,0.00885805457974,-0.00847330509583,0.0287126248417,-0.99951259673
116212000000,,545,,116,212000000,"""map""",,,-0.00976690743119,0.0152092054486,0.00460778502747,,0.00885075805065,-0.00849255420775,0.0287033946819,-0.99951272317
116244000000,,546,,116,244000000,"""map""",,,-0.00999202672392,0.0153006566688,0.0042081810534,,0.0088832421785,-0.00853338979124,0.0287661934862,-0.999510278653
