rosbagTimestamp,header,seq,stamp,secs,nsecs,frame_id,pose,position,x,y,z,orientation,x,y,z,w
2678016000000,,11673,,2678,12309610,"""map""",,,0.012556264177,0.0363437049091,0.0230122208595,,0.00281858366506,-0.0128371002903,0.062431620937,-0.997962772816
2678048000000,,11674,,2678,44308693,"""map""",,,0.0130561152473,0.0356711633503,0.0228380598128,,0.00277485960245,-0.0128436363446,0.0624105053659,-0.997964079368
2678080000000,,11675,,2678,76308693,"""map""",,,0.0133176753297,0.0354988388717,0.0228666570038,,0.00281967948312,-0.0128438358836,0.0624347398038,-0.997962435641
2678116000000,,11676,,2678,108308693,"""map""",,,0.0133604994044,0.0357249379158,0.0231571905315,,0.00274653823734,-0.0127594387951,0.0623992521573,-0.997965975977
2678148000000,,11677,,2678,140307775,"""map""",,,0.0134804844856,0.0357509441674,0.0234197322279,,0.0027627068221,-0.0127344562506,0.0623975241366,-0.997966355298
2678180000000,,11678,,2678,172307775,"""map""",,,0.0136353401467,0.0356372222304,0.02363169007,,0.00280787803626,-0.0125072435781,0.0623989149826,-0.99796901055
2678216000000,,11679,,2678,212307775,"""map""",,,0.0139604965225,0.0352565124631,0.0239961687475,,0.00280596463519,-0.0124940657732,0.0624789518479,-0.997964163662
2678248000000,,11680,,2678,244306857,"""map""",,,0.0142602967098,0.0347458943725,0.0242589153349,,0.00278733078907,-0.0125530565439,0.0624838830292,-0.997963194285
2678280000000,,11681,,2678,276306857,"""map""",,,0.0143522555009,0.0346229560673,0.0246017836034,,0.00282434988077,-0.0125552103137,0.0625486627353,-0.997958937453
2678316000000,,11682,,2678,308306857,"""map""",,,0.014266429469,0.0348252616823,0.0249236207455,,0.00282820137832,-0.0125735728395,0.0625723071173,-0.997957293726
2678348000000,,11683,,2678,340305940,"""map""",,,0.0142455035821,0.0348221585155,0.025189070031,,0.00282587144785,-0.0126202043761,0.0625855412278,-0.997955860733
2678380000000,,11684,,2678,372305940,"""map""",,,0.0142859648913,0.0346248522401,0.0254377666861,,0.00283877167622,-0.0126266192581,0.0626089748755,-0.997954259153
2678416000000,,11685,,2678,412305940,"""map""",,,0.0144060179591,0.0341435819864,0.0257452446967,,0.00288834065061,-0.0125860894657,0.0626194694408,-0.997953964125
2678448000000,,11686,,2678,444305022,"""map""",,,0.0145650999621,0.0336525849998,0.0259735118598,,0.00285492478518,-0.0126003601252,0.062614959728,-0.997954174859
2678480000000,,11687,,2678,476305022,"""map""",,,0.0145596927032,0.0335971079767,0.0261743851006,,0.00289226590515,-0.0126594602142,0.0626004612121,-0.997954174859
2678516000000,,11688,,2678,508305022,"""map""",,,0.0144194019958,0.0338739603758,0.0263144075871,,0.00294554544857,-0.0126678454614,0.0626155076371,-0.997953036894
2678548000000,,11689,,2678,540304104,"""map""",,,0.0143868811429,0.033943053335,0.0264987777919,,0.00295685364559,-0.0126532893229,0.0625972159048,-0.9979543013
2678580000000,,11690,,2678,572304104,"""map""",,,0.0144314896315,0.0338409915566,0.0267966855317,,0.00299442953667,-0.0127085431828,0.0625906831433,-0.997953921978
2678616000000,,11691,,2678,612304104,"""map""",,,0.0146041568369,0.0334869325161,0.0271649062634,,0.00296376572874,-0.0127728349074,0.062574625194,-0.997954132712
2678648000000,,11692,,2678,644303186,"""map""",,,0.0148441996425,0.0330067761242,0.0274611581117,,0.00297120201333,-0.0127476389946,0.0625570078113,-0.997955565705
2678680000000,,11693,,2678,676303186,"""map""",,,0.0147384116426,0.0329820029438,0.0274940188974,,0.00298152041795,-0.0127412916133,0.0625709162713,-0.997954807062
2678716000000,,11694,,2678,708303186,"""map""",,,0.0143446903676,0.0333496071398,0.0272354912013,,0.00295373247389,-0.012748700239,0.0625889129756,-0.997953584803
2678748000000,,11695,,2678,740302269,"""map""",,,0.0140828248113,0.0335305780172,0.0269427429885,,0.00292835776618,-0.0127186399872,0.0625773647392,-0.997954764915
2678780000000,,11696,,2678,772302269,"""map""",,,0.0139050409198,0.0335211493075,0.0267587024719,,0.00295412134442,-0.0126838148365,0.0625738244039,-0.997955354971
2678816000000,,11697,,2678,812302269,"""map""",,,0.0138260908425,0.0332997664809,0.0265250820667,,0.00291220564503,-0.012725850391,0.0625447430784,-0.997956787964
2678848000000,,11698,,2678,844301351,"""map""",,,0.0138801150024,0.0329276323318,0.0263765733689,,0.00283391095921,-0.0127510071204,0.0625428886171,-0.997956787964
2678880000000,,11699,,2678,876301351,"""map""",,,0.0137434434146,0.0330059602857,0.0263028144836,,0.00284726558328,-0.0127480456458,0.0625540996788,-0.997956113614
2678916000000,,11700,,2678,908301351,"""map""",,,0.0134229948744,0.0334460549057,0.0263163782656,,0.00283473710329,-0.0126817674216,0.0625540153851,-0.997957040845
2678948000000,,11701,,2678,940300433,"""map""",,,0.0131949065253,0.0336534045637,0.0263394955546,,0.00280517372324,-0.0126478813554,0.0625649314188,-0.99795683011
2678980000000,,11702,,2678,972300433,"""map""",,,0.013049938716,0.0336458534002,0.0263530537486,,0.0027847041843,-0.0126461092121,0.0625452066937,-0.99795817881
2679016000000,,11703,,2679,12300433,"""map""",,,0.0129743861035,0.0333747193217,0.0264312382787,,0.0028297871535,-0.0126023406978,0.0625047035723,-0.997961086942
2679048000000,,11704,,2679,44299516,"""map""",,,0.0130111621693,0.0329482331872,0.0264973696321,,0.00279375686638,-0.0125591322755,0.0624583841858,-0.997964669424
2679080000000,,11705,,2679,76299516,"""map""",,,0.0128963012248,0.0328222289681,0.0266666635871,,0.00279147731456,-0.0125259268151,0.0624606179688,-0.997964964452
2679116000000,,11706,,2679,116310598,"""map""",,,0.0125853801146,0.0329453460872,0.0269969403744,,0.00277283194391,-0.012528507651,0.0625094661662,-0.997961887732
2679148000000,,11707,,2679,140310598,"""map""",,,0.0124728279188,0.0328804180026,0.0271350312978,,0.00278076279542,-0.0124974618872,0.0624944197413,-0.997963194285
2679180000000,,11708,,2679,172310598,"""map""",,,0.0124006951228,0.0326409898698,0.0273538567126,,0.00279773941429,-0.0124994289597,0.0625185277386,-0.997961676998
2679216000000,,11709,,2679,212310598,"""map""",,,0.012409415096,0.0321084447205,0.0275802779943,,0.00277072789421,-0.0122267948261,0.0624887720636,-0.997966987501
2679248000000,,11710,,2679,244309681,"""map""",,,0.0125634716824,0.0314988829195,0.0278436448425,,0.00274787178997,-0.0122254112241,0.0625297809472,-0.997964500837
2679280000000,,11711,,2679,276309681,"""map""",,,0.0125855635852,0.0312702134252,0.0282080434263,,0.00274637821102,-0.01229313199,0.0625296123598,-0.9979636579
2679316000000,,11712,,2679,308309681,"""map""",,,0.012474023737,0.0313893593848,0.0286215599626,,0.00277658070852,-0.0123205047218,0.0625586093916,-0.997961466264
2679348000000,,11713,,2679,340308763,"""map""",,,0.0124485557899,0.0312754996121,0.0290869325399,,0.00280763733824,-0.012358396385,0.0625446166379,-0.997961719145
2679380000000,,11714,,2679,372308763,"""map""",,,0.0124967452139,0.0309550203383,0.0296560265124,,0.00280182535369,-0.0123640621726,0.0625087918166,-0.997963910781
2679416000000,,11715,,2679,412308763,"""map""",,,0.0126459244639,0.0303229577839,0.0303390529007,,0.00282889877696,-0.0123470881879,0.0625178112422,-0.997963489313
2679448000000,,11716,,2679,444307846,"""map""",,,0.012843362987,0.029661282897,0.0308472122997,,0.00282116087899,-0.012317599882,0.0625436051135,-0.997962309201
2679480000000,,11717,,2679,476307846,"""map""",,,0.0128710893914,0.0294361673295,0.0313065610826,,0.00281063865484,-0.0123486713289,0.0625575135735,-0.997961044795
2679516000000,,11718,,2679,508307846,"""map""",,,0.0127224298194,0.0295916888863,0.0317758582532,,0.00278395113865,-0.0123924349042,0.0625214358712,-0.997962814963
2679548000000,,11719,,2679,540306928,"""map""",,,0.0126490434632,0.0295223705471,0.0321577899158,,0.00285015856931,-0.0124537822764,0.0625790927599,-0.997958263103
2679580000000,,11720,,2679,572306928,"""map""",,,0.0126618938521,0.029242567718,0.0325990654528,,0.00281585268098,-0.0124426275202,0.0625853304935,-0.997958094516
2679616000000,,11721,,2679,612306928,"""map""",,,0.0127906771377,0.028622481972,0.033256098628,,0.00283220862165,-0.0124584651864,0.0626261707897,-0.997955270677
2679648000000,,11722,,2679,644306010,"""map""",,,0.0129607617855,0.0279619377106,0.0338714979589,,0.00280711313682,-0.012525711471,0.0625852461998,-0.997957082992
2679680000000,,11723,,2679,676306010,"""map""",,,0.0129311643541,0.0279323216528,0.034096442163,,0.00277397122591,-0.0125123667251,0.062591610374,-0.997956956551
2679716000000,,11724,,2679,708306010,"""map""",,,0.0127160036936,0.028441041708,0.0340685173869,,0.00271277795314,-0.0125122850656,0.062633040726,-0.997954554181
2679748000000,,11725,,2679,740305093,"""map""",,,0.0125706223771,0.0287210959941,0.034023180604,,0.00276309733899,-0.0125328026783,0.0626707200086,-0.997951772489
2679780000000,,11726,,2679,772305093,"""map""",,,0.0125011587515,0.0287762936205,0.0340102054179,,0.00276612071683,-0.0125166387033,0.0626533133602,-0.997952994747
2679816000000,,11727,,2679,812305093,"""map""",,,0.0125384125859,0.0285516828299,0.0341083034873,,0.00279866269369,-0.0125276989583,0.0627213383737,-0.997948527181
2679848000000,,11728,,2679,844304175,"""map""",,,0.0126097500324,0.0281878374517,0.0342325344682,,0.00281636996769,-0.0125147305706,0.0627318750858,-0.997947937125
2679880000000,,11729,,2679,876304175,"""map""",,,0.0124569386244,0.0282305218279,0.0344588272274,,0.00280100381942,-0.0125254645168,0.0627475958603,-0.997946883454
2679916000000,,11730,,2679,908304175,"""map""",,,0.0120925344527,0.0286313258111,0.0347777232528,,0.00282981580018,-0.0125342211831,0.0628311730609,-0.997941446511
2679948000000,,11731,,2679,940303257,"""map""",,,0.0118304593489,0.0288280006498,0.0350913405418,,0.00283669001703,-0.0125275827252,0.0628434377938,-0.997940814308
2679980000000,,11732,,2679,972303257,"""map""",,,0.0116596985608,0.0288320370018,0.0354716554284,,0.00285013519098,-0.0125409060684,0.062862572463,-0.997939297021
2680016000000,,11733,,2680,12303257,"""map""",,,0.0115416934714,0.0285745393485,0.0359539166093,,0.0028082846875,-0.0125968915712,0.0628011645047,-0.997942626623
2680048000000,,11734,,2680,44302340,"""map""",,,0.011535149999,0.028193268925,0.036316268146,,0.00278417208034,-0.0126259129692,0.0628664499731,-0.997938201203
2680080000000,,11735,,2680,76302340,"""map""",,,0.0114842606708,0.0282887257636,0.0365947261453,,0.00278770681798,-0.0126148879463,0.0628744157275,-0.997937821882
2680116000000,,11736,,2680,108302340,"""map""",,,0.0114214383066,0.0287814158946,0.0369053967297,,0.00272896300151,-0.0126342679233,0.0628994931023,-0.997936178155
2680148000000,,11737,,2680,140301422,"""map""",,,0.0114283440635,0.0290524065495,0.0371074154973,,0.00272439138553,-0.0126266182703,0.0629740930242,-0.997931626295
2680180000000,,11738,,2680,172301422,"""map""",,,0.0114940162748,0.0290860552341,0.0372404754162,,0.00271464887808,-0.0126307908083,0.0630120251878,-0.997929181778
2680216000000,,11739,,2680,212301422,"""map""",,,0.0116663593799,0.0288176927716,0.0375488922,,0.00268616781593,-0.0126669663045,0.0630888588927,-0.997923913422
2680248000000,,11740,,2680,244300505,"""map""",,,0.0118552166969,0.0283963624388,0.037879306823,,0.00269332882891,-0.0126228504079,0.0630395049331,-0.997927580198
2680280000000,,11741,,2680,276300505,"""map""",,,0.0120852561668,0.0278064850718,0.038218524307,,0.00270640521793,-0.0126426446095,0.0630015727694,-0.99792968754
2680316000000,,11742,,2680,308300505,"""map""",,,0.0123770833015,0.0270348992199,0.038601398468,,0.00265395807477,-0.0126709363401,0.0629989596648,-0.997929603246
2680348000000,,11743,,2680,340299587,"""map""",,,0.012696438469,0.0260712020099,0.0391512773931,,0.00267486883853,-0.0126897121026,0.0630255121794,-0.997927748785
2680380000000,,11744,,2680,372299587,"""map""",,,0.0128553491086,0.025669740513,0.0399428978562,,0.00269900581184,-0.0127402804182,0.0630634021962,-0.997924587771
2680416000000,,11745,,2680,412310670,"""map""",,,0.0129313580692,0.0257434286177,0.041244532913,,0.00270490472427,-0.0127340258918,0.0630785329148,-0.997923702688
2680448000000,,11746,,2680,444310670,"""map""",,,0.0130851184949,0.0255746841431,0.0423687919974,,0.00269789517653,-0.0127012461803,0.0630085269994,-0.997928549575
2680480000000,,11747,,2680,476310670,"""map""",,,0.0132629247382,0.0252157803625,0.0435074344277,,0.00268563933396,-0.0127192629703,0.062986104876,-0.997929729687
2680516000000,,11748,,2680,508310670,"""map""",,,0.0134570263326,0.0246719326824,0.0445975400507,,0.00267982998359,-0.0127473864427,0.0630501680858,-0.997925430708
2680548000000,,11749,,2680,540309752,"""map""",,,0.013684228994,0.0239416062832,0.0456505529583,,0.00271545131457,-0.0127619646425,0.0630524018687,-0.997924882799
2680580000000,,11750,,2680,572309752,"""map""",,,0.0138501562178,0.02387355268,0.0464810468256,,0.00270946646208,-0.0127516465672,0.0630227304874,-0.997926990142
2680616000000,,11751,,2680,612309752,"""map""",,,0.0139598585665,0.0244497749954,0.0471602268517,,0.00273704992807,-0.0127874084974,0.0630129945654,-0.997927032289
2680648000000,,11752,,2680,644308835,"""map""",,,0.0140787893906,0.0246151331812,0.047756459564,,0.00276796529999,-0.0127401599046,0.063044267527,-0.997925599296
2680680000000,,11753,,2680,676308835,"""map""",,,0.0142510700971,0.0245497971773,0.0482684001327,,0.00278950135177,-0.0127345817033,0.0630408957791,-0.997925852177
2680716000000,,11754,,2680,708308835,"""map""",,,0.0144603503868,0.0242880750448,0.0487860329449,,0.0027740746174,-0.0127863956559,0.0630369761222,-0.997925472855
2680748000000,,11755,,2680,740307917,"""map""",,,0.014695122838,0.0238070301712,0.0493138879538,,0.00276589121407,-0.0127412395883,0.0630418230097,-0.997925767883
2680780000000,,11756,,2680,772307917,"""map""",,,0.014946192503,0.0238355826586,0.0496822595596,,0.00279918722439,-0.0127220140399,0.0630899547107,-0.997922817604
2680816000000,,11757,,2680,812307917,"""map""",,,0.0153391975909,0.0244053676724,0.0500790141523,,0.00278300448092,-0.0127328849634,0.063062053497,-0.997924503478
2680848000000,,11758,,2680,844307000,"""map""",,,0.0157251190394,0.024570312351,0.050480555743,,0.00282451879743,-0.0127645283563,0.0630380719402,-0.997925472855
2680880000000,,11759,,2680,876307000,"""map""",,,0.0161555111408,0.0245265513659,0.0507498346269,,0.00283081547075,-0.0127519992177,0.0630176307187,-0.997927032289
2680916000000,,11760,,2680,908307000,"""map""",,,0.016648106277,0.0242890324444,0.0512641333044,,0.00282752208966,-0.0127768757365,0.0630290946615,-0.997925936471
2680948000000,,11761,,2680,940306082,"""map""",,,0.0171904657036,0.0238697379827,0.0519766137004,,0.00284054283167,-0.0128282738183,0.0629998447486,-0.997927116582
2680980000000,,11762,,2680,972306082,"""map""",,,0.0175305008888,0.0239461250603,0.0528218597174,,0.00279015100592,-0.0128891167454,0.063056490113,-0.997922901897
2681016000000,,11763,,2681,12306082,"""map""",,,0.0177596714348,0.0245126076043,0.0537372604012,,0.00280733243214,-0.0129167901027,0.0630621377907,-0.99792205896
2681048000000,,11764,,2681,44305165,"""map""",,,0.0180184394121,0.0247083306313,0.0544460862875,,0.00284096660507,-0.0128726416082,0.0630450683171,-0.997923702688
2681080000000,,11765,,2681,76305165,"""map""",,,0.018366670236,0.0246860291809,0.0551698990166,,0.00280785334084,-0.0128552392403,0.0630725480623,-0.997922269695
2681116000000,,11766,,2681,108305165,"""map""",,,0.0187586545944,0.0244578868151,0.0558718852699,,0.00276680593239,-0.0128430143493,0.0631071084781,-0.99792033094
2681148000000,,11767,,2681,140304247,"""map""",,,0.0192392673343,0.0240363404155,0.0565270036459,,0.00280158333858,-0.0128736844134,0.0631070663312,-0.997919783031
2681180000000,,11768,,2681,172304247,"""map""",,,0.0194431468844,0.0241494402289,0.0569322109222,,0.00278752703533,-0.0126716103604,0.0630975411435,-0.997922986191
2681216000000,,11769,,2681,212304247,"""map""",,,0.0194790903479,0.0248342677951,0.0574671477079,,0.00284771339355,-0.0126966120026,0.0631113653098,-0.997921637492
2681248000000,,11770,,2681,244303330,"""map""",,,0.0196077525616,0.0251085422933,0.057989872992,,0.00294679339041,-0.012721438472,0.0631058019258,-0.997921468905
2681280000000,,11771,,2681,276303330,"""map""",,,0.0197624769062,0.0251631159335,0.0585797727108,,0.00293522967812,-0.0127417239478,0.0630983419336,-0.997921679639
2681316000000,,11772,,2681,308303330,"""map""",,,0.0199944227934,0.0250053070486,0.0591493546963,,0.00293818555515,-0.0127380673794,0.0631053383105,-0.99792125817
2681348000000,,11773,,2681,340302412,"""map""",,,0.020316125825,0.0246577598155,0.0596789866686,,0.00298740023259,-0.0127602771222,0.0631488338581,-0.99791805501
2681380000000,,11774,,2681,372302412,"""map""",,,0.0204513911158,0.0247074067593,0.0598844327033,,0.00298846641615,-0.0127682382668,0.0631374963559,-0.997918771506
2681416000000,,11775,,2681,412302412,"""map""",,,0.0204106606543,0.0251690428704,0.0599643848836,,0.00297645324723,-0.0128011444187,0.0630945487172,-0.997921005289
2681448000000,,11776,,2681,444301495,"""map""",,,0.020478984341,0.0252743493766,0.0601168945432,,0.00294935842127,-0.0128531203733,0.0631105645197,-0.997919403709
2681480000000,,11777,,2681,476301495,"""map""",,,0.0206361953169,0.0251563712955,0.0603120923042,,0.00289112431824,-0.0128231832693,0.0631037367302,-0.997920415233
2681516000000,,11778,,2681,508301495,"""map""",,,0.0208899341524,0.024853201583,0.0605838894844,,0.0028645454619,-0.0128691457246,0.0631005335697,-0.997920078059
2681548000000,,11779,,2681,540300577,"""map""",,,0.0212149657309,0.0243626590818,0.0609550103545,,0.0028419761538,-0.0128489267619,0.0630864986692,-0.997921300317
2681580000000,,11780,,2681,572300577,"""map""",,,0.0213483646512,0.0244766864926,0.0609509646893,,0.00281481316848,-0.0128585197797,0.063128013315,-0.997918645066
2681616000000,,11781,,2681,612300577,"""map""",,,0.0212888363749,0.0252416692674,0.0606450550258,,0.00283909403376,-0.0128466840886,0.0630757090759,-0.99792205896
2681648000000,,11782,,2681,644299660,"""map""",,,0.0213301070035,0.0255422573537,0.060439851135,,0.00280655172762,-0.0128124183715,0.0630246270956,-0.997925767883
2681680000000,,11783,,2681,676299660,"""map""",,,0.0214308723807,0.0256135463715,0.0603364855051,,0.00280047632526,-0.0127994592034,0.0630065039507,-0.997927116582
2681716000000,,11784,,2681,708310742,"""map""",,,0.0216267555952,0.0254754908383,0.0602803528309,,0.0027902616414,-0.0127762356313,0.0629629241093,-0.997930235449
2681748000000,,11785,,2681,740310742,"""map""",,,0.0219031553715,0.0251586083323,0.0601514428854,,0.00280119841932,-0.0127882003972,0.0630016570631,-0.997927580198
2681780000000,,11786,,2681,772310742,"""map""",,,0.0219315886497,0.0253559760749,0.0598872713745,,0.002827290282,-0.0127884753395,0.0630043123146,-0.99792728517
2681816000000,,11787,,2681,812310742,"""map""",,,0.0217591561377,0.0260930657387,0.0594456270337,,0.00281012038031,-0.0128082267357,0.0630299797453,-0.997925472855
2681848000000,,11788,,2681,844309825,"""map""",,,0.0217299144715,0.0263737402856,0.0591544657946,,0.00277919710585,-0.0127693903904,0.0630130367122,-0.997927158729
2681880000000,,11789,,2681,876309825,"""map""",,,0.0217893980443,0.0264403205365,0.0589081309736,,0.00278367191578,-0.0127747028689,0.0629836603588,-0.997928971044
2681916000000,,11790,,2681,908309825,"""map""",,,0.0219354368746,0.0263048429042,0.0587220191956,,0.00280584510937,-0.0128171025985,0.062971648507,-0.99792901319
2681948000000,,11791,,2681,940308908,"""map""",,,0.0221822019666,0.0259966272861,0.0585173331201,,0.00281852373751,-0.0127814960848,0.0629708477169,-0.997929645393
2681980000000,,11792,,2681,972308908,"""map""",,,0.0221137385815,0.0262564178556,0.0579618737102,,0.00281342495665,-0.0127429689262,0.0629694990177,-0.997930235449
2682016000000,,11793,,2682,12308908,"""map""",,,0.0216967221349,0.0271525476128,0.0569605119526,,0.00279603543038,-0.0127442491367,0.0630248378298,-0.997926652967
2682048000000,,11794,,2682,44307990,"""map""",,,0.0214903559536,0.0275782775134,0.0562178678811,,0.0027610453143,-0.0127295336304,0.063038704143,-0.997926105058
2682080000000,,11795,,2682,76307990,"""map""",,,0.0213596317917,0.0277811605483,0.0554773062468,,0.00277450332987,-0.0127410173295,0.0630243742145,-0.997926779407
2682116000000,,11796,,2682,108307990,"""map""",,,0.0213152263314,0.0277487523854,0.0547956116498,,0.00274253198182,-0.0127002893152,0.0630388305835,-0.997926568673
2682148000000,,11797,,2682,140307073,"""map""",,,0.0213339980692,0.0275049861521,0.0540961585939,,0.00269203281332,-0.0127056083792,0.0630646244548,-0.997924967093
2682180000000,,11798,,2682,172307073,"""map""",,,0.0211692526937,0.0276377629489,0.0533638894558,,0.00269325309629,-0.0126683643945,0.0630446889954,-0.997926695114
2682216000000,,11799,,2682,212307073,"""map""",,,0.0207769908011,0.0281848423183,0.0524205639958,,0.00272807824696,-0.012663207991,0.0629976109657,-0.997929603246
2682248000000,,11800,,2682,244306155,"""map""",,,0.020567053929,0.0283642094582,0.0518019683659,,0.00277170616207,-0.0126815780901,0.0629800778767,-0.997930446183
2682280000000,,11801,,2682,276306155,"""map""",,,0.0204861368984,0.0283122137189,0.0512739308178,,0.0028141269651,-0.0127313284935,0.062997231644,-0.997928549575
2682316000000,,11802,,2682,308306155,"""map""",,,0.020461961627,0.0280425809324,0.0507366545498,,0.00274977827632,-0.0127794783044,0.0630315391787,-0.997925936471
2682348000000,,11803,,2682,340305238,"""map""",,,0.0204947795719,0.0276118069887,0.0503136515617,,0.00277716022769,-0.0128160370735,0.0631114917503,-0.99792033094
2682380000000,,11804,,2682,372305238,"""map""",,,0.0203445591033,0.0278323423117,0.0496982000768,,0.00277649806118,-0.0128366215285,0.0631101009043,-0.997920204499
2682416000000,,11805,,2682,412305238,"""map""",,,0.0199892558157,0.0287462454289,0.0487844012678,,0.00274731795404,-0.0128337937384,0.0631015872409,-0.997920794555
2682448000000,,11806,,2682,444304320,"""map""",,,0.0198265705258,0.029196428135,0.0482063665986,,0.00276457379578,-0.0128211859038,0.0630808509915,-0.997922227548
2682480000000,,11807,,2682,476304320,"""map""",,,0.0196973886341,0.0294186640531,0.0476672388613,,0.00278226756962,-0.012597945901,0.0630888588927,-0.997924503478
2682516000000,,11808,,2682,508304320,"""map""",,,0.0196750313044,0.0294442586601,0.0472982004285,,0.00278452275529,-0.0126051987809,0.0631102273449,-0.997923028338
2682548000000,,11809,,2682,540303403,"""map""",,,0.0197003204376,0.0292731262743,0.0468548536301,,0.00280690997584,-0.0126490005518,0.0631195417984,-0.997921974667
2682580000000,,11810,,2682,572303403,"""map""",,,0.0194937065244,0.029732035473,0.0464274510741,,0.00282990437442,-0.0126719264618,0.0631029780869,-0.997922606869
2682616000000,,11811,,2682,612303403,"""map""",,,0.0190105494112,0.0308541189879,0.045928824693,,0.00288677561959,-0.0125968938761,0.0631306264196,-0.997921679639
2682648000000,,11812,,2682,644302485,"""map""",,,0.0187250375748,0.0314417593181,0.0456631034613,,0.00286831069013,-0.0125970078043,0.0631239672175,-0.997922101107
2682680000000,,11813,,2682,676302485,"""map""",,,0.018512101844,0.0317963846028,0.0453686192632,,0.00289483258237,-0.0126053716489,0.0631489181518,-0.997920415233
2682716000000,,11814,,2682,708302485,"""map""",,,0.0183665584773,0.0319254212081,0.0452103093266,,0.00290626129303,-0.0126033245633,0.0631836050081,-0.997918097157
2682748000000,,11815,,2682,740301568,"""map""",,,0.018256129697,0.0318859778345,0.0451035611331,,0.00286850627785,-0.0126002392822,0.0632511242595,-0.997913966766
2682780000000,,11816,,2682,772301568,"""map""",,,0.0178928729147,0.0323172472417,0.0450722612441,,0.00290912332746,-0.0126507292311,0.0632752744036,-0.997911732983
2682816000000,,11817,,2682,812301568,"""map""",,,0.0171826407313,0.03332708776,0.0449394918978,,0.00289340090661,-0.0126279254812,0.0632703010755,-0.997912407332
2682848000000,,11818,,2682,844300651,"""map""",,,0.0167290624231,0.0338378325105,0.044923748821,,0.00286823890877,-0.0125951671724,0.0632963056811,-0.997911185074
2682880000000,,11819,,2682,876300651,"""map""",,,0.0163780357689,0.0340968631208,0.0447483472526,,0.00284833670593,-0.0125910048419,0.0632780139488,-0.997912449479
2682916000000,,11820,,2682,908300651,"""map""",,,0.0161042921245,0.0341402739286,0.0444940328598,,0.00283869462651,-0.012580741755,0.0633020797993,-0.997911058633
2682948000000,,11821,,2682,940299733,"""map""",,,0.015878515318,0.0339919961989,0.0443937964737,,0.00278096661494,-0.012606605432,0.0633408548999,-0.997908445528
2682980000000,,11822,,2682,972299733,"""map""",,,0.0155835840851,0.034235060215,0.0441499277949,,0.0028042069799,-0.0126525570214,0.0633416978369,-0.997907771179
2683016000000,,11823,,2683,12310816,"""map""",,,0.0151311149821,0.0348763056099,0.0439024008811,,0.00284518919245,-0.0126040739869,0.0632931025206,-0.997911437955
2683048000000,,11824,,2683,44310816,"""map""",,,0.0148253152147,0.0350935198367,0.0438667200506,,0.00287415889463,-0.0125965939091,0.063252093637,-0.997914008912
2683080000000,,11825,,2683,76310816,"""map""",,,0.0145598202944,0.0350910946727,0.0437297411263,,0.00293320959284,-0.0125571691543,0.0632447600853,-0.997914683262
2683116000000,,11826,,2683,108310816,"""map""",,,0.0143517991528,0.0349082164466,0.0435718670487,,0.00297337949074,-0.0125483090965,0.0632631782581,-0.997913545297
2683148000000,,11827,,2683,140309899,"""map""",,,0.0142039209604,0.0345376171172,0.0434650816023,,0.00298672588301,-0.0125905069822,0.0632941983386,-0.99791110078
2683180000000,,11828,,2683,172309899,"""map""",,,0.013882599771,0.0345440655947,0.0432010553777,,0.00295466069237,-0.0125912741866,0.0632654541879,-0.997912955241
2683216000000,,11829,,2683,212309899,"""map""",,,0.0132985459641,0.0349662788212,0.042616982013,,0.00291069198048,-0.0126069491922,0.0632480053927,-0.997913966766
2683248000000,,11830,,2683,244308981,"""map""",,,0.0129280397668,0.0350553058088,0.041995216161,,0.00290393827728,-0.01260258403,0.0632716919215,-0.997912618066
2683280000000,,11831,,2683,276308981,"""map""",,,0.0126358969137,0.0349279269576,0.0414088740945,,0.00290315164587,-0.0125543854867,0.0632675193835,-0.99791350315
2683316000000,,11832,,2683,308308981,"""map""",,,0.0123700397089,0.0345922410488,0.0408675521612,,0.00288388658483,-0.0125230348169,0.0632708911314,-0.997913671738
2683348000000,,11833,,2683,340308064,"""map""",,,0.0121687082574,0.0340789556503,0.0404975675046,,0.0029233732428,-0.0124645689062,0.0632942826323,-0.997912870947
2683380000000,,11834,,2683,372308064,"""map""",,,0.0118050221354,0.0340381748974,0.0402866899967,,0.00290350989408,-0.0125066792055,0.0633015318903,-0.997911859423
2683416000000,,11835,,2683,412308064,"""map""",,,0.0111991735175,0.0344331823289,0.0401873290539,,0.00291081381122,-0.0124761444723,0.0633317511807,-0.997910384283
2683448000000,,11836,,2683,444307146,"""map""",,,0.0108086224645,0.0344851575792,0.0400819741189,,0.00289947202843,-0.0125209561211,0.0633733079733,-0.997907181123
2683480000000,,11837,,2683,476307146,"""map""",,,0.0104641253129,0.0343373678625,0.0399669334292,,0.00288410752651,-0.0125077687673,0.0633648786036,-0.997907939766
2683516000000,,11838,,2683,508307146,"""map""",,,0.0101754209027,0.0340065099299,0.0398442521691,,0.00286804595523,-0.0124910361392,0.0633588094574,-0.997908614116
2683548000000,,11839,,2683,540306229,"""map""",,,0.0099018253386,0.0335077531636,0.0398508161306,,0.00285892280889,-0.0124890944207,0.0633579243736,-0.997908571969
2683580000000,,11840,,2683,572306229,"""map""",,,0.00948331784457,0.0334290936589,0.0400070510805,,0.0028334292339,-0.0125171773927,0.063356702115,-0.997908445528
2683616000000,,11841,,2683,612306229,"""map""",,,0.00880539882928,0.0336867310107,0.0406163148582,,0.00304174069121,-0.0125497022474,0.0633815266087,-0.997905874571
2683648000000,,11842,,2683,644305312,"""map""",,,0.00831262487918,0.033642552793,0.0410330966115,,0.00308122570282,-0.012603243233,0.0634053395782,-0.997903556494
2683680000000,,11843,,2683,676305312,"""map""",,,0.00786171294749,0.0334129668772,0.0414003357291,,0.00313401298422,-0.0126054984187,0.0634300797782,-0.997901744179
2683716000000,,11844,,2683,708305312,"""map""",,,0.00744455633685,0.0330006480217,0.0418369397521,,0.0031013244812,-0.0126097193597,0.0634295318692,-0.99790187062
2683748000000,,11845,,2683,740304394,"""map""",,,0.00707029365003,0.032435733825,0.0422549135983,,0.00310359415485,-0.0126246205756,0.0634183208075,-0.997902460676
2683780000000,,11846,,2683,772304394,"""map""",,,0.00661700824276,0.032461989671,0.0425721108913,,0.00312172421443,-0.0126185511001,0.0633726757706,-0.997905368808
2683816000000,,11847,,2683,812304394,"""map""",,,0.00596431037411,0.0330938883126,0.0427735410631,,0.00315000507905,-0.0126411638722,0.0633890708946,-0.997903893669
2683848000000,,11848,,2683,844303477,"""map""",,,0.00550621422008,0.0333718508482,0.042878575623,,0.00312006632863,-0.0125920733303,0.063372001421,-0.997905705983
2683880000000,,11849,,2683,876303477,"""map""",,,0.00511249061674,0.0334739461541,0.0430146045983,,0.00311235839443,-0.0125627275993,0.063328590167,-0.997908909144
2683916000000,,11850,,2683,908303477,"""map""",,,0.00477379281074,0.0334172286093,0.0432128421962,,0.0031222431475,-0.0125081592842,0.0633490735354,-0.9979081505
2683948000000,,11851,,2683,940302559,"""map""",,,0.00448872987181,0.0332535766065,0.0435143224895,,0.00309071697554,-0.0125025633023,0.0633284637265,-0.997909709934
2683980000000,,11852,,2683,972302559,"""map""",,,0.00425473740324,0.0335769876838,0.0436953157187,,0.00309132612921,-0.0124947891844,0.0633078539175,-0.99791110078
2684016000000,,11853,,2684,12302559,"""map""",,,0.00405200198293,0.0344302169979,0.0437053404748,,0.00315312197021,-0.0123122096952,0.063336092306,-0.997911353661
2684048000000,,11854,,2684,44301642,"""map""",,,0.00393531564623,0.0348297283053,0.0438749045134,,0.00322009232467,-0.0123357496979,0.0633868371117,-0.997907560445
2684080000000,,11855,,2684,76301642,"""map""",,,0.00386607320979,0.0350246168673,0.0440464727581,,0.00320358722367,-0.0123154355754,0.0633835075106,-0.997908192647
2684116000000,,11856,,2684,108301642,"""map""",,,0.00382782984525,0.0350525416434,0.0442176386714,,0.00319290036339,-0.0123630470263,0.0633699783723,-0.997908403382
2684148000000,,11857,,2684,140300725,"""map""",,,0.00383241218515,0.0349246039987,0.0444492958486,,0.00316053355937,-0.012363657497,0.0633722121552,-0.997908361235
2684180000000,,11858,,2684,172300725,"""map""",,,0.00366823934019,0.0352047942579,0.0446322597563,,0.0031846797523,-0.0123715257868,0.0633596102475,-0.997908993437
2684216000000,,11859,,2684,212300725,"""map""",,,0.0032965131104,0.0359674319625,0.044732041657,,0.00322699123694,-0.012394935727,0.0633811472871,-0.997907265417
2684248000000,,11860,,2684,244299807,"""map""",,,0.00305922934785,0.0363122075796,0.0450859256089,,0.00324933268864,-0.0124064026332,0.0633848983566,-0.997906717508
2684280000000,,11861,,2684,276299807,"""map""",,,0.00288626621477,0.0364478752017,0.0453809835017,,0.00325692702391,-0.0124235603518,0.063369767638,-0.997907518298
2684316000000,,11862,,2684,308310890,"""map""",,,0.0027268093545,0.0364200361073,0.0455389395356,,0.00325568665533,-0.0123932538043,0.0633723807426,-0.997907686885
2684348000000,,11863,,2684,340310890,"""map""",,,0.00259086769074,0.0362310893834,0.0455451793969,,0.0032527284734,-0.0125272597091,0.0633929905515,-0.997904694459
2684380000000,,11864,,2684,372310890,"""map""",,,0.00246346672066,0.0364512167871,0.0456864275038,,0.00326311437883,-0.0125543002052,0.0633546369194,-0.997906801801
2684416000000,,11865,,2684,412310890,"""map""",,,0.00230825296603,0.0371409654617,0.0459438860416,,0.00327508770581,-0.0125955227865,0.0633664801838,-0.997905495249
2684448000000,,11866,,2684,444309973,"""map""",,,0.00221607671119,0.0374815836549,0.0461525209248,,0.00333529513745,-0.0126243413527,0.0633718328336,-0.997904525871
2684480000000,,11867,,2684,476309973,"""map""",,,0.0021343936678,0.0376366712153,0.0463793203235,,0.00336616638689,-0.0126401095424,0.0633748674067,-0.997904104403
2684516000000,,11868,,2684,508309973,"""map""",,,0.00203930889256,0.0376051180065,0.0466986000538,,0.0033441868054,-0.012652754914,0.0633977531454,-0.997902629263
2684548000000,,11869,,2684,540309056,"""map""",,,0.00196298095398,0.0374303609133,0.0470649860799,,0.00334251245598,-0.01265769301,0.0633900402721,-0.997902924291
2684580000000,,11870,,2684,572309056,"""map""",,,0.00182342820335,0.0376073494554,0.0473049022257,,0.00331329020199,-0.0126516923525,0.0633457439344,-0.997906001011
2684616000000,,11871,,2684,612309056,"""map""",,,0.00158788415138,0.0381694771349,0.0473732165992,,0.00326684536274,-0.0126530585031,0.0633478934236,-0.997905958864
2684648000000,,11872,,2684,644308138,"""map""",,,0.00145363796037,0.0384409688413,0.0474360994995,,0.00329575546665,-0.0124075689155,0.0633439737667,-0.997909204172
2684680000000,,11873,,2684,676308138,"""map""",,,0.00134208064992,0.0385649688542,0.0474299751222,,0.00330686445395,-0.0124181879457,0.0633311611248,-0.997909794228
2684716000000,,11874,,2684,708308138,"""map""",,,0.00130394101143,0.0385528989136,0.0472365394235,,0.00333183152261,-0.0124437957782,0.0633437630325,-0.997908656263
2684748000000,,11875,,2684,740307221,"""map""",,,0.00131026958115,0.0384117886424,0.0471179820597,,0.00333991713208,-0.0124703970251,0.0633289273418,-0.997909162025
2684780000000,,11876,,2684,772307221,"""map""",,,0.00129167898558,0.0386947728693,0.0470562949777,,0.00331208638263,-0.0124774072313,0.0633121528961,-0.997910342137
2684816000000,,11877,,2684,812307221,"""map""",,,0.0012299248483,0.0394810587168,0.0470150671899,,0.00329287268806,-0.0125324167712,0.0632805427597,-0.997911606542
2684848000000,,11878,,2684,844306304,"""map""",,,0.00118632009253,0.0399106182158,0.0470322743058,,0.00333189671852,-0.0125641836412,0.0632382694707,-0.997913840325
2684880000000,,11879,,2684,876306304,"""map""",,,0.00115390052088,0.0402012988925,0.0471200831234,,0.00332769059474,-0.0126252168876,0.0632508292315,-0.997912323038
2684916000000,,11880,,2684,908306304,"""map""",,,0.00115611986257,0.0403626747429,0.047234904021,,0.00332169981535,-0.0126589165857,0.063323574692,-0.997907265417
2684948000000,,11881,,2684,940305386,"""map""",,,0.00118596921675,0.0403887704015,0.0474027656019,,0.00331748019142,-0.0126904262941,0.0633588516042,-0.997904694459
2684980000000,,11882,,2684,972305386,"""map""",,,0.00116359489039,0.0408297926188,0.0477696321905,,0.00332791647551,-0.0127057588566,0.0633834232169,-0.997902797851
2685016000000,,11883,,2685,12305386,"""map""",,,0.00107317604125,0.0418565422297,0.0480608344078,,0.0033956425098,-0.0127998938427,0.0633851512377,-0.997901322711
2685048000000,,11884,,2685,44304469,"""map""",,,0.00106587016489,0.0424717999995,0.0482403635979,,0.00340987464443,-0.0127889030642,0.0633662273027,-0.997902629263
2685080000000,,11885,,2685,76304469,"""map""",,,0.00106589158531,0.0429230332375,0.0484109669924,,0.00338831784851,-0.0128316333831,0.0633613804152,-0.997902418529
2685116000000,,11886,,2685,108304469,"""map""",,,0.00110879482236,0.0432059988379,0.0484761409461,,0.00339073108486,-0.0128678069037,0.0633667330649,-0.997901617739
2685148000000,,11887,,2685,140303551,"""map""",,,0.00118128454778,0.043348710984,0.0485928691924,,0.00344796321241,-0.0128501638377,0.0634195009193,-0.997898245991
2685180000000,,11888,,2685,172303551,"""map""",,,0.00125196075533,0.0436819382012,0.0486685708165,,0.00344771559968,-0.0128351872185,0.063427930289,-0.99789799311
2685216000000,,11889,,2685,212303551,"""map""",,,0.00133468501735,0.0442410595715,0.0486110709608,,0.00340751936,-0.0128425497461,0.0633778598329,-0.997901111977
2685248000000,,11890,,2685,244302634,"""map""",,,0.00141065195203,0.044511988759,0.048658657819,,0.00338421742113,-0.0127685016846,0.0633399698161,-0.997904694459
2685276000000,,11891,,2685,276302634,"""map""",,,0.00150116253644,0.0446743145585,0.0486684963107,,0.00334307649936,-0.0128018572932,0.0633274522021,-0.997905158074
2685316000000,,11892,,2685,308302634,"""map""",,,0.00162345648278,0.044730078429,0.0486044250429,,0.00334795400925,-0.0127872241049,0.0633390004386,-0.997904568018
2685348000000,,11893,,2685,340301717,"""map""",,,0.00176736956928,0.0446894839406,0.0485011152923,,0.00332194084264,-0.0127617114322,0.0633418242774,-0.997904778753
2685380000000,,11894,,2685,372301717,"""map""",,,0.00192574854009,0.0445736311376,0.04836685583,,0.00333684238777,-0.0127196119988,0.0633176741332,-0.997906843948
2685416000000,,11895,,2685,412301717,"""map""",,,0.00212167855352,0.0442954041064,0.0482030510902,,0.0033506402123,-0.0127741987531,0.0633271571742,-0.997905453102
2685448000000,,11896,,2685,444300800,"""map""",,,0.00230114581063,0.0439550057054,0.0480384379625,,0.00337903138313,-0.0127623330982,0.0632753165505,-0.99790882485
2685480000000,,11897,,2685,476300800,"""map""",,,0.00244337529875,0.0440367162228,0.0478166639805,,0.00340016769839,-0.0127621595717,0.0633074324491,-0.997906717508
2685516000000,,11898,,2685,508300800,"""map""",,,0.0025436130818,0.0444683469832,0.0475048795342,,0.00343146305049,-0.012736389408,0.0633734344138,-0.997902755704
2685548000000,,11899,,2685,540299882,"""map""",,,0.00265104649588,0.0447732657194,0.0472570694983,,0.00344373041759,-0.0127674121227,0.0633692618758,-0.997902629263
2685580000000,,11900,,2685,572299882,"""map""",,,0.00275158463046,0.0449284687638,0.0469638295472,,0.00345453943787,-0.0125360947423,0.0633784920357,-0.997904863046
2685616000000,,11901,,2685,612310965,"""map""",,,0.00291686854325,0.044928573072,0.0467588528991,,0.00348292369398,-0.0125393061346,0.0633999026347,-0.99790334576
2685648000000,,11902,,2685,644310965,"""map""",,,0.00306292879395,0.0447835363448,0.0465826876462,,0.00346516669987,-0.0126139824476,0.0634072783332,-0.997902039207
2685680000000,,11903,,2685,676310965,"""map""",,,0.00320497830398,0.0449527427554,0.0463603548706,,0.00349429148928,-0.0126031770493,0.0634467699302,-0.997899552543
2685716000000,,11904,,2685,708310965,"""map""",,,0.00334652024321,0.0454172305763,0.0460655093193,,0.00349886343452,-0.0126688586322,0.0635090208255,-0.997894705656
2685748000000,,11905,,2685,740310048,"""map""",,,0.00348874530755,0.0457115247846,0.0456941351295,,0.00350654206349,-0.0127303153227,0.0635541179534,-0.997891081027
2685780000000,,11906,,2685,772310048,"""map""",,,0.00363871757872,0.0459098890424,0.0453466847539,,0.0035220300425,-0.0127496287868,0.0635601870996,-0.997890406677
2685816000000,,11907,,2685,812310048,"""map""",,,0.00382544705644,0.0459941513836,0.0449798665941,,0.00348399810935,-0.0127162204946,0.0635565203238,-0.997891207467
2685848000000,,11908,,2685,844309131,"""map""",,,0.00396972615272,0.0459530949593,0.0447961948812,,0.00351129576702,-0.0127099356751,0.0635758657272,-0.997889900915
2685880000000,,11909,,2685,876309131,"""map""",,,0.00411639874801,0.0462737604976,0.0445659160614,,0.00347418184491,-0.0127352497967,0.0635705552243,-0.997890069502
2685916000000,,11910,,2685,908309131,"""map""",,,0.00426397938281,0.0468988381326,0.0442509055138,,0.00339618613829,-0.0127832764599,0.0635506619118,-0.997890996733
2685948000000,,11911,,2685,940308213,"""map""",,,0.00444883713499,0.0473863594234,0.0440260916948,,0.00338116177461,-0.0127491931596,0.0635662983926,-0.997890533118
2685980000000,,11912,,2685,972308213,"""map""",,,0.00462302006781,0.0477356947958,0.0439284965396,,0.00339318350461,-0.012788090091,0.0635855595024,-0.99788863651
2686016000000,,11913,,2686,12308213,"""map""",,,0.00483491597697,0.0479945167899,0.0436741486192,,0.00336866753894,-0.0127527693856,0.0636212578831,-0.997886992782
2686048000000,,11914,,2686,44307296,"""map""",,,0.00500903604552,0.0480768792331,0.0434115678072,,0.00338830072635,-0.012779549098,0.0636834244846,-0.997882651657
2686080000000,,11915,,2686,76307296,"""map""",,,0.00510825775564,0.0485988855362,0.0430703014135,,0.00339333200639,-0.0127467799233,0.0636690524093,-0.997883873916
2686116000000,,11916,,2686,108307296,"""map""",,,0.0051179328002,0.0495104938745,0.0426985472441,,0.0034185121142,-0.0127998151467,0.0636743629122,-0.997882778098
2686148000000,,11917,,2686,140306379,"""map""",,,0.00517485430464,0.0502559319139,0.0423405095935,,0.00340621544187,-0.0127864865351,0.0636625196478,-0.997883747475
2686180000000,,11918,,2686,172306379,"""map""",,,0.00521503714845,0.0508395321667,0.0417320430279,,0.00340642452976,-0.0127704473543,0.0636259361833,-0.997886276286
2686216000000,,11919,,2686,212306379,"""map""",,,0.00530331721529,0.0513556078076,0.0409665331244,,0.00344865731833,-0.0125362409391,0.0635813448175,-0.997891923964
2686248000000,,11920,,2686,244305461,"""map""",,,0.00539476424456,0.0516431555152,0.0403436757624,,0.00353667409672,-0.0125740193327,0.0636649220181,-0.997885812671
2686280000000,,11921,,2686,276305461,"""map""",,,0.00556814996526,0.0521376803517,0.0396055839956,,0.0035468601339,-0.012576964673,0.0636945933995,-0.997883958209
2686316000000,,11922,,2686,308305461,"""map""",,,0.00580354081467,0.0528255514801,0.0388488583267,,0.00353894245328,-0.0126095790897,0.0637253605989,-0.997881513692
2686348000000,,11923,,2686,340304544,"""map""",,,0.00601141294464,0.0533384718001,0.0382366701961,,0.00356625361112,-0.0126229080306,0.0636805163521,-0.997884126797
2686380000000,,11924,,2686,372304544,"""map""",,,0.0062034917064,0.0536979399621,0.0376433841884,,0.00358404484954,-0.0126144325628,0.0636851946523,-0.997883916063
2686416000000,,11925,,2686,412304544,"""map""",,,0.00642150407657,0.0539752654731,0.0371312089264,,0.00356675081222,-0.0126398253804,0.0637461389952,-0.997879785671
2686448000000,,11926,,2686,444303627,"""map""",,,0.00657373201102,0.0540995709598,0.036723062396,,0.00355628357654,-0.0126174417819,0.0637462654358,-0.997880080699
2686480000000,,11927,,2686,476303627,"""map""",,,0.00672851409763,0.0543899871409,0.0363058671355,,0.00360255587712,-0.0126672563934,0.063775978964,-0.997877425448
2686516000000,,11928,,2686,508303627,"""map""",,,0.00686162849888,0.0547959990799,0.0357227474451,,0.00355101061066,-0.0126890775949,0.0637983167937,-0.997875908161
2686548000000,,11929,,2686,540302709,"""map""",,,0.00700561376289,0.0550755299628,0.0349026918411,,0.00352445776683,-0.0127321559546,0.0637925426754,-0.997875781721
2686580000000,,11930,,2686,572302709,"""map""",,,0.00714580295607,0.0552528128028,0.0339250527322,,0.00346794937969,-0.0127535533828,0.0637818795227,-0.99787632963
2686616000000,,11931,,2686,612302709,"""map""",,,0.00733637716621,0.0553762316704,0.0327722616494,,0.00351456741613,-0.0127380489402,0.0638028686533,-0.997875065224
2686648000000,,11932,,2686,644301792,"""map""",,,0.00747063569725,0.0553855672479,0.0320372655988,,0.00353556247359,-0.0127572817325,0.0638095700022,-0.997874264434
2686680000000,,11933,,2686,676301792,"""map""",,,0.00752192176878,0.0556722097099,0.0315042547882,,0.00351112125272,-0.0127648918729,0.0638182101062,-0.997873800819
2686716000000,,11934,,2686,708301792,"""map""",,,0.007495731581,0.0562233328819,0.0312053114176,,0.00351292467686,-0.0127803212414,0.0637895502492,-0.997875402399
2686748000000,,11935,,2686,740300875,"""map""",,,0.00749650085345,0.0566460676491,0.0309612751007,,0.00356272578819,-0.0127960835042,0.0637731129783,-0.997876076749
2686784000000,,11936,,2686,772300875,"""map""",,,0.00754940975457,0.0569800399244,0.0307394843549,,0.00358175476102,-0.0128036386561,0.0637891287807,-0.997874896637
2686816000000,,11937,,2686,812300875,"""map""",,,0.00764491595328,0.0572707019746,0.0305513031781,,0.00355867705655,-0.0128088592677,0.0637635034968,-0.997876498217
2686848000000,,11938,,2686,844299958,"""map""",,,0.00773386470973,0.0573562458158,0.0303821098059,,0.00351486672461,-0.0128190970006,0.0637725650692,-0.997875950308
2686880000000,,11939,,2686,876299958,"""map""",,,0.00771869905293,0.0576423741877,0.0299580078572,,0.00352187396745,-0.0128381931449,0.0637683925312,-0.997875992455
2686916000000,,11940,,2686,908311041,"""map""",,,0.00764609174803,0.05814101547,0.0294982995838,,0.00352852823043,-0.0128626169144,0.0637395640868,-0.997877425448
2686948000000,,11941,,2686,940311041,"""map""",,,0.00760541856289,0.0585391484201,0.02903290838,,0.00351296254317,-0.0128666975854,0.0637243490745,-0.997878479119
2686980000000,,11942,,2686,972311041,"""map""",,,0.00757375312969,0.058820515871,0.0285942144692,,0.0035244462423,-0.0128593508629,0.0637254027457,-0.997878436972
2687016000000,,11943,,2687,12311041,"""map""",,,0.00754824373871,0.0590133443475,0.02818319574,,0.00353210281002,-0.0128308408248,0.0637216095294,-0.997879027028
2687048000000,,11944,,2687,44310123,"""map""",,,0.0075528556481,0.0590641722083,0.0278052352369,,0.0035370850285,-0.0128166995693,0.0636954784833,-0.997880797196
2687080000000,,11945,,2687,76310123,"""map""",,,0.00751449679956,0.0593433454633,0.027408849448,,0.00351539652367,-0.0127869939436,0.0637135173345,-0.99788020714
2687116000000,,11946,,2687,108310123,"""map""",,,0.00742178224027,0.059843506664,0.0270714685321,,0.00351723221649,-0.0127845655608,0.0637301653396,-0.997879153469
2687148000000,,11947,,2687,140309206,"""map""",,,0.00735882716253,0.0602352432907,0.0267458539456,,0.00346810874746,-0.0128304806009,0.0637573922038,-0.997876877539
2687180000000,,11948,,2687,172309206,"""map""",,,0.00731338979676,0.0605086609721,0.026260888204,,0.00346230433616,-0.0128071891988,0.063766495923,-0.997876624658
2687216000000,,11949,,2687,212309206,"""map""",,,0.0072991210036,0.0607113689184,0.0255708508193,,0.00344918151975,-0.0128291562679,0.0638380612718,-0.997871904211
2687248000000,,11950,,2687,244308289,"""map""",,,0.00733500020579,0.0607754103839,0.0249360930175,,0.00342310282797,-0.012820512542,0.0638727059813,-0.997869881162
2687280000000,,11951,,2687,276308289,"""map""",,,0.00729249138385,0.0610321983695,0.0242665503174,,0.00343020457194,-0.0128102827116,0.063833846587,-0.997872409973
2687316000000,,11952,,2687,308308289,"""map""",,,0.00718338880688,0.0614696703851,0.0236270818859,,0.00346460825413,-0.0128210815245,0.0638275245597,-0.99787257856
2687348000000,,11953,,2687,340307372,"""map""",,,0.00707331998274,0.061809014529,0.0230120550841,,0.00352957004784,-0.0128085886059,0.0638461534667,-0.997871314155
2687380000000,,11954,,2687,372307372,"""map""",,,0.0069684763439,0.0620560795069,0.0224301088601,,0.00349175510511,-0.0128302573544,0.0638576595564,-0.997870429071
2687416000000,,11955,,2687,412307372,"""map""",,,0.00688065774739,0.0621983595192,0.0217575710267,,0.00352621970266,-0.0128680785533,0.0639164965569,-0.997866045799
2687448000000,,11956,,2687,444306454,"""map""",,,0.00683151837438,0.0622455514967,0.0211490895599,,0.00355652526237,-0.0128822537238,0.0639075192782,-0.997866340827
2687480000000,,11957,,2687,476306454,"""map""",,,0.00681417761371,0.0625165551901,0.0208807773888,,0.0035784238429,-0.0128859211582,0.063937064219,-0.997864359925
2687516000000,,11958,,2687,508306454,"""map""",,,0.0068361707963,0.062935449183,0.0207993499935,,0.00354725756551,-0.0128990143401,0.0639804754729,-0.997861493939
2687548000000,,11959,,2687,540305537,"""map""",,,0.00682427873835,0.063233345747,0.0206104144454,,0.00356549035803,-0.0127406090319,0.0639389608271,-0.997866172239
2687580000000,,11960,,2687,572305537,"""map""",,,0.00687539344653,0.0634747371078,0.0206141602248,,0.00358103398405,-0.0127855737924,0.0638817254069,-0.997869122519
2687616000000,,11961,,2687,612305537,"""map""",,,0.00692057376727,0.0636841729283,0.0205880012363,,0.00350859507599,-0.0128319000936,0.0638372183348,-0.99787165133
2687648000000,,11962,,2687,644304620,"""map""",,,0.00693499064073,0.0637581795454,0.0204360932112,,0.00354954962967,-0.0128727815489,0.0638212446793,-0.997872030651
2687680000000,,11963,,2687,676304620,"""map""",,,0.00691831344739,0.0640069246292,0.0200941544026,,0.00360370701292,-0.0128756449004,0.063818800162,-0.997871946358
2687716000000,,11964,,2687,708304620,"""map""",,,0.00688654836267,0.0643836185336,0.0196715351194,,0.00359458979348,-0.0129221450574,0.0638608627169,-0.997868658903
2687748000000,,11965,,2687,740303702,"""map""",,,0.00689374189824,0.0646804720163,0.019170653075,,0.0035952730334,-0.0129537739623,0.0638854764764,-0.997866720148
2687780000000,,11966,,2687,772303702,"""map""",,,0.00694002723321,0.0648895278573,0.0186993554235,,0.00360941264254,-0.0129748941432,0.0638422338098,-0.997869164666
2687816000000,,11967,,2687,812303702,"""map""",,,0.00700487708673,0.0650233700871,0.0180895384401,,0.00363443272403,-0.0130241486626,0.0638595140177,-0.997867310204
2687848000000,,11968,,2687,844302785,"""map""",,,0.00705402903259,0.0650722309947,0.0176034942269,,0.00361928521253,-0.0130251901507,0.063860272661,-0.997867225911
2687880000000,,11969,,2687,876302785,"""map""",,,0.00699815712869,0.0653563588858,0.0174084436148,,0.00365279261564,-0.0130110623954,0.0638680276811,-0.997866888736
2687916000000,,11970,,2687,908302785,"""map""",,,0.00684800604358,0.0658275857568,0.0173671357334,,0.00364794836224,-0.0129889458366,0.0638834112808,-0.997866256533
2687948000000,,11971,,2687,940301868,"""map""",,,0.00674000801519,0.0662649571896,0.0174197796732,,0.00361934579862,-0.0130064967063,0.0639038525023,-0.997864781393
2687980000000,,11972,,2687,972301868,"""map""",,,0.00666999584064,0.06660310179,0.0176130905747,,0.00363005241523,-0.0130031210072,0.0639027145374,-0.997864907834
2688016000000,,11973,,2688,12301868,"""map""",,,0.00665223132819,0.0669043809175,0.0177982710302,,0.00362335402977,-0.0130309204757,0.0639596970766,-0.997860861736
2688048000000,,11974,,2688,44300951,"""map""",,,0.00667625619099,0.0670891180634,0.0179606806487,,0.00358428093775,-0.0130427535327,0.0639408574353,-0.997862083995
2688080000000,,11975,,2688,76300951,"""map""",,,0.00664959847927,0.0674266219139,0.0182063039392,,0.00360778768396,-0.0130312849801,0.0639003543139,-0.997864654953
2688116000000,,11976,,2688,108300951,"""map""",,,0.00653770752251,0.067908346653,0.0184863414615,,0.00362917556322,-0.0129681954285,0.0639475166374,-0.99786242117
2688148000000,,11977,,2688,140300034,"""map""",,,0.00646051811054,0.0683475062251,0.0187549106777,,0.00359186901684,-0.0128878990966,0.0639706552572,-0.997862126142
2688180000000,,11978,,2688,180300034,"""map""",,,0.00639995280653,0.0687953010201,0.0191719122231,,0.00359403760391,-0.0129039392652,0.0639649654327,-0.997862336876
2688216000000,,11979,,2688,212311116,"""map""",,,0.00634658662602,0.0691041499376,0.0194719713181,,0.0036098937093,-0.0128643689721,0.0640028554495,-0.997860355974
2688248000000,,11980,,2688,244311116,"""map""",,,0.00633622054011,0.0693509727716,0.0197554379702,,0.00355809391539,-0.0128932184899,0.0640055107009,-0.997859892359
2688280000000,,11981,,2688,276311116,"""map""",,,0.0063586756587,0.0696466714144,0.0199132338166,,0.00358563786871,-0.0128432998283,0.064011326966,-0.99786014524
2688316000000,,11982,,2688,308311116,"""map""",,,0.00637526763603,0.0699900612235,0.0199591554701,,0.00359901191985,-0.0127861575921,0.0640220322656,-0.99786014524
2688348000000,,11983,,2688,340310199,"""map""",,,0.00640557752922,0.070315413177,0.0199397411197,,0.0036210715145,-0.0127551813048,0.06396433323,-0.997864064897
2688380000000,,11984,,2688,372310199,"""map""",,,0.00648890295997,0.0705834105611,0.0198942758143,,0.00363131451578,-0.0127568935205,0.0640002423449,-0.997861704673
2688416000000,,11985,,2688,412310199,"""map""",,,0.00664691999555,0.0708275362849,0.0198260974139,,0.00367636027722,-0.0128337627868,0.0640046256171,-0.997860355974
2688448000000,,11986,,2688,444309282,"""map""",,,0.00679902918637,0.0709597542882,0.0197473987937,,0.00366867901408,-0.0128630614319,0.064071976281,-0.997855635527
2688480000000,,11987,,2688,476309282,"""map""",,,0.00699547957629,0.0711656957865,0.0196056198329,,0.00363958221281,-0.0128413278168,0.0641121000808,-0.997853443891
2688516000000,,11988,,2688,508309282,"""map""",,,0.00723185017705,0.0714514926076,0.0193866528571,,0.00363828916067,-0.0128338977884,0.0641749831788,-0.997849482087
2688548000000,,11989,,2688,540308365,"""map""",,,0.00746124284342,0.0716784223914,0.0190419312567,,0.0035743165008,-0.0128408220546,0.0641936963795,-0.997848470563
2688580000000,,11990,,2688,572308365,"""map""",,,0.00768053717911,0.0718494951725,0.0187280643731,,0.00356918018291,-0.01288187539,0.0642196166914,-0.997846321074
2688616000000,,11991,,2688,612308365,"""map""",,,0.00796442851424,0.0720085352659,0.0184693261981,,0.00358580382192,-0.0129280163109,0.0642353374659,-0.997844677347
2688648000000,,11992,,2688,644307448,"""map""",,,0.008201174438,0.0721056163311,0.018247095868,,0.00349176399546,-0.0129424446918,0.0642579281767,-0.997843328647
2688680000000,,11993,,2688,676307448,"""map""",,,0.00823563616723,0.0722028836608,0.0180468615144,,0.00350868595513,-0.0127116222076,0.0642707408186,-0.99784543599
2688716000000,,11994,,2688,708307448,"""map""",,,0.00812808796763,0.0723011493683,0.0181713625789,,0.0035271709702,-0.012714820429,0.0642477286393,-0.997846784689
2688748000000,,11995,,2688,740306530,"""map""",,,0.00806177314371,0.0723821669817,0.0183997452259,,0.00352357564646,-0.0127410617813,0.0642953545782,-0.997843412941
2688780000000,,11996,,2688,772306530,"""map""",,,0.00806076545268,0.0724603235722,0.0185821745545,,0.00352524143479,-0.012749162208,0.0643192518413,-0.997841769214
2688816000000,,11997,,2688,812306530,"""map""",,,0.00815071538091,0.072485871613,0.018726516515,,0.00356706921849,-0.0127510407062,0.064284269957,-0.997843792263
2688848000000,,11998,,2688,844305613,"""map""",,,0.008250342682,0.0724395886064,0.0189077779651,,0.00364352096751,-0.012828954424,0.0643254895748,-0.997839830459
2688880000000,,11999,,2688,876305613,"""map""",,,0.00829375069588,0.0725037306547,0.0191448200494,,0.00364461909048,-0.0128647835258,0.064342685489,-0.997838313172
2688916000000,,12000,,2688,908305613,"""map""",,,0.0082815149799,0.0726869404316,0.0194081198424,,0.00365940769522,-0.0129031104869,0.0643767401426,-0.997835615774
2688948000000,,12001,,2688,940304696,"""map""",,,0.00831243116409,0.0728200525045,0.0197442732751,,0.0037298538476,-0.0128724074956,0.064360218578,-0.997836795886
2688980000000,,12002,,2688,972304696,"""map""",,,0.00840249378234,0.0729071050882,0.0201686043292,,0.0037376305997,-0.0128937384107,0.0643863496241,-0.997834688543
2689016000000,,12003,,2689,12304696,"""map""",,,0.00859937630594,0.0729691311717,0.0208328906447,,0.00373246958639,-0.0129066096632,0.0644836666973,-0.997828408663
2689048000000,,12004,,2689,44303778,"""map""",,,0.00880645122379,0.0729989781976,0.021402740851,,0.00373805042182,-0.0130004269016,0.0644950463464,-0.997826385614
2689080000000,,12005,,2689,76303778,"""map""",,,0.00895862840116,0.0731667950749,0.0218569282442,,0.00371102243812,-0.0130662984745,0.0645085333379,-0.997824784034
2689116000000,,12006,,2689,108303778,"""map""",,,0.00905979797244,0.0734514594078,0.0225421730429,,0.0037314511473,-0.0131374127203,0.0645191543437,-0.997823013866
2689148000000,,12007,,2689,140302861,"""map""",,,0.00921236444265,0.0737285166979,0.0232197996229,,0.00371168295826,-0.0131285263207,0.0645234111754,-0.99782297172
2689180000000,,12008,,2689,172302861,"""map""",,,0.00939890090376,0.074011400342,0.0238845236599,,0.00368927565211,-0.0131245075529,0.0644884292912,-0.997825331943
2689216000000,,12009,,2689,212302861,"""map""",,,0.00968988798559,0.0743476971984,0.0246182531118,,0.00367484167358,-0.0131611963845,0.0644730878383,-0.997825837705
2689248000000,,12010,,2689,244301944,"""map""",,,0.0099923722446,0.0746030807495,0.025215273723,,0.00371677153168,-0.0131878131071,0.0644891879345,-0.997824320419
2689280000000,,12011,,2689,276301944,"""map""",,,0.0101737892255,0.0749524831772,0.0257400628179,,0.00371963389538,-0.013182281004,0.0644877549416,-0.997824489006
2689316000000,,12012,,2689,308301944,"""map""",,,0.010272054933,0.0753849893808,0.0261613633484,,0.00373073827287,-0.0132567162897,0.0644606966649,-0.997825247649
2689348000000,,12013,,2689,340301027,"""map""",,,0.0104238670319,0.0757964327931,0.0264175850898,,0.00375127959317,-0.0132315401332,0.0644820229702,-0.997824067538
2689380000000,,12014,,2689,372301027,"""map""",,,0.0105914985761,0.0762023553252,0.0269136913121,,0.00371695921686,-0.0132265809638,0.0645042765062,-0.997822887426
2689416000000,,12015,,2689,412301027,"""map""",,,0.0108867771924,0.0767064169049,0.0274752583355,,0.00370027993084,-0.0132542684798,0.0645447796276,-0.997819895
2689448000000,,12016,,2689,444300110,"""map""",,,0.0111878644675,0.0770685896277,0.0279600825161,,0.0037188196051,-0.0132269372364,0.064553293291,-0.997819642119
2689480000000,,12017,,2689,476300110,"""map""",,,0.0112219881266,0.0774789005518,0.0285554379225,,0.0037238133481,-0.0132342372022,0.0645763476172,-0.997818082685
2689516000000,,12018,,2689,508311193,"""map""",,,0.0110158659518,0.0779198631644,0.0291544850916,,0.00375051403518,-0.013265223697,0.0645698570025,-0.997817998391
2689548000000,,12019,,2689,540311193,"""map""",,,0.0108845494688,0.0783477351069,0.0298766512424,,0.00373299247073,-0.0133136547065,0.064519912987,-0.997820569349
2689580000000,,12020,,2689,572311193,"""map""",,,0.0108448583633,0.0787496194243,0.0306771416217,,0.00371393320485,-0.0133062128242,0.0644668922516,-0.997824278272
2689616000000,,12021,,2689,612311193,"""map""",,,0.0109450118616,0.0792435854673,0.0317929126322,,0.00370945806564,-0.0132267854419,0.0644837931378,-0.997824236125
2689648000000,,12022,,2689,644310275,"""map""",,,0.0110989483073,0.0796420350671,0.0327101610601,,0.00372713471733,-0.013215839115,0.0645108092677,-0.997822592398
2689680000000,,12023,,2689,676310275,"""map""",,,0.0112492153421,0.0801068246365,0.0333904772997,,0.00371720189051,-0.0132522098697,0.0644947934653,-0.997823182454
2689716000000,,12024,,2689,708310275,"""map""",,,0.0113988127559,0.0806438326836,0.0339992158115,,0.0036890514177,-0.0132659171443,0.0644994717655,-0.997822718839
2689748000000,,12025,,2689,740309358,"""map""",,,0.0116303907707,0.0811761915684,0.0346562936902,,0.00365707315494,-0.0132308766496,0.0645015791079,-0.997823224601
2689780000000,,12026,,2689,780309358,"""map""",,,0.0120543399826,0.0818001925945,0.0352594815195,,0.0036413695026,-0.0132396721701,0.0645025063386,-0.997823056013
2689816000000,,12027,,2689,812309358,"""map""",,,0.0124913789332,0.0822970196605,0.035726826638,,0.00362922989314,-0.0132740073636,0.064486532683,-0.99782377251
2689848000000,,12028,,2689,844308441,"""map""",,,0.0129966177046,0.0827836245298,0.0361880362034,,0.00365071457844,-0.0132651338056,0.0645252656368,-0.997821201552
2689880000000,,12029,,2689,876308441,"""map""",,,0.0134908277541,0.0832089558244,0.0366836152971,,0.00364336555101,-0.0133366487758,0.0645658530519,-0.997817703364
2689916000000,,12030,,2689,908308441,"""map""",,,0.013963393867,0.0835660845041,0.0371992811561,,0.00362808830624,-0.0133751225923,0.0645237483502,-0.997819937147
2689948000000,,12031,,2689,940307524,"""map""",,,0.0144946649671,0.0839354097843,0.0377021990716,,0.003577152852,-0.0133941884436,0.0645428408726,-0.997818714888
2689980000000,,12032,,2689,972307524,"""map""",,,0.0150779411197,0.0842869207263,0.0381992720068,,0.00355220718603,-0.0131634094233,0.0645398484464,-0.997822044489
2690016000000,,12033,,2690,12307524,"""map""",,,0.0159074869007,0.0847706794739,0.0389989688993,,0.00357699150859,-0.0131680488694,0.0645032649819,-0.997824236125
2690048000000,,12034,,2690,44306606,"""map""",,,0.0166286621243,0.0852156579494,0.0394579321146,,0.0036352186969,-0.0132562174423,0.0644363779333,-0.997827144258
2690080000000,,12035,,2690,76306606,"""map""",,,0.0171440243721,0.0856385231018,0.0398689210415,,0.00356834020939,-0.0132195819528,0.0644303930808,-0.997828324369
