rosbagTimestamp,header,seq,stamp,secs,nsecs,frame_id,pose,position,x,y,z,orientation,x,y,z,w
124616000000,,522,,124,576000000,"""map""",,,-0.0195569191128,0.019120907411,-0.0467510558665,,0.00967213958319,-0.0105275251849,0.0303009288279,-0.99943862901
124616000000,,523,,124,616000000,"""map""",,,-0.0194214787334,0.0198154542595,-0.0464669466019,,0.00964370396061,-0.0105695347269,0.0302922465771,-0.999438713304
124648000000,,524,,124,648000000,"""map""",,,-0.019093034789,0.0198056995869,-0.0461481250823,,0.00965502919747,-0.0105184465726,0.0302755142782,-0.999439598388
124680000000,,525,,124,680000000,"""map""",,,-0.0187604576349,0.0197236090899,-0.0457961708307,,0.00965494473914,-0.010544232706,0.0303243203288,-0.999437912514
124716000000,,526,,124,716000000,"""map""",,,-0.0185398552567,0.0197717994452,-0.0455598719418,,0.00965713798046,-0.0105626440052,0.0303497348785,-0.999436858843
124748000000,,527,,124,748000000,"""map""",,,-0.0184084102511,0.0199296697974,-0.0452951081097,,0.00970789414596,-0.0105964594425,0.0303703446874,-0.999435467997
124780000000,,528,,124,780000000,"""map""",,,-0.0184004418552,0.0201983023435,-0.0450970754027,,0.00964550166364,-0.0105874801882,0.0303457730747,-0.999436858843
124816000000,,529,,124,816000000,"""map""",,,-0.0185026209801,0.0206681955606,-0.0450661107898,,0.00966607389437,-0.0105945773635,0.0303396617817,-0.999436732402
124848000000,,530,,124,848000000,"""map""",,,-0.0181389935315,0.0206329673529,-0.0447750389576,,0.00972193616703,-0.010551530367,0.0303087259949,-0.999437659633
124880000000,,531,,124,880000000,"""map""",,,-0.017688408494,0.0205492582172,-0.0443439111114,,0.00975961166297,-0.0105655097851,0.0303124349175,-0.999436985283
124916000000,,532,,124,916000000,"""map""",,,-0.0173346493393,0.0205411929637,-0.0440335795283,,0.00971999379,-0.0105133186512,0.0303419377115,-0.999437069577
124948000000,,533,,124,948000000,"""map""",,,-0.0170938149095,0.0206517484039,-0.0438082776964,,0.0099578109224,-0.0105327698333,0.0303253318532,-0.999435046528
124980000000,,534,,124,980000000,"""map""",,,-0.0169497728348,0.0208784360439,-0.043634865433,,0.00990653421863,-0.0105987742265,0.0303705554216,-0.999433487095
125016000000,,535,,125,16000000,"""map""",,,-0.0169045887887,0.0212920047343,-0.0433540418744,,0.00984644631281,-0.0105576122313,0.0303823143924,-0.999434119298
125048000000,,536,,125,48000000,"""map""",,,-0.0166300144047,0.0213025696576,-0.0426691398025,,0.00988440020844,-0.010585624739,0.0304104684872,-0.999432602011
125080000000,,537,,125,80000000,"""map""",,,-0.016348509118,0.0213018041104,-0.041930116713,,0.00979824883968,-0.0105630978247,0.0304005218309,-0.99943395071
125116000000,,538,,125,116000000,"""map""",,,-0.0161607712507,0.0214201752096,-0.0413113199174,,0.00980516335122,-0.0105750111007,0.0303843795879,-0.999434245738
125148000000,,539,,125,148000000,"""map""",,,-0.0160907190293,0.0216476935893,-0.040743291378,,0.00980259679748,-0.0105159036442,0.0304215109615,-0.999433782123
125180000000,,540,,125,180000000,"""map""",,,-0.0160843934864,0.0219991803169,-0.0401731431484,,0.00981919981582,-0.0105285584412,0.0304867964298,-0.99943154834
125216000000,,541,,125,216000000,"""map""",,,-0.0161988008767,0.0225738659501,-0.0395761616528,,0.0097974785484,-0.0105177831713,0.0304830032134,-0.999431969808
125248000000,,542,,125,248000000,"""map""",,,-0.0160284638405,0.0225887726992,-0.0390565209091,,0.00973912660707,-0.0104856247555,0.0305061418333,-0.999432180543
125280000000,,543,,125,280000000,"""map""",,,-0.015856878832,0.0225369278342,-0.0385498516262,,0.00973664479977,-0.010437698932,0.0305383420255,-0.99943167478
125316000000,,544,,125,316000000,"""map""",,,-0.0157838836312,0.0226095765829,-0.0380594171584,,0.009734002925,-0.0104417448236,0.0305721859449,-0.999430705403
125348000000,,545,,125,348000000,"""map""",,,-0.01580545865,0.0227797608823,-0.0375875085592,,0.00974098012175,-0.0104418627854,0.0306504947894,-0.999428176592
125380000000,,546,,125,380000000,"""map""",,,-0.0159068964422,0.0230674222112,-0.0371475182474,,0.00971524350267,-0.0104326846918,0.0306467015731,-0.99942859806
125416000000,,547,,125,416000000,"""map""",,,-0.0161141697317,0.0235756002367,-0.0365066602826,,0.00969886755871,-0.0104879121275,0.0306444256432,-0.999428260886
125448000000,,548,,125,448000000,"""map""",,,-0.0159463174641,0.0235411692411,-0.0357433222234,,0.00968061035888,-0.0104679329161,0.0306521806634,-0.999428429473
125480000000,,549,,125,480000000,"""map""",,,-0.0157654173672,0.0234607476741,-0.0350675918162,,0.00963956258,-0.0104295944717,0.0306715682137,-0.999428682354
125516000000,,550,,125,516000000,"""map""",,,-0.0157236326486,0.0235156826675,-0.034432426095,,0.00964883667709,-0.0103337006984,0.0306749399616,-0.999429440997
125548000000,,551,,125,548000000,"""map""",,,-0.0157171525061,0.0236764736474,-0.0338063463569,,0.00968552939824,-0.0103152760018,0.0307422484786,-0.999427207214
125580000000,,552,,125,580000000,"""map""",,,-0.0158135350794,0.0239154361188,-0.0332755483687,,0.00963935143416,-0.0103743061205,0.0307299415989,-0.999427460096
125616000000,,553,,125,616000000,"""map""",,,-0.0160398520529,0.0243613440543,-0.0326067321002,,0.00963634369676,-0.0104408897447,0.0307601608893,-0.999425816368
125648000000,,554,,125,648000000,"""map""",,,-0.0160238854587,0.024302996695,-0.0318669006228,,0.00962980908308,-0.0104820677508,0.0307680002031,-0.999425226313
125680000000,,555,,125,680000000,"""map""",,,-0.0160308647901,0.0242233239114,-0.0310805048794,,0.0095923259233,-0.0104388410128,0.0308207680574,-0.999424383376
125716000000,,556,,125,716000000,"""map""",,,-0.0161326359957,0.0242824163288,-0.0303334798664,,0.00963109699035,-0.0104099981627,0.0308010433323,-0.999424973431
125748000000,,557,,125,748000000,"""map""",,,-0.0163261871785,0.0244415085763,-0.0296442210674,,0.00963274149946,-0.0104473658303,0.0307983037872,-0.99942459411
125780000000,,558,,125,780000000,"""map""",,,-0.0166092962027,0.0247070025653,-0.0289721433073,,0.00960592898329,-0.0104617292211,0.0308622405563,-0.999422781795
125816000000,,559,,125,816000000,"""map""",,,-0.0170711763203,0.0251617673784,-0.0283719729632,,0.00960308863967,-0.0104566683477,0.0308854634699,-0.999422149593
125848000000,,560,,125,848000000,"""map""",,,-0.0171578880399,0.0249962154776,-0.0278745498508,,0.0096094348273,-0.0104475931516,0.0308799000859,-0.99942231818
125880000000,,561,,125,880000000,"""map""",,,-0.0171909537166,0.0247597135603,-0.0273654442281,,0.00959767626816,-0.0104659081799,0.0308399870203,-0.999423456145
125916000000,,562,,125,916000000,"""map""",,,-0.0173411983997,0.0246396698058,-0.0268052686006,,0.00964657784885,-0.0104635867693,0.0308777927434,-0.999421896712
125948000000,,563,,125,948000000,"""map""",,,-0.0175825413316,0.0246287416667,-0.0262811537832,,0.00965726359783,-0.0104633178774,0.0308782985056,-0.999421728124
125980000000,,564,,125,980000000,"""map""",,,-0.0179883390665,0.0247212983668,-0.0257097054273,,0.00960917960015,-0.010430200703,0.0309039237895,-0.999421728124
126016000000,,565,,126,16000000,"""map""",,,-0.0183903109282,0.0248766764998,-0.0253593809903,,0.00966139876343,-0.0104367184415,0.0309075905653,-0.999421095921
126048000000,,566,,126,48000000,"""map""",,,-0.0184838976711,0.0245290696621,-0.025236479938,,0.00962455924858,-0.0104120196063,0.0309259244444,-0.999421138068
126080000000,,567,,126,80000000,"""map""",,,-0.0185361616313,0.0241307020187,-0.0250901263207,,0.0095748608702,-0.0104326656351,0.0309799145574,-0.999419747222
126116000000,,568,,126,116000000,"""map""",,,-0.0186835695058,0.023876298219,-0.0247781462967,,0.0095718044005,-0.0104085189483,0.0309850564729,-0.999419831516
126148000000,,569,,126,148000000,"""map""",,,-0.0189215335995,0.0237481091172,-0.0244455076754,,0.00957941013682,-0.010412884234,0.0310202912383,-0.999418651404
126180000000,,570,,126,180000000,"""map""",,,-0.0192536786199,0.0237573757768,-0.024059895426,,0.0095264680563,-0.010368133871,0.0310033482052,-0.999420168691
126216000000,,571,,126,216000000,"""map""",,,-0.0197682604194,0.0239390116185,-0.0236403308809,,0.0095329437714,-0.0104016660518,0.0310036010863,-0.999419747222
126248000000,,572,,126,248000000,"""map""",,,-0.0198109708726,0.0237588044256,-0.0231562443078,,0.00948472312574,-0.0103238281078,0.0310601200101,-0.999419199313
126280000000,,573,,126,280000000,"""map""",,,-0.0198263041675,0.0235408134758,-0.0225996542722,,0.00951367480026,-0.0103441395137,0.0310294792512,-0.999419662929
126316000000,,574,,126,316000000,"""map""",,,-0.0199708975852,0.0234322622418,-0.022057434544,,0.00949063372733,-0.0103572457842,0.031030111454,-0.999419705075
126348000000,,575,,126,348000000,"""map""",,,-0.0202402677387,0.0234190858901,-0.0215229410678,,0.00946491694691,-0.0103272628701,0.0310009458348,-0.999421222362
126380000000,,576,,126,380000000,"""map""",,,-0.0206261519343,0.0235233251005,-0.0210065823048,,0.00947796592402,-0.0102878576247,0.0309879224586,-0.999421854565
126416000000,,577,,126,416000000,"""map""",,,-0.0212306138128,0.0237671155483,-0.0203814394772,,0.00946245711854,-0.0103571984925,0.031013969211,-0.999420505866
126448000000,,578,,126,448000000,"""map""",,,-0.0214866772294,0.0235819350928,-0.019698459655,,0.00948953980259,-0.0103139195648,0.0310106817568,-0.99942084304
126480000000,,579,,126,480000000,"""map""",,,-0.0216915179044,0.0233628060669,-0.0191499218345,,0.00965623991097,-0.0102837568063,0.0309915892344,-0.999420126544
126516000000,,580,,126,516000000,"""map""",,,-0.0219814367592,0.0232446007431,-0.0187149010599,,0.0096639063157,-0.0103352132105,0.030980293879,-0.999419873663
126548000000,,581,,126,548000000,"""map""",,,-0.0223826877773,0.0232166089118,-0.018232896924,,0.00962644280935,-0.0103238693491,0.0310472652213,-0.999418229936
126580000000,,582,,126,580000000,"""map""",,,-0.0228557083756,0.0232793670148,-0.0177260264754,,0.00956779328822,-0.0103632551263,0.0310780324207,-0.999417471292
126616000000,,583,,126,616000000,"""map""",,,-0.0235430262983,0.0235145352781,-0.0170633550733,,0.0095783778683,-0.0103704328087,0.0311022247118,-0.999416544062
126648000000,,584,,126,648000000,"""map""",,,-0.0235983617604,0.023079065606,-0.0161072723567,,0.00951755650854,-0.0104138462029,0.031083806539,-0.999417260558
126680000000,,585,,126,680000000,"""map""",,,-0.0235790815204,0.0225162114948,-0.0152040114626,,0.00947403939355,-0.0104130709314,0.0311318117994,-0.999416206887
126716000000,,586,,126,716000000,"""map""",,,-0.0236980263144,0.0220825895667,-0.0144175924361,,0.00949378877291,-0.0104006932993,0.0310994008729,-0.999417091971
126748000000,,587,,126,748000000,"""map""",,,-0.0239609181881,0.0217641312629,-0.0136176729575,,0.00944940262612,-0.0104361034844,0.0311605559501,-0.999415279656
126780000000,,588,,126,780000000,"""map""",,,-0.0243310015649,0.0215570069849,-0.0129303587601,,0.00944604713606,-0.0104569327945,0.0312425315705,-0.999412540111
126816000000,,589,,126,816000000,"""map""",,,-0.024911031127,0.0214542318135,-0.0120282042772,,0.00939993292732,-0.0105339274723,0.0312635628479,-0.99941148644
126848000000,,590,,126,848000000,"""map""",,,-0.0248599220067,0.0211022216827,-0.01143170055,,0.00933582872318,-0.0104836912277,0.0312861535587,-0.999411907908
126880000000,,591,,126,880000000,"""map""",,,-0.0247235875577,0.0207461714745,-0.0109149450436,,0.0093221726092,-0.0105161922513,0.031276881252,-0.999411992202
126916000000,,592,,126,916000000,"""map""",,,-0.024687692523,0.0204905252904,-0.0105153480545,,0.00930413223515,-0.0104573673104,0.0312699691688,-0.999413003727
126948000000,,593,,126,948000000,"""map""",,,-0.0247491560876,0.0203477051109,-0.0102865304798,,0.0093076763159,-0.0105056111697,0.0312842148036,-0.999411992202
126980000000,,594,,126,980000000,"""map""",,,-0.0249640811235,0.0202881190926,-0.0100987982005,,0.00926801703695,-0.0104887752324,0.0312585473729,-0.999413383048
127016000000,,595,,127,16000000,"""map""",,,-0.0253708790988,0.0203725546598,-0.00971012189984,,0.0092836255296,-0.0104768782966,0.0312850577406,-0.999412497964
127048000000,,596,,127,48000000,"""map""",,,-0.0253190994263,0.0201745871454,-0.00932077132165,,0.00929551234029,-0.0104220965309,0.0313670755078,-0.999410390622
127080000000,,597,,127,80000000,"""map""",,,-0.0252308174968,0.019960232079,-0.0089568356052,,0.00931885490313,-0.0104414434572,0.0313933329944,-0.999409168363
127116000000,,598,,127,116000000,"""map""",,,-0.0252564102411,0.0198750942945,-0.00860723108053,,0.00928643615641,-0.0103799563913,0.0313711637521,-0.999410769944
127148000000,,599,,127,148000000,"""map""",,,-0.0253796260804,0.0199314281344,-0.00824875291437,,0.00950201531091,-0.0103924088094,0.0313560330335,-0.999409126216
127180000000,,600,,127,180000000,"""map""",,,-0.025601066649,0.0200855210423,-0.00779581163079,,0.00956138371569,-0.0104156613986,0.0313456227619,-0.999408662601
127216000000,,601,,127,216000000,"""map""",,,-0.0260807853192,0.0203946791589,-0.00722482288256,,0.00952030761939,-0.0103812709284,0.0313426303357,-0.999409463391
127248000000,,602,,127,248000000,"""map""",,,-0.0266025792807,0.0207105092704,-0.00681286491454,,0.00953928559618,-0.0104255882985,0.0313194074221,-0.999409589832
127280000000,,603,,127,280000000,"""map""",,,-0.0272261202335,0.0210894010961,-0.00646068435162,,0.0095661831469,-0.0103785208466,0.0312566507647,-0.999411739321
127316000000,,604,,127,316000000,"""map""",,,-0.0279404651374,0.0215016975999,-0.00613429024816,,0.00957173784635,-0.010370715242,0.0312590952819,-0.999411739321
127348000000,,605,,127,348000000,"""map""",,,-0.028416454792,0.0214782170951,-0.00571545539424,,0.00956239577512,-0.0103038018105,0.0312046837005,-0.999414225985
127380000000,,606,,127,380000000,"""map""",,,-0.0288959927857,0.0214183721691,-0.0052019925788,,0.00953758688062,-0.0103610361194,0.0312071703646,-0.99941376237
127416000000,,607,,127,416000000,"""map""",,,-0.0296331327409,0.0214696433395,-0.00458022486418,,0.00949302934762,-0.0103590885564,0.0312080554484,-0.999414141691
127448000000,,608,,127,448000000,"""map""",,,-0.0303186755627,0.0215914901346,-0.00411239918321,,0.00945673848267,-0.0103566991511,0.0311952849533,-0.999414942482
127480000000,,609,,127,480000000,"""map""",,,-0.031079089269,0.0217979606241,-0.00363586959429,,0.00945813035764,-0.0103277366518,0.0312319948583,-0.999414057398
127516000000,,610,,127,516000000,"""map""",,,-0.0319228693843,0.0220606476068,-0.00323697947897,,0.00948828749789,-0.010346147169,0.0312598117783,-0.999412708699
127548000000,,611,,127,548000000,"""map""",,,-0.0324346870184,0.0219258163124,-0.00283177988604,,0.00947325798933,-0.0102941816276,0.0312529839889,-0.999413635929
127580000000,,612,,127,580000000,"""map""",,,-0.0329224057496,0.0217315517366,-0.0022818618454,,0.00953652415442,-0.0103168120569,0.0312434588011,-0.999413045873
127616000000,,613,,127,616000000,"""map""",,,-0.0336856991053,0.021639611572,-0.00168337381911,,0.00948414912188,-0.0102888499278,0.0312732144762,-0.99941296158
127648000000,,614,,127,648000000,"""map""",,,-0.034407556057,0.0216568727046,-0.00108728103805,,0.00949909285502,-0.0103251317378,0.0312669345957,-0.999412582258
127680000000,,615,,127,680000000,"""map""",,,-0.03521130234,0.0217603594065,-0.00041793048149,,0.00945221757462,-0.010333682362,0.0312666395678,-0.999413045873
127716000000,,616,,127,716000000,"""map""",,,-0.0361064113677,0.0219334028661,0.000156225098181,,0.00944174523522,-0.010365100368,0.0312367153054,-0.999413720223
127748000000,,617,,127,748000000,"""map""",,,-0.0363868735731,0.0216686371714,0.00101414567325,,0.00950959651644,-0.0103103264636,0.0312407614028,-0.999413467342
127780000000,,618,,127,780000000,"""map""",,,-0.0365744195879,0.0213185511529,0.00205083237961,,0.00959869252581,-0.010351950222,0.0311986145543,-0.999413551636
127816000000,,619,,127,816000000,"""map""",,,-0.0370142832398,0.0209877099842,0.0032610015478,,0.00960368091814,-0.0103753846107,0.0312093198538,-0.999412877286
127848000000,,620,,127,848000000,"""map""",,,-0.0375229269266,0.0208364576101,0.00415547937155,,0.00959996487496,-0.0103731381919,0.0312119751053,-0.999412919433
127880000000,,621,,127,880000000,"""map""",,,-0.0381898395717,0.0207676850259,0.00501306215301,,0.00959599084697,-0.0103284997814,0.0312194772443,-0.999413172314
127916000000,,622,,127,916000000,"""map""",,,-0.0389575138688,0.0207766909152,0.00586825143546,,0.00960619466484,-0.0103525824247,0.0312753218186,-0.999411107118
127948000000,,623,,127,948000000,"""map""",,,-0.039098136127,0.020355835557,0.00675571989268,,0.0096107830737,-0.010455829362,0.0313401858185,-0.999407946105
127980000000,,624,,127,980000000,"""map""",,,-0.0391616858542,0.0198749545962,0.00759851373732,,0.00954874641121,-0.0104641722566,0.0312828661045,-0.999410222035
128016000000,,625,,128,16000000,"""map""",,,-0.0395444147289,0.0196044500917,0.00838129036129,,0.00958382744759,-0.0105000849523,0.0313268252675,-0.999408156839
128048000000,,626,,128,48000000,"""map""",,,-0.0399196706712,0.0193381309509,0.00903825834394,,0.00950382486774,-0.0104425979269,0.0313317985956,-0.999409336951
128080000000,,627,,128,80000000,"""map""",,,-0.0404738746583,0.0191913191229,0.00964317284524,,0.00957102513655,-0.010478347921,0.0313400172311,-0.999408030398
128116000000,,628,,128,116000000,"""map""",,,-0.0412924438715,0.0191069282591,0.0103072235361,,0.00950560100343,-0.0104292300908,0.0313553586839,-0.999408704748
128148000000,,629,,128,148000000,"""map""",,,-0.04130705446,0.0186250302941,0.0108575290069,,0.00952365660632,-0.0104346081356,0.0313484887476,-0.999408746895
128180000000,,630,,128,180000000,"""map""",,,-0.0412407703698,0.0181037597358,0.0114696193486,,0.00952563796095,-0.0104498569395,0.0313449905592,-0.999408620454
128216000000,,631,,128,216000000,"""map""",,,-0.0413348264992,0.0176746752113,0.0121674695984,,0.00951993068497,-0.0104915312823,0.031306636927,-0.999409463391
128248000000,,632,,128,248000000,"""map""",,,-0.041578989476,0.017361048609,0.0128918364644,,0.00957929159881,-0.0104739392125,0.0313376570075,-0.999408114692
128280000000,,633,,128,280000000,"""map""",,,-0.0419649705291,0.0171282496303,0.0136943077669,,0.00947564932908,-0.0104879575259,0.0313425881888,-0.999408831189
128316000000,,634,,128,316000000,"""map""",,,-0.0426632091403,0.0169677436352,0.014800818637,,0.00948156244137,-0.0104661234416,0.0313462128178,-0.999408831189
128348000000,,635,,128,348000000,"""map""",,,-0.0425894781947,0.0165885966271,0.0155655639246,,0.00947270308326,-0.0104882524716,0.0313647574311,-0.999408072545
128380000000,,636,,128,380000000,"""map""",,,-0.0424389652908,0.0162360165268,0.0161975193769,,0.0094655804305,-0.0105038914219,0.0313544736001,-0.999408325426
128416000000,,637,,128,416000000,"""map""",,,-0.0424074754119,0.0159562733024,0.0166647881269,,0.00940468728939,-0.0104534312722,0.0313696043187,-0.999408957629
128448000000,,638,,128,448000000,"""map""",,,-0.042522996664,0.0157481133938,0.0173533838242,,0.00942116131533,-0.0104465588251,0.031414322125,-0.999407482489
128480000000,,639,,128,480000000,"""map""",,,-0.0427885763347,0.0155974365771,0.0182191170752,,0.00942108233114,-0.0103929032117,0.0314283570255,-0.99940760893
128516000000,,640,,128,516000000,"""map""",,,-0.0433050394058,0.0155091937631,0.0193124487996,,0.00958358160469,-0.0103773291691,0.0314256596272,-0.999406260231
128548000000,,641,,128,548000000,"""map""",,,-0.043017193675,0.0151920737699,0.0199943203479,,0.00954891866176,-0.0104339269125,0.0314985736752,-0.99940373142
128580000000,,642,,128,580000000,"""map""",,,-0.0427229329944,0.0149538489059,0.0204578917474,,0.0095095402932,-0.0103987593599,0.0315183405471,-0.99940385786
128616000000,,643,,128,616000000,"""map""",,,-0.0424668639898,0.0146851111203,0.0211494695395,,0.00947280651591,-0.0104129814517,0.0315095740026,-0.999404363623
128648000000,,644,,128,648000000,"""map""",,,-0.0424715057015,0.0145374024287,0.0214892234653,,0.00933643264966,-0.0104435535573,0.0315560198297,-0.99940385786
128680000000,,645,,128,680000000,"""map""",,,-0.0426451303065,0.0144619718194,0.02178071253,,0.00931217199346,-0.010466534003,0.0315826144911,-0.999402972777
128716000000,,646,,128,716000000,"""map""",,,-0.0429435372353,0.0144594050944,0.0220952257514,,0.00936802586968,-0.01052354807,0.0315822351695,-0.999401919105
128748000000,,647,,128,748000000,"""map""",,,-0.0428316369653,0.0143527425826,0.0222141221166,,0.00937804406032,-0.0104924182595,0.0316005269017,-0.999401497637
128780000000,,648,,128,780000000,"""map""",,,-0.0423821471632,0.0141167407855,0.0221772845834,,0.00935455353077,-0.0105227550177,0.0316636207339,-0.999399432441
128816000000,,649,,128,816000000,"""map""",,,-0.0421310961246,0.0139519767836,0.022006586194,,0.00933524710491,-0.0105115102468,0.0316743681803,-0.999399390294
128848000000,,650,,128,848000000,"""map""",,,-0.0421242192388,0.0139214899391,0.0218367390335,,0.00935566931096,-0.0105331005462,0.0317129325467,-0.999397746567
128880000000,,651,,128,880000000,"""map""",,,-0.0422479510307,0.0139713790268,0.0216313991696,,0.00931469310763,-0.0104865008666,0.0316992769678,-0.999399095267
128916000000,,652,,128,916000000,"""map""",,,-0.0424854420125,0.0140683446079,0.0213978905231,,0.00931905221952,-0.0104689115956,0.031721741238,-0.999398463064
128948000000,,653,,128,948000000,"""map""",,,-0.0423365049064,0.0140460943803,0.0209761373699,,0.00922435125553,-0.0104995546182,0.03170673696,-0.999399558882
128980000000,,654,,128,980000000,"""map""",,,-0.0418447740376,0.0138995721936,0.0203389767557,,0.00922278548364,-0.0105335273653,0.0317284004401,-0.999398463064
129016000000,,655,,129,16000000,"""map""",,,-0.0415232516825,0.0138043137267,0.0195711143315,,0.00921461393412,-0.0105775066139,0.0317564280944,-0.999397240805
129048000000,,656,,129,48000000,"""map""",,,-0.0414826497436,0.0137693816796,0.0190348140895,,0.00915932406011,-0.0105155755655,0.0317506539761,-0.999398547357
129080000000,,657,,129,80000000,"""map""",,,-0.0415833592415,0.0137829994783,0.0186479352415,,0.00917011768692,-0.0105417513103,0.0317579453809,-0.999397915155
129116000000,,658,,129,116000000,"""map""",,,-0.041799698025,0.0138783045113,0.0182385686785,,0.00914082019421,-0.0105525463365,0.0317796510079,-0.999397451539
129148000000,,659,,129,148000000,"""map""",,,-0.0416702926159,0.0136601980776,0.0180915277451,,0.0093237478065,-0.0106314296788,0.0318320816874,-0.999393236855
129180000000,,660,,129,180000000,"""map""",,,-0.0412320904434,0.0132048688829,0.0180747043341,,0.00930385762209,-0.010581523365,0.0318454843853,-0.999393489736
129216000000,,661,,129,216000000,"""map""",,,-0.040935549885,0.0127296438441,0.0179153885692,,0.00926885956233,-0.010621274799,0.0318611630129,-0.99939289968
129248000000,,662,,129,248000000,"""map""",,,-0.0408788137138,0.0124356839806,0.0177834089845,,0.00926144760273,-0.010682816483,0.0318695502358,-0.999392014596
129280000000,,663,,129,280000000,"""map""",,,-0.0409636683762,0.0122159523889,0.0176710169762,,0.0092167536687,-0.0106187359865,0.0318517221188,-0.999393742617
129316000000,,664,,129,316000000,"""map""",,,-0.0411754064262,0.0120418444276,0.0175235643983,,0.00925588080253,-0.0106338241878,0.031844430714,-0.999393447589
129348000000,,665,,129,348000000,"""map""",,,-0.0412433519959,0.0118355825543,0.0171327255666,,0.00920113216979,-0.0106480934067,0.0319152374195,-0.999391508834
129380000000,,666,,129,380000000,"""map""",,,-0.0407595075667,0.0114744873717,0.0160847306252,,0.00912239107311,-0.010668117358,0.0319634112674,-0.999390539456
129416000000,,667,,129,416000000,"""map""",,,-0.0403676629066,0.0111406743526,0.0149905597791,,0.00907744516348,-0.0106574452326,0.0319865920341,-0.999390286575
129448000000,,668,,129,448000000,"""map""",,,-0.0402684956789,0.0109800510108,0.0142717491835,,0.00907017137476,-0.0106887954086,0.0320004583472,-0.999389570079
129480000000,,669,,129,480000000,"""map""",,,-0.040330119431,0.0108597502112,0.0136766582727,,0.00906228752686,-0.0106941109329,0.0320350609099,-0.999388516408
129516000000,,670,,129,516000000,"""map""",,,-0.0405282303691,0.0108036473393,0.0129521172494,,0.00907000229345,-0.0106857586952,0.0320274744771,-0.999388769289
129548000000,,671,,129,548000000,"""map""",,,-0.0406177081168,0.0107407001778,0.0120970932767,,0.0090542771561,-0.0106736603271,0.0320720658428,-0.999387589177
129580000000,,672,,129,580000000,"""map""",,,-0.0402242392302,0.0105444388464,0.0109582766891,,0.00906045397431,-0.0106898924614,0.0320766177025,-0.999387167708
129616000000,,673,,129,616000000,"""map""",,,-0.0400071293116,0.0104269348085,0.00966265425086,,0.00901532153196,-0.0106567674257,0.0320393177416,-0.99938914861
129648000000,,674,,129,648000000,"""map""",,,-0.0400502867997,0.0104183219373,0.00880040973425,,0.00902317426363,-0.0106373229936,0.0319961172218,-0.999390708044
129680000000,,675,,129,680000000,"""map""",,,-0.0402304455638,0.0104745086282,0.00794825982302,,0.00902198254502,-0.0105575558846,0.0320161791217,-0.999390876631
129716000000,,676,,129,716000000,"""map""",,,-0.0405483879149,0.0105919055641,0.00707317050546,,0.00906494878753,-0.0105801569675,0.0320202252192,-0.999390117988
129748000000,,677,,129,748000000,"""map""",,,-0.0407798625529,0.0107004512101,0.00607048673555,,0.00911324092644,-0.0103253215632,0.0320854263938,-0.999390244428
129780000000,,678,,129,780000000,"""map""",,,-0.0404671244323,0.0106373187155,0.00506353098899,,0.00911777064252,-0.0103980601914,0.0320444596571,-0.999390834484
129816000000,,679,,129,816000000,"""map""",,,-0.040322419256,0.010675791651,0.00396926421672,,0.00916716065744,-0.0104308051646,0.0320595482288,-0.999389570079
129848000000,,680,,129,848000000,"""map""",,,-0.0403625108302,0.0107636814937,0.00308935740031,,0.00920415809949,-0.0104545242091,0.0320816753243,-0.999388179233
129880000000,,681,,129,880000000,"""map""",,,-0.0405495911837,0.0109078614041,0.00206380826421,,0.00919938579207,-0.0104878826165,0.0320630885641,-0.999388474261
129916000000,,682,,129,916000000,"""map""",,,-0.0408688597381,0.0111156562343,0.000931215181481,,0.00918331533045,-0.0105063304238,0.0320746368006,-0.999388137086
129948000000,,683,,129,948000000,"""map""",,,-0.0413117818534,0.01138928812,-0.000345410080627,,0.00924523370188,-0.010540477891,0.0320426051957,-0.99938822138
129980000000,,684,,129,980000000,"""map""",,,-0.0408556908369,0.0113570205867,-0.00209680944681,,0.00924019069151,-0.0105425890612,0.0320665024588,-0.999387420589
130016000000,,685,,130,16000000,"""map""",,,-0.0405474938452,0.0113978078589,-0.00415320694447,,0.00919332689449,-0.0104882793484,0.0320774606395,-0.999388094939
130048000000,,686,,130,48000000,"""map""",,,-0.0404884591699,0.011513938196,-0.00572007382289,,0.00920502313886,-0.0104367306246,0.0320858478623,-0.99938822138
130080000000,,687,,130,80000000,"""map""",,,-0.0405671484768,0.0116967689246,-0.00722900219262,,0.0091577260607,-0.0105164913128,0.0320504866564,-0.999388937876
130116000000,,688,,130,116000000,"""map""",,,-0.0407953374088,0.0119451079518,-0.00870012678206,,0.00915975314302,-0.0105337582675,0.0320625828019,-0.999388389967
130148000000,,689,,130,148000000,"""map""",,,-0.0411570370197,0.0122598037124,-0.0100713148713,,0.00916155249241,-0.0105548604619,0.0320627513893,-0.99938822138
130180000000,,690,,130,180000000,"""map""",,,-0.0406241975725,0.012158529833,-0.011345660314,,0.00916084669733,-0.0105937315454,0.0320676825706,-0.999387589177
130216000000,,691,,130,216000000,"""map""",,,-0.0402311980724,0.0121674155816,-0.0129013666883,,0.00910352006864,-0.01055575493,0.0320963424276,-0.999387589177
130248000000,,692,,130,248000000,"""map""",,,-0.0401296801865,0.012281190604,-0.0141431801021,,0.0091101701334,-0.0106068750236,0.0321107566498,-0.999386577653
130280000000,,693,,130,280000000,"""map""",,,-0.0401643253863,0.0124516803771,-0.0153605723754,,0.0091019905167,-0.0105552930433,0.0321380256608,-0.999386282625
130316000000,,694,,130,316000000,"""map""",,,-0.0402868501842,0.0126436371356,-0.0164308585227,,0.0091204478729,-0.0105401455318,0.0321305656686,-0.999386493359
130348000000,,695,,130,348000000,"""map""",,,-0.0405475869775,0.0128871044144,-0.017714606598,,0.00909146870414,-0.0105442975726,0.0321569495958,-0.999385903303
130380000000,,696,,130,380000000,"""map""",,,-0.0399564690888,0.0128291714936,-0.0185053683817,,0.00912010703496,-0.0104438489145,0.0321370141364,-0.999387294149
130416000000,,697,,130,416000000,"""map""",,,-0.0395234525204,0.0128911882639,-0.0195900667459,,0.00910905702854,-0.010459856444,0.0321537042884,-0.999386704093
130448000000,,698,,130,448000000,"""map""",,,-0.0393866933882,0.0130309471861,-0.0205281358212,,0.00908876562589,-0.0105216611753,0.0321861573618,-0.999385186807
130480000000,,699,,130,480000000,"""map""",,,-0.0394062064588,0.0131979510188,-0.0216023400426,,0.00910528052275,-0.010548462702,0.0321672755736,-0.999385355394
130516000000,,700,,130,516000000,"""map""",,,-0.0395805798471,0.0134246814996,-0.0226569864899,,0.00915241477577,-0.0105422214288,0.0321784444885,-0.999384638897
130548000000,,701,,130,548000000,"""map""",,,-0.0399336144328,0.0137010104954,-0.0237387362868,,0.00915696572991,-0.010561424175,0.0321754099154,-0.999384554604
130580000000,,702,,130,580000000,"""map""",,,-0.0397153496742,0.0136958388612,-0.0248086247593,,0.00909941033932,-0.0106455268118,0.0321759999713,-0.999384133135
130616000000,,703,,130,616000000,"""map""",,,-0.0393924675882,0.0136320209131,-0.0261311810464,,0.00906625871488,-0.0106851150503,0.0321662219024,-0.999384301723
130648000000,,704,,130,648000000,"""map""",,,-0.0393009521067,0.0136709623039,-0.0273993574083,,0.00902045842607,-0.0107494573183,0.0322010351993,-0.999382953024
130680000000,,705,,130,680000000,"""map""",,,-0.0393406413496,0.0137504283339,-0.0287099331617,,0.00899514488069,-0.0107228512146,0.0321945445846,-0.999383627373
130716000000,,706,,130,716000000,"""map""",,,-0.0394827350974,0.0138856014237,-0.0300337281078,,0.00893971683581,-0.0106475081253,0.0322040276255,-0.999384681044
130748000000,,707,,130,748000000,"""map""",,,-0.0397385470569,0.0140582574531,-0.0313176475465,,0.00896299021031,-0.0106423750178,0.0322090852474,-0.99938434387
130780000000,,708,,130,780000000,"""map""",,,-0.0392554961145,0.0139699298888,-0.0323014110327,,0.00890522984774,-0.010680347435,0.0322119933799,-0.999384301723
130816000000,,709,,130,816000000,"""map""",,,-0.0385748781264,0.0138449855149,-0.033520206809,,0.00893994205803,-0.0106660105918,0.0321713216711,-0.999385523981
130848000000,,710,,130,848000000,"""map""",,,-0.0382125973701,0.0138109819964,-0.0345230251551,,0.00887481447573,-0.0106465165219,0.0321817740895,-0.99938594545
130880000000,,711,,130,880000000,"""map""",,,-0.0380177684128,0.0138522768393,-0.0355120301247,,0.00887801648377,-0.0106480520831,0.0322042805066,-0.999385186807
130916000000,,712,,130,916000000,"""map""",,,-0.0379593782127,0.0139420898631,-0.0364044047892,,0.00883130040651,-0.0106661438647,0.0322123305547,-0.99938514466
130948000000,,713,,130,948000000,"""map""",,,-0.0380523279309,0.0140875950456,-0.0373130850494,,0.00887422145641,-0.0107240288568,0.0322189897568,-0.999383964548
130980000000,,714,,130,980000000,"""map""",,,-0.0376436859369,0.0139974802732,-0.0377936810255,,0.00885862053701,-0.0107455290179,0.0322719683453,-0.999382152233
131016000000,,715,,131,16000000,"""map""",,,-0.0371282175183,0.0138280745596,-0.038397487253,,0.00884041021732,-0.0107622009777,0.032267880101,-0.99938219438
131048000000,,716,,131,48000000,"""map""",,,-0.0369335822761,0.0137539533898,-0.0389844030142,,0.00884716375589,-0.0107154751046,0.0322578912979,-0.99938299517
131080000000,,717,,131,80000000,"""map""",,,-0.0368691012263,0.0137359201908,-0.0394133627415,,0.0088272878125,-0.0106613885972,0.0322346683844,-0.999384554604
131116000000,,718,,131,116000000,"""map""",,,-0.0369668528438,0.0137712582946,-0.0398487262428,,0.00880366894909,-0.0106509923196,0.0322583127664,-0.999384090988
131148000000,,719,,131,148000000,"""map""",,,-0.0371701829135,0.0138897579163,-0.0404681041837,,0.00881359815391,-0.0107229241484,0.0323092683063,-0.999381520031
131180000000,,720,,131,180000000,"""map""",,,-0.0369045622647,0.0139997014776,-0.0406499393284,,0.00881215906952,-0.0107214551003,0.032352468826,-0.999380213478
131216000000,,721,,131,216000000,"""map""",,,-0.0365452803671,0.0141477081925,-0.0408208183944,,0.00879233350479,-0.0107555987397,0.0323697490339,-0.999379454835
131248000000,,722,,131,248000000,"""map""",,,-0.0364644899964,0.0143195232376,-0.0411515384912,,0.00878263363809,-0.0107921830274,0.0324252985802,-0.999377263199
131280000000,,723,,131,280000000,"""map""",,,-0.0365328937769,0.0145113486797,-0.041481424123,,0.00876088364168,-0.0108317018717,0.0324948830271,-0.999374860829
131316000000,,724,,131,316000000,"""map""",,,-0.0367449559271,0.0147251700982,-0.0419082678854,,0.00876981490461,-0.0108496234196,0.0324966531947,-0.999374523654
131348000000,,725,,131,348000000,"""map""",,,-0.0370739139616,0.0149798132479,-0.042396787554,,0.00871259668881,-0.0107740816968,0.0325789659899,-0.999373132808
131380000000,,726,,131,380000000,"""map""",,,-0.0370730869472,0.0150955636054,-0.0426439009607,,0.00869074996866,-0.0108383149757,0.0326789804614,-0.999369381738
131416000000,,727,,131,416000000,"""map""",,,-0.0367398262024,0.0150741329417,-0.0427017249167,,0.00866217646333,-0.0108264854584,0.0327049850669,-0.999368918123
131448000000,,728,,131,448000000,"""map""",,,-0.0366455391049,0.0151535505429,-0.0428588464856,,0.0086711739923,-0.010862818182,0.0327071345562,-0.999368370214
131480000000,,729,,131,480000000,"""map""",,,-0.0366829223931,0.0152945714071,-0.0431416369975,,0.00859828077085,-0.0108027802433,0.03271497387,-0.999369381738
131516000000,,730,,131,516000000,"""map""",,,-0.036826774478,0.0154823483899,-0.0435539856553,,0.00860540819806,-0.0108016613762,0.0327477219713,-0.999368243773
131548000000,,731,,131,548000000,"""map""",,,-0.0372129268944,0.0157377682626,-0.0441078022122,,0.00857140194748,-0.0107814707308,0.0327630212773,-0.99936828592
131580000000,,732,,131,580000000,"""map""",,,-0.0370449796319,0.0157503858209,-0.0444771796465,,0.00857787519304,-0.010780896727,0.032758385124,-0.999368370214
131616000000,,733,,131,616000000,"""map""",,,-0.0365674421191,0.0157078802586,-0.0451467894018,,0.00857432028747,-0.0108013946656,0.0327777305275,-0.999367569424
131648000000,,734,,131,648000000,"""map""",,,-0.0363554358482,0.0157360304147,-0.0457169339061,,0.00852467047674,-0.0107834659561,0.0327723778777,-0.999368370214
131680000000,,735,,131,680000000,"""map""",,,-0.0363044179976,0.0158160626888,-0.0463836379349,,0.00855395685651,-0.0107387735861,0.0327576264807,-0.999369044564
131716000000,,736,,131,716000000,"""map""",,,-0.0363633818924,0.0159173421562,-0.0471531227231,,0.00848842558643,-0.0107091306868,0.032725847757,-0.999370983319
131748000000,,737,,131,748000000,"""map""",,,-0.0364975109696,0.0160150192678,-0.047907512635,,0.0085239725842,-0.0107557739949,0.0327164911566,-0.999370477556
131780000000,,738,,131,780000000,"""map""",,,-0.0363381877542,0.0160896945745,-0.0480548217893,,0.00851901069829,-0.0107855761796,0.0327308210851,-0.999369718913
131816000000,,739,,131,816000000,"""map""",,,-0.0358676798642,0.0162041205913,-0.0478762947023,,0.0085434730749,-0.0107881957873,0.0327405991539,-0.999369213151
131848000000,,740,,131,848000000,"""map""",,,-0.0356956645846,0.016354734078,-0.0479441583157,,0.00852055095157,-0.010778556836,0.0327480169993,-0.999369213151
131880000000,,741,,131,880000000,"""map""",,,-0.0356888361275,0.0165609009564,-0.0481349565089,,0.00850658906714,-0.0107734209297,0.0327243304704,-0.999370224675
131916000000,,742,,131,916000000,"""map""",,,-0.0358483083546,0.0167627613991,-0.0484532639384,,0.00845034920152,-0.0107128692439,0.032749197111,-0.999370477556
131948000000,,743,,131,948000000,"""map""",,,-0.0361754857004,0.0169782247394,-0.0487719848752,,0.00847008059439,-0.0107469909868,0.0327670673748,-0.999369381738
131980000000,,744,,131,980000000,"""map""",,,-0.036412704736,0.0171781163663,-0.0488649941981,,0.00852246081296,-0.0107269189617,0.0327736422832,-0.99936896027
132016000000,,745,,132,16000000,"""map""",,,-0.0360367037356,0.0172588583082,-0.0483218580484,,0.00847770061289,-0.0107466254945,0.0327961487003,-0.999368370214
132048000000,,746,,132,48000000,"""map""",,,-0.0359359942377,0.0173851978034,-0.0481700189412,,0.00847930606208,-0.0107873262616,0.0328161263065,-0.999367274396
132080000000,,747,,132,80000000,"""map""",,,-0.0359678305686,0.0175737570971,-0.0481957010925,,0.00851693414282,-0.0107966405505,0.032855491463,-0.999365504228
132116000000,,748,,132,116000000,"""map""",,,-0.0361612215638,0.0178139898926,-0.0484718903899,,0.0085149767839,-0.0107676265612,0.0328308355566,-0.999366642193
132148000000,,749,,132,148000000,"""map""",,,-0.0364697948098,0.0180723760277,-0.0489194951952,,0.00854757901759,-0.0105359068101,0.032792608365,-0.999370140382
132180000000,,750,,132,180000000,"""map""",,,-0.036649633199,0.0182781536132,-0.0492998883128,,0.00856628406884,-0.0106053624292,0.0328584838892,-0.999367063662
132216000000,,751,,132,216000000,"""map""",,,-0.0361739806831,0.018340760842,-0.0494228750467,,0.00853182745614,-0.010663775574,0.0328650587976,-0.999366473606
132248000000,,752,,132,248000000,"""map""",,,-0.0360227823257,0.0184197984636,-0.0495627708733,,0.00854684926796,-0.0106920833567,0.0328746261322,-0.999365757109
132280000000,,753,,132,280000000,"""map""",,,-0.0360362716019,0.0185202267021,-0.0498627945781,,0.00849972514005,-0.0107499641506,0.032878840817,-0.999365419935
132316000000,,754,,132,316000000,"""map""",,,-0.0362130999565,0.0186420306563,-0.050272051245,,0.00846782820754,-0.0107396839415,0.0329048454226,-0.999364956319
132348000000,,755,,132,348000000,"""map""",,,-0.0365101806819,0.0187626108527,-0.050719704479,,0.00844416884363,-0.0108378339089,0.0329477930612,-0.999362638243
132380000000,,756,,132,380000000,"""map""",,,-0.036702118814,0.0188222210854,-0.0510545261204,,0.00846102313786,-0.0108676006146,0.0329974420488,-0.9993605309
132416000000,,757,,132,416000000,"""map""",,,-0.0362685322762,0.0185861177742,-0.0508226901293,,0.00843527116647,-0.0108608033651,0.0329803304283,-0.999361373837
132448000000,,758,,132,448000000,"""map""",,,-0.0360862836242,0.018462697044,-0.0508887544274,,0.00845230754825,-0.0108725216707,0.0330272820175,-0.999359603669
132480000000,,759,,132,480000000,"""map""",,,-0.0360627993941,0.0183462593704,-0.0511262267828,,0.00837120729819,-0.01085551196,0.0329638088636,-0.999362553949
132516000000,,760,,132,516000000,"""map""",,,-0.036171272397,0.0182456560433,-0.0514748357236,,0.00834642174086,-0.0108532076304,0.0329565596057,-0.999363059711
132548000000,,761,,132,548000000,"""map""",,,-0.0364298522472,0.0181859191507,-0.0518842376769,,0.00838319536009,-0.0107912157078,0.0329590041229,-0.999363312592
132580000000,,762,,132,580000000,"""map""",,,-0.0368010550737,0.0181810520589,-0.0523566938937,,0.00843881701705,-0.0108184218278,0.032949521082,-0.999362848977
132616000000,,763,,132,616000000,"""map""",,,-0.0360568575561,0.0179615039378,-0.05190012604,,0.00843023684066,-0.0108411686137,0.0329717324712,-0.999361963893
132648000000,,764,,132,648000000,"""map""",,,-0.0357142724097,0.0177723057568,-0.0516157597303,,0.00841744798863,-0.0109014530127,0.0330002658876,-0.999360488753
132680000000,,765,,132,680000000,"""map""",,,-0.0355597101152,0.0175939071923,-0.0513310208917,,0.00838302652575,-0.0108921550228,0.0330636968946,-0.999358760732
132716000000,,766,,132,716000000,"""map""",,,-0.0355720743537,0.0174411889166,-0.0510521754622,,0.00840722054547,-0.0108759912948,0.0330645819784,-0.999358718586
132748000000,,767,,132,748000000,"""map""",,,-0.0357481837273,0.0173002164811,-0.0510549657047,,0.0084606783075,-0.0108791670434,0.0330475125048,-0.999358760732
132780000000,,768,,132,780000000,"""map""",,,-0.0360242761672,0.0171774886549,-0.0512858405709,,0.00844985940905,-0.0109167570931,0.0330313702618,-0.999358971467
132816000000,,769,,132,816000000,"""map""",,,-0.0354701653123,0.0166911818087,-0.0504160821438,,0.0084752621049,-0.0109418897857,0.0330623481955,-0.999357496327
132848000000,,770,,132,848000000,"""map""",,,-0.0352261401713,0.016358839348,-0.0499678105116,,0.00845433833488,-0.0110001701515,0.0330426656172,-0.999357707061
132880000000,,771,,132,880000000,"""map""",,,-0.035148575902,0.0160632487386,-0.0496468506753,,0.00843958051709,-0.0109101614406,0.0330923567516,-0.999357159152
132916000000,,772,,132,916000000,"""map""",,,-0.0352171622217,0.01580516994,-0.0493212752044,,0.00840606784563,-0.0108879349049,0.0331420900328,-0.999356063334
132948000000,,773,,132,948000000,"""map""",,,-0.0353973545134,0.0155780594796,-0.0491775907576,,0.00840523116483,-0.0109111726357,0.03310280917,-0.999357074859
132980000000,,774,,132,980000000,"""map""",,,-0.0356964282691,0.0153797864914,-0.049162786454,,0.00835191844723,-0.0109093282995,0.0330683751948,-0.999358634292
133016000000,,775,,133,16000000,"""map""",,,-0.0347357653081,0.0147224878892,-0.0484248697758,,0.0083704440451,-0.0109042791564,0.033074444341,-0.999358381411
133048000000,,776,,133,48000000,"""map""",,,-0.0342062599957,0.0142467161641,-0.0481632649899,,0.00838167494546,-0.0107859149184,0.0330768467113,-0.999359519376
133080000000,,777,,133,80000000,"""map""",,,-0.0337968692183,0.0138221932575,-0.0480342134833,,0.00844983191481,-0.0108655708981,0.0331165490426,-0.999356737684
133116000000,,778,,133,116000000,"""map""",,,-0.0335329324007,0.0134126022458,-0.0481399446726,,0.00842803516173,-0.010919383451,0.0331238404474,-0.999356105481
133148000000,,779,,133,148000000,"""map""",,,-0.033425886184,0.0130247352645,-0.0484878905118,,0.00845816678338,-0.0110122969194,0.0331371167047,-0.99935437746
133180000000,,780,,133,180000000,"""map""",,,-0.0334458909929,0.0126396464184,-0.0489227324724,,0.0084424173622,-0.0111024645041,0.0331025562889,-0.999354630341
133216000000,,781,,133,216000000,"""map""",,,-0.032683532685,0.0120029905811,-0.0487126857042,,0.00841898511383,-0.0111541575315,0.0331074031765,-0.999354082432
133248000000,,782,,133,248000000,"""map""",,,-0.0322608947754,0.0115243345499,-0.0487043000758,,0.00837660003685,-0.0112042041153,0.0331366530894,-0.999352902321
133280000000,,783,,133,280000000,"""map""",,,-0.0319503732026,0.0110970037058,-0.0488413162529,,0.00833987597309,-0.0112693812531,0.0331927083979,-0.999350710684
133316000000,,784,,133,316000000,"""map""",,,-0.0317779481411,0.0107001801953,-0.0491028465331,,0.00829265108787,-0.0112462485601,0.0332310620301,-0.999350036335
133348000000,,785,,133,348000000,"""map""",,,-0.031719379127,0.0103119574487,-0.0494648516178,,0.00826971875711,-0.0112978367966,0.0332663810891,-0.999348519048
133380000000,,786,,133,380000000,"""map""",,,-0.031771350652,0.00994205009192,-0.0498732998967,,0.00821948448813,-0.0112951451606,0.0332293761561,-0.999350120629
133416000000,,787,,133,416000000,"""map""",,,-0.0312718227506,0.00932226888835,-0.0493498593569,,0.00820790447687,-0.0113362371854,0.0332465720703,-0.999349193398
133448000000,,788,,133,448000000,"""map""",,,-0.0309054907411,0.00878318492323,-0.0488387942314,,0.00818829516169,-0.0112334560038,0.0333043975465,-0.999348603342
133480000000,,789,,133,480000000,"""map""",,,-0.0306765306741,0.00828280299902,-0.0485249832273,,0.0082034882774,-0.0111912954905,0.0333500004365,-0.99934742323
133516000000,,790,,133,516000000,"""map""",,,-0.0306112449616,0.0077977348119,-0.0482369251549,,0.00819376453846,-0.011226121629,0.0333784495593,-0.999346200972
133548000000,,791,,133,548000000,"""map""",,,-0.0306995678693,0.00730895390734,-0.0480499975383,,0.00810748714075,-0.0112467223829,0.0333254709707,-0.999348434755
133580000000,,792,,133,580000000,"""map""",,,-0.0309071354568,0.00682775164023,-0.0481265671551,,0.008045330582,-0.0112200860686,0.0333875532786,-0.999347128202
133616000000,,793,,133,616000000,"""map""",,,-0.0304054711014,0.00631992472336,-0.0480317734182,,0.00803129815099,-0.0111784385614,0.033388817684,-0.999347718258
133648000000,,794,,133,648000000,"""map""",,,-0.0299799218774,0.00591355934739,-0.0480436198413,,0.00801480869041,-0.0112050524853,0.0334152859049,-0.99934662244
133680000000,,795,,133,680000000,"""map""",,,-0.0297165531665,0.00550479255617,-0.0481231212616,,0.00795442345175,-0.0111516412329,0.0334965871757,-0.999344978713
133716000000,,796,,133,716000000,"""map""",,,-0.0295605454594,0.00510310893878,-0.0483576878905,,0.0079438852579,-0.0111906825502,0.0334981044622,-0.999344557245
133748000000,,797,,133,748000000,"""map""",,,-0.0295380335301,0.00470987847075,-0.0486613474786,,0.00791540254939,-0.0111605310899,0.0335300939202,-0.999344093629
133780000000,,798,,133,780000000,"""map""",,,-0.0295978486538,0.00430550519377,-0.0490526892245,,0.00796133043119,-0.0112161520883,0.0335620833783,-0.999342028434
133816000000,,799,,133,816000000,"""map""",,,-0.0290558114648,0.00382397300564,-0.0491706132889,,0.00791384393917,-0.0111611163713,0.0335905746478,-0.999342028434
133848000000,,800,,133,848000000,"""map""",,,-0.0286210663617,0.0034229659941,-0.049529325217,,0.00807002221442,-0.0112096137292,0.0336265680565,-0.999339078154
133880000000,,801,,133,880000000,"""map""",,,-0.0283434223384,0.00295904558152,-0.0499173216522,,0.00805835231183,-0.011245568119,0.0336121538343,-0.999339246742
133916000000,,802,,133,916000000,"""map""",,,-0.0282210800797,0.00245895399712,-0.0504592619836,,0.00801024514161,-0.0112157023024,0.0335964330598,-0.999340469
133948000000,,803,,133,948000000,"""map""",,,-0.0282118245959,0.00194972730242,-0.0511941872537,,0.00804090680927,-0.0112401911031,0.033584421208,-0.99934034256
133980000000,,804,,133,980000000,"""map""",,,-0.0283018089831,0.00142507324927,-0.0519629381597,,0.00798306470486,-0.0112208702304,0.0336102150793,-0.999340173972
134016000000,,805,,134,16000000,"""map""",,,-0.0280204303563,0.000858799088746,-0.0525371022522,,0.00799543381708,-0.0112756436821,0.0336340701955,-0.999338656686
134048000000,,806,,134,48000000,"""map""",,,-0.0276291053742,0.000412708119256,-0.0530311018229,,0.0080355441167,-0.0113278916155,0.0336086977927,-0.999338572392
134080000000,,807,,134,80000000,"""map""",,,-0.0273997243494,-9.11021488719e-05,-0.0536442995071,,0.00792277446125,-0.0113247324129,0.0336226483996,-0.999339036007
134116000000,,808,,134,116000000,"""map""",,,-0.0272944215685,-0.00058280734811,-0.0542693547904,,0.00793162299453,-0.0113641090939,0.0336472200122,-0.999337729455
134148000000,,809,,134,148000000,"""map""",,,-0.0273013524711,-0.00107166625094,-0.0551273152232,,0.00797254034044,-0.0113408868389,0.0336658067724,-0.999337012959
134180000000,,810,,134,180000000,"""map""",,,-0.0274020005018,-0.00156424101442,-0.0561310201883,,0.00791424104151,-0.0113618492984,0.0336962367971,-0.999336254315
134216000000,,811,,134,216000000,"""map""",,,-0.0271662957966,-0.00205767573789,-0.0571937635541,,0.00785128550364,-0.0111780916731,0.033737161387,-0.99933739228
134248000000,,812,,134,248000000,"""map""",,,-0.0268426164985,-0.00238078529947,-0.0579108558595,,0.0079201197037,-0.011317585394,0.0337479509802,-0.999334947763
134280000000,,813,,134,280000000,"""map""",,,-0.0266284327954,-0.00271992757916,-0.0585197918117,,0.00786533192872,-0.0113686984906,0.0337950711568,-0.999333177595
134316000000,,814,,134,316000000,"""map""",,,-0.0265537425876,-0.00314397714101,-0.0592598430812,,0.00789543366891,-0.0113702832779,0.0338276085239,-0.999331828896
134348000000,,815,,134,348000000,"""map""",,,-0.0265537574887,-0.00363354803994,-0.0600404441357,,0.0076692659419,-0.0112144095795,0.0338610309747,-0.999334231267
134380000000,,816,,134,380000000,"""map""",,,-0.0266507882625,-0.00412755552679,-0.0607612431049,,0.00763000631715,-0.011244950075,0.0338780161547,-0.999333599064
134416000000,,817,,134,416000000,"""map""",,,-0.026563771069,-0.00447217095643,-0.0609068349004,,0.0076312096426,-0.0113147141399,0.0337719746838,-0.999336380756
134448000000,,818,,134,448000000,"""map""",,,-0.0265831798315,-0.00457827374339,-0.060168735683,,0.00716310089517,-0.0107629060319,0.0333425825912,-0.99936040446
134480000000,,819,,134,480000000,"""map""",,,-0.0269011184573,-0.00470096664503,-0.0585412941873,,0.00507733732679,-0.00865151915523,0.0324144668402,-0.999424172641
134516000000,,820,,134,516000000,"""map""",,,-0.0274943690747,-0.00490627530962,-0.0559491552413,,0.00366265613064,-0.00723457421234,0.0319113177626,-0.999457805826
134548000000,,821,,134,548000000,"""map""",,,-0.0283753331751,-0.00520433718339,-0.0523419417441,,-0.00107340046537,-0.00242437801708,0.0304438066443,-0.999533037951
134580000000,,822,,134,580000000,"""map""",,,-0.0294958632439,-0.0056350780651,-0.0479282662272,,-0.00784952834225,0.00472688051915,0.0286536192538,-0.999547410026
134616000000,,823,,134,616000000,"""map""",,,-0.0306319463998,-0.00622392864898,-0.0412794090807,,-0.010639471742,0.00770446070068,0.0279584912813,-0.999522838414
134648000000,,824,,134,648000000,"""map""",,,-0.0315556675196,-0.00683290325105,-0.0352880172431,,-0.0184623929105,0.0160397522162,0.0261498014243,-0.999358802879
134680000000,,825,,134,680000000,"""map""",,,-0.032749645412,-0.00765021378174,-0.0288138203323,,-0.0279813969411,0.0261866810692,0.0241042884256,-0.998974634355
134716000000,,826,,134,716000000,"""map""",,,-0.034196715802,-0.00873262621462,-0.0217626951635,,-0.031776687393,0.0302038779713,0.0233442543064,-0.998765796721
134748000000,,827,,134,748000000,"""map""",,,-0.0359244830906,-0.0101097747684,-0.014249545522,,-0.0419662696799,0.0409311496659,0.02166086703,-0.998045296345
134780000000,,828,,134,780000000,"""map""",,,-0.0379440449178,-0.0118591794744,-0.0063157081604,,-0.0531870601441,0.0528488683987,0.0200476542564,-0.996983617232
134816000000,,829,,134,816000000,"""map""",,,-0.040773961693,-0.0146267702803,0.00427281484008,,-0.0591655269735,0.0591831713565,0.0193309470975,-0.996304757943
134848000000,,830,,134,848000000,"""map""",,,-0.0441067218781,-0.017991328612,0.0131581621245,,-0.0728832802305,0.0733527444272,0.0183057671543,-0.99447086427
134880000000,,831,,134,880000000,"""map""",,,-0.0490559376776,-0.0229056589305,0.0224470514804,,-0.08250040978,0.0835395655193,0.0180380503725,-0.992919691658
134916000000,,832,,134,916000000,"""map""",,,-0.0558339059353,-0.029544595629,0.0324479900301,,-0.0866346747398,0.087800910636,0.0180919983386,-0.992198643373
134948000000,,833,,134,948000000,"""map""",,,-0.0645551159978,-0.0380736403167,0.0434737429023,,-0.0928404904369,0.0936429612465,0.0184410163912,-0.991096123963
134980000000,,834,,134,980000000,"""map""",,,-0.0753494650126,-0.0485754534602,0.0555112212896,,-0.0967488670573,0.0963660540646,0.0190850202364,-0.990448916957
135016000000,,835,,135,16000000,"""map""",,,-0.0908962413669,-0.0641203522682,0.0727918595076,,-0.097880590488,0.0963501263014,0.0195215772933,-0.990330737194
135048000000,,836,,135,48000000,"""map""",,,-0.105105668306,-0.078485801816,0.0883394628763,,-0.0988710258699,0.0948834947516,0.0203337892109,-0.990357584737
135080000000,,837,,135,80000000,"""map""",,,-0.12110234797,-0.0946135744452,0.105131395161,,-0.0990662828348,0.0936176867611,0.0211848605229,-0.990440740469
135116000000,,838,,135,116000000,"""map""",,,-0.138798847795,-0.112450301647,0.123294703662,,-0.099146988946,0.0935328081119,0.0214445694034,-0.990435092791
135148000000,,839,,135,148000000,"""map""",,,-0.158119261265,-0.131914332509,0.14262264967,,-0.0995927906506,0.0936297313755,0.0221539008639,-0.990365550491
135180000000,,840,,135,180000000,"""map""",,,-0.178959444165,-0.152924641967,0.163167223334,,-0.100043892322,0.0933670471909,0.0227760726416,-0.990330821488
135216000000,,841,,135,216000000,"""map""",,,-0.206669569016,-0.180845037103,0.190867289901,,-0.100094341441,0.0931613080084,0.0230817637338,-0.990338028599
135248000000,,842,,135,248000000,"""map""",,,-0.23021940887,-0.204580098391,0.214782625437,,-0.100075404335,0.0927213291543,0.02396393942,-0.990360239988
135280000000,,843,,135,280000000,"""map""",,,-0.255106240511,-0.229738950729,0.239790797234,,-0.10026324757,0.0927396893752,0.0247365333001,-0.990320579804
135316000000,,844,,135,316000000,"""map""",,,-0.281281650066,-0.256264567375,0.265971720219,,-0.10024966048,0.0926959988983,0.0252062177799,-0.990314173483
135348000000,,845,,135,348000000,"""map""",,,-0.308636754751,-0.284051924944,0.293308317661,,-0.0996580438503,0.0918185449763,0.0261237125251,-0.990431805337
135380000000,,846,,135,380000000,"""map""",,,-0.337092041969,-0.313016057014,0.321779072285,,-0.0988202059902,0.0908673123373,0.0268426113202,-0.990584250488
135416000000,,847,,135,416000000,"""map""",,,-0.374160557985,-0.350350886583,0.359719187021,,-0.0984726452967,0.0905008211234,0.0271792381992,-0.990643298223
135448000000,,848,,135,448000000,"""map""",,,-0.404874622822,-0.381224751472,0.391766101122,,-0.0977774030667,0.0902544184639,0.0276879928076,-0.990720553396
135480000000,,849,,135,480000000,"""map""",,,-0.436459124088,-0.41310095787,0.42498010397,,-0.0968636719034,0.0897323118657,0.0282685656458,-0.990841304117
135516000000,,850,,135,516000000,"""map""",,,-0.468828290701,-0.445928931236,0.459408223629,,-0.0962032465923,0.0891598364907,0.0285346808473,-0.990949705811
135548000000,,851,,135,548000000,"""map""",,,-0.501948475838,-0.479609727859,0.495109379292,,-0.0950783208637,0.0882795837545,0.0289231904969,-0.991125795344
135580000000,,852,,135,580000000,"""map""",,,-0.53576362133,-0.514075934887,0.532088160515,,-0.0938614432241,0.0878193329247,0.0292399240635,-0.991273351461
135616000000,,853,,135,616000000,"""map""",,,-0.579161643982,-0.557943224907,0.580470621586,,-0.093342949401,0.0875571617463,0.0294199332535,-0.991340154216
135648000000,,854,,135,648000000,"""map""",,,-0.61463034153,-0.593678534031,0.620864331722,,-0.0924251721401,0.0869488859162,0.0296073602888,-0.991474139047
135680000000,,855,,135,680000000,"""map""",,,-0.650600552559,-0.630035459995,0.66243326664,,-0.0913438007344,0.0865279329069,0.029869387246,-0.991603319138
135716000000,,856,,135,716000000,"""map""",,,-0.687061071396,-0.666975736618,0.705133020878,,-0.0909156409432,0.086387447418,0.0299349677423,-0.991652883832
135748000000,,857,,135,748000000,"""map""",,,-0.723963737488,-0.704469621181,0.749080121517,,-0.0899437984953,0.0859671057025,0.0300996354794,-0.991773044497
135780000000,,858,,135,780000000,"""map""",,,-0.761248350143,-0.742486894131,0.794350147247,,-0.0888264302235,0.0855168957009,0.0302957447655,-0.991906692154
135816000000,,859,,135,816000000,"""map""",,,-0.808812975883,-0.790644407272,0.853388786316,,-0.0882582289671,0.085267785271,0.0303532330669,-0.991977161684
135848000000,,860,,135,848000000,"""map""",,,-0.847430169582,-0.829592227936,0.902275443077,,-0.0856682438814,0.0835647661243,0.0304996512186,-0.99234459791
135880000000,,861,,135,880000000,"""map""",,,-0.886266767979,-0.868847846985,0.952374696732,,-0.0820906227631,0.0807526299804,0.0305863051391,-0.9928769969
135916000000,,862,,135,916000000,"""map""",,,-0.925212025642,-0.908306181431,1.0037009716,,-0.0792166152103,0.0782629979817,0.0306528128661,-0.993307653398
135948000000,,863,,135,948000000,"""map""",,,-0.964208185673,-0.947878599167,1.05625164509,,-0.0738535029058,0.0732956753717,0.0309098664952,-0.994091542634
135980000000,,864,,135,980000000,"""map""",,,-1.00313067436,-0.987455368042,1.11012220383,,-0.068721826952,0.0682961340274,0.0311733264452,-0.994807153974
136016000000,,865,,136,16000000,"""map""",,,-1.05146157742,-1.03679418564,1.1794295311,,-0.0658809841533,0.0655328473568,0.0313054146684,-0.995180996521
136048000000,,866,,136,48000000,"""map""",,,-1.08975434303,-1.0760383606,1.23645198345,,-0.060236391384,0.0603748551413,0.0316091248588,-0.995855093216
136080000000,,867,,136,80000000,"""map""",,,-1.12763226032,-1.11497068405,1.29489314556,,-0.0550421486188,0.0556101453149,0.0319200000134,-0.99642314844
136116000000,,868,,136,116000000,"""map""",,,-1.16493570805,-1.15243971348,1.35462164879,,-0.0521934186383,0.0531235162791,0.0320641422353,-0.996707386786
136148000000,,869,,136,148000000,"""map""",,,-1.21073925495,-1.19826114178,1.43124783039,,-0.0483358038634,0.0498216985809,0.0323194256968,-0.997064159859
136180000000,,870,,136,180000000,"""map""",,,-1.23778700829,-1.22543156147,1.47820687294,,-0.0444266542765,0.0466901012203,0.0326930996557,-0.997385318845
136216000000,,871,,136,216000000,"""map""",,,-1.2820661068,-1.2701433897,1.55781400204,,-0.0429645493147,0.0455248454029,0.0328498859321,-0.997498103811
136248000000,,872,,136,248000000,"""map""",,,-1.3167809248,-1.30538952351,1.61999845505,,-0.0403523274859,0.0421373737841,0.0330852760811,-0.997748245357
136280000000,,873,,136,280000000,"""map""",,,-1.35106730461,-1.3403185606,1.67503917217,,-0.0377589182158,0.0338589507973,0.0334764409821,-0.998151885725
136316000000,,874,,136,316000000,"""map""",,,-1.38563382626,-1.374599576,1.72167658806,,-0.0357303536831,0.0273912164324,0.0337235058081,-0.998416652228
136348000000,,875,,136,348000000,"""map""",,,-1.42005515099,-1.40860581398,1.75975656509,,-0.028269322972,0.0116636595879,0.033932174855,-0.998956174036
136380000000,,876,,136,380000000,"""map""",,,-1.45414054394,-1.44250047207,1.78889977932,,-0.0134190802736,-0.00827292405786,0.0445710087967,-0.998881869142
136416000000,,877,,136,416000000,"""map""",,,-1.49622094631,-1.48470723629,1.81291735172,,-0.00482333868569,-0.0175324482167,0.0440112565016,-0.998865558311
136448000000,,878,,136,448000000,"""map""",,,-1.52832150459,-1.51758050919,1.82856285572,,0.00918969621514,-0.0292156237711,0.0426439705891,-0.998620811562
136480000000,,879,,136,480000000,"""map""",,,-1.55754029751,-1.54868507385,1.85129010677,,0.00890277825118,-0.0242612228745,0.0410833570824,-0.998821514855
136516000000,,880,,136,516000000,"""map""",,,-1.58441150188,-1.57720160484,1.89420175552,,0.00669978355294,-0.0193176504253,0.0402441711817,-0.998980703501
136548000000,,881,,136,548000000,"""map""",,,-1.60883271694,-1.60373520851,1.95307505131,,0.00535963988156,-0.0126144750389,0.0391914693465,-0.999137784806
136580000000,,882,,136,580000000,"""map""",,,-1.63100016117,-1.62869811058,2.02487301826,,0.00202218529435,-0.00363927969392,0.0383776558486,-0.999254658017
136616000000,,883,,136,616000000,"""map""",,,-1.6564258337,-1.65825355053,2.12553715706,,-0.00377663001705,0.00516391642021,0.037834720146,-0.999263593149
136648000000,,884,,136,648000000,"""map""",,,-1.67591691017,-1.68117821217,2.20613861084,,-0.0178586164212,0.0256394179061,0.0366861342304,-0.998838247153
136680000000,,885,,136,680000000,"""map""",,,-1.69513702393,-1.70383989811,2.28165745735,,-0.0307207338296,0.0474370037151,0.0355662924655,-0.997768054376
136716000000,,886,,136,716000000,"""map""",,,-1.71697938442,-1.72679781914,2.34239649773,,-0.038268363802,0.0608554289015,0.0348448648595,-0.996803945216
136748000000,,887,,136,748000000,"""map""",,,-1.73944580555,-1.7498666048,2.39448165894,,-0.0483206874682,0.0775942236433,0.0339277915828,-0.995235281662
136780000000,,888,,136,780000000,"""map""",,,-1.76200020313,-1.77297687531,2.44181537628,,-0.0530041256171,0.0870678486889,0.0332797837869,-0.994234504744
136816000000,,889,,136,816000000,"""map""",,,-1.79082524776,-1.80209839344,2.49721002579,,-0.0534604640339,0.0900431066778,0.0330375658485,-0.993953090236
136848000000,,890,,136,848000000,"""map""",,,-1.81450283527,-1.8256688118,2.53997325897,,-0.0497432990219,0.0866553877756,0.0327476798245,-0.994456660782
136880000000,,891,,136,880000000,"""map""",,,-1.83872818947,-1.8494246006,2.58207893372,,-0.0430014654265,0.0751734403738,0.0325772379691,-0.995710108057
136916000000,,892,,136,916000000,"""map""",,,-1.86442768574,-1.87192296982,2.62892270088,,-0.0398544208343,0.0701602334282,0.0325323094286,-0.996208199513
