rosbagTimestamp,header,seq,stamp,secs,nsecs,frame_id,pose,position,x,y,z,orientation,x,y,z,w
98228000000,,58,,98,172000000,"""map""",,,0.0449047796428,0.012806840241,0.0415294058621,,0.0106138217627,-0.0179954827141,0.0521162219108,-0.998422468493
98228000000,,59,,98,172000000,"""map""",,,0.0458215437829,0.0129379713908,0.0408155657351,,0.0105966630563,-0.0178966216833,0.0520812400265,-0.998426261709
98244000000,,60,,98,244000000,"""map""",,,0.0468314997852,0.0131199583411,0.0402791276574,,0.0105496031365,-0.0178712338047,0.0520494613028,-0.998428874814
98276000000,,61,,98,276000000,"""map""",,,0.0480933189392,0.0133322784677,0.0399047583342,,0.0105466337593,-0.0177460767624,0.0520413691079,-0.998431572212
98312000000,,62,,98,312000000,"""map""",,,0.0495724193752,0.0135998530313,0.0397903285921,,0.0105743624343,-0.0177265719912,0.052045499499,-0.998431403625
98344000000,,63,,98,344000000,"""map""",,,0.0503468327224,0.0136483106762,0.0398014076054,,0.0104207901843,-0.0176806711097,0.051991256505,-0.998436671981
98376000000,,64,,98,376000000,"""map""",,,0.0504857338965,0.0135115925223,0.0396888181567,,0.0103150595465,-0.0175180290555,0.0519856509741,-0.998440928812
98412000000,,65,,98,412000000,"""map""",,,0.0510305687785,0.0134181668982,0.0398808307946,,0.0102185017751,-0.017383045212,0.0520080730975,-0.998443120449
98444000000,,66,,98,444000000,"""map""",,,0.05175434798,0.0134039139375,0.0399877876043,,0.0102190674648,-0.0173550340214,0.05201018044,-0.998443457623
98476000000,,67,,98,476000000,"""map""",,,0.0527017191052,0.0134715484455,0.0401290431619,,0.0102050872235,-0.0172532895534,0.0520015824829,-0.998445817847
98512000000,,68,,98,512000000,"""map""",,,0.0538724251091,0.0135928746313,0.0404041111469,,0.0101999298322,-0.0172684884314,0.0519986743503,-0.9984457757
98544000000,,69,,98,544000000,"""map""",,,0.0542617551982,0.0137470532209,0.0405875258148,,0.0101166404155,-0.0171904397119,0.0519283312602,-0.998451634112
98576000000,,70,,98,576000000,"""map""",,,0.0539248101413,0.0139174479991,0.0406567379832,,0.0102061362849,-0.0170403076985,0.0518698314344,-0.998456354559
98612000000,,71,,98,612000000,"""map""",,,0.0538695268333,0.0141881089658,0.0409039929509,,0.0102176397403,-0.0169699461691,0.0518070326301,-0.998460653538
98644000000,,72,,98,644000000,"""map""",,,0.054104346782,0.0144738275558,0.0411467328668,,0.0101721721812,-0.0167582415612,0.0516979144393,-0.99847038946
98676000000,,73,,98,676000000,"""map""",,,0.0545857213438,0.0148121165112,0.0414299741387,,0.010096646675,-0.0166395412185,0.0515571018185,-0.998480378263
98712000000,,74,,98,712000000,"""map""",,,0.0553123503923,0.0152170052752,0.0418349914253,,0.01015554953,-0.0165940436955,0.0515200125918,-0.998482485605
98744000000,,75,,98,744000000,"""map""",,,0.0552687570453,0.0153842847794,0.0422967933118,,0.0101594049788,-0.0164126025005,0.0514458762852,-0.998489271248
98776000000,,76,,98,776000000,"""map""",,,0.0544826500118,0.0153284193948,0.0426737144589,,0.010121811307,-0.0162583463521,0.0514521983125,-0.998491884352
98812000000,,77,,98,812000000,"""map""",,,0.0538611114025,0.0153528759256,0.0428312905133,,0.0101334517397,-0.0162088132684,0.0514181015121,-0.998494286723
98844000000,,78,,98,844000000,"""map""",,,0.0536537282169,0.0154289053753,0.0429962836206,,0.0100734438471,-0.0160139986807,0.0513653336577,-0.998500777337
98876000000,,79,,98,876000000,"""map""",,,0.0536912754178,0.0155348479748,0.0432165078819,,0.010015527821,-0.0158832021926,0.0512973086442,-0.998506930777
98912000000,,80,,98,912000000,"""map""",,,0.0539420694113,0.0156889650971,0.043441105634,,0.00996682614976,-0.0157761580877,0.051298488756,-0.99850903812
98944000000,,81,,98,944000000,"""map""",,,0.0534624680877,0.0158189050853,0.0431523770094,,0.00991635892066,-0.0156739957733,0.051246732426,-0.998513758567
98976000000,,82,,98,976000000,"""map""",,,0.0523260012269,0.0159162841737,0.0424856841564,,0.00986754134556,-0.0154869490474,0.0511530821286,-0.998522019349
99012000000,,83,,99,12000000,"""map""",,,0.0513079985976,0.0161660145968,0.0418507494032,,0.00986444882055,-0.0154335568929,0.0510797044654,-0.998526613355
99044000000,,84,,99,44000000,"""map""",,,0.0507510378957,0.016446325928,0.0415137559175,,0.00979822690192,-0.015290332682,0.0510209939054,-0.998532471767
99076000000,,85,,99,76000000,"""map""",,,0.0504401363432,0.0167944449931,0.0413637310266,,0.00984348191587,-0.0151750401425,0.0509524209829,-0.998537318655
99112000000,,86,,99,112000000,"""map""",,,0.0503476262093,0.0172225758433,0.0412261858582,,0.0099099982039,-0.0150935485524,0.0509079139109,-0.998540100347
99144000000,,87,,99,144000000,"""map""",,,0.0495611391962,0.0174694061279,0.04100869596,,0.00999510289848,-0.0149871570651,0.0507995965102,-0.998546422374
99176000000,,88,,99,176000000,"""map""",,,0.0481313467026,0.0175764057785,0.0406919978559,,0.00991885085308,-0.0148184568953,0.0506672554059,-0.998556369031
99212000000,,89,,99,212000000,"""map""",,,0.0466969646513,0.0177509747446,0.0404351949692,,0.00989051236582,-0.0147303172984,0.0506164684534,-0.998560541569
99244000000,,90,,99,244000000,"""map""",,,0.0458148047328,0.0179573278874,0.0404730401933,,0.00985951023065,-0.0146595532336,0.0504985415713,-0.99856787512
99276000000,,91,,99,276000000,"""map""",,,0.0451743528247,0.0181931424886,0.0407249517739,,0.00981991985192,-0.0144988644224,0.0504359113544,-0.998573775679
99312000000,,92,,99,312000000,"""map""",,,0.0447726324201,0.0184783823788,0.0411566868424,,0.00980476015734,-0.0144549342354,0.0504056499171,-0.998576051609
99344000000,,93,,99,344000000,"""map""",,,0.0437800697982,0.0184327252209,0.0408982001245,,0.00975778469586,-0.0143178017259,0.0502470513262,-0.998586546174
99376000000,,94,,99,376000000,"""map""",,,0.04227219522,0.018069896847,0.0401282608509,,0.00975177448941,-0.0142352930137,0.0501654550275,-0.998591856677
99412000000,,95,,99,412000000,"""map""",,,0.0407711304724,0.0177750810981,0.0392988882959,,0.00966111200845,-0.0141227312937,0.0501477533511,-0.998595228425
99444000000,,96,,99,444000000,"""map""",,,0.0398515351117,0.0176335629076,0.0387070402503,,0.00953211515778,-0.0140041470195,0.0499782808732,-0.998606650221
99476000000,,97,,99,476000000,"""map""",,,0.0391792617738,0.0175661835819,0.0383247472346,,0.00942781619569,-0.0138885606046,0.0498440853076,-0.998615922527
99512000000,,98,,99,512000000,"""map""",,,0.0387181863189,0.0175523906946,0.0380154550076,,0.00940712110526,-0.0138931081837,0.0497793898951,-0.998619336422
99544000000,,99,,99,544000000,"""map""",,,0.037764750421,0.0173544064164,0.0373920686543,,0.00935917412599,-0.0137226185838,0.0497070659031,-0.998625742743
99576000000,,100,,99,576000000,"""map""",,,0.0363614559174,0.0169780533761,0.0364042371511,,0.00933098216488,-0.0135857081684,0.0495981162997,-0.998633287029
99612000000,,101,,99,612000000,"""map""",,,0.0349863991141,0.0165476091206,0.0355552323163,,0.00930549105943,-0.0135430004046,0.049597189069,-0.998634129966
99644000000,,102,,99,644000000,"""map""",,,0.0341678485274,0.0162532906979,0.0351369902492,,0.0092210205432,-0.0133982500169,0.0495065733447,-0.998641379224
99676000000,,103,,99,676000000,"""map""",,,0.0335828326643,0.0160226281732,0.0348151102662,,0.00912261621301,-0.0133338015586,0.0494028078037,-0.998648291307
99712000000,,104,,99,712000000,"""map""",,,0.0332009159029,0.0158174280077,0.0344833135605,,0.00909734423824,-0.0132804960027,0.0493758338206,-0.998650567237
99744000000,,105,,99,744000000,"""map""",,,0.0323176644742,0.0153258852661,0.0341612622142,,0.00906334671338,-0.0132854912274,0.0492472859327,-0.998657142145
99776000000,,106,,99,776000000,"""map""",,,0.0309875421226,0.014554570429,0.033871255815,,0.0090045472499,-0.0132039337828,0.0491557429777,-0.998663295585
99812000000,,107,,99,812000000,"""map""",,,0.029680006206,0.0136873498559,0.0338329337537,,0.00901110750565,-0.0131435019521,0.0491032701513,-0.998666625186
99844000000,,108,,99,844000000,"""map""",,,0.0289102904499,0.0130834262818,0.0339299291372,,0.00914424890619,-0.0130507108907,0.0489858490314,-0.998672357158
99876000000,,109,,99,876000000,"""map""",,,0.0284075308591,0.0125056384131,0.0341209433973,,0.00913844367171,-0.0129845345762,0.0488652668978,-0.998679227094
99912000000,,110,,99,912000000,"""map""",,,0.0281140767038,0.0119473822415,0.0344020575285,,0.00905520759717,-0.0129797087621,0.048797326178,-0.998683357485
99944000000,,111,,99,944000000,"""map""",,,0.0273501202464,0.011291494593,0.0344730056822,,0.0090119234423,-0.0128974532603,0.0486402448736,-0.998692419058
99976000000,,112,,99,976000000,"""map""",,,0.0261606015265,0.0105500798672,0.0344407521188,,0.00889422309947,-0.0128354671,0.0485190305373,-0.998700174078
100012000000,,113,,100,12000000,"""map""",,,0.0250342898071,0.00972629711032,0.0344760976732,,0.0089195578006,-0.0128333974592,0.0484663048298,-0.998702576448
100044000000,,114,,100,44000000,"""map""",,,0.0244061294943,0.00912193022668,0.0344712436199,,0.00886147203473,-0.0127641944742,0.0483522554577,-0.998709488531
100076000000,,115,,100,76000000,"""map""",,,0.0240058712661,0.00855881813914,0.0345079042017,,0.0088087046743,-0.0127041373554,0.0482311254151,-0.998716569202
100112000000,,116,,100,112000000,"""map""",,,0.0237867645919,0.0080530596897,0.0347425341606,,0.00883005979097,-0.0126641098677,0.0481559775842,-0.998720573152
100144000000,,117,,100,144000000,"""map""",,,0.0232666060328,0.00752452248707,0.0349662303925,,0.00877250892787,-0.0126055092847,0.0480205176131,-0.998728328172
100176000000,,118,,100,176000000,"""map""",,,0.0224597007036,0.00694891856983,0.0350761413574,,0.00878220895921,-0.0125416005036,0.0479122845061,-0.998734228731
100212000000,,119,,100,212000000,"""map""",,,0.0217452868819,0.00625998619944,0.0351925715804,,0.00876598077617,-0.0124286420105,0.0478416885348,-0.998739159913
100244000000,,120,,100,244000000,"""map""",,,0.0214046612382,0.00572150200605,0.035309586674,,0.00881019578371,-0.0124735201724,0.0476731854345,-0.998746240583
100276000000,,121,,100,276000000,"""map""",,,0.021247562021,0.00522238435224,0.0357869826257,,0.00874722773349,-0.0124331573209,0.0474994561249,-0.998755597183
100312000000,,122,,100,312000000,"""map""",,,0.0212502013892,0.00479342648759,0.0362685956061,,0.00878525423365,-0.0123968575245,0.0473892842629,-0.998760907686
100344000000,,123,,100,344000000,"""map""",,,0.0208426192403,0.00424196431413,0.0367430746555,,0.00867647173591,-0.0123729419868,0.047275740653,-0.998767566888
100376000000,,124,,100,376000000,"""map""",,,0.0200755093247,0.00357166794129,0.0372118391097,,0.00863932093531,-0.0123609153177,0.0471572658619,-0.998773678181
100412000000,,125,,100,412000000,"""map""",,,0.0193738751113,0.0027574787382,0.0378970839083,,0.00861192548378,-0.012290682863,0.0471390162765,-0.998775659083
100444000000,,126,,100,444000000,"""map""",,,0.0190055035055,0.00212175725028,0.0385126136243,,0.00862756756221,-0.0122978409125,0.0469657927291,-0.998783582691
100476000000,,127,,100,476000000,"""map""",,,0.0188022889197,0.00150532275438,0.0390240363777,,0.00865521342529,-0.0120504374301,0.0468824684096,-0.99879028404
100512000000,,128,,100,512000000,"""map""",,,0.0187810696661,0.000946904357988,0.0397402979434,,0.00863361909233,-0.0120071690802,0.0468733646903,-0.998791379858
100544000000,,129,,100,544000000,"""map""",,,0.0184045750648,0.00062347156927,0.0400217734277,,0.00861924652308,-0.0119849120869,0.0467569972416,-0.99879723827
100576000000,,130,,100,576000000,"""map""",,,0.0177077110857,0.000541112676729,0.0399354845285,,0.00857968265076,-0.0119487499262,0.0465960384271,-0.998805541199
100612000000,,131,,100,612000000,"""map""",,,0.0171379316598,0.000442746211775,0.0399490520358,,0.00859121146019,-0.0119563096879,0.0465242623441,-0.998808702213
100644000000,,132,,100,644000000,"""map""",,,0.0168824959546,0.000373673567083,0.0401150546968,,0.00856913457874,-0.0119217385708,0.0463548741599,-0.998817173729
100676000000,,133,,100,676000000,"""map""",,,0.0167788937688,0.0002802319068,0.0403130762279,,0.00851903350039,-0.0119371080118,0.0462712126656,-0.998821261973
100712000000,,134,,100,712000000,"""map""",,,0.0168316867203,0.00015838854597,0.0405111759901,,0.0085051141744,-0.0119281218427,0.0462101418821,-0.998824338693
100744000000,,135,,100,744000000,"""map""",,,0.0162895005196,-5.57256498723e-06,0.0405338816345,,0.00857643273362,-0.0118869606707,0.0460937744334,-0.998829607049
100776000000,,136,,100,776000000,"""map""",,,0.0151914125308,-0.000189520782442,0.040632199496,,0.00860047833387,-0.0117214333683,0.0459222789068,-0.998839258678
100812000000,,137,,100,812000000,"""map""",,,0.0141236148775,-0.000412673398387,0.0408493243158,,0.00860007645709,-0.0116935270509,0.0458735571499,-0.998841787489
100844000000,,138,,100,844000000,"""map""",,,0.0134818097576,-0.00056511501316,0.0411307923496,,0.00855473863116,-0.0116430242604,0.0457121347201,-0.998850216858
100876000000,,139,,100,876000000,"""map""",,,0.0130376331508,-0.000723382516298,0.0415074899793,,0.00859986259476,-0.0116319325599,0.0455835868322,-0.998855780242
100912000000,,140,,100,912000000,"""map""",,,0.0127120865509,-0.00087528739823,0.0418865196407,,0.0085653624358,-0.01156453481,0.0455150560565,-0.998859994927
100944000000,,141,,100,944000000,"""map""",,,0.0121641922742,-0.000970490567852,0.042570464313,,0.0085919328957,-0.0115414796607,0.045403914817,-0.998865094696
100976000000,,142,,100,976000000,"""map""",,,0.0114181628451,-0.00105618149973,0.0435336753726,,0.0085318145322,-0.0114104212364,0.0452814360752,-0.998872681129
101012000000,,143,,101,12000000,"""map""",,,0.0107164504007,-0.00116856070235,0.0446683950722,,0.00854077732296,-0.0114194116861,0.0451906096167,-0.998876600786
101044000000,,144,,101,44000000,"""map""",,,0.0103158783168,-0.00125415262301,0.0456515811384,,0.00849749497908,-0.0114237042438,0.0451110363667,-0.998880562589
101076000000,,145,,101,76000000,"""map""",,,0.0100465286523,-0.00137827545404,0.0466307327151,,0.00846543802024,-0.0114079377005,0.0449995579524,-0.998885999533
101112000000,,146,,101,112000000,"""map""",,,0.00990282930434,-0.00153630354907,0.0476024076343,,0.00850583050619,-0.0114020661176,0.0449193524996,-0.998889329134
101144000000,,147,,101,144000000,"""map""",,,0.00984370987862,-0.00168122549076,0.0483180992305,,0.00848367575185,-0.0113977710903,0.0447791299346,-0.998895861895
101176000000,,148,,101,176000000,"""map""",,,0.0098641552031,-0.0017968203174,0.0486359931529,,0.00847749020792,-0.0113993692132,0.0446110061559,-0.998903406181
101212000000,,149,,101,212000000,"""map""",,,0.0100417686626,-0.00192374142352,0.0492605678737,,0.00848841793085,-0.0113974727697,0.0444897075259,-0.998908800978
101244000000,,150,,101,244000000,"""map""",,,0.0102922683582,-0.0020254557021,0.0498371720314,,0.00857186473964,-0.0114407035825,0.0443337641864,-0.998914532949
101276000000,,151,,101,276000000,"""map""",,,0.0106598380953,-0.00213741208427,0.0503719002008,,0.00855355423886,-0.011384319331,0.0442136035213,-0.998920644242
101312000000,,152,,101,312000000,"""map""",,,0.0111102033406,-0.0022576272022,0.0509028397501,,0.00860565251807,-0.0113688163701,0.0441441033681,-0.998923468081
101344000000,,153,,101,344000000,"""map""",,,0.0113096367568,-0.00241448823363,0.0510485842824,,0.00879520146612,-0.0113695841506,0.0439565077454,-0.998930085136
101376000000,,154,,101,376000000,"""map""",,,0.0113389985636,-0.00263256579638,0.0511616840959,,0.00877127613256,-0.0113257610594,0.0437931044137,-0.998937966597
101412000000,,155,,101,412000000,"""map""",,,0.0115652848035,-0.00291408714838,0.0514043346047,,0.00875894645069,-0.0112855863047,0.0436810780904,-0.998943445687
101444000000,,156,,101,444000000,"""map""",,,0.0118494797498,-0.00315269874409,0.0517503134906,,0.00873977827801,-0.0112881841805,0.0435647527885,-0.998948587603
101476000000,,157,,101,476000000,"""map""",,,0.0122429914773,-0.00340039026923,0.0521406233311,,0.00877489220045,-0.0112915924776,0.0434264689785,-0.998954277427
101512000000,,158,,101,512000000,"""map""",,,0.0127094285563,-0.00365117564797,0.052503913641,,0.00876189895267,-0.0112916163498,0.0433710880196,-0.998956806238
101544000000,,159,,101,544000000,"""map""",,,0.0127589255571,-0.00374058377929,0.0526276752353,,0.0087462903777,-0.0112987033589,0.0432830432531,-0.998960725895
101576000000,,160,,101,576000000,"""map""",,,0.0124751692638,-0.00368501245975,0.0523922555149,,0.00869353174298,-0.0112328963233,0.0431719020135,-0.998966668601
101612000000,,161,,101,612000000,"""map""",,,0.0123234018683,-0.00365049391985,0.0521110296249,,0.00870894752905,-0.011285317207,0.0431035398252,-0.998968944531
101644000000,,162,,101,644000000,"""map""",,,0.0123441684991,-0.00363943795674,0.0519203133881,,0.00871348819344,-0.0112467337428,0.042941695927,-0.998976278082
101676000000,,163,,101,676000000,"""map""",,,0.0124825704843,-0.00367474742234,0.0517773367465,,0.00871081820705,-0.0112882986849,0.0428264664431,-0.998980829942
101712000000,,164,,101,712000000,"""map""",,,0.0127326622605,-0.0037328733597,0.0516692586243,,0.00864459884027,-0.0112635625184,0.0427748787006,-0.998983864515
101744000000,,165,,101,744000000,"""map""",,,0.0124898636714,-0.00372575805523,0.0515455715358,,0.00866806722627,-0.0112648422351,0.0426021609154,-0.998991029479
101776000000,,166,,101,776000000,"""map""",,,0.0118016703054,-0.00362908095121,0.0513085983694,,0.00868124412565,-0.0112060374209,0.0424245962426,-0.998999163821
101812000000,,167,,101,812000000,"""map""",,,0.0111699318513,-0.00351061159745,0.0512840375304,,0.00866938159879,-0.0111377405931,0.0422890098309,-0.999005780876
101844000000,,168,,101,844000000,"""map""",,,0.0108330454677,-0.0034222532995,0.0513373762369,,0.00858393561351,-0.0110587308926,0.0421940951281,-0.99901134426
101876000000,,169,,101,876000000,"""map""",,,0.0106295580044,-0.00336397555657,0.0513914562762,,0.00862703759851,-0.0109858837693,0.0420503322278,-0.999017877022
101912000000,,170,,101,912000000,"""map""",,,0.0105474740267,-0.00332475244068,0.051395971328,,0.00860680324228,-0.0109353417131,0.0420021162331,-0.999020658714
101944000000,,171,,101,944000000,"""map""",,,0.0105562238023,-0.00331126851961,0.0513257682323,,0.00855507201932,-0.0109593640173,0.041853295711,-0.999027022888
101976000000,,172,,101,976000000,"""map""",,,0.010634502396,-0.00330449501052,0.0510725528002,,0.00857602048475,-0.0107517972092,0.0416903559947,-0.99903595802
102012000000,,173,,102,12000000,"""map""",,,0.0108768027276,-0.0032958900556,0.0510744079947,,0.0085968382291,-0.0107639383004,0.0416188327927,-0.999038613271
102044000000,,174,,102,44000000,"""map""",,,0.0104249538854,-0.00302228657529,0.0508871003985,,0.00862919013356,-0.0108069041313,0.041402577313,-0.999046831907
102076000000,,175,,102,76000000,"""map""",,,0.00986473727971,-0.00268253940158,0.0506620854139,,0.00859454542408,-0.0108788751435,0.0412283000944,-0.999053617549
102112000000,,176,,102,112000000,"""map""",,,0.00939423963428,-0.0023652901873,0.0504141449928,,0.00860402492532,-0.010821984389,0.0411557653682,-0.999057115738
102144000000,,177,,102,144000000,"""map""",,,0.0090198693797,-0.00206599594094,0.0503372848034,,0.00867409406097,-0.0108265915663,0.0409939214699,-0.99906310059
102176000000,,178,,102,176000000,"""map""",,,0.00875548738986,-0.00179024459794,0.0503849610686,,0.00873302671508,-0.0108761356807,0.040912367318,-0.999065418667
102212000000,,179,,102,212000000,"""map""",,,0.00864921417087,-0.00149743037764,0.0505043640733,,0.00873193122629,-0.0108948893819,0.0408037127425,-0.999069633352
102244000000,,180,,102,244000000,"""map""",,,0.00813945010304,-0.00126428576186,0.0507128201425,,0.00869254227986,-0.0108670343486,0.0406741954771,-0.999075576057
102276000000,,181,,102,276000000,"""map""",,,0.0075557725504,-0.00102320651058,0.0510622635484,,0.00873025539515,-0.0107991414556,0.040491994651,-0.999083373224
102312000000,,182,,102,312000000,"""map""",,,0.00709222164005,-0.000797499204054,0.0514720790088,,0.00872424411857,-0.010801613714,0.040417141848,-0.999086492091
102344000000,,183,,102,344000000,"""map""",,,0.00674290955067,-0.00057236768771,0.0518793538213,,0.00869397848311,-0.0107454822613,0.0403097938248,-0.999091676153
102376000000,,184,,102,376000000,"""map""",,,0.00649034278467,-0.000356300792191,0.0519849434495,,0.00867350054773,-0.0106511798402,0.0402686163539,-0.999094499992
102412000000,,185,,102,412000000,"""map""",,,0.00627950578928,-6.1699989601e-05,0.0521275028586,,0.00868918707791,-0.010623981952,0.0402421902798,-0.999095722251
102444000000,,186,,102,444000000,"""map""",,,0.00563833350316,0.000339498277754,0.0515050441027,,0.00868182562045,-0.0105867678488,0.0401328613548,-0.999100611285
102476000000,,187,,102,476000000,"""map""",,,0.00497962255031,0.000752372026909,0.0506157018244,,0.00871170444332,-0.010617480389,0.0400486519515,-0.999103392977
102512000000,,188,,102,512000000,"""map""",,,0.00443101860583,0.00115890894085,0.0497753880918,,0.00872272567957,-0.0106196353113,0.0400506328534,-0.999103182243
102544000000,,189,,102,544000000,"""map""",,,0.00399447139353,0.00155634677503,0.0489561706781,,0.00874896340985,-0.0106140047558,0.0400031333551,-0.999104910264
102576000000,,190,,102,576000000,"""map""",,,0.00367361400276,0.00191690400243,0.0482386797667,,0.00873195970834,-0.0105750953944,0.0399267632656,-0.999108534893
102612000000,,191,,102,612000000,"""map""",,,0.00339356227778,0.00239306571893,0.0475416667759,,0.00875107462123,-0.01061783625,0.0398632901117,-0.999110389354
102644000000,,192,,102,644000000,"""map""",,,0.00290281139314,0.00272264657542,0.0474352128804,,0.00876939919839,-0.0106202834837,0.0397476391594,-0.99911485692
102676000000,,193,,102,676000000,"""map""",,,0.00238469615579,0.00303093856201,0.0474797748029,,0.00875785540707,-0.0106284212829,0.039665410658,-0.999118102227
102712000000,,194,,102,712000000,"""map""",,,0.00193958415184,0.00330978003331,0.0475127547979,,0.00872324881086,-0.0105294012959,0.0396285321655,-0.999120926066
102744000000,,195,,102,744000000,"""map""",,,0.00159520132001,0.00357084395364,0.0475516207516,,0.00869905191,-0.0105534678049,0.03954689372,-0.999124171374
102776000000,,196,,102,776000000,"""map""",,,0.00128981145099,0.00380527204834,0.0476039387286,,0.00874972880321,-0.0104764807415,0.0394477643323,-0.999128386059
102812000000,,197,,102,812000000,"""map""",,,0.000998015864752,0.00411139801145,0.0477420315146,,0.00876796455918,-0.0104883892019,0.039396935233,-0.999130156226
102844000000,,198,,102,844000000,"""map""",,,0.000554106081836,0.00437908433378,0.0476772487164,,0.00879133589218,-0.0104510830671,0.0392973422299,-0.99913424447
102876000000,,199,,102,876000000,"""map""",,,0.000117284173029,0.00465359631926,0.0476328618824,,0.00879866508096,-0.0103199778038,0.0392004044783,-0.999139386386
102912000000,,200,,102,912000000,"""map""",,,-0.000254484359175,0.00493173254654,0.0476469099522,,0.00878724624846,-0.0102881908483,0.0391872125148,-0.99914027147
102944000000,,201,,102,944000000,"""map""",,,-0.000574030214921,0.00519873620942,0.0478193499148,,0.00897917587607,-0.0102844008011,0.03910422537,-0.999141915197
102976000000,,202,,102,976000000,"""map""",,,-0.000837264233269,0.00539239682257,0.0481728129089,,0.00897934660373,-0.0102654589208,0.039014916198,-0.999145581973
103008000000,,203,,103,8000000,"""map""",,,-0.00107807514723,0.00560936285183,0.048511274159,,0.00894639451828,-0.010268814699,0.0389982681929,-0.999146467057
103044000000,,204,,103,44000000,"""map""",,,-0.00137185549829,0.00545810302719,0.048307839781,,0.0088775171424,-0.0102683315331,0.0388768431223,-0.999151819706
103076000000,,205,,103,76000000,"""map""",,,-0.00164412404411,0.0052041541785,0.0479677543044,,0.00884934934163,-0.0101974621424,0.0388220943661,-0.99915498072
103112000000,,206,,103,112000000,"""map""",,,-0.00180998817086,0.00497247604653,0.0476461052895,,0.00882666067233,-0.0101988666532,0.0387847944052,-0.999156624447
103144000000,,207,,103,144000000,"""map""",,,-0.00193615839817,0.00476506864652,0.0473835021257,,0.0087474337756,-0.0101774099972,0.0387455556892,-0.999159026817
103176000000,,208,,103,176000000,"""map""",,,-0.00202221609652,0.00461055105552,0.0471664518118,,0.00874158219605,-0.0102188387853,0.0387284019219,-0.999159321845
103212000000,,209,,103,212000000,"""map""",,,-0.00207625562325,0.00447460217401,0.0469758324325,,0.00873579564778,-0.0102042670886,0.0386739903404,-0.999161639922
103244000000,,210,,103,244000000,"""map""",,,-0.00237240106799,0.00428498536348,0.0466275326908,,0.00865980636164,-0.0102468787049,0.0385561056052,-0.999166402516
103276000000,,211,,103,276000000,"""map""",,,-0.00271259294823,0.00410103099421,0.0462009236217,,0.00866412312089,-0.0102345672153,0.0384606429933,-0.999170153585
103312000000,,212,,103,312000000,"""map""",,,-0.00298886629753,0.00394256459549,0.0459445901215,,0.00864744070678,-0.0102788215709,0.0384117105022,-0.999171713019
103344000000,,213,,103,344000000,"""map""",,,-0.00320872943848,0.00380540289916,0.045692294836,,0.00863463934241,-0.0102757967937,0.0383037724231,-0.999176054144
103376000000,,214,,103,376000000,"""map""",,,-0.00336511479691,0.00371341733262,0.045463077724,,0.00865623005337,-0.0103168231287,0.0381835274643,-0.999180058095
103412000000,,215,,103,412000000,"""map""",,,-0.00348391290754,0.00366799649782,0.0452263429761,,0.00864922643253,-0.0103528106104,0.0381484191395,-0.999181027472
103444000000,,216,,103,444000000,"""map""",,,-0.00359466555528,0.00349126523361,0.0446990020573,,0.0086412726966,-0.0103335822632,0.0380760530006,-0.999184104192
103476000000,,217,,103,476000000,"""map""",,,-0.00368571281433,0.00327279465273,0.0439746752381,,0.00861180521709,-0.0101301238674,0.0380263197194,-0.999188318877
103512000000,,218,,103,512000000,"""map""",,,-0.00371952843852,0.00306135881692,0.0432002693415,,0.00860397759243,-0.0101274727318,0.0379256308983,-0.999192238534
103544000000,,219,,103,544000000,"""map""",,,-0.00367646454833,0.00282187829725,0.0424528904259,,0.008600705861,-0.0102202064176,0.03781942084,-0.999195357401
103576000000,,220,,103,576000000,"""map""",,,-0.00359412445687,0.00257560075261,0.0418408252299,,0.00865844852518,-0.0102860607037,0.0377664422515,-0.999196158191
103612000000,,221,,103,612000000,"""map""",,,-0.0034305723384,0.00229092431255,0.041250821203,,0.00870252754328,-0.0102523484933,0.0377408591144,-0.999197043275
103644000000,,222,,103,644000000,"""map""",,,-0.00365364691243,0.00198654294945,0.0407734550536,,0.00873680536115,-0.010256105572,0.0376469137891,-0.999200288582
103676000000,,223,,103,676000000,"""map""",,,-0.00390995712951,0.00164422206581,0.0403677113354,,0.00874201642384,-0.0102889201863,0.0375243929005,-0.999204545414
103712000000,,224,,103,712000000,"""map""",,,-0.00406859396026,0.00131275423337,0.0399669408798,,0.0087095711707,-0.0102822202368,0.0374216388838,-0.999208760099
103744000000,,225,,103,744000000,"""map""",,,-0.00417698686942,0.000991443172097,0.0394160188735,,0.00872200893619,-0.0103040570788,0.037290267157,-0.999213269811
103776000000,,226,,103,776000000,"""map""",,,-0.00426653027534,0.00063178059645,0.0388433746994,,0.00871350268142,-0.0103082182569,0.0371661446881,-0.999217948112
103808000000,,227,,103,808000000,"""map""",,,-0.00434817792848,0.000165296471096,0.0381683073938,,0.00868600359144,-0.0103523890596,0.0371183923088,-0.999219507545
103844000000,,228,,103,844000000,"""map""",,,-0.0048606460914,-0.000127777908347,0.0376070961356,,0.00869003215515,-0.0103056736409,0.0370026149159,-0.999224270139
103876000000,,229,,103,876000000,"""map""",,,-0.00545212766156,-0.00037758302642,0.0368957221508,,0.00867432545704,-0.0103505314702,0.0369939326651,-0.999224270139
103912000000,,230,,103,912000000,"""map""",,,-0.00599260348827,-0.0006264243857,0.0361856371164,,0.00865593790657,-0.0102879970715,0.0369361493358,-0.999227178271
103944000000,,231,,103,944000000,"""map""",,,-0.00648089591414,-0.000887914968189,0.0354467183352,,0.0086236543261,-0.010297628038,0.0368551009461,-0.999230423579
103976000000,,232,,103,976000000,"""map""",,,-0.00690575595945,-0.00115249387454,0.034629099071,,0.00856217409256,-0.0102803068357,0.0367835777442,-0.999233668886
104012000000,,233,,104,12000000,"""map""",,,-0.00740827200934,-0.00147879810538,0.0337238423526,,0.00856400838597,-0.0102175268823,0.0367854743524,-0.999234301089
104044000000,,234,,104,44000000,"""map""",,,-0.00781553518027,-0.00166488462128,0.0334952436388,,0.00853310001108,-0.0102423002565,0.0367024450608,-0.999237335662
104076000000,,235,,104,76000000,"""map""",,,-0.00817465409636,-0.00181540590711,0.0333718918264,,0.00855134959649,-0.0101863068512,0.0366000282189,-0.999241466053
104112000000,,236,,104,112000000,"""map""",,,-0.00847874302417,-0.0019599981606,0.0332792289555,,0.00855268677111,-0.010215810633,0.0365937904853,-0.999241381759
104144000000,,237,,104,144000000,"""map""",,,-0.00872086081654,-0.00211178278551,0.0331732295454,,0.00859652023442,-0.0101500502717,0.0365465438682,-0.999243446955
104176000000,,238,,104,176000000,"""map""",,,-0.00891544856131,-0.00224410160445,0.0331596694887,,0.00862166576864,-0.0101295040123,0.0364568975214,-0.999246692262
104212000000,,239,,104,212000000,"""map""",,,-0.00910288840532,-0.00242998357862,0.0331199169159,,0.00855387890131,-0.0101090208909,0.0364623766117,-0.999247282318
104244000000,,240,,104,244000000,"""map""",,,-0.00933302659541,-0.00250355526805,0.032932177186,,0.00856693429922,-0.0101417435559,0.0364217470497,-0.999248378136
104276000000,,241,,104,276000000,"""map""",,,-0.00956582278013,-0.00258132372983,0.0328028276563,,0.00853952189017,-0.0101049926565,0.0363675462025,-0.999250906947
104312000000,,242,,104,312000000,"""map""",,,-0.00977612473071,-0.00271438830532,0.0327499061823,,0.00859148417994,-0.0100886260145,0.0363306255632,-0.999252002765
104344000000,,243,,104,344000000,"""map""",,,-0.00995122361928,-0.00288254464976,0.0327306874096,,0.00855590516044,-0.0100438507502,0.0362848119389,-0.999254405136
104376000000,,244,,104,376000000,"""map""",,,-0.010089292191,-0.00305261509493,0.032700125128,,0.00859637074482,-0.010077279128,0.036196598585,-0.9992568918
104412000000,,245,,104,408000000,"""map""",,,-0.0102209886536,-0.0032431227155,0.0325843580067,,0.00867667028708,-0.0100588182321,0.0361317345851,-0.999258788408
104444000000,,246,,104,444000000,"""map""",,,-0.01015262492,-0.00329399947077,0.0325037352741,,0.00882232662629,-0.0101066751965,0.0360530464189,-0.999259842079
104476000000,,247,,104,476000000,"""map""",,,-0.00998970866203,-0.00333185098134,0.0325517430902,,0.00881347591158,-0.010021344827,0.0360169687166,-0.999262118009
104512000000,,248,,104,512000000,"""map""",,,-0.00980689562857,-0.00341774756089,0.0326284095645,,0.00883748681477,-0.0100730349321,0.0359355410053,-0.999264309645
104544000000,,249,,104,544000000,"""map""",,,-0.00961128994823,-0.0035361207556,0.0326167158782,,0.00887992255853,-0.0100796159731,0.035885554843,-0.999265658344
104576000000,,250,,104,576000000,"""map""",,,-0.00938445050269,-0.00367340934463,0.0326376594603,,0.00886051496377,-0.0101014694022,0.0358236832694,-0.999267765687
104612000000,,251,,104,612000000,"""map""",,,-0.00906241033226,-0.00383187900297,0.0327879190445,,0.00884353147134,-0.0101549586509,0.0357997438594,-0.999268271449
104644000000,,252,,104,644000000,"""map""",,,-0.00863240286708,-0.0040170988068,0.0327317044139,,0.0088305192904,-0.0101808585478,0.035743098495,-0.99927012591
104676000000,,253,,104,676000000,"""map""",,,-0.00814000330865,-0.00420597335324,0.0326464660466,,0.00878729102949,-0.0101894355138,0.035697200577,-0.999272106812
104712000000,,254,,104,712000000,"""map""",,,-0.00763959344476,-0.00438134046271,0.0326006226242,,0.00871082973158,-0.0101708675222,0.0356679506641,-0.999274045567
104744000000,,255,,104,744000000,"""map""",,,-0.00713521800935,-0.00455622840673,0.0325298421085,,0.00870884734797,-0.0102009934639,0.0355537748515,-0.999277796636
104776000000,,256,,104,776000000,"""map""",,,-0.00661786040291,-0.00474043283612,0.0324089862406,,0.00864477615338,-0.0102255743785,0.0354874357119,-0.999280409741
104812000000,,257,,104,812000000,"""map""",,,-0.00601270468906,-0.00496337469667,0.0319843515754,,0.0086736480617,-0.0102202414851,0.0354742858952,-0.999280746916
104844000000,,258,,104,844000000,"""map""",,,-0.00562424771488,-0.00501760002226,0.0318582616746,,0.0086967865169,-0.0101903924613,0.0354033527492,-0.999283317874
104876000000,,259,,104,876000000,"""map""",,,-0.00527122430503,-0.005039927084,0.0317510776222,,0.00876292768151,-0.0102211100229,0.0352994186207,-0.999286099566
104912000000,,260,,104,912000000,"""map""",,,-0.00491950241849,-0.00505918310955,0.0315075069666,,0.00876813627466,-0.0101840028509,0.0352813376227,-0.999287068943
104944000000,,261,,104,944000000,"""map""",,,-0.00454051606357,-0.0050857285969,0.0313067026436,,0.00871666171942,-0.0102188675966,0.0351937143247,-0.999290314251
104976000000,,262,,104,976000000,"""map""",,,-0.00418087793514,-0.00508431065828,0.0313699990511,,0.00876245229469,-0.0101780371785,0.0351484486094,-0.999291915831
105012000000,,263,,105,12000000,"""map""",,,-0.00371996406466,-0.00509427534416,0.0314130708575,,0.00878897632721,-0.0102085852473,0.035130746933,-0.999292000124
105044000000,,264,,105,44000000,"""map""",,,-0.00346200750209,-0.00500163855031,0.0306458696723,,0.00878342043415,-0.0102260081124,0.0351065967888,-0.999292716621
105076000000,,265,,105,76000000,"""map""",,,-0.00321685080417,-0.00489334622398,0.0296956729144,,0.00878682132262,-0.0101735930732,0.0351322220727,-0.999292295152
105112000000,,266,,105,112000000,"""map""",,,-0.00297299795784,-0.00481017166749,0.0288998931646,,0.00874869925119,-0.0101828037237,0.0351441496308,-0.999292084418
105144000000,,267,,105,144000000,"""map""",,,-0.00269895303063,-0.0047088204883,0.0281740240753,,0.00895784529019,-0.0101680508038,0.0351533797906,-0.999290103516
105176000000,,268,,105,176000000,"""map""",,,-0.00236238562502,-0.00460849096999,0.027603905648,,0.00895202470339,-0.0101717811703,0.0351437703092,-0.999290440691
105212000000,,269,,105,212000000,"""map""",,,-0.0019371684175,-0.00449158903211,0.0270202234387,,0.0088779787821,-0.0101695992478,0.0351031407472,-0.999292548033
105244000000,,270,,105,244000000,"""map""",,,-0.00197509839199,-0.00406681885943,0.0263596195728,,0.00888450973262,-0.0101786902901,0.0350947956712,-0.999292716621
105276000000,,271,,105,276000000,"""map""",,,-0.00210142461583,-0.00355068710633,0.0257711000741,,0.00880772389574,-0.0101664698854,0.0350436293971,-0.999295329725
105312000000,,272,,105,312000000,"""map""",,,-0.0021768764127,-0.00308041390963,0.025232071057,,0.00880501880069,-0.010171817061,0.0350421964043,-0.999295329725
105344000000,,273,,105,344000000,"""map""",,,-0.00219860486686,-0.00265807542019,0.0246973112226,,0.00888672347114,-0.0101624653586,0.0349885434661,-0.999296551984
105376000000,,274,,105,376000000,"""map""",,,-0.00217814045027,-0.00227696634829,0.0243108794093,,0.00885302986457,-0.0100746693572,0.0349252810465,-0.999299965879
105412000000,,275,,105,412000000,"""map""",,,-0.00211295485497,-0.0018285990227,0.0239569470286,,0.00886843136845,-0.0100839619553,0.0348927858263,-0.999300850963
105444000000,,276,,105,444000000,"""map""",,,-0.00212273583747,-0.00149806216359,0.023742377758,,0.00884761823392,-0.0100759650847,0.034873946185,-0.99930182034
105476000000,,277,,105,476000000,"""map""",,,-0.00215935264714,-0.00118389679119,0.0234990250319,,0.00882222381103,-0.00999375070081,0.0348144769818,-0.99930489706
105512000000,,278,,105,512000000,"""map""",,,-0.00216471287422,-0.000917158671655,0.0232567768544,,0.0088254022761,-0.0100431293558,0.0347887674042,-0.999305318529
105544000000,,279,,105,544000000,"""map""",,,-0.00211918936111,-0.00065038917819,0.0229207780212,,0.00886254760255,-0.0100271246252,0.0346932626454,-0.999308437395
105576000000,,280,,105,576000000,"""map""",,,-0.00203121476807,-0.000420201686211,0.0224946048111,,0.00885844157754,-0.00999488953006,0.0346578592927,-0.999310038976
105612000000,,281,,105,612000000,"""map""",,,-0.00184115162119,-0.000161454052432,0.0218371804804,,0.00885945182598,-0.00996732940124,0.034631053897,-0.999311219087
105640000000,,282,,105,640000000,"""map""",,,-0.00201755343005,0.000114272450446,0.0207981932908,,0.00885363790695,-0.00986260399043,0.0346029419491,-0.999313284283
105676000000,,283,,105,676000000,"""map""",,,-0.00222685188055,0.000416302966187,0.0196987465024,,0.00883456925681,-0.00986942766398,0.0345503426821,-0.999315223038
105712000000,,284,,105,712000000,"""map""",,,-0.00236078887247,0.000746091303881,0.0185991413891,,0.00883894923633,-0.00964607109885,0.0345046976452,-0.999318889814
105744000000,,285,,105,744000000,"""map""",,,-0.00241598626599,0.00105239113327,0.0176445040852,,0.00884224891475,-0.00971620571851,0.0345000614919,-0.999318384052
105776000000,,286,,105,776000000,"""map""",,,-0.00246157939546,0.00130067730788,0.0168069340289,,0.0088408259647,-0.00970651507144,0.0344651639013,-0.999319732751
105812000000,,287,,105,812000000,"""map""",,,-0.00249028205872,0.00156770565081,0.0158505998552,,0.00879982588913,-0.00972445686961,0.0344030815934,-0.999322050827
105844000000,,288,,105,844000000,"""map""",,,-0.00251701613888,0.00172319088597,0.0151514075696,,0.0088294389893,-0.00969587373306,0.0343780042186,-0.999322851618
105876000000,,289,,105,876000000,"""map""",,,-0.00251523079351,0.00188191921916,0.014532212168,,0.00888714391065,-0.00975437557558,0.0342985152623,-0.999324537491
105912000000,,290,,105,912000000,"""map""",,,-0.00248610065319,0.00203405506909,0.0140354232863,,0.00888170939557,-0.00977791874754,0.0342870934663,-0.999324748226
105944000000,,291,,105,944000000,"""map""",,,-0.00241216388531,0.00213784631342,0.0136229051277,,0.00882576192372,-0.00982614149232,0.0341843815965,-0.999328246414
105976000000,,292,,105,976000000,"""map""",,,-0.0023252479732,0.00223714788444,0.0132068907842,,0.00882303382078,-0.00987890185571,0.0340777500698,-0.999331449575
106012000000,,293,,106,12000000,"""map""",,,-0.00218609254807,0.00232943962328,0.0127637227997,,0.0087819345931,-0.00987575611207,0.0340625350575,-0.999332334658
106044000000,,294,,106,44000000,"""map""",,,-0.00217024493031,0.00217869109474,0.0129994098097,,0.00877238899046,-0.00990734451648,0.0340111580491,-0.999333894092
106076000000,,295,,106,76000000,"""map""",,,-0.00218358053826,0.00199629948474,0.0133305294439,,0.00875595735832,-0.0099186697945,0.0339140517102,-0.999337181546
106112000000,,296,,106,112000000,"""map""",,,-0.00215487391688,0.0018380448455,0.0135817918926,,0.00875016986339,-0.00993497951358,0.0338977830266,-0.999337603015
106144000000,,297,,106,144000000,"""map""",,,-0.00209364201874,0.00169481383637,0.0137364724651,,0.0087237122204,-0.0099216966297,0.0338765831618,-0.999338740979
106176000000,,298,,106,176000000,"""map""",,,-0.0020044031553,0.00156997668091,0.0137971406803,,0.00875348221879,-0.00985451471781,0.0338675215894,-0.999339457476
106212000000,,299,,106,212000000,"""map""",,,-0.00186703610234,0.0014470636379,0.0139793865383,,0.00869783631916,-0.00981431473266,0.0338596401287,-0.999340595441
106244000000,,300,,106,244000000,"""map""",,,-0.00172206899151,0.00177683727816,0.014299579896,,0.00870327223364,-0.0097824711834,0.0338287464888,-0.999341901993
106276000000,,301,,106,276000000,"""map""",,,-0.00155190669466,0.00222196569666,0.0146635379642,,0.00864446062824,-0.0097070687839,0.0337430619458,-0.999345990237
106312000000,,302,,106,312000000,"""map""",,,-0.00133310374804,0.00265881395899,0.0149521250278,,0.00865971214862,-0.00974059170396,0.0337166780186,-0.999346496
106344000000,,303,,106,344000000,"""map""",,,-0.00108382001054,0.00307406438515,0.0151810739189,,0.00860815255882,-0.00970295275725,0.0336604119758,-0.999349151251
106376000000,,304,,106,376000000,"""map""",,,-0.000795765663497,0.00344818155281,0.015448814258,,0.00866241115212,-0.00971796909491,0.0336337751676,-0.999349488426
106412000000,,305,,106,412000000,"""map""",,,-0.000425338075729,0.00386074883863,0.0157610494643,,0.00862727673249,-0.00965236069281,0.033614724792,-0.999351005712
106444000000,,306,,106,444000000,"""map""",,,-0.00028157417546,0.00407607341185,0.0158279649913,,0.00857191705276,-0.00968692090279,0.0336148933794,-0.9993511743
106476000000,,307,,106,476000000,"""map""",,,-0.000159959949087,0.00424859533086,0.0157735217363,,0.00858659045338,-0.00961314444967,0.0335957165634,-0.999352396558
106512000000,,308,,106,512000000,"""map""",,,1.20255717775e-05,0.0043913773261,0.0157050788403,,0.00856593989702,-0.00960627047978,0.0336115216316,-0.99935210153
106544000000,,309,,106,544000000,"""map""",,,0.000239091663389,0.00452222954482,0.0156210549176,,0.00858702241742,-0.00951681391729,0.0335863178161,-0.999353618817
106576000000,,310,,106,576000000,"""map""",,,0.000538805266842,0.00462717516348,0.0157130677253,,0.00859772689376,-0.00948210154237,0.0335873714874,-0.999353829551
106612000000,,311,,106,612000000,"""map""",,,0.000923121871892,0.00479152891785,0.0157545376569,,0.00855706815004,-0.00942992658389,0.0335672674406,-0.999355388985
106644000000,,312,,106,644000000,"""map""",,,0.00108519743662,0.00504842679948,0.0158151239157,,0.00874986631553,-0.00943025581498,0.033522381047,-0.99935517825
106676000000,,313,,106,676000000,"""map""",,,0.001159040723,0.00530829373747,0.0159900505096,,0.00875985692963,-0.00946332215791,0.0334889585961,-0.99935597904
106712000000,,314,,106,712000000,"""map""",,,0.00119909073692,0.00555536104366,0.0161024201661,,0.00872227247747,-0.00944755001694,0.0335088519086,-0.999355726159
106744000000,,315,,106,744000000,"""map""",,,0.00126724562142,0.00578295206651,0.016238970682,,0.00876229525241,-0.00940747455844,0.0334543560335,-0.999357538474
106776000000,,316,,106,776000000,"""map""",,,0.00136998936068,0.00598646933213,0.0163184981793,,0.00868327326591,-0.00939049392656,0.0334550725299,-0.999358423558
106812000000,,317,,106,812000000,"""map""",,,0.00150897074491,0.00622260244563,0.0164628494531,,0.00868327738181,-0.0094069125936,0.0334333669029,-0.999358971467
106844000000,,318,,106,844000000,"""map""",,,0.00149687915109,0.00632640952244,0.016733828932,,0.00861919058795,-0.00936464181525,0.0334059293045,-0.999360868075
106876000000,,319,,106,876000000,"""map""",,,0.001523375744,0.0064089843072,0.0170234963298,,0.00860659600656,-0.00939527129654,0.0333673649381,-0.99936200604
106912000000,,320,,106,912000000,"""map""",,,0.00160863972269,0.00650882907212,0.0172833874822,,0.00859353711012,-0.00940180138272,0.0333606214424,-0.999362258921
106944000000,,321,,106,944000000,"""map""",,,0.00176656071562,0.00667390553281,0.0177012812346,,0.00858086823667,-0.00935586374623,0.0333461229265,-0.999363270445
106976000000,,322,,106,976000000,"""map""",,,0.00188657885883,0.00678087538108,0.0178780201823,,0.00865719436833,-0.00932245627725,0.0333787867341,-0.999361795306
107012000000,,323,,107,12000000,"""map""",,,0.00207686051726,0.00692964205518,0.0181706193835,,0.00865121846793,-0.00929433406011,0.0334017146197,-0.999361373837
107044000000,,324,,107,44000000,"""map""",,,0.00223066750914,0.00704482756555,0.0183272585273,,0.00869442421485,-0.00928828471142,0.0333865417542,-0.999361626718
107076000000,,325,,107,76000000,"""map""",,,0.00241332757287,0.00714901275933,0.0182770937681,,0.00868786815732,-0.00918880588354,0.0332966425263,-0.999365546375
107112000000,,326,,107,112000000,"""map""",,,0.00262409099378,0.00725111365318,0.0181114599109,,0.00868177851393,-0.00919074011108,0.0333211719922,-0.999364787732
107144000000,,327,,107,144000000,"""map""",,,0.00245141866617,0.0072545260191,0.0176094006747,,0.00872949828505,-0.00891787582648,0.0332968111137,-0.999367569424
107176000000,,328,,107,176000000,"""map""",,,0.00200384762138,0.00719046778977,0.0172118265182,,0.00877689210237,-0.00894916622407,0.0332504495804,-0.999368496654
107212000000,,329,,107,212000000,"""map""",,,0.00152730138507,0.00710785994306,0.0166607834399,,0.00875306488679,-0.00895648109466,0.0332101150463,-0.999369971794
107244000000,,330,,107,244000000,"""map""",,,0.0012285548728,0.00703611131757,0.0162624120712,,0.00877967986018,-0.00896055297825,0.0332197666747,-0.999369339591
107276000000,,331,,107,276000000,"""map""",,,0.000986973755062,0.00698723830283,0.0159020181745,,0.00880501377929,-0.00900987693292,0.0331633320445,-0.99937056185
107312000000,,332,,107,312000000,"""map""",,,0.00079300289508,0.00693332217634,0.015591324307,,0.00883078364457,-0.00901156178817,0.0331339556911,-0.999371278346
107344000000,,333,,107,344000000,"""map""",,,0.000874487741385,0.00686370721087,0.0153426779434,,0.00886602369886,-0.00906614720477,0.0330674058173,-0.999372669192
107376000000,,334,,107,376000000,"""map""",,,0.00119771785103,0.00676647434011,0.0149459773675,,0.00885406093947,-0.00908417647617,0.0330910923461,-0.999371910549
107412000000,,335,,107,412000000,"""map""",,,0.00158726493828,0.0066980146803,0.0144615806639,,0.00883163945403,-0.00905168325218,0.0330618002864,-0.999373301395
107444000000,,336,,107,444000000,"""map""",,,0.00189297681209,0.00668124807999,0.0140071092173,,0.00875845127667,-0.0090344769762,0.0330620953144,-0.999374102185
107476000000,,337,,107,476000000,"""map""",,,0.00219779694453,0.00669372454286,0.0135642113164,,0.00868937902306,-0.00903678993886,0.0330167453054,-0.999376209528
107512000000,,338,,107,512000000,"""map""",,,0.00252178986557,0.0067469663918,0.0130404122174,,0.00872511322239,-0.00905024638009,0.0330243317381,-0.999375535178
107544000000,,339,,107,544000000,"""map""",,,0.00263346335851,0.00675870990381,0.0126691609621,,0.0087971898075,-0.00900392151943,0.0329780123516,-0.99937684173
107576000000,,340,,107,576000000,"""map""",,,0.00256040529348,0.00670981220901,0.0124888215214,,0.00872751431683,-0.00900474881597,0.0329555480813,-0.999378148283
107612000000,,341,,107,612000000,"""map""",,,0.00252172187902,0.00668056076393,0.0120040401816,,0.00877429115511,-0.0090112337404,0.0329538622074,-0.999377726814
107644000000,,342,,107,644000000,"""map""",,,0.0025288395118,0.00665319943801,0.0116049302742,,0.00870005670487,-0.00904992654355,0.0328867222777,-0.999380297772
107676000000,,343,,107,676000000,"""map""",,,0.00257338932715,0.00663705682382,0.0111597310752,,0.0087149689925,-0.00905178343326,0.0328253143194,-0.999382110087
107712000000,,344,,107,712000000,"""map""",,,0.00263614114374,0.00663829082623,0.0106563847512,,0.00871359418823,-0.00901937885554,0.0328020914059,-0.999383248051
107744000000,,345,,107,744000000,"""map""",,,0.00267209601589,0.00661294721067,0.00994554720819,,0.00878506788613,-0.00910697394937,0.0327498714606,-0.999383543079
107776000000,,346,,107,776000000,"""map""",,,0.00266806874424,0.00654430547729,0.00919157266617,,0.00878704916873,-0.00903399103209,0.0326694552736,-0.999386830534
107812000000,,347,,107,812000000,"""map""",,,0.00273177586496,0.00647798273712,0.00819519720972,,0.0087954783738,-0.0090740688984,0.0326441671645,-0.999387167708
107844000000,,348,,107,844000000,"""map""",,,0.00280668376945,0.00647406000644,0.00734293693677,,0.0088308376658,-0.00904438362587,0.0325796403395,-0.999389232904
107876000000,,349,,107,876000000,"""map""",,,0.00289460318163,0.00649596611038,0.00649636564776,,0.00886434668441,-0.00906435764094,0.0325471451193,-0.999389780813
107912000000,,350,,107,912000000,"""map""",,,0.00302484957501,0.00651083653793,0.0057099708356,,0.00884386929438,-0.0090120223989,0.032549716077,-0.999390413016
107944000000,,351,,107,944000000,"""map""",,,0.00311135873199,0.00648431526497,0.00513674644753,,0.00891978744742,-0.00903628203641,0.032523290003,-0.999390370869
107976000000,,352,,107,976000000,"""map""",,,0.0031520370394,0.0063786348328,0.00475310301408,,0.00890984306521,-0.00902346448625,0.0325215198354,-0.99939062375
108012000000,,353,,108,12000000,"""map""",,,0.00322771351784,0.00628952868283,0.00426414655522,,0.00894318430159,-0.00896897606862,0.0325326044565,-0.999390497309
108044000000,,354,,108,44000000,"""map""",,,0.00330854696222,0.00623848009855,0.00396231701598,,0.00893496506933,-0.00898287722291,0.0324714493793,-0.999392393918
108076000000,,355,,108,76000000,"""map""",,,0.00340485293418,0.0062415599823,0.00362150627188,,0.00897970551564,-0.00898796752243,0.0324213367765,-0.999393531883
108112000000,,356,,108,112000000,"""map""",,,0.00356090138666,0.00626237038523,0.00327360676602,,0.00895728254139,-0.0089544971901,0.0324276588037,-0.999393869057
108144000000,,357,,108,144000000,"""map""",,,0.00366017245688,0.00631914706901,0.00295732310042,,0.00893665338966,-0.00897757217614,0.0324034243658,-0.999394585554
108176000000,,358,,108,176000000,"""map""",,,0.00364927528426,0.00639472389594,0.00268971244805,,0.00894447673378,-0.00892782457155,0.0323878721787,-0.999395470638
108212000000,,359,,108,212000000,"""map""",,,0.00370518281125,0.00654508033767,0.00222391402349,,0.00901409113415,-0.00893122958622,0.0323708027051,-0.999395428491
108244000000,,360,,108,244000000,"""map""",,,0.00379769643769,0.00670204823837,0.00189669523388,,0.00908233000998,-0.00894898213516,0.0322915666299,-0.999397198658
108276000000,,361,,108,276000000,"""map""",,,0.00393200758845,0.00688267545775,0.0015535709681,,0.00904020443811,-0.0089946717499,0.0322601250809,-0.999398125889
108312000000,,362,,108,312000000,"""map""",,,0.00408101733774,0.00709809968248,0.00120250508189,,0.00906759574287,-0.00903117506748,0.0322567111862,-0.999397746567
108344000000,,363,,108,344000000,"""map""",,,0.00419289758429,0.00716503476724,0.00105400779285,,0.00908560624318,-0.00902686624421,0.0321704365873,-0.999400401819
108376000000,,364,,108,376000000,"""map""",,,0.00427648099139,0.00710055045784,0.000984984566458,,0.00909302701081,-0.00899174709457,0.0321625972735,-0.999400907581
108412000000,,365,,108,412000000,"""map""",,,0.00437823077664,0.0070378719829,0.000859410152771,,0.00911906455386,-0.00902961471058,0.0321513440649,-0.999400612553
108444000000,,366,,108,444000000,"""map""",,,0.00449217669666,0.00697599723935,0.000773107982241,,0.00910770195231,-0.00903096611851,0.0321177951735,-0.999401792665
108476000000,,367,,108,476000000,"""map""",,,0.00465558283031,0.00692324433476,0.000597014906816,,0.00910076403158,-0.00906366761749,0.032097353952,-0.99940225628
108512000000,,368,,108,512000000,"""map""",,,0.00485207606107,0.00687175430357,0.000431079184636,,0.00900499102272,-0.00903190162858,0.032065912403,-0.999404363623
108544000000,,369,,108,544000000,"""map""",,,0.0050025167875,0.00683248229325,0.000755138404202,,0.00896173777699,-0.00903773505827,0.0320032821861,-0.99940680814
108576000000,,370,,108,576000000,"""map""",,,0.00509675964713,0.00682152202353,0.001542946673,,0.00885002659292,-0.0090279829762,0.031949882129,-0.999409547685
108612000000,,371,,108,612000000,"""map""",,,0.00520447222516,0.006846152246,0.00241744588129,,0.00888984333604,-0.0090363084708,0.0319127507555,-0.999410348475
108644000000,,372,,108,644000000,"""map""",,,0.00532964477316,0.00686077773571,0.00300958799198,,0.00882342647794,-0.00907304077665,0.0317935594679,-0.999414394573
108676000000,,373,,108,676000000,"""map""",,,0.0054767858237,0.00690952828154,0.00356952636503,,0.0088320254743,-0.00902613819753,0.0317823484062,-0.999415068922
108712000000,,374,,108,712000000,"""map""",,,0.00563899101689,0.00697085121647,0.00410336116329,,0.00879440927824,-0.0090263293092,0.0317680184777,-0.999415827565
108744000000,,375,,108,744000000,"""map""",,,0.00583948334679,0.00702012330294,0.00467665120959,,0.0087973596914,-0.00900077896562,0.0317179901685,-0.99941763988
108776000000,,376,,108,776000000,"""map""",,,0.00601441599429,0.00708631658927,0.00515050394461,,0.0087948984506,-0.00880012005547,0.0316884873746,-0.999420337278
108812000000,,377,,108,812000000,"""map""",,,0.00628701923415,0.00717475172132,0.00567682413384,,0.0088181406936,-0.00877694103274,0.0316720922505,-0.999420885187
108844000000,,378,,108,844000000,"""map""",,,0.00651375716552,0.00727333454415,0.00587628176436,,0.00881711626588,-0.00877407082824,0.0316854949483,-0.999420463719
108876000000,,379,,108,876000000,"""map""",,,0.00676557561383,0.00738269183785,0.00611716322601,,0.0088041108183,-0.0087772573772,0.0317374620125,-0.999418904285
108912000000,,380,,108,912000000,"""map""",,,0.00706231361255,0.00748398387805,0.00636914698407,,0.00877935813804,-0.00879573544539,0.0317305499294,-0.99941924146
108944000000,,381,,108,944000000,"""map""",,,0.00711084483191,0.00745053170249,0.00674916058779,,0.00876378443377,-0.00880611850185,0.0317557115979,-0.99941844067
108976000000,,382,,108,976000000,"""map""",,,0.00695113698021,0.00730297761038,0.00729416124523,,0.00878253449113,-0.00877377213457,0.031763213737,-0.999418356376
109012000000,,383,,109,12000000,"""map""",,,0.00680574635044,0.00718014966697,0.00788383930922,,0.00879350645488,-0.00875824435992,0.0317209404479,-0.999419747222
109044000000,,384,,109,44000000,"""map""",,,0.00673407176509,0.00713141914457,0.00818113703281,,0.00884529025593,-0.00881758204206,0.0317056411419,-0.999419199313
109076000000,,385,,109,76000000,"""map""",,,0.0067126066424,0.00710975239053,0.00842666719109,,0.00886045498348,-0.00886597212788,0.03169978273,-0.999418819992
109112000000,,386,,109,112000000,"""map""",,,0.00674146134406,0.00712716858834,0.00857526063919,,0.00889084658229,-0.00886491473564,0.0317117524349,-0.999418229936
109144000000,,387,,109,144000000,"""map""",,,0.00673604616895,0.00702783744782,0.00864362809807,,0.00882492992476,-0.00885984556356,0.0316962845415,-0.999419367901
109176000000,,388,,109,176000000,"""map""",,,0.00671524507925,0.00684350309893,0.00868323631585,,0.00884219969369,-0.00887194424551,0.0316461719386,-0.999420674453
109212000000,,389,,109,212000000,"""map""",,,0.00674851983786,0.00667136162519,0.00874015502632,,0.00879374622682,-0.00881236216876,0.0316385433591,-0.999421896712
109244000000,,390,,109,244000000,"""map""",,,0.00682729436085,0.00661540217698,0.00876482576132,,0.00886783067554,-0.00881684998238,0.0316324742129,-0.999421390949
109276000000,,391,,109,276000000,"""map""",,,0.00695334328339,0.00661829346791,0.00875589344651,,0.00882343056812,-0.00877064885348,0.0316429687782,-0.999421854565
109312000000,,392,,109,312000000,"""map""",,,0.00713191460818,0.00670184195042,0.0087811248377,,0.00881951574482,-0.00876262821611,0.0316361409887,-0.999422107446
109344000000,,393,,109,344000000,"""map""",,,0.00722576724365,0.00676400819793,0.00901531707495,,0.00876170176232,-0.0087124646069,0.0315723306601,-0.999425142019
109376000000,,394,,109,376000000,"""map""",,,0.00727191660553,0.00678496016189,0.0093535669148,,0.00874589848583,-0.00873155797175,0.0315083938909,-0.999427122921
109412000000,,395,,109,412000000,"""map""",,,0.00738514773548,0.00683856802061,0.00969704426825,,0.00876750098243,-0.00873584285976,0.0314929259975,-0.999427417949
109444000000,,396,,109,444000000,"""map""",,,0.00749931717291,0.00689376937225,0.00986421387643,,0.00868057705093,-0.00876360578685,0.0314767837545,-0.999428387326
109476000000,,397,,109,476000000,"""map""",,,0.00762113649398,0.00697758561,0.0100404722616,,0.00869674571029,-0.00875475882533,0.0314159658521,-0.999430283934
109512000000,,398,,109,512000000,"""map""",,,0.00777007034048,0.00710125779733,0.0102501939982,,0.00871691048975,-0.00874496348769,0.0314156708241,-0.999430157494
109544000000,,399,,109,544000000,"""map""",,,0.00794827844948,0.00713735539466,0.0105175571516,,0.00878380028828,-0.00875279346613,0.0314455107929,-0.999428555914
109576000000,,400,,109,576000000,"""map""",,,0.00817710999399,0.0071078101173,0.0108436560258,,0.00880528638585,-0.00870385923346,0.0314250274245,-0.999429483144
109612000000,,401,,109,612000000,"""map""",,,0.00851254910231,0.00716451508924,0.0112259853631,,0.00882847467434,-0.00869961858755,0.0314035325318,-0.999429988906
109644000000,,402,,109,644000000,"""map""",,,0.00883101951331,0.00727606983855,0.0114331375808,,0.00885308635534,-0.00866203226266,0.031370910871,-0.999431084725
109676000000,,403,,109,676000000,"""map""",,,0.00918166991323,0.00743580562994,0.0114244492725,,0.00885496422587,-0.00866346160264,0.0313234956664,-0.999432559864
109712000000,,404,,109,712000000,"""map""",,,0.00953451637179,0.00762767950073,0.0113140540197,,0.00887225761494,-0.00844709284299,0.0313348753155,-0.999433908563
109744000000,,405,,109,744000000,"""map""",,,0.00959206931293,0.00775700900704,0.0113353962079,,0.00889212470914,-0.00843661000803,0.0313358868399,-0.999433739976
109776000000,,406,,109,776000000,"""map""",,,0.0093344161287,0.00786983035505,0.0113179739565,,0.00889509746136,-0.00843672714664,0.0312877972858,-0.999435299409
109812000000,,407,,109,812000000,"""map""",,,0.00908343121409,0.00806598458439,0.0112606659532,,0.00890462892588,-0.00846985619535,0.0312884716353,-0.999434877941
109844000000,,408,,109,844000000,"""map""",,,0.00897308718413,0.00825806614012,0.0111008286476,,0.0089166912181,-0.00849147450345,0.031278820007,-0.999434920088
109876000000,,409,,109,876000000,"""map""",,,0.00891811773181,0.0085091330111,0.0108961183578,,0.00891704471244,-0.00851277395252,0.0312039250572,-0.999436985283
109912000000,,410,,109,912000000,"""map""",,,0.00887939892709,0.00881621334702,0.0106391180307,,0.0089015739482,-0.00856536160233,0.0311738743542,-0.999437617486
109944000000,,411,,109,944000000,"""map""",,,0.00877410173416,0.00916439108551,0.0105642210692,,0.00891850340911,-0.00855634916349,0.0311693224946,-0.999437786073
109976000000,,412,,109,976000000,"""map""",,,0.00859887711704,0.00957312248647,0.0105474190786,,0.00887738119411,-0.00851715002194,0.031058771311,-0.999441874318
110012000000,,413,,110,12000000,"""map""",,,0.00840112473816,0.0101098595187,0.0103777237236,,0.00888126883959,-0.00854396372143,0.0310387515579,-0.999442253639
110044000000,,414,,110,44000000,"""map""",,,0.00823987554759,0.0105484658852,0.0101356683299,,0.00885349815145,-0.00854549272801,0.0310175516931,-0.999443138723
110076000000,,415,,110,76000000,"""map""",,,0.00811671372503,0.0110213924199,0.00992819480598,,0.00887291119979,-0.00859148368603,0.0310319237684,-0.999442085052
110112000000,,416,,110,112000000,"""map""",,,0.00803995598108,0.011509870179,0.0097911497578,,0.00891350787569,-0.00856490083726,0.0309943709264,-0.999443138723
110144000000,,417,,110,144000000,"""map""",,,0.00788654200733,0.0116322599351,0.00986825861037,,0.00885547407309,-0.00856981907402,0.0309912942065,-0.999443770926
110176000000,,418,,110,176000000,"""map""",,,0.00767852552235,0.011460352689,0.0100026465952,,0.0088998722589,-0.00853492368546,0.0310078579179,-0.999443138723
110212000000,,419,,110,212000000,"""map""",,,0.00748066511005,0.0113518657163,0.00992402806878,,0.00889659700837,-0.00850065267941,0.0309524348122,-0.999445119625
110244000000,,420,,110,244000000,"""map""",,,0.00736525794491,0.0113322492689,0.00987160019577,,0.00894896522909,-0.00845666114484,0.0308592059833,-0.999447985611
110276000000,,421,,110,276000000,"""map""",,,0.00725449761376,0.0113385906443,0.00979781709611,,0.00891866401165,-0.00839048427476,0.0308268793504,-0.999449713632
110312000000,,422,,110,312000000,"""map""",,,0.00715561490506,0.0113897817209,0.00974270049483,,0.00893892485372,-0.00838364193559,0.0307699389581,-0.999451357359
110344000000,,423,,110,344000000,"""map""",,,0.00709417881444,0.0113460896537,0.00965172052383,,0.00895000373319,-0.0083792551854,0.0307228187815,-0.999452790352
110376000000,,424,,110,376000000,"""map""",,,0.00710231252015,0.0112567041069,0.0094652287662,,0.00893220798785,-0.00837747240252,0.0306167351638,-0.999456204246
110412000000,,425,,110,412000000,"""map""",,,0.00714691542089,0.0112609099597,0.00907559040934,,0.00892769271859,-0.00828930016646,0.0306087272626,-0.999457215771
