rosbagTimestamp,header,seq,stamp,secs,nsecs,frame_id,pose,position,x,y,z,orientation,x,y,z,w
3630140000000,,37436,,3630,136313318,"""map""",,,-0.398831635714,0.348325312138,0.0356525145471,,0.00438048372073,-0.00631001040341,0.0605963364186,-0.99813283535
3630172000000,,37437,,3630,168313318,"""map""",,,-0.398365676403,0.349095284939,0.036261998117,,0.00430998241525,-0.00632758119406,0.0606337206732,-0.998130770154
3630204000000,,37438,,3630,200313318,"""map""",,,-0.397996425629,0.346594214439,0.0369147770107,,0.00431373578967,-0.00625435466677,0.060641855015,-0.998130728007
3630240000000,,37439,,3630,232312361,"""map""",,,-0.397571533918,0.3452000916,0.0375168435276,,0.00429517141999,-0.00624703428602,0.0606504108252,-0.998130264392
3630272000000,,37440,,3630,264312361,"""map""",,,-0.397101968527,0.34480124712,0.0381482988596,,0.00428980164807,-0.00623330758429,0.0606412649591,-0.998130980889
3630304000000,,37441,,3630,296312361,"""map""",,,-0.396595656872,0.345292061567,0.0387458987534,,0.004198207162,-0.00625856358935,0.0606391154698,-0.99813136021
3630340000000,,37442,,3630,336311405,"""map""",,,-0.39589369297,0.347055763006,0.0394508875906,,0.00419688908517,-0.00627068377175,0.0606316976245,-0.998131697385
3630372000000,,37443,,3630,368311405,"""map""",,,-0.39538910985,0.347860306501,0.0398718304932,,0.00423528659284,-0.00628579563953,0.0606044707604,-0.998133130378
3630404000000,,37444,,3630,400311405,"""map""",,,-0.395105928183,0.345429241657,0.0400205776095,,0.00423029614256,-0.00622982264907,0.0606598938662,-0.998130137952
3630440000000,,37445,,3630,432310448,"""map""",,,-0.39477711916,0.344069421291,0.0401479937136,,0.00423648827193,-0.00621552186117,0.0606650779285,-0.998129842924
3630472000000,,37446,,3630,464310448,"""map""",,,-0.394406765699,0.343680679798,0.0402851738036,,0.0042056366965,-0.0062220856566,0.0606652465159,-0.998129927217
3630504000000,,37447,,3630,496310448,"""map""",,,-0.393972575665,0.344182610512,0.0404513962567,,0.00423255066968,-0.00619193757135,0.0606898602754,-0.998128494224
3630540000000,,37448,,3630,536309492,"""map""",,,-0.39334538579,0.345966011286,0.0406725294888,,0.00421821934178,-0.0061781497073,0.0606949600441,-0.998128367784
3630572000000,,37449,,3630,568309492,"""map""",,,-0.392950415611,0.346893668175,0.0408525168896,,0.00423758516013,-0.00615486423204,0.0607137575385,-0.998127271966
3630604000000,,37450,,3630,600309492,"""map""",,,-0.392889142036,0.344745367765,0.0410551987588,,0.00422388274223,-0.00613837106716,0.0607631957919,-0.998124448127
3630640000000,,37451,,3630,632308536,"""map""",,,-0.392763525248,0.343688696623,0.0411214791238,,0.00420074404008,-0.00613693157118,0.0608072813954,-0.998121835022
3630672000000,,37452,,3630,664308536,"""map""",,,-0.392574191093,0.343627035618,0.0411431677639,,0.00418588093749,-0.00615363201295,0.0607732688886,-0.998123900218
3630704000000,,37453,,3630,696308536,"""map""",,,-0.392309516668,0.344423949718,0.041228864342,,0.00418002359568,-0.00617176396584,0.0607521111707,-0.99812508033
3630740000000,,37454,,3630,736319579,"""map""",,,-0.391884118319,0.346532702446,0.0414402112365,,0.00415440448564,-0.00612180587397,0.0607353788718,-0.998126471176
3630772000000,,37455,,3630,768319579,"""map""",,,-0.39155253768,0.34760132432,0.0415511317551,,0.0041561747356,-0.00613829838031,0.0607239992227,-0.998127061232
3630804000000,,37456,,3630,800319579,"""map""",,,-0.391414165497,0.345359385014,0.0414432473481,,0.00421731812362,-0.00614470453665,0.0606764997245,-0.998129716483
3630840000000,,37457,,3630,832318623,"""map""",,,-0.3911921978,0.344192177057,0.0416584759951,,0.00419091493403,-0.00612462765487,0.0606431194204,-0.998131992413
3630872000000,,37458,,3630,864318623,"""map""",,,-0.390890985727,0.344011127949,0.0418468341231,,0.00420847378856,-0.00610240235395,0.0606054401379,-0.998134268343
3630904000000,,37459,,3630,896318623,"""map""",,,-0.390522181988,0.344731360674,0.0420249216259,,0.0041869569169,-0.00613378751507,0.0605944819573,-0.998134858399
3630940000000,,37460,,3630,936317667,"""map""",,,-0.390008747578,0.346798092127,0.0423602759838,,0.00418565159937,-0.00612373162275,0.0605877384615,-0.998135364161
3630972000000,,37461,,3630,968317667,"""map""",,,-0.389672100544,0.347895860672,0.042713239789,,0.0042100389019,-0.00619389155522,0.060533916936,-0.998138019412
3631004000000,,37462,,3631,317667,"""map""",,,-0.389631718397,0.34573417902,0.0432201623917,,0.00418870131898,-0.00616512575488,0.0605540209827,-0.998137134328
3631040000000,,37463,,3631,32316711,"""map""",,,-0.389501869678,0.344647973776,0.0437640324235,,0.00418700696628,-0.00615923367485,0.060549216242,-0.998137471503
3631072000000,,37464,,3631,72316711,"""map""",,,-0.389235138893,0.344635307789,0.0444769747555,,0.00415229327427,-0.00612847157916,0.060535307782,-0.998138651615
3631104000000,,37465,,3631,96316711,"""map""",,,-0.389011979103,0.345281809568,0.0448060072958,,0.004177558252,-0.00608722570185,0.0605198820354,-0.998139747433
3631140000000,,37466,,3631,136315754,"""map""",,,-0.3885242939,0.347353667021,0.0453197769821,,0.00412954607683,-0.00609355266822,0.0604758807256,-0.998142529125
3631172000000,,37467,,3631,168315754,"""map""",,,-0.388217419386,0.348413348198,0.0455903597176,,0.00412056591696,-0.00608866453929,0.0604687579082,-0.998143077034
3631204000000,,37468,,3631,200315754,"""map""",,,-0.388282746077,0.346106529236,0.0455636829138,,0.00412834818437,-0.00611328134459,0.0604241243956,-0.998145563698
3631240000000,,37469,,3631,232314798,"""map""",,,-0.388258337975,0.34485039115,0.0454436056316,,0.0041211033716,-0.00611656896341,0.0604165801097,-0.998146027313
3631272000000,,37470,,3631,264314798,"""map""",,,-0.388085246086,0.344589740038,0.0453544966877,,0.00407543438011,-0.00603218990255,0.060388130987,-0.998148429684
3631304000000,,37471,,3631,296314798,"""map""",,,-0.387812227011,0.345247209072,0.0453263558447,,0.00404048435293,-0.00600714454941,0.06036334864,-0.998150199851
3631340000000,,37472,,3631,336313842,"""map""",,,-0.387363404036,0.347253262997,0.0453451499343,,0.00405785601619,-0.00600324275552,0.0603434553275,-0.998151379963
3631372000000,,37473,,3631,368313842,"""map""",,,-0.387041240931,0.348265647888,0.0452194958925,,0.00405966701359,-0.0059892941243,0.0602932162841,-0.99815449883
3631404000000,,37474,,3631,400313842,"""map""",,,-0.386991620064,0.345914870501,0.0447587966919,,0.00404400320319,-0.00598859376221,0.0603071247441,-0.998153740187
3631440000000,,37475,,3631,432312886,"""map""",,,-0.386860668659,0.344645291567,0.0443594381213,,0.0040276581285,-0.00602160264713,0.0602864306415,-0.998154878152
3631472000000,,37476,,3631,464312886,"""map""",,,-0.386650770903,0.344391077757,0.0440376140177,,0.00404633091107,-0.00605512610227,0.0603266808818,-0.998152138606
3631504000000,,37477,,3631,496312886,"""map""",,,-0.386368155479,0.345039844513,0.0438409373164,,0.00401125106831,-0.00604405975572,0.060282679572,-0.998155004592
3631540000000,,37478,,3631,536311930,"""map""",,,-0.385882854462,0.346948832273,0.0436210073531,,0.00400566776334,-0.00602734935346,0.0602688132588,-0.99815597397
3631572000000,,37479,,3631,568311930,"""map""",,,-0.385497331619,0.347906172276,0.043373670429,,0.00395667657944,-0.0059603721666,0.0602794764115,-0.998155931823
3631604000000,,37480,,3631,600311930,"""map""",,,-0.385222524405,0.345738261938,0.0429112911224,,0.0039185558251,-0.00592588246204,0.0601906308548,-0.998161663794
3631640000000,,37481,,3631,632310974,"""map""",,,-0.384809941053,0.344610601664,0.0425364039838,,0.00392364423387,-0.00595451548333,0.0602180263064,-0.998159809333
3631672000000,,37482,,3631,664310974,"""map""",,,-0.384336590767,0.344437807798,0.0422716476023,,0.0038800069345,-0.00597373790361,0.0602491306806,-0.998157954872
3631704000000,,37483,,3631,696310974,"""map""",,,-0.383804857731,0.345180094242,0.0420349836349,,0.00392970020917,-0.00593966925595,0.0602614797072,-0.998157238375
3631740000000,,37484,,3631,736310018,"""map""",,,-0.383048146963,0.347264975309,0.041950199753,,0.00391845679647,-0.00593569831488,0.0602821316629,-0.998156058263
3631772000000,,37485,,3631,768310018,"""map""",,,-0.38259524107,0.34833112359,0.04211384058,,0.00391291275721,-0.00591504611216,0.0602894652146,-0.998155721089
3631804000000,,37486,,3631,800310018,"""map""",,,-0.382689148188,0.346097052097,0.0423723421991,,0.00386569141167,-0.00593113674171,0.0602770318943,-0.998156606172
3631840000000,,37487,,3631,832309062,"""map""",,,-0.382673591375,0.344975858927,0.0424438044429,,0.00381839597988,-0.00618287665746,0.0602468968976,-0.998157069788
3631872000000,,37488,,3631,864309062,"""map""",,,-0.382600098848,0.344834089279,0.0425400175154,,0.00386813881002,-0.00613795042185,0.0602121678944,-0.998159261424
3631904000000,,37489,,3631,896309062,"""map""",,,-0.382434278727,0.345571786165,0.0426933206618,,0.00390524589973,-0.00615811167965,0.0601681665846,-0.998161621647
3631940000000,,37490,,3631,936308106,"""map""",,,-0.382098257542,0.347672879696,0.043079148978,,0.00392487324256,-0.00620916526031,0.0601753315488,-0.998160863004
3631972000000,,37491,,3631,968308106,"""map""",,,-0.381907969713,0.348761945963,0.0432996489108,,0.00390808891869,-0.00618817349558,0.0601536680687,-0.998162295997
3632004000000,,37492,,3632,308106,"""map""",,,-0.382149398327,0.346611827612,0.0434435531497,,0.00388176895265,-0.00614672791465,0.0601458709017,-0.998163181081
3632040000000,,37493,,3632,32319151,"""map""",,,-0.382280379534,0.345526605844,0.0436697751284,,0.00388506266301,-0.00614273285439,0.0601518136074,-0.998162801759
3632072000000,,37494,,3632,64319151,"""map""",,,-0.382329702377,0.345400691032,0.043948944658,,0.00386560843506,-0.00609288844376,0.0601179275412,-0.998165246276
3632104000000,,37495,,3632,96319151,"""map""",,,-0.382280737162,0.346172124147,0.0442097000778,,0.0038768319268,-0.00604175978902,0.0601292650434,-0.998164782661
3632140000000,,37496,,3632,136318195,"""map""",,,-0.38204818964,0.348333120346,0.0445408523083,,0.00386670137199,-0.0060132943673,0.0601336904625,-0.998164740514
3632172000000,,37497,,3632,168318195,"""map""",,,-0.381867259741,0.349445909262,0.0449318140745,,0.00387230739675,-0.00600790566223,0.0601123220103,-0.998166047066
3632204000000,,37498,,3632,200318195,"""map""",,,-0.38200289011,0.34718811512,0.0458481870592,,0.00389023618866,-0.00602933478284,0.060095168243,-0.998166847857
3632240000000,,37499,,3632,232317239,"""map""",,,-0.382012695074,0.346020191908,0.0468138791621,,0.00386167857071,-0.00601099349511,0.0601018695919,-0.998166721416
3632272000000,,37500,,3632,264317239,"""map""",,,-0.381911605597,0.345822542906,0.0478455387056,,0.00388764506298,-0.00598305795476,0.0601329739661,-0.998164866955
3632304000000,,37501,,3632,296317239,"""map""",,,-0.381697416306,0.34652993083,0.0488818250597,,0.00388096091854,-0.00600914150332,0.0601101303742,-0.99816613136
3632340000000,,37502,,3632,336316284,"""map""",,,-0.381303459406,0.348562628031,0.0502611361444,,0.00382999945179,-0.00596909475324,0.0600897312995,-0.998167817234
3632372000000,,37503,,3632,368316284,"""map""",,,-0.38106495142,0.349581748247,0.0513421148062,,0.00388519182005,-0.00594647267926,0.0600701330149,-0.998168955199
3632404000000,,37504,,3632,400316284,"""map""",,,-0.381151646376,0.347296744585,0.0521445125341,,0.00392306356225,-0.00598471880401,0.0600167329579,-0.998171694744
3632440000000,,37505,,3632,432315328,"""map""",,,-0.381115615368,0.34610041976,0.0528654977679,,0.00390310851121,-0.00598222538987,0.060053147835,-0.998169671695
3632472000000,,37506,,3632,468315328,"""map""",,,-0.380948185921,0.345880031586,0.0535559877753,,0.00390050207436,-0.00594399087196,0.0599900118559,-0.998173717793
3632504000000,,37507,,3632,500315328,"""map""",,,-0.380641490221,0.346565246582,0.0542837865651,,0.00387482501241,-0.00591012892495,0.0600156792867,-0.998172495534
3632540000000,,37508,,3632,532314373,"""map""",,,-0.380262732506,0.348068505526,0.0550731122494,,0.00388384180381,-0.00593171074557,0.0599955330931,-0.998173507059
3632572000000,,37509,,3632,564314373,"""map""",,,-0.379797279835,0.350326359272,0.0558202378452,,0.00390559904422,-0.00590750306104,0.0600278597259,-0.99817161045
3632604000000,,37510,,3632,596314373,"""map""",,,-0.379937857389,0.347938299179,0.056261382997,,0.00386956719306,-0.00590065839638,0.0600500289682,-0.998170430339
3632640000000,,37511,,3632,636313417,"""map""",,,-0.379967242479,0.346445471048,0.0567043721676,,0.00387191893781,-0.00594803927432,0.0600681521131,-0.99816908164
3632672000000,,37512,,3632,668313417,"""map""",,,-0.37991002202,0.346362024546,0.0570642538369,,0.00384197376658,-0.00597069830912,0.0600794053216,-0.998168365143
3632704000000,,37513,,3632,700313417,"""map""",,,-0.379770070314,0.347197502851,0.0575543902814,,0.00385739333928,-0.00595283817047,0.0600566881703,-0.998169755989
3632740000000,,37514,,3632,732312462,"""map""",,,-0.379551202059,0.348827958107,0.0581086203456,,0.00386807945869,-0.00592233447118,0.0600784780909,-0.998168618024
3632772000000,,37515,,3632,764312462,"""map""",,,-0.379445552826,0.349854648113,0.0587095096707,,0.00380743812854,-0.00595489941478,0.0600657918895,-0.998169418814
3632804000000,,37516,,3632,796312462,"""map""",,,-0.379752039909,0.347764164209,0.0591462440789,,0.00381832090581,-0.00596091752377,0.0600875818102,-0.998168027968
3632840000000,,37517,,3632,836311506,"""map""",,,-0.380007177591,0.346586793661,0.0595245212317,,0.00380471282441,-0.00590790724274,0.0601042719622,-0.998167437912
3632872000000,,37518,,3632,868311506,"""map""",,,-0.380146741867,0.346719533205,0.0599398873746,,0.00377456482147,-0.00587283958305,0.0601003944522,-0.998167943675
3632904000000,,37519,,3632,900311506,"""map""",,,-0.380209058523,0.347711950541,0.0603722818196,,0.00378415948568,-0.00589700652013,0.0600930187537,-0.998168238703
3632940000000,,37520,,3632,932310551,"""map""",,,-0.38018155098,0.34951454401,0.0607527010143,,0.00377954094841,-0.00588665304801,0.0601009423612,-0.998167817234
3632972000000,,37521,,3632,964310551,"""map""",,,-0.380288749933,0.350657194853,0.061161339283,,0.00377322056749,-0.00584591976529,0.0600673934698,-0.998170093164
3633004000000,,37522,,3632,996310551,"""map""",,,-0.380896270275,0.348582804203,0.0617176778615,,0.00371066097951,-0.00583864926928,0.0600556766459,-0.998171104688
3633040000000,,37523,,3633,36309595,"""map""",,,-0.3814894557,0.347486704588,0.0624995678663,,0.00373622164372,-0.00586905171736,0.0600519255764,-0.998171062541
3633072000000,,37524,,3633,68309595,"""map""",,,-0.381817191839,0.347681641579,0.0631692558527,,0.00370232174808,-0.00585126772292,0.0600839993281,-0.998169334521
3633104000000,,37525,,3633,100309595,"""map""",,,-0.382043123245,0.348728835583,0.0637682899833,,0.00367299453855,-0.00585015766383,0.060097949935,-0.998168618024
3633140000000,,37526,,3633,132308640,"""map""",,,-0.382154971361,0.350565671921,0.0643226578832,,0.00367580199611,-0.00580973414398,0.0600852637336,-0.998169587402
3633172000000,,37527,,3633,164308640,"""map""",,,-0.382277190685,0.351667821407,0.0648633763194,,0.00365360287234,-0.00583187729147,0.0600952946835,-0.998168913052
3633204000000,,37528,,3633,196308640,"""map""",,,-0.382679283619,0.349376261234,0.0652581527829,,0.00366909307394,-0.00583086321525,0.0601547638867,-0.99816533057
3633240000000,,37529,,3633,236307685,"""map""",,,-0.38299447298,0.347976773977,0.0658612847328,,0.00363100755172,-0.00579818154463,0.0601473038946,-0.99816613136
3633272000000,,37530,,3633,268307685,"""map""",,,-0.383151680231,0.347936332226,0.066398575902,,0.00365965390855,-0.00582747920198,0.060144395762,-0.99816600492
3633304000000,,37531,,3633,300307685,"""map""",,,-0.383227854967,0.348789423704,0.0670341551304,,0.00368486966008,-0.00577323612562,0.0601543002714,-0.998165625598
3633340000000,,37532,,3633,332318730,"""map""",,,-0.383169174194,0.350456267595,0.0676886290312,,0.00369829828809,-0.00578582527403,0.0601647526898,-0.998164866955
3633372000000,,37533,,3633,364318730,"""map""",,,-0.383182942867,0.351427704096,0.0681876093149,,0.00364993584956,-0.00575688183131,0.0601749522272,-0.998164614074
3633404000000,,37534,,3633,396318730,"""map""",,,-0.383548289537,0.34907796979,0.0681069418788,,0.00363709933538,-0.00570052046423,0.0601933282531,-0.99816385543
3633440000000,,37535,,3633,436317775,"""map""",,,-0.38383218646,0.347628563643,0.068176664412,,0.003638116622,-0.00570004976955,0.0601877227223,-0.998164234752
3633472000000,,37536,,3633,468317775,"""map""",,,-0.383929610252,0.347532451153,0.0682588294148,,0.00360961654438,-0.00569696144276,0.0601687144936,-0.998165457011
3633504000000,,37537,,3633,500317775,"""map""",,,-0.383907318115,0.348342448473,0.0682921558619,,0.00357869680959,-0.00570898358434,0.060107390829,-0.99816920808
3633540000000,,37538,,3633,532316820,"""map""",,,-0.383800476789,0.349961966276,0.0683694854379,,0.00359161654734,-0.00569972667115,0.0600935666627,-0.998170051017
3633572000000,,37539,,3633,564316820,"""map""",,,-0.383786559105,0.350924223661,0.0684651657939,,0.0036591975372,-0.00563515457114,0.0601427098881,-0.998167185031
3633604000000,,37540,,3633,596316820,"""map""",,,-0.384199380875,0.348674744368,0.0684975236654,,0.00361484472923,-0.00565282447274,0.0601382423221,-0.998167522206
3633640000000,,37541,,3633,636315865,"""map""",,,-0.384558856487,0.347356587648,0.0685688480735,,0.0036396181858,-0.00563569869354,0.060124080981,-0.998168365143
3633672000000,,37542,,3633,668315865,"""map""",,,-0.38473212719,0.347360372543,0.0686717405915,,0.00367217053474,-0.00569510088989,0.0601307823299,-0.998167480059
3633704000000,,37543,,3633,700315865,"""map""",,,-0.384826123714,0.348205715418,0.0687315762043,,0.00358878776941,-0.00565702104762,0.0601918952603,-0.998164361193
3633740000000,,37544,,3633,732314910,"""map""",,,-0.384830892086,0.349868178368,0.0687863752246,,0.00359065276745,-0.00562787452624,0.060193918309,-0.998164445486
3633772000000,,37545,,3633,764314910,"""map""",,,-0.384839385748,0.350914180279,0.0687412023544,,0.00367319037323,-0.00554976233956,0.0601902515332,-0.998164740514
3633804000000,,37546,,3633,796314910,"""map""",,,-0.385041564703,0.348831087351,0.0685100853443,,0.00365120305383,-0.00556122216645,0.0601529515723,-0.998167058591
3633840000000,,37547,,3633,836313955,"""map""",,,-0.385143011808,0.347730457783,0.0683633089066,,0.00366606590947,-0.00554911927085,0.0601840559465,-0.99816520413
3633872000000,,37548,,3633,868313955,"""map""",,,-0.385140120983,0.347925335169,0.0683360919356,,0.00366650886297,-0.00557121697877,0.0602132637125,-0.998163307521
3633904000000,,37549,,3633,900313955,"""map""",,,-0.385072559118,0.348991215229,0.0683895424008,,0.00365443683664,-0.00556099859059,0.0601848567366,-0.998165077689
3633940000000,,37550,,3633,932313000,"""map""",,,-0.384929120541,0.350832074881,0.0684675723314,,0.00365134472322,-0.00556734193825,0.0601597793617,-0.998166552829
3633972000000,,37551,,3633,964313000,"""map""",,,-0.384714573622,0.353370666504,0.068513058126,,0.00365027071944,-0.00556336819837,0.0601956463298,-0.998164487633
3634004000000,,37552,,3633,996313000,"""map""",,,-0.384453296661,0.356565803289,0.068598382175,,0.00363953800801,-0.00555708543681,0.0601865426105,-0.998165077689
3634040000000,,37553,,3634,36312045,"""map""",,,-0.384057372808,0.361438632011,0.0687802731991,,0.00365080529295,-0.00555460379415,0.0601704425144,-0.99816600492
3634072000000,,37554,,3634,68312045,"""map""",,,-0.383854717016,0.364307999611,0.0688584968448,,0.00360116140912,-0.00553106033408,0.0601448593773,-0.998167901528
3634104000000,,37555,,3634,100312045,"""map""",,,-0.384110540152,0.363024055958,0.0686902478337,,0.00365586785385,-0.00549599366221,0.0601636990186,-0.998166763563
3634140000000,,37556,,3634,132311090,"""map""",,,-0.384283035994,0.362748086452,0.0685863792896,,0.00365991716172,-0.00545045012345,0.0601942976307,-0.998165161983
3634172000000,,37557,,3634,172311090,"""map""",,,-0.384386539459,0.363664090633,0.0685925781727,,0.00368619333454,-0.00545058553666,0.0601905044143,-0.998165246276
3634204000000,,37558,,3634,196311090,"""map""",,,-0.384393334389,0.364825695753,0.0686221718788,,0.00363407702767,-0.00543101071275,0.0601475567757,-0.998168154409
3634240000000,,37559,,3634,236310135,"""map""",,,-0.384313732386,0.367652893066,0.068785302341,,0.00366559200438,-0.00545186846368,0.0601412768952,-0.998168280849
3634272000000,,37560,,3634,268310135,"""map""",,,-0.384331315756,0.369100570679,0.0688544362783,,0.00363493395872,-0.00544906586289,0.0601764273669,-0.998166257801
3634304000000,,37561,,3634,300310135,"""map""",,,-0.384734749794,0.366844534874,0.068678162992,,0.00362968609985,-0.00549442237501,0.0602216087885,-0.998163307521
3634340000000,,37562,,3634,332309180,"""map""",,,-0.385037004948,0.365650624037,0.0685797631741,,0.00359160008373,-0.00545857886758,0.0602076160348,-0.998164487633
3634372000000,,37563,,3634,364309180,"""map""",,,-0.385232567787,0.365447074175,0.0685729756951,,0.00350620316002,-0.00548849144086,0.0601174639258,-0.998170093164
3634404000000,,37564,,3634,396309180,"""map""",,,-0.385325014591,0.366142421961,0.0686699301004,,0.0035094805714,-0.00542938657736,0.0600819762794,-0.998172537681
3634440000000,,37565,,3634,436308226,"""map""",,,-0.385305255651,0.368132263422,0.0687642246485,,0.00348483018033,-0.00543843209777,0.0600623779948,-0.99817375994
3634472000000,,37566,,3634,468308226,"""map""",,,-0.385360896587,0.369011998177,0.0687131434679,,0.00341554989869,-0.00537983159704,0.0600550444432,-0.998174771464
3634504000000,,37567,,3634,500308226,"""map""",,,-0.385718137026,0.36634016037,0.0684872195125,,0.00338228862658,-0.00538012481398,0.0601140921779,-0.998171273276
3634540000000,,37568,,3634,532307271,"""map""",,,-0.385951638222,0.364756673574,0.0682852864265,,0.00335691054383,-0.00538299252836,0.0601286749875,-0.998170514632
3634572000000,,37569,,3634,564307271,"""map""",,,-0.386087834835,0.364215791225,0.0681527033448,,0.00339505887473,-0.00541296865118,0.0601190655061,-0.998170767514
3634604000000,,37570,,3634,596307271,"""map""",,,-0.386089086533,0.364623486996,0.0679056718946,,0.00339349631325,-0.00564649627161,0.0600915014671,-0.998171188982
3634640000000,,37571,,3634,636318317,"""map""",,,-0.38590028882,0.366287767887,0.0672944411635,,0.00340989448309,-0.00563754228889,0.0601188969187,-0.998169503108
3634672000000,,37572,,3634,668318317,"""map""",,,-0.385826945305,0.366914659739,0.0666138976812,,0.00341979578208,-0.00565351520361,0.0600983292566,-0.998170598926
3634704000000,,37573,,3634,700318317,"""map""",,,-0.386097371578,0.364059209824,0.0658409744501,,0.00343787850877,-0.00562958196752,0.0601020803261,-0.998170472486
3634740000000,,37574,,3634,732317362,"""map""",,,-0.386303901672,0.362332969904,0.065065510571,,0.00346074589059,-0.00565894375063,0.0601038926406,-0.998170177458
3634772000000,,37575,,3634,764317362,"""map""",,,-0.386391252279,0.361621707678,0.0644781365991,,0.00353129436432,-0.00542904067686,0.0601325524976,-0.998169418814
3634804000000,,37576,,3634,796317362,"""map""",,,-0.386419266462,0.361817836761,0.0639509782195,,0.00352430671318,-0.00542219823478,0.0601483575658,-0.998168533731
3634840000000,,37577,,3634,836316408,"""map""",,,-0.386346369982,0.36324301362,0.0631981268525,,0.00350108297647,-0.00545042032431,0.0601568290823,-0.998167901528
3634872000000,,37578,,3634,868316408,"""map""",,,-0.386381089687,0.363789618015,0.0625580623746,,0.00344796107214,-0.00545631734342,0.0601876384286,-0.998166257801
3634904000000,,37579,,3634,900316408,"""map""",,,-0.386737644672,0.361034244299,0.0619003511965,,0.00341928154114,-0.00546508775686,0.0601654691863,-0.9981676065
3634940000000,,37580,,3634,932315454,"""map""",,,-0.386985123158,0.359400421381,0.0614804774523,,0.0033917238407,-0.00545561154835,0.0601491583559,-0.998168744465
3634972000000,,37581,,3634,964315454,"""map""",,,-0.387159347534,0.358762294054,0.0610897317529,,0.00340771799349,-0.0054683193994,0.0601356292175,-0.998169460961
3635004000000,,37582,,3634,996315454,"""map""",,,-0.387256354094,0.358985871077,0.0607109889388,,0.00338646923176,-0.00546126062545,0.0601262304703,-0.998170177458
3635040000000,,37583,,3635,36314499,"""map""",,,-0.387259840965,0.360415190458,0.0601803660393,,0.00342202668392,-0.00546770250783,0.060128548547,-0.998169798136
3635072000000,,37584,,3635,68314499,"""map""",,,-0.387328058481,0.36092081666,0.0598472319543,,0.0034187049031,-0.0055044065683,0.0601333532877,-0.998169376668
3635104000000,,37585,,3635,100314499,"""map""",,,-0.387727051973,0.358060568571,0.05983883515,,0.003436709263,-0.00544842526372,0.060158304222,-0.998168112262
3635140000000,,37586,,3635,132313545,"""map""",,,-0.388040959835,0.356318742037,0.0597559846938,,0.00341606578599,-0.00547796435994,0.0601615916762,-0.998167775087
3635172000000,,37587,,3635,164313545,"""map""",,,-0.3882612288,0.35554265976,0.0596815831959,,0.00340212620975,-0.00544735340022,0.0601921059945,-0.998166173507
3635204000000,,37588,,3635,196313545,"""map""",,,-0.388405531645,0.355634778738,0.0595627427101,,0.00341248083432,-0.00544262867264,0.0602146545585,-0.998164782661
3635240000000,,37589,,3635,236312590,"""map""",,,-0.388471722603,0.356917113066,0.0593883879483,,0.00341190888842,-0.00543151803898,0.0601906308548,-0.998166299948
3635272000000,,37590,,3635,268312590,"""map""",,,-0.388612419367,0.357362300158,0.0593206249177,,0.00338923231988,-0.0054389618145,0.0602385096747,-0.998163518256
3635304000000,,37591,,3635,300312590,"""map""",,,-0.389139086008,0.354520201683,0.0591706559062,,0.00332264696699,-0.00542311122442,0.0602294059555,-0.998164361193
3635340000000,,37592,,3635,332311636,"""map""",,,-0.389553010464,0.352753549814,0.0590772107244,,0.00331647072501,-0.00542594403594,0.0602473183661,-0.998163223228
3635372000000,,37593,,3635,364311636,"""map""",,,-0.389875799417,0.351957470179,0.0589642710984,,0.00326315734886,-0.00541879380663,0.060266537329,-0.998162295997
3635404000000,,37594,,3635,396311636,"""map""",,,-0.390107870102,0.352047801018,0.0588364452124,,0.00328375530398,-0.00542317971305,0.0603412636914,-0.99815770199
3635440000000,,37595,,3635,436310682,"""map""",,,-0.390287399292,0.353276193142,0.058545242995,,0.0032549569057,-0.00541220004742,0.0602992432834,-0.998160441536
3635472000000,,37596,,3635,468310682,"""map""",,,-0.390489131212,0.353666961193,0.0582664832473,,0.00321187451239,-0.00541656002366,0.0602560427637,-0.998163096787
3635504000000,,37597,,3635,500310682,"""map""",,,-0.390888273716,0.350809305906,0.0580486580729,,0.00321024848369,-0.0054331527934,0.0602702041048,-0.998162169556
3635540000000,,37598,,3635,532309728,"""map""",,,-0.391209602356,0.349016398191,0.0577918626368,,0.00317898391853,-0.00541437521993,0.0602929212562,-0.998161031592
3635572000000,,37599,,3635,564309728,"""map""",,,-0.391470998526,0.348177790642,0.0575474686921,,0.00315310888163,-0.00540259599896,0.0602753038735,-0.998162211703
3635604000000,,37600,,3635,596309728,"""map""",,,-0.391667693853,0.348219484091,0.0574299283326,,0.00318462410529,-0.00537988156411,0.0603394935238,-0.99815837634
3635640000000,,37601,,3635,636308774,"""map""",,,-0.391843378544,0.349398046732,0.0574219860137,,0.00323234693247,-0.00537123018259,0.0603585017525,-0.998157069788
3635672000000,,37602,,3635,668308774,"""map""",,,-0.391947895288,0.349798679352,0.0572316348553,,0.00319603412975,-0.00533473628013,0.0603525590468,-0.998157786284
3635704000000,,37603,,3635,700308774,"""map""",,,-0.39209663868,0.347021192312,0.0567031838,,0.00314291461265,-0.00539342049833,0.0603797437641,-0.99815597397
3635740000000,,37604,,3635,732307820,"""map""",,,-0.392191916704,0.345282196999,0.0563513673842,,0.00312587757232,-0.00539092905982,0.0603755290792,-0.998156311144
3635772000000,,37605,,3635,764307820,"""map""",,,-0.392245769501,0.344459593296,0.0562622845173,,0.0031276087212,-0.00536058744479,0.0603470799565,-0.998158207753
3635804000000,,37606,,3635,796307820,"""map""",,,-0.392233997583,0.34445515275,0.0562038868666,,0.00311116601728,-0.00533677924983,0.0603482600683,-0.998158292046
3635840000000,,37607,,3635,836306866,"""map""",,,-0.392188727856,0.345510691404,0.0559939518571,,0.00310482052936,-0.00536923932022,0.0603302633639,-0.998159261424
3635872000000,,37608,,3635,868306866,"""map""",,,-0.392221540213,0.345760971308,0.0556733645499,,0.00311035600754,-0.00535758530502,0.0603194737707,-0.998159935773
3635904000000,,37609,,3635,900306866,"""map""",,,-0.392529249191,0.342848300934,0.0552555248141,,0.00307949175513,-0.00534154538339,0.0603654981293,-0.998157322669
3635940000000,,37610,,3635,932317912,"""map""",,,-0.392768234015,0.34096583724,0.054928291589,,0.00309625459399,-0.0053404940994,0.0603540763334,-0.998157954872
3635972000000,,37611,,3635,964317912,"""map""",,,-0.392964065075,0.340030103922,0.0547588579357,,0.00308252237696,-0.00531215190782,0.060361409885,-0.99815770199
3636004000000,,37612,,3635,996317912,"""map""",,,-0.393126279116,0.339948803186,0.0547035448253,,0.00303537108409,-0.0053352834483,0.0603210332041,-0.998160230801
3636040000000,,37613,,3636,36316958,"""map""",,,-0.39321705699,0.340871185064,0.0544527769089,,0.00305090293863,-0.0052959689174,0.0603234355745,-0.998160188655
3636072000000,,37614,,3636,68316958,"""map""",,,-0.393284440041,0.341016739607,0.0540786646307,,0.00301265697851,-0.00527612203229,0.0603157648481,-0.998160863004
3636104000000,,37615,,3636,100316958,"""map""",,,-0.393605232239,0.338054209948,0.0534579716623,,0.00294362891941,-0.00526867990312,0.0602242218931,-0.998166679269
3636140000000,,37616,,3636,132316004,"""map""",,,-0.393844097853,0.336102128029,0.0529626756907,,0.00292711155302,-0.0052397715279,0.0602353486611,-0.998166173507
3636172000000,,37617,,3636,164316004,"""map""",,,-0.394002705812,0.335071772337,0.052522867918,,0.00291572235502,-0.00520154400703,0.0602196700335,-0.998167353619
3636204000000,,37618,,3636,196316004,"""map""",,,-0.394085496664,0.334848225117,0.0521581694484,,0.00286768951802,-0.00525101115397,0.0601276634632,-0.998172790562
3636240000000,,37619,,3636,236315051,"""map""",,,-0.394147932529,0.335635334253,0.0516542382538,,0.00287461115007,-0.00524626798716,0.0600550444432,-0.998177215981
3636272000000,,37620,,3636,268315051,"""map""",,,-0.394250780344,0.335767775774,0.0513190217316,,0.00285679225277,-0.00526079021065,0.0600401244588,-0.998178058918
3636304000000,,37621,,3636,300315051,"""map""",,,-0.394507497549,0.332976728678,0.0508038848639,,0.00283319948418,-0.00524304087211,0.0600590483938,-0.998177089541
3636340000000,,37622,,3636,332314097,"""map""",,,-0.39466175437,0.331146121025,0.0503398776054,,0.00283746570014,-0.00518941542819,0.0600759914269,-0.998176330898
3636372000000,,37623,,3636,364314097,"""map""",,,-0.394783467054,0.330195724964,0.0499914698303,,0.00285632806121,-0.00522500811249,0.05997859006,-0.998181936428
3636404000000,,37624,,3636,396314097,"""map""",,,-0.39486759901,0.330072015524,0.0498485639691,,0.00288577924175,-0.00521497609241,0.0598937484539,-0.998186951903
3636440000000,,37625,,3636,436313143,"""map""",,,-0.394918769598,0.330963551998,0.0497742593288,,0.00286295869891,-0.00527750884471,0.059873138645,-0.998188005575
3636472000000,,37626,,3636,468313143,"""map""",,,-0.394983440638,0.331238925457,0.0498205348849,,0.00281903188691,-0.00527593681665,0.0599094270816,-0.998185940379
3636504000000,,37627,,3636,500313143,"""map""",,,-0.395261377096,0.328823894262,0.0503483340144,,0.00289046272797,-0.0052852099465,0.059870356953,-0.998188005575
3636540000000,,37628,,3636,532312190,"""map""",,,-0.395508170128,0.327354460955,0.050964999944,,0.00286976813144,-0.00529481399497,0.0598388311103,-0.99818994433
3636572000000,,37629,,3636,564312190,"""map""",,,-0.395711183548,0.326724112034,0.051400821656,,0.00282753937646,-0.00531399435072,0.0597889713885,-0.998192936756
3636604000000,,37630,,3636,596312190,"""map""",,,-0.395883470774,0.326848089695,0.0518780872226,,0.00285434312575,-0.00523478165385,0.0597689094886,-0.998194454042
3636640000000,,37631,,3636,636311236,"""map""",,,-0.396049022675,0.327988654375,0.0523776933551,,0.00283835959199,-0.00523920707294,0.0597794462008,-0.998193863986
3636672000000,,37632,,3636,668311236,"""map""",,,-0.396194458008,0.32837960124,0.0525941215456,,0.00280454242601,-0.00526664689391,0.0597771281241,-0.998193906133
3636704000000,,37633,,3636,700311236,"""map""",,,-0.396433442831,0.325909346342,0.0525617748499,,0.00278949509559,-0.00522692373614,0.0597244867103,-0.998197404322
3636740000000,,37634,,3636,732310282,"""map""",,,-0.396605312824,0.324377298355,0.0527207553387,,0.00278453115173,-0.00521563085028,0.0597081758799,-0.998198373699
3636772000000,,37635,,3636,764310282,"""map""",,,-0.396729588509,0.323703765869,0.0529962182045,,0.00278199781332,-0.00522328305515,0.0596541014733,-0.998201619007
3636804000000,,37636,,3636,796310282,"""map""",,,-0.396801829338,0.32379925251,0.0533360689878,,0.0027487496298,-0.00520414797433,0.0596266638749,-0.998203431321
3636840000000,,37637,,3636,836309329,"""map""",,,-0.396847099066,0.324880808592,0.0537856891751,,0.00277122830571,-0.00525604860787,0.0596366948249,-0.99820250409
3636872000000,,37638,,3636,868309329,"""map""",,,-0.396955549717,0.325201183558,0.0540597960353,,0.00274555626516,-0.00525430939182,0.0595585124209,-0.998207266684
3636904000000,,37639,,3636,900309329,"""map""",,,-0.397320687771,0.322693139315,0.0542779229581,,0.00274983326478,-0.00527859017479,0.059503384343,-0.998210385551
3636940000000,,37640,,3636,932308375,"""map""",,,-0.397624731064,0.321078419685,0.0545200295746,,0.00269532751149,-0.00526705445064,0.0594987903365,-0.998210849166
3636972000000,,37641,,3636,964308375,"""map""",,,-0.397861927748,0.320280790329,0.0549714080989,,0.00269103495375,-0.00528364598561,0.0593994923614,-0.998216749725
3637004000000,,37642,,3636,996308375,"""map""",,,-0.39803057909,0.320230215788,0.0553622767329,,0.00267978158056,-0.00529656613495,0.0593729398469,-0.998218267012
3637040000000,,37643,,3637,36307422,"""map""",,,-0.398218631744,0.321151018143,0.0558982826769,,0.00268312418785,-0.00531292388662,0.0593674607566,-0.998218435599
3637072000000,,37644,,3637,68307422,"""map""",,,-0.398388057947,0.321412444115,0.0562443137169,,0.0026131521052,-0.00527195624437,0.0593235015936,-0.998221512319
3637104000000,,37645,,3637,100307422,"""map""",,,-0.398653507233,0.318997591734,0.056379687041,,0.00260403488576,-0.00529312285267,0.0593162944825,-0.998221891641
3637140000000,,37646,,3637,132306469,"""map""",,,-0.39882093668,0.31747597456,0.0565326213837,,0.00258027171878,-0.00528874707137,0.0593092559588,-0.998222355256
3637172000000,,37647,,3637,164306469,"""map""",,,-0.3989405334,0.31673771143,0.0566611103714,,0.00254927452269,-0.00529740248648,0.0593658170295,-0.998218983508
3637204000000,,37648,,3637,196306469,"""map""",,,-0.399006724358,0.316702574492,0.0567571632564,,0.00252089948621,-0.00533680682638,0.0593815799508,-0.998217971984
3637240000000,,37649,,3637,236317516,"""map""",,,-0.399005055428,0.317564219236,0.0567387714982,,0.00254109754018,-0.00530794891213,0.0593709167981,-0.99821868848
3637272000000,,37650,,3637,268317516,"""map""",,,-0.399001538754,0.317694067955,0.056822873652,,0.00252657828014,-0.00531640495289,0.0593376629347,-0.998220669382
3637304000000,,37651,,3637,300317516,"""map""",,,-0.399084746838,0.315012216568,0.0567299164832,,0.00250086969036,-0.0053339436395,0.0593229536845,-0.998221470172
3637340000000,,37652,,3637,332316563,"""map""",,,-0.399136692286,0.313210964203,0.0567160248756,,0.00247013245472,-0.00537108785465,0.0593170109789,-0.998221680907
3637372000000,,37653,,3637,364316563,"""map""",,,-0.399171471596,0.31223243475,0.0567437447608,,0.00246966604058,-0.00536462506349,0.0593258618171,-0.998221259438
3637404000000,,37654,,3637,396316563,"""map""",,,-0.399134606123,0.312000751495,0.0567538514733,,0.00247088006738,-0.00543280187149,0.0593092138119,-0.998221891641
3637440000000,,37655,,3637,436315610,"""map""",,,-0.399020403624,0.312611192465,0.0568327903748,,0.00243202297795,-0.00543341925697,0.0593221950413,-0.998221132997
3637472000000,,37656,,3637,468315610,"""map""",,,-0.398964524269,0.312655538321,0.0570387020707,,0.002474113027,-0.00541180599085,0.0593158308671,-0.998221596613
3637504000000,,37657,,3637,500315610,"""map""",,,-0.399089157581,0.310083806515,0.0575243495405,,0.002459696006,-0.00541511600019,0.0593500541081,-0.998219573564
3637540000000,,37658,,3637,532314656,"""map""",,,-0.399176627398,0.30841460824,0.0579696446657,,0.00247663854519,-0.00541837826504,0.0593347548021,-0.998220374354
3637572000000,,37659,,3637,564314656,"""map""",,,-0.399214416742,0.30751234293,0.0583602748811,,0.00244645843821,-0.00539000059438,0.0593828022094,-0.99821776125
3637604000000,,37660,,3637,596314656,"""map""",,,-0.399237781763,0.30731087923,0.0586711540818,,0.00242949449632,-0.00529667611188,0.059347019535,-0.998220416501
3637640000000,,37661,,3637,636313703,"""map""",,,-0.399244725704,0.307980448008,0.0590130537748,,0.0024383311758,-0.00523777556182,0.059332563166,-0.998221554466
3637672000000,,37662,,3637,668313703,"""map""",,,-0.399248361588,0.308086901903,0.0592368729413,,0.00239926351677,-0.0052668181978,0.0593119955039,-0.998222734578
3637704000000,,37663,,3637,700313703,"""map""",,,-0.3992408216,0.305611014366,0.0594080090523,,0.00237227422256,-0.00532388914659,0.0593267890478,-0.998221596613
3637740000000,,37664,,3637,732312750,"""map""",,,-0.399180859327,0.303938746452,0.0597044117749,,0.00240841432198,-0.00529747443246,0.059293619478,-0.998223661808
3637772000000,,37665,,3637,764312750,"""map""",,,-0.399040400982,0.303020298481,0.0600397996604,,0.00244706479306,-0.0052895661361,0.0592840521434,-0.998224125424
3637804000000,,37666,,3637,796312750,"""map""",,,-0.398842185736,0.3027818501,0.0602306872606,,0.00238252743128,-0.00529412787391,0.0593168002447,-0.998222397403
3637840000000,,37667,,3637,836311797,"""map""",,,-0.398538082838,0.303339898586,0.0604258403182,,0.00237270820339,-0.00525907783029,0.0592985085124,-0.998223661808
3637872000000,,37668,,3637,868311797,"""map""",,,-0.398278623819,0.303325086832,0.0604815259576,,0.00237513345818,-0.00527472764661,0.0593204248736,-0.998222228816
3637904000000,,37669,,3637,900311797,"""map""",,,-0.398113518953,0.300789892673,0.0604280047119,,0.00233550175578,-0.0052900373247,0.0592913435482,-0.998223998983
3637940000000,,37670,,3637,932310844,"""map""",,,-0.397907078266,0.299062281847,0.0605206415057,,0.00234823685411,-0.00531718302323,0.0592937880654,-0.998223661808
3637972000000,,37671,,3637,972310844,"""map""",,,-0.397592633963,0.29791483283,0.0607419610023,,0.00235841696439,-0.00530492520503,0.0593248081459,-0.998221891641
3638004000000,,37672,,3637,996310844,"""map""",,,-0.397393286228,0.29771065712,0.0608613714576,,0.00233865980597,-0.00534419503722,0.0592861173389,-0.998223998983
3638040000000,,37673,,3638,36309891,"""map""",,,-0.397023618221,0.298113882542,0.0610520988703,,0.00238404438855,-0.00537066885571,0.0592668140823,-0.998224926214
3638072000000,,37674,,3638,68309891,"""map""",,,-0.39680364728,0.298025250435,0.0610939338803,,0.00242453417445,-0.00541518926326,0.0592727146411,-0.998224251864
3638104000000,,37675,,3638,100309891,"""map""",,,-0.396964639425,0.295544207096,0.0613298863173,,0.00236931505282,-0.00545580845315,0.0592852322551,-0.99822336678
3638140000000,,37676,,3638,132308939,"""map""",,,-0.397050142288,0.293862968683,0.0614257790148,,0.0024005715508,-0.00544619304479,0.0592973284006,-0.998222650284
3638172000000,,37677,,3638,164308939,"""map""",,,-0.397098124027,0.292901396751,0.0613638982177,,0.00235631735986,-0.00539136658032,0.059287213157,-0.998223661808
3638204000000,,37678,,3638,196308939,"""map""",,,-0.397072702646,0.292602062225,0.0612276531756,,0.00237350043244,-0.00540492370684,0.0592567831324,-0.998225347682
3638240000000,,37679,,3638,236307986,"""map""",,,-0.39699691534,0.293067455292,0.0612590610981,,0.00238791778271,-0.00545848527194,0.0592548443773,-0.998225179095
3638272000000,,37680,,3638,268307986,"""map""",,,-0.397019177675,0.29299300909,0.0612024739385,,0.00243742650028,-0.00547597753116,0.0592223491571,-0.998226822822
3638304000000,,37681,,3638,300307986,"""map""",,,-0.397212147713,0.29049795866,0.0609424412251,,0.00241525133106,-0.00544765814169,0.0591927199226,-0.998228803724
3638340000000,,37682,,3638,332307033,"""map""",,,-0.39735609293,0.288797110319,0.0607309453189,,0.00240498511609,-0.00544471790509,0.0591545348779,-0.998231079654
3638372000000,,37683,,3638,364307033,"""map""",,,-0.397420376539,0.287819057703,0.0604683347046,,0.0023770735303,-0.00542095679607,0.0591529754445,-0.998231374682
3638404000000,,37684,,3638,396307033,"""map""",,,-0.397451072931,0.287490040064,0.0601152591407,,0.00233418088013,-0.00541890905192,0.0590524130639,-0.998237443828
3638440000000,,37685,,3638,436306081,"""map""",,,-0.397423744202,0.287857621908,0.0597654469311,,0.00231353336954,-0.00542218679257,0.0590311289054,-0.99823875038
3638472000000,,37686,,3638,468306081,"""map""",,,-0.397412657738,0.287751883268,0.0595451779664,,0.00233788799181,-0.00545886870948,0.0589623031018,-0.998242585743
3638504000000,,37687,,3638,500306081,"""map""",,,-0.397457480431,0.285459727049,0.0595589801669,,0.00237596042545,-0.00547316702784,0.0589314516087,-0.998244187324
3638540000000,,37688,,3638,532317128,"""map""",,,-0.397457391024,0.283911049366,0.0597295686603,,0.00237663000057,-0.00548425247218,0.0589370992864,-0.998243850149
3638572000000,,37689,,3638,572317128,"""map""",,,-0.397419452667,0.282936811447,0.0599934086204,,0.00239142058095,-0.00544518925833,0.0588988720948,-0.998246252519
3638604000000,,37690,,3638,596317128,"""map""",,,-0.397373110056,0.282803654671,0.0600833706558,,0.00239951787958,-0.00546188220915,0.0589102938908,-0.998245451729
3638640000000,,37691,,3638,636316176,"""map""",,,-0.397227376699,0.283280670643,0.0602328851819,,0.00241200684691,-0.00549111137786,0.0589053627095,-0.99824557817
3638672000000,,37692,,3638,668316176,"""map""",,,-0.397105008364,0.283302307129,0.0602233782411,,0.00241977092202,-0.00545476120275,0.0589390380415,-0.998243765855
3638704000000,,37693,,3638,700316176,"""map""",,,-0.397014409304,0.281112968922,0.059987090528,,0.00235947112951,-0.00541720654973,0.0589069642897,-0.998245999638
3638740000000,,37694,,3638,732315223,"""map""",,,-0.396885097027,0.279673874378,0.0598132535815,,0.00234401426673,-0.00538479381223,0.0588999679129,-0.998246673988
3638772000000,,37695,,3638,764315223,"""map""",,,-0.3967192173,0.278928756714,0.0594868846238,,0.0022724459545,-0.00537311683028,0.0588467785901,-0.998250045736
3638804000000,,37696,,3638,796315223,"""map""",,,-0.39653673768,0.278795391321,0.0589754730463,,0.00228469916289,-0.00541520276343,0.0588163485654,-0.998251563022
3638840000000,,37697,,3638,836314271,"""map""",,,-0.396241635084,0.279388517141,0.0582353323698,,0.00231962325988,-0.00542199482685,0.0588187509358,-0.998251267994
3638872000000,,37698,,3638,868314271,"""map""",,,-0.396001368761,0.280428230762,0.0577015392482,,0.00234310382894,-0.00540710299525,0.0588372955491,-0.998250172176
3638904000000,,37699,,3638,900314271,"""map""",,,-0.395765006542,0.281963288784,0.057039514184,,0.00234209658512,-0.00541957154769,0.0588033673361,-0.998252153078
3638940000000,,37700,,3638,932313319,"""map""",,,-0.395477384329,0.283944636583,0.0562762990594,,0.00234462918266,-0.00544469255113,0.058797551071,-0.998252321665
3638972000000,,37701,,3638,964313319,"""map""",,,-0.39526027441,0.285196185112,0.0554615519941,,0.00235745153814,-0.00545568118943,0.0587929149177,-0.998252574546
3639004000000,,37702,,3638,996313319,"""map""",,,-0.395249396563,0.283692449331,0.0544459819794,,0.00226527127673,-0.00541945712558,0.058790048932,-0.998253164602
3639040000000,,37703,,3639,36312366,"""map""",,,-0.395225435495,0.282841056585,0.0533366948366,,0.00232032724396,-0.00539868959525,0.0588061490281,-0.998252153078
3639072000000,,37704,,3639,68312366,"""map""",,,-0.395187616348,0.282875359058,0.0524602197111,,0.00228039491599,-0.00539339506205,0.0587840219326,-0.998253543924
3639104000000,,37705,,3639,100312366,"""map""",,,-0.395125955343,0.283456712961,0.0515049286187,,0.00227358507187,-0.00538885225739,0.0587469327059,-0.998255819854
3639140000000,,37706,,3639,132311414,"""map""",,,-0.395022153854,0.284505069256,0.0506961196661,,0.00227565339553,-0.00535260218104,0.0587459211816,-0.998256072735
3639172000000,,37707,,3639,164311414,"""map""",,,-0.394949197769,0.284961938858,0.0501451529562,,0.00227683844637,-0.00536131637124,0.0587382083083,-0.998256452057
3639204000000,,37708,,3639,196311414,"""map""",,,-0.395029336214,0.282955050468,0.0501675643027,,0.00230426517877,-0.0053669360608,0.0587532968801,-0.998255440532
3639240000000,,37709,,3639,236310462,"""map""",,,-0.395069658756,0.281423687935,0.050218872726,,0.00230481177071,-0.00533713428764,0.0587338671829,-0.998256747084
3639272000000,,37710,,3639,268310462,"""map""",,,-0.39504545927,0.280929803848,0.0502786673605,,0.00225777638168,-0.00534195565662,0.0587323498964,-0.998256915672
3639304000000,,37711,,3639,300310462,"""map""",,,-0.395015865564,0.281036406755,0.0503941699862,,0.00223203881595,-0.00526483449711,0.0588042945668,-0.998253164602
3639340000000,,37712,,3639,332309510,"""map""",,,-0.39494112134,0.281682878733,0.050346173346,,0.00218552828689,-0.00527649682643,0.0588115438247,-0.998252827428
3639372000000,,37713,,3639,364309510,"""map""",,,-0.394829660654,0.281844317913,0.0502328462899,,0.00222285524815,-0.00526222155713,0.0588306784939,-0.998251647316
3639404000000,,37714,,3639,396309510,"""map""",,,-0.394744306803,0.279684871435,0.0500752367079,,0.00222108030606,-0.00527190364313,0.0588245672009,-0.998252026637
3639440000000,,37715,,3639,436308557,"""map""",,,-0.394594728947,0.278014302254,0.0497689321637,,0.00222680486883,-0.00525776090591,0.0588012599937,-0.998253417483
3639472000000,,37716,,3639,468308557,"""map""",,,-0.394432246685,0.277409762144,0.0495989620686,,0.00221471250994,-0.00526869488501,0.0587609676065,-0.998255777707
3639504000000,,37717,,3639,500308557,"""map""",,,-0.394226253033,0.277388602495,0.0494624525309,,0.00223513463368,-0.00531411667536,0.058790048932,-0.998253754658
3639540000000,,37718,,3639,532307605,"""map""",,,-0.393983781338,0.277894258499,0.0493342243135,,0.00224707058825,-0.00524421958446,0.0587859606877,-0.998254302567
3639572000000,,37719,,3639,564307605,"""map""",,,-0.393796622753,0.277950495481,0.0491156689823,,0.00226591269908,-0.00521016838823,0.058804505301,-0.998253375337
3639604000000,,37720,,3639,596307605,"""map""",,,-0.393860518932,0.2758063972,0.0486602075398,,0.0022223710533,-0.00523578115977,0.0588461885342,-0.998250888673
3639640000000,,37721,,3639,636306653,"""map""",,,-0.393889337778,0.274182319641,0.0479382090271,,0.00220920493759,-0.00523288866766,0.0588551658129,-0.998250425057
3639672000000,,37722,,3639,668306653,"""map""",,,-0.393877923489,0.27360239625,0.0471809059381,,0.00216918403538,-0.00521800868987,0.0588202682223,-0.998252616693
3639704000000,,37723,,3639,700306653,"""map""",,,-0.39381814003,0.273609787226,0.0465059876442,,0.00211101496363,-0.00522019160027,0.0588233870891,-0.9982525324
3639740000000,,37724,,3639,732305702,"""map""",,,-0.393747866154,0.274164378643,0.0459279157221,,0.00210795092067,-0.00517505347797,0.0588423953178,-0.998251647316
3639772000000,,37725,,3639,764305702,"""map""",,,-0.393734514713,0.27424287796,0.0453789643943,,0.00205200229636,-0.00513713185102,0.0588306784939,-0.99825265884
3639804000000,,37726,,3639,796305702,"""map""",,,-0.393947124481,0.27209046483,0.0449015051126,,0.00206390812252,-0.00507006436124,0.0588108273283,-0.99825413398
3639840000000,,37727,,3639,836316750,"""map""",,,-0.394160121679,0.270440608263,0.044336386025,,0.00205961605869,-0.00511869293407,0.0588225020053,-0.998253248896
3639872000000,,37728,,3639,868316750,"""map""",,,-0.394307255745,0.269835323095,0.043885178864,,0.00202557786871,-0.00515301824946,0.0587828839677,-0.998255440532
3639904000000,,37729,,3639,900316750,"""map""",,,-0.394422203302,0.269816964865,0.0435198433697,,0.00201680984249,-0.00522221695391,0.0587995741197,-0.998254091833
3639940000000,,37730,,3639,932315798,"""map""",,,-0.394526690245,0.270318180323,0.0432624295354,,0.00203651234172,-0.00519624642805,0.0587890795545,-0.998254808329
3639972000000,,37731,,3639,964315798,"""map""",,,-0.394710421562,0.270331591368,0.0431460551918,,0.0019315296458,-0.00514992062073,0.058760546138,-0.998256957819
3640004000000,,37732,,3639,996315798,"""map""",,,-0.395087599754,0.268107533455,0.0431212000549,,0.00192909550066,-0.00518184504748,0.0587934628267,-0.998254892623
3640040000000,,37733,,3640,36314846,"""map""",,,-0.3954885602,0.266296416521,0.0429941564798,,0.00193456207862,-0.00516655825382,0.0587943900574,-0.998254892623
3640072000000,,37734,,3640,68314846,"""map""",,,-0.395744353533,0.265564501286,0.0427989736199,,0.00192349556743,-0.00515465209839,0.0587176827931,-0.998259528776
3640104000000,,37735,,3640,100314846,"""map""",,,-0.395933896303,0.265377193689,0.0426972843707,,0.00188934180289,-0.00520506664392,0.0587510209502,-0.998257379287
3640140000000,,37736,,3640,132313895,"""map""",,,-0.396108746529,0.265730589628,0.0425762906671,,0.00185614704378,-0.0052111175155,0.0587328978054,-0.998258475105
3640172000000,,37737,,3640,164313895,"""map""",,,-0.39629817009,0.265682458878,0.0424443595111,,0.00186049047409,-0.00520250935096,0.058720211604,-0.998259275895
3640204000000,,37738,,3640,196313895,"""map""",,,-0.396600365639,0.263685703278,0.0423762276769,,0.00179759025395,-0.00511959003633,0.0586792027204,-0.998262184028
3640240000000,,37739,,3640,236312943,"""map""",,,-0.396909683943,0.262199938297,0.0421664230525,,0.00177804415905,-0.00509906830773,0.0586557269258,-0.998263743461
3640272000000,,37740,,3640,268312943,"""map""",,,-0.397108584642,0.261726766825,0.0419987216592,,0.00174035944348,-0.00513015835859,0.0586624282747,-0.998263195552
3640304000000,,37741,,3640,300312943,"""map""",,,-0.397291362286,0.261816293001,0.0417972393334,,0.00168231401346,-0.00515681624028,0.0585844566049,-0.998267747412
3640340000000,,37742,,3640,332311991,"""map""",,,-0.39741936326,0.262387573719,0.0414686650038,,0.0016553983116,-0.00536098051355,0.0586015260786,-0.998265682216
3640372000000,,37743,,3640,364311991,"""map""",,,-0.397570610046,0.262597203255,0.0411695726216,,0.00164293288725,-0.00539244692259,0.0585745942424,-0.998267157356
3640404000000,,37744,,3640,396311991,"""map""",,,-0.397821068764,0.260823637247,0.0412009581923,,0.00163283377795,-0.0054129167908,0.058574425655,-0.998267073062
3640440000000,,37745,,3640,436311040,"""map""",,,-0.398078501225,0.25949010253,0.0411254577339,,0.0016761953118,-0.00542454372336,0.0585469880566,-0.998268548202
3640472000000,,37746,,3640,468311040,"""map""",,,-0.398241817951,0.259100437164,0.0408653058112,,0.00170250531735,-0.00545386426513,0.0584972547754,-0.9982712456
3640504000000,,37747,,3640,500311040,"""map""",,,-0.39837628603,0.259233981371,0.0407154858112,,0.00178797369314,-0.00539367280319,0.0585308458136,-0.998269433286
3640540000000,,37748,,3640,532310088,"""map""",,,-0.398506850004,0.259847551584,0.0405646190047,,0.00178036256499,-0.00536370277191,0.0585366620787,-0.998269264698
3640572000000,,37749,,3640,564310088,"""map""",,,-0.398639202118,0.260039925575,0.0404432527721,,0.00176801386764,-0.00535478311582,0.058553267937,-0.998268421762
3640604000000,,37750,,3640,596310088,"""map""",,,-0.398821473122,0.25830706954,0.0402930378914,,0.00175186108795,-0.00535695301997,0.0585340489741,-0.99826951758
3640640000000,,37751,,3640,636309137,"""map""",,,-0.398958176374,0.257031202316,0.0398256257176,,0.00174516385494,-0.00537126566167,0.058507370019,-0.998270992719
3640672000000,,37752,,3640,668309137,"""map""",,,-0.399028271437,0.256673783064,0.0394854769111,,0.00177058054486,-0.00534616112185,0.0584983084466,-0.998271624922
3640704000000,,37753,,3640,700309137,"""map""",,,-0.399098187685,0.256863415241,0.0392006710172,,0.00177729736957,-0.00539133694582,0.0585220371223,-0.998269981195
3640740000000,,37754,,3640,732308185,"""map""",,,-0.399164438248,0.257509887218,0.0389130376279,,0.00175432141023,-0.00539959772813,0.0585088451587,-0.998270781985
3640772000000,,37755,,3640,764308185,"""map""",,,-0.399213820696,0.257739424706,0.038572113961,,0.00172627120083,-0.00544143259118,0.0584694378553,-0.998272931474
3640804000000,,37756,,3640,796308185,"""map""",,,-0.399337291718,0.255980491638,0.0382520370185,,0.00165443749517,-0.00545275395909,0.0584370269288,-0.998274828082
3640840000000,,37757,,3640,836307234,"""map""",,,-0.399425894022,0.254640817642,0.0377399250865,,0.00165255652742,-0.00543612192363,0.0584181872876,-0.998276050341
3640872000000,,37758,,3640,868307234,"""map""",,,-0.399440199137,0.254169017076,0.037049587816,,0.00161536440315,-0.00539261073554,0.0584193252525,-0.998276261075
3640904000000,,37759,,3640,900307234,"""map""",,,-0.399428129196,0.254208087921,0.0360745936632,,0.00154005835693,-0.00537289144343,0.058425858014,-0.998276134635
3640940000000,,37760,,3640,932306283,"""map""",,,-0.399421751499,0.254711985588,0.0352055616677,,0.00153195282649,-0.0054099564686,0.058413888309,-0.998276640397
3640972000000,,37761,,3640,964306283,"""map""",,,-0.399417281151,0.254809081554,0.0345338247716,,0.00155328110747,-0.00542126301926,0.058411106617,-0.998276724691
3641004000000,,37762,,3640,996306283,"""map""",,,-0.399495482445,0.252977728844,0.034120619297,,0.00157543668499,-0.00538840675203,0.0583860292421,-0.998278368418
3641040000000,,37763,,3641,36305332,"""map""",,,-0.399522781372,0.251559138298,0.0336426943541,,0.00153357317526,-0.00542329759252,0.0583659251954,-0.998279337795
3641072000000,,37764,,3641,68305332,"""map""",,,-0.399513602257,0.251051723957,0.0332828573883,,0.00151545859147,-0.00546030713532,0.0583915926261,-0.998277694068
3641104000000,,37765,,3641,100305332,"""map""",,,-0.399483859539,0.251091957092,0.0329095870256,,0.00149768859111,-0.00549295694885,0.0583285830876,-0.998281192257
3641140000000,,37766,,3641,132316381,"""map""",,,-0.399426758289,0.251611053944,0.0325915031135,,0.00155373039946,-0.00546987858584,0.0583528596724,-0.998279843557
3641172000000,,37767,,3641,164316381,"""map""",,,-0.399340748787,0.251722365618,0.0322097837925,,0.00152792286338,-0.00551458305658,0.0583623005664,-0.998279084914
3641204000000,,37768,,3641,196316381,"""map""",,,-0.399228811264,0.249958187342,0.0316843874753,,0.00152046978591,-0.00550571937678,0.0583618369511,-0.998279211355
3641240000000,,37769,,3641,236315430,"""map""",,,-0.399066835642,0.248620703816,0.0309554152191,,0.00155271097257,-0.00548995233953,0.0583513845327,-0.998279801411
3641272000000,,37770,,3641,268315430,"""map""",,,-0.398924976587,0.248187601566,0.0303843468428,,0.00151052987974,-0.00550477354223,0.0583516795606,-0.998279759264
3641304000000,,37771,,3641,300315430,"""map""",,,-0.398754090071,0.248260632157,0.0298306457698,,0.00154966191149,-0.00556719039069,0.05836158407,-0.998278789886
3641340000000,,37772,,3641,332314479,"""map""",,,-0.398558944464,0.248767912388,0.0294461213052,,0.00154003168588,-0.00559344293823,0.0583619633916,-0.998278663446
3641372000000,,37773,,3641,364314479,"""map""",,,-0.398379802704,0.248870208859,0.0289618279785,,0.00154028654261,-0.0055857366504,0.0583182149629,-0.99828127655
3641404000000,,37774,,3641,396314479,"""map""",,,-0.398300528526,0.247082620859,0.0283824000508,,0.00155179164443,-0.00554150913052,0.0582882064067,-0.998283215305
3641440000000,,37775,,3641,436313528,"""map""",,,-0.398144155741,0.245659783483,0.0275177434087,,0.00153405111393,-0.00559353546374,0.0582705468772,-0.998284016095
3641472000000,,37776,,3641,468313528,"""map""",,,-0.39796769619,0.245157122612,0.0268408209085,,0.00147460545365,-0.00561463276023,0.0582465653204,-0.998285406941
3641504000000,,37777,,3641,500313528,"""map""",,,-0.397745370865,0.245118185878,0.0261427741498,,0.00148420769112,-0.00557914643087,0.0581757164681,-0.998289748067
3641540000000,,37778,,3641,532312577,"""map""",,,-0.397512018681,0.245506376028,0.0254794508219,,0.00147516373476,-0.00556885749612,0.0581162894117,-0.998293204108
3641572000000,,37779,,3641,564312577,"""map""",,,-0.397307664156,0.245491668582,0.0249563753605,,0.00145378688612,-0.00560837197759,0.0581137184539,-0.998293161962
3641604000000,,37780,,3641,596312577,"""map""",,,-0.397192031145,0.24368134141,0.0246740877628,,0.00140911139133,-0.00556819467107,0.0580702650531,-0.9982959858
3641640000000,,37781,,3641,636311626,"""map""",,,-0.397017091513,0.242242008448,0.0242394413799,,0.00141475939831,-0.00556390985123,0.0580311106308,-0.998298303877
3641672000000,,37782,,3641,668311626,"""map""",,,-0.396850496531,0.241667374969,0.0238640028983,,0.00136753945218,-0.00560483608749,0.0580025350675,-0.998299821164
3641704000000,,37783,,3641,700311626,"""map""",,,-0.396654337645,0.241548657417,0.0235745348036,,0.00138132427045,-0.00557693931895,0.0579221188806,-0.998304625904
3641740000000,,37784,,3641,732310675,"""map""",,,-0.396383702755,0.241855606437,0.0231890138239,,0.00135837613462,-0.0055807547612,0.0578827958709,-0.998306859687
3641772000000,,37785,,3641,764310675,"""map""",,,-0.396136015654,0.241761565208,0.0227166358382,,0.00131024147017,-0.00556508699954,0.0578473503713,-0.99830909347
3641804000000,,37786,,3641,796310675,"""map""",,,-0.396054327488,0.239902347326,0.0220311768353,,0.00131949138633,-0.00558249628215,0.057824338192,-0.998310357876
3641840000000,,37787,,3641,836309724,"""map""",,,-0.395876556635,0.238408818841,0.02131655626,,0.00129681950992,-0.00564189321014,0.0577852680635,-0.998312254484
3641872000000,,37788,,3641,868309724,"""map""",,,-0.395669877529,0.237787902355,0.020929729566,,0.00123487286223,-0.00562770223454,0.0577840458049,-0.998312465218
3641904000000,,37789,,3641,900309724,"""map""",,,-0.395409345627,0.237604290247,0.0205524414778,,0.00118007257491,-0.00563076199696,0.0577437955645,-0.998314867589
3641940000000,,37790,,3641,932308773,"""map""",,,-0.395104467869,0.237819507718,0.0201981663704,,0.00116161390162,-0.00566425458281,0.0577690836736,-0.998313266008
3641972000000,,37791,,3641,964308773,"""map""",,,-0.394809007645,0.237719371915,0.0198811776936,,0.00119457191398,-0.00570447732891,0.0577512555567,-0.998313982505
3642004000000,,37792,,3641,996308773,"""map""",,,-0.394613772631,0.236033424735,0.0195518694818,,0.00117514287536,-0.00571686125838,0.0577810955255,-0.998312212337
3642040000000,,37793,,3642,36307823,"""map""",,,-0.394319593906,0.234706476331,0.0190440360457,,0.00115386513767,-0.00572056771151,0.0577521406405,-0.998313940358
3642072000000,,37794,,3642,68307823,"""map""",,,-0.394041627645,0.234202921391,0.0185887031257,,0.00114178035204,-0.00570482899168,0.0577346075516,-0.998315036176
3642104000000,,37795,,3642,100307823,"""map""",,,-0.393737882376,0.234136879444,0.0180510301143,,0.00113499240452,-0.00570200218938,0.0577162315256,-0.998316131994
3642136000000,,37796,,3642,132306872,"""map""",,,-0.393415302038,0.234462305903,0.0175539404154,,0.00114182513306,-0.00573764624014,0.0576989091709,-0.998316932784
3642172000000,,37797,,3642,164306872,"""map""",,,-0.393149733543,0.234449237585,0.017062433064,,0.00109920973014,-0.00572819513864,0.0577100780857,-0.998316384875
3642204000000,,37798,,3642,196306872,"""map""",,,-0.393143862486,0.232791483402,0.0165782887489,,0.00111106912891,-0.00574302852441,0.0576768242222,-0.99831819719
3642240000000,,37799,,3642,236305921,"""map""",,,-0.393078476191,0.231452181935,0.015931610018,,0.00109391783111,-0.0057315700146,0.0576838205991,-0.998317860015
