rosbagTimestamp,header,seq,stamp,secs,nsecs,frame_id,pose,position,x,y,z,orientation,x,y,z,w
97052000000,,21,,96,968000000,"""map""",,,0.00954318605363,0.00234678597189,0.0795733556151,,0.0112341147129,-0.0182214378959,0.0522527355531,-0.998404471789
97052000000,,22,,96,968000000,"""map""",,,0.0088749229908,0.00218111998402,0.0747321099043,,0.0112436224493,-0.0182392228781,0.0522685827682,-0.998403207383
97052000000,,23,,96,968000000,"""map""",,,0.00865421444178,0.00211963895708,0.0712943077087,,0.0112674258698,-0.0182788504646,0.0523199176297,-0.99839949846
97072000000,,24,,97,72000000,"""map""",,,0.0086800288409,0.00214218162,0.0681505724788,,0.0112949161517,-0.0183511823592,0.0523854138323,-0.998394440839
97108000000,,25,,97,108000000,"""map""",,,0.00895098689944,0.00224724877626,0.0651991218328,,0.0112965648179,-0.018399751663,0.0524006709914,-0.998392754965
97140000000,,26,,97,140000000,"""map""",,,0.00922649540007,0.00232683983631,0.062508456409,,0.0112713936005,-0.0184700358134,0.0524974823024,-0.998386643672
97172000000,,27,,97,172000000,"""map""",,,0.00949336402118,0.00239535537548,0.0601772591472,,0.0112503636401,-0.0185375036983,0.0524610252785,-0.998387528755
97208000000,,28,,97,208000000,"""map""",,,0.010194119066,0.00258204992861,0.05734635517,,0.011259627715,-0.0185726755726,0.0524571056216,-0.998386980846
97240000000,,29,,97,240000000,"""map""",,,0.0110081713647,0.00282089342363,0.0552381500602,,0.0113090682732,-0.018597800692,0.0524134414865,-0.998388245252
97272000000,,30,,97,272000000,"""map""",,,0.0120209930465,0.00314574735239,0.053328666836,,0.0112421206385,-0.0186804480277,0.0523776166653,-0.99838934107
97308000000,,31,,97,308000000,"""map""",,,0.0132226450369,0.00351123372093,0.0514658540487,,0.0112762737445,-0.0187087670879,0.0524332926522,-0.998385505707
97340000000,,32,,97,340000000,"""map""",,,0.014141889289,0.00377858360298,0.0496688112617,,0.0111880597321,-0.0187919234786,0.052464228439,-0.998383314071
97372000000,,33,,97,372000000,"""map""",,,0.0148389721289,0.00396994454786,0.0478546544909,,0.0111768341824,-0.0188211114883,0.0525447710665,-0.99837863577
97408000000,,34,,97,408000000,"""map""",,,0.0160170998424,0.00432662013918,0.0460605472326,,0.0111448911517,-0.0188457262356,0.0525881823204,-0.998376275547
97440000000,,35,,97,440000000,"""map""",,,0.0171631202102,0.00469081290066,0.0448123961687,,0.0111609435034,-0.0188843199072,0.052633363742,-0.998372988093
97472000000,,36,,97,472000000,"""map""",,,0.0185069013387,0.00512840272859,0.0436479598284,,0.0111207930326,-0.0189190044587,0.0526681348921,-0.998370922897
97508000000,,37,,97,508000000,"""map""",,,0.0200715009123,0.00562364561483,0.0427233166993,,0.0111334515751,-0.0189300456159,0.0526848250441,-0.998369742785
97540000000,,38,,97,540000000,"""map""",,,0.0212076492608,0.00595321552828,0.0417184904218,,0.0112967930036,-0.0189295332683,0.0527206077185,-0.998365991716
97572000000,,39,,97,572000000,"""map""",,,0.0219967830926,0.00610108906403,0.0406444221735,,0.0112694851385,-0.0189359231256,0.0527119254677,-0.998366666065
97608000000,,40,,97,608000000,"""map""",,,0.0233064591885,0.0063962303102,0.0395104847848,,0.0112117047726,-0.0189544147261,0.0527097759784,-0.998367045387
97640000000,,41,,97,640000000,"""map""",,,0.0246034841985,0.00670160353184,0.0387707278132,,0.0110860785174,-0.0189041674509,0.052773586307,-0.998366033863
97672000000,,42,,97,672000000,"""map""",,,0.0261133946478,0.0070530208759,0.038206987083,,0.0110561275839,-0.0189056956034,0.0528015296676,-0.998364895898
97708000000,,43,,97,708000000,"""map""",,,0.027802804485,0.00742645608261,0.0375550985336,,0.0109636218368,-0.0188883798341,0.0528177140574,-0.998365317366
97740000000,,44,,97,740000000,"""map""",,,0.0289986114949,0.00765561778098,0.0370024293661,,0.0109130607651,-0.0189497779142,0.0528762981769,-0.998361608444
97772000000,,45,,97,772000000,"""map""",,,0.0297398772091,0.00774398259819,0.0366163663566,,0.010836785506,-0.018882659058,0.0528975401885,-0.998362619968
97808000000,,46,,97,808000000,"""map""",,,0.0309952571988,0.00790710374713,0.0364292412996,,0.0108050723074,-0.0188803992625,0.0529009119364,-0.998362788555
97840000000,,47,,97,840000000,"""map""",,,0.0322704613209,0.00812211446464,0.0364031046629,,0.0107184733754,-0.0188136179103,0.0528910917207,-0.9983655281
97872000000,,48,,97,872000000,"""map""",,,0.033775664866,0.00837992038578,0.0365358777344,,0.0106562774686,-0.0187578948375,0.0529687683625,-0.99836312573
97908000000,,49,,97,908000000,"""map""",,,0.0354625247419,0.00868615414947,0.0368578955531,,0.0106500390765,-0.0187492474896,0.0529368631982,-0.998365022338
97940000000,,50,,97,940000000,"""map""",,,0.0365303270519,0.00899747014046,0.0371166616678,,0.0106051171214,-0.0186525955463,0.0529686419219,-0.998365696688
97972000000,,51,,97,972000000,"""map""",,,0.0370012000203,0.0093217920512,0.037008497864,,0.010590725619,-0.0185941019768,0.0530271838945,-0.99836380008
98004000000,,52,,98,4000000,"""map""",,,0.0379095599055,0.00980074610561,0.0369749441743,,0.0105881895641,-0.0185553499252,0.0530449277178,-0.998363589345
98040000000,,53,,98,40000000,"""map""",,,0.0389060564339,0.0102257253602,0.0368039235473,,0.0105925543971,-0.0185135850325,0.0530470350602,-0.998364179401
98072000000,,54,,98,72000000,"""map""",,,0.0401132106781,0.0106843803078,0.0366515927017,,0.010613670956,-0.0182085014475,0.0530325786911,-0.998370374988
98108000000,,55,,98,108000000,"""map""",,,0.0415809340775,0.0111835962161,0.0367180071771,,0.010581974221,-0.0182060355276,0.0530363297607,-0.998370585722
98140000000,,56,,98,140000000,"""map""",,,0.0425714328885,0.0114445816725,0.0363129973412,,0.0106127713842,-0.0181465969467,0.0530182066158,-0.998372271596
98172000000,,57,,98,172000000,"""map""",,,0.0430971644819,0.0114824743941,0.0356774516404,,0.0106324325598,-0.0180614975205,0.0529503923365,-0.998377202778
98208000000,,58,,98,208000000,"""map""",,,0.0440400540829,0.0116063989699,0.0350382700562,,0.0106200022029,-0.0180011797826,0.0528999425589,-0.998381122434
98240000000,,59,,98,240000000,"""map""",,,0.045060813427,0.0117800598964,0.0345667116344,,0.0105541039589,-0.0179424629665,0.052843423635,-0.998385885028
98272000000,,60,,98,272000000,"""map""",,,0.0463263466954,0.011978504248,0.0341730713844,,0.0105591856176,-0.0178348169519,0.0528368908735,-0.998388034518
98308000000,,61,,98,308000000,"""map""",,,0.0478091835976,0.0122250523418,0.033925678581,,0.0105800914423,-0.0178061561071,0.052830358112,-0.99838866672
98340000000,,62,,98,340000000,"""map""",,,0.0486044213176,0.0122711239383,0.0337680950761,,0.0104463808947,-0.0177418107111,0.0527637660913,-0.99839482016
98372000000,,63,,98,372000000,"""map""",,,0.0487788468599,0.0121436445042,0.0337707027793,,0.0103360015911,-0.0176035209742,0.0527464437366,-0.998399329873
98408000000,,64,,98,408000000,"""map""",,,0.0493589527905,0.0120559027418,0.0338489152491,,0.0102916367647,-0.0175192667899,0.0527635132102,-0.998400383544
98440000000,,65,,98,440000000,"""map""",,,0.0501013174653,0.0120382970199,0.0339351370931,,0.0102510197151,-0.0174269816552,0.0527494361628,-0.998403080942
98472000000,,66,,98,472000000,"""map""",,,0.0510652959347,0.0121038639918,0.0341041348875,,0.0102288830707,-0.0173407218736,0.0527464437366,-0.998404977551
98508000000,,67,,98,508000000,"""map""",,,0.052248518914,0.0122179482132,0.0341457724571,,0.0102307842887,-0.0173555582228,0.0527389415976,-0.998405146138
98540000000,,68,,98,540000000,"""map""",,,0.052665296942,0.0123798046261,0.0341193750501,,0.0101838228213,-0.0172827146391,0.0526832234638,-0.998409782291
98572000000,,69,,98,572000000,"""map""",,,0.0523691438138,0.0125747267157,0.0339739844203,,0.0102280519876,-0.0171639856498,0.0526338695042,-0.998414039123
98608000000,,70,,98,608000000,"""map""",,,0.0523599237204,0.0128723857924,0.0339200869203,,0.0102480901798,-0.0170809800658,0.0525694691197,-0.998418590983
98640000000,,71,,98,640000000,"""map""",,,0.0526196137071,0.013168447651,0.034077629447,,0.0101930417859,-0.0168836030815,0.0524418906093,-0.998429254135
98672000000,,72,,98,672000000,"""map""",,,0.0531230196357,0.013516401872,0.034300673753,,0.0101382482486,-0.0167334812755,0.0523087908617,-0.998439285085
98708000000,,73,,98,708000000,"""map""",,,0.05386294052,0.013919332996,0.034648951143,,0.0101841758012,-0.0167063880959,0.0522615020976,-0.998441813896
98740000000,,74,,98,740000000,"""map""",,,0.0538490489125,0.0141063015908,0.0350511930883,,0.0102048936114,-0.0165583789006,0.0522056996702,-0.998446955812
98772000000,,75,,98,772000000,"""map""",,,0.0531046614051,0.0140812760219,0.0354140885174,,0.0101779739583,-0.0163688455107,0.0521650279614,-0.998452477049
98808000000,,76,,98,804000000,"""map""",,,0.052530515939,0.0141401682049,0.0356287136674,,0.0101640813033,-0.0163356311599,0.0521647750803,-0.998453151399
98840000000,,77,,98,840000000,"""map""",,,0.0523477420211,0.0142352292314,0.0357042402029,,0.0101127286611,-0.0161231076519,0.0521144517432,-0.998459810601
98872000000,,78,,98,872000000,"""map""",,,0.052409760654,0.0143583500758,0.0358755663037,,0.0101032983038,-0.016007743825,0.0520596608401,-0.998464615341
98908000000,,79,,98,908000000,"""map""",,,0.0526773482561,0.0145199624822,0.0360369309783,,0.0100250763871,-0.0158893612301,0.0520289779344,-0.99846891432
98940000000,,80,,98,940000000,"""map""",,,0.0522217452526,0.0146698430181,0.0356939062476,,0.00996545934064,-0.0157933220625,0.0519933217006,-0.998472876124
98972000000,,81,,98,972000000,"""map""",,,0.0511205643415,0.0147947138175,0.0349581502378,,0.00993481924031,-0.0156062183725,0.0519175416669,-0.998480041088
99008000000,,82,,99,8000000,"""map""",,,0.0501459427178,0.015069777146,0.0341250784695,,0.00993619790324,-0.0155510313549,0.0518262515931,-0.998485604472
99040000000,,83,,99,40000000,"""map""",,,0.0496186874807,0.015361581929,0.0336905233562,,0.00985667601972,-0.0154200218276,0.0517546019506,-0.99849217938
99072000000,,84,,99,72000000,"""map""",,,0.049327455461,0.0157222319394,0.0333844088018,,0.00990196708899,-0.0153003626441,0.0517122865147,-0.998495804009
99108000000,,85,,99,108000000,"""map""",,,0.049251716584,0.0161571931094,0.0331210233271,,0.0098754540871,-0.0152295796462,0.0516564840873,-0.9984999344
99140000000,,86,,99,140000000,"""map""",,,0.0484934560955,0.0164211001247,0.0327809751034,,0.0100495034493,-0.0151414018537,0.0515462700784,-0.99850528705
99172000000,,87,,99,172000000,"""map""",,,0.0471083931625,0.0165600813925,0.0323664881289,,0.0100111812626,-0.0149696246347,0.0514188601554,-0.998514854385
99208000000,,88,,99,208000000,"""map""",,,0.0457201525569,0.0167610030621,0.0319979675114,,0.00996392806002,-0.0148692848422,0.05135968598,-0.998519827713
99240000000,,89,,99,240000000,"""map""",,,0.0448728688061,0.0169851742685,0.0319602452219,,0.00994105993734,-0.0147849893342,0.0512533073344,-0.998526739796
99272000000,,90,,99,272000000,"""map""",,,0.044254116714,0.0172336827964,0.0321537368,,0.00988696116456,-0.0146539528065,0.0511872632228,-0.998532682502
99308000000,,91,,99,308000000,"""map""",,,0.0438694804907,0.0175239127129,0.0325925126672,,0.00987528994488,-0.014594925322,0.0511400587525,-0.99853605425
99340000000,,92,,99,340000000,"""map""",,,0.0428975634277,0.017487347126,0.0323636233807,,0.00985769758689,-0.0144855107862,0.0510139975286,-0.998544272885
99372000000,,93,,99,372000000,"""map""",,,0.0414191670716,0.0171439945698,0.0315615683794,,0.0098230537006,-0.0143885906507,0.0509275543423,-0.998550384178
99408000000,,94,,99,408000000,"""map""",,,0.0399558693171,0.0168586168438,0.0307217985392,,0.00978207296977,-0.0142885532947,0.0508985573105,-0.998553755926
99440000000,,95,,99,440000000,"""map""",,,0.0390568040311,0.0167248174548,0.030380262062,,0.00962702129955,-0.0141463880234,0.0507628023114,-0.998564166198
99472000000,,96,,99,472000000,"""map""",,,0.0384029075503,0.0166599228978,0.0300825871527,,0.00950332211016,-0.0140245054291,0.0506162155723,-0.998574450029
99508000000,,97,,99,508000000,"""map""",,,0.0379547961056,0.0166421439499,0.0298951342702,,0.00949131289252,-0.0140252429989,0.0505493285237,-0.998578032511
99540000000,,98,,99,540000000,"""map""",,,0.0370227992535,0.0164557434618,0.029530774802,,0.00948198921937,-0.0139251139407,0.050491376607,-0.99858245793
99572000000,,99,,99,572000000,"""map""",,,0.0356439203024,0.0160935055465,0.0288373976946,,0.00940617033162,-0.0137617810732,0.0503737868997,-0.998591393062
99608000000,,100,,99,608000000,"""map""",,,0.0342888534069,0.0156871695071,0.0282244067639,,0.00938958505283,-0.0136866995907,0.0503632923344,-0.998593036789
99640000000,,101,,99,640000000,"""map""",,,0.0334838926792,0.015398485586,0.0278855264187,,0.0093205427527,-0.0135586237145,0.0502914319577,-0.998599063788
99672000000,,102,,99,672000000,"""map""",,,0.0329069495201,0.0151718072593,0.0275972951204,,0.00923959067515,-0.0135065629724,0.050197865954,-0.998605301522
99708000000,,103,,99,708000000,"""map""",,,0.0325266569853,0.0149636762217,0.0273200981319,,0.00918804919532,-0.0134183455025,0.0501613667832,-0.998608757563
99740000000,,104,,99,740000000,"""map""",,,0.0316608138382,0.0144848925993,0.0271535459906,,0.0091660841018,-0.0134526912328,0.0500393095099,-0.998614573828
99772000000,,105,,99,772000000,"""map""",,,0.030352069065,0.0137328756973,0.0269353445619,,0.00909754130769,-0.0133495304002,0.0499443105133,-0.998621401618
99808000000,,106,,99,808000000,"""map""",,,0.0290695298463,0.0128930462524,0.0267402939498,,0.00909080192783,-0.0133031621168,0.049878182108,-0.998625405568
99840000000,,107,,99,840000000,"""map""",,,0.0283066593111,0.0123016424477,0.0267447456717,,0.00902608675903,-0.0131963659539,0.0497793056014,-0.998632317652
99872000000,,108,,99,872000000,"""map""",,,0.0278071276844,0.0117346644402,0.0269022826105,,0.00923555527904,-0.0131494999755,0.0496451943295,-0.998637712448
99908000000,,109,,99,908000000,"""map""",,,0.0275182146579,0.0111820520833,0.0271955095232,,0.00915806253579,-0.0131538705708,0.0495894761957,-0.998641084196
99940000000,,110,,99,940000000,"""map""",,,0.0267718266696,0.0105461953208,0.0273063797504,,0.00910943478614,-0.01307048122,0.0494259042767,-0.998650735824
99972000000,,111,,99,972000000,"""map""",,,0.025354096666,0.00966414622962,0.0272433739156,,0.00900620875769,-0.0129967458024,0.0493209586239,-0.998657816495
100008000000,,112,,100,8000000,"""map""",,,0.0245018191636,0.00903711933643,0.0272715948522,,0.00899675107074,-0.0129782996415,0.0492629645603,-0.998661019655
100040000000,,113,,100,40000000,"""map""",,,0.0238869711757,0.00845253746957,0.0274027846754,,0.00900476275859,-0.0129545144956,0.0491513175586,-0.998666793774
100072000000,,114,,100,72000000,"""map""",,,0.0234947353601,0.0079000769183,0.0276410244405,,0.00889557673771,-0.0128914647858,0.0490537897512,-0.998673284388
100108000000,,115,,100,108000000,"""map""",,,0.0232840012759,0.00740331644192,0.0279628559947,,0.00892014736257,-0.0128409751662,0.0489760288157,-0.998677625514
100140000000,,116,,100,140000000,"""map""",,,0.0227692667395,0.00688802264631,0.0281812045723,,0.00887347977065,-0.0127572878241,0.0488247637764,-0.998686518499
100172000000,,117,,100,172000000,"""map""",,,0.0219732094556,0.00633596349508,0.0283140055835,,0.00887770120559,-0.0127127990266,0.0487259294166,-0.998691786855
100208000000,,118,,100,208000000,"""map""",,,0.0212654471397,0.00567596172914,0.0285976305604,,0.00886798322892,-0.0126051288106,0.0486686097026,-0.998696085833
100240000000,,119,,100,240000000,"""map""",,,0.0209237094969,0.0051479046233,0.0289569739252,,0.00892141654248,-0.0125984943039,0.0484881790441,-0.998704473056
100272000000,,120,,100,272000000,"""map""",,,0.020766325295,0.00465260725468,0.0293012093753,,0.00885567256252,-0.0126094513321,0.048327683845,-0.998712733839
100308000000,,121,,100,308000000,"""map""",,,0.0207662638277,0.00422570621595,0.029655309394,,0.00888836995589,-0.0125670641148,0.0482206729966,-0.998718086488
100340000000,,122,,100,340000000,"""map""",,,0.0203602444381,0.00368498568423,0.0300123300403,,0.00880350233733,-0.012526440809,0.0480853394661,-0.998725883655
100372000000,,123,,100,372000000,"""map""",,,0.019606616348,0.00304172048345,0.0303669776767,,0.00875196069286,-0.0125006324498,0.0479718801499,-0.998732121389
100408000000,,124,,100,408000000,"""map""",,,0.018923105672,0.00225244252943,0.0309550315142,,0.00871488776515,-0.0124607123049,0.0479506381382,-0.99873397585
100440000000,,125,,100,440000000,"""map""",,,0.0185623131692,0.00163177656941,0.031478445977,,0.00874746217533,-0.012457290343,0.0477634218372,-0.998742742395
100472000000,,126,,100,472000000,"""map""",,,0.0183565504849,0.00102504179813,0.0320586562157,,0.00877076263248,-0.0122185299279,0.0476813619231,-0.99874935945
100508000000,,127,,100,508000000,"""map""",,,0.0183334052563,0.000469527934911,0.0328299328685,,0.0087473854549,-0.0121863786326,0.047676936504,-0.998750244534
100540000000,,128,,100,540000000,"""map""",,,0.0179625023156,0.000157894231961,0.033155374229,,0.00873595065269,-0.012145630368,0.0475595153841,-0.998756397974
100572000000,,129,,100,572000000,"""map""",,,0.0172794256359,9.27234359551e-05,0.0330918990076,,0.00871314723202,-0.0121127591188,0.0474034877509,-0.998764405875
100608000000,,130,,100,608000000,"""map""",,,0.0167207531631,8.12082726043e-06,0.0331550054252,,0.00871073202003,-0.0121225078825,0.0473355891779,-0.998767482595
100640000000,,131,,100,640000000,"""map""",,,0.0164752714336,-5.31371188117e-05,0.0332619547844,,0.00868253989428,-0.0120850984385,0.0471844505792,-0.998775406202
100672000000,,132,,100,672000000,"""map""",,,0.0163745749742,-0.000138638584758,0.0334240682423,,0.00864631451335,-0.0120973238234,0.0470663551096,-0.99878105388
100708000000,,133,,100,708000000,"""map""",,,0.0164285302162,-0.000256613828242,0.0335869789124,,0.00862972347229,-0.0121075506903,0.0470274535685,-0.998782950488
100740000000,,134,,100,740000000,"""map""",,,0.0158935189247,-0.000413664296502,0.0336627811193,,0.00868370321316,-0.012051729659,0.0468982734778,-0.998789230369
100772000000,,135,,100,772000000,"""map""",,,0.0148088252172,-0.000590752926655,0.0336038246751,,0.00871271292191,-0.0119086811149,0.0467514338576,-0.998797575445
100808000000,,136,,100,808000000,"""map""",,,0.0137523841113,-0.000810997618828,0.0335017666221,,0.00871607001718,-0.0118716526389,0.0466945356121,-0.998800694311
100840000000,,137,,100,840000000,"""map""",,,0.0131149338558,-0.000967314874288,0.0335712209344,,0.00870005915383,-0.0118003681594,0.0465529643479,-0.998808238597
100872000000,,138,,100,872000000,"""map""",,,0.0126690212637,-0.00112747156527,0.0337587818503,,0.00871427811757,-0.0117959680943,0.046405197497,-0.998815066387
100908000000,,139,,100,908000000,"""map""",,,0.0123509652913,-0.00129113218281,0.0340094901621,,0.00869584726779,-0.011728078247,0.0463439581262,-0.99881890175
100940000000,,140,,100,940000000,"""map""",,,0.0118103455752,-0.00138695514761,0.0347488373518,,0.00871350416314,-0.0117091503608,0.0462264948594,-0.998824422987
100972000000,,141,,100,972000000,"""map""",,,0.0110851163045,-0.00146341777872,0.0358404293656,,0.00864339617336,-0.0116404859006,0.0461114339629,-0.998831082189
101008000000,,142,,101,8000000,"""map""",,,0.0103955827653,-0.00157368171494,0.037110440433,,0.00866914131236,-0.0115796574615,0.0460383513276,-0.998834959699
101040000000,,143,,101,40000000,"""map""",,,0.0100040240213,-0.00165771867614,0.038113411516,,0.00859423911857,-0.0115845366177,0.0459705370483,-0.998838710769
101072000000,,144,,101,72000000,"""map""",,,0.00974240712821,-0.00178337399848,0.0390063300729,,0.00859245281659,-0.0115780818937,0.0458494491526,-0.9988443163
101108000000,,145,,101,108000000,"""map""",,,0.00960588641465,-0.00194984301925,0.0399734824896,,0.00861250566149,-0.0115975166946,0.0457990836686,-0.998846212908
101140000000,,146,,101,140000000,"""map""",,,0.00955990608782,-0.00209422549233,0.0407021008432,,0.00860638053902,-0.0115773303298,0.0456370711829,-0.998853967928
101172000000,,147,,101,172000000,"""map""",,,0.00959962513298,-0.00220389990136,0.0412509180605,,0.00860470372007,-0.0115960963787,0.0454847103256,-0.998860669277
101208000000,,148,,101,208000000,"""map""",,,0.00979679822922,-0.00232851528563,0.0420092120767,,0.00861912288135,-0.0115692662877,0.0453931252237,-0.998865094696
101240000000,,149,,101,240000000,"""map""",,,0.0100608495995,-0.00243013584986,0.0427083112299,,0.00866674519817,-0.0116087904827,0.0452158555789,-0.99887225966
101272000000,,150,,101,272000000,"""map""",,,0.0104354498908,-0.00254700146616,0.0433983467519,,0.0086793627463,-0.0115609091932,0.0450810699574,-0.998878750275
101308000000,,151,,101,308000000,"""map""",,,0.010890988633,-0.00266846036538,0.044157743454,,0.00872290900189,-0.0115376922066,0.0450326853753,-0.998880857617
101340000000,,152,,101,340000000,"""map""",,,0.0110999653116,-0.00281556043774,0.0446173585951,,0.0089184722723,-0.0115309771106,0.0448695349247,-0.998886547442
101372000000,,153,,101,372000000,"""map""",,,0.0111381933093,-0.00301417056471,0.04502113536,,0.00889246799604,-0.0115160765533,0.0446966064053,-0.998894681784
101408000000,,154,,101,408000000,"""map""",,,0.0113813653588,-0.00327368197031,0.0455773547292,,0.00889928557806,-0.0114848941415,0.0445901013191,-0.998899697259
101440000000,,155,,101,440000000,"""map""",,,0.0116751035675,-0.00349859846756,0.0460300110281,,0.00886835143762,-0.0114656485076,0.044446296272,-0.998906609342
101472000000,,156,,101,472000000,"""map""",,,0.0120767327026,-0.00373582192697,0.0462890826166,,0.00895075667594,-0.0115149087069,0.0443486841708,-0.998909643915
101508000000,,157,,101,508000000,"""map""",,,0.0125486953184,-0.00398100772873,0.0465324819088,,0.00889304060049,-0.011461619203,0.0442628731872,-0.998914617243
101540000000,,158,,101,540000000,"""map""",,,0.0126141086221,-0.00405479455367,0.0465313754976,,0.00888042494567,-0.0114770152327,0.044172510344,-0.998918579047
101572000000,,159,,101,572000000,"""map""",,,0.0123468283564,-0.00397864775732,0.0462080352008,,0.00881992569649,-0.0114068131534,0.0440724115788,-0.998924268871
101608000000,,160,,101,608000000,"""map""",,,0.0122145721689,-0.00392569322139,0.0460234135389,,0.00885858777442,-0.0114453785899,0.0440162298297,-0.998925996892
101640000000,,161,,101,640000000,"""map""",,,0.0122450133786,-0.00390091259032,0.0459000878036,,0.00883137548058,-0.011418188522,0.0438419526112,-0.998934215527
101672000000,,162,,101,672000000,"""map""",,,0.0123944114894,-0.00392456771806,0.0459221079946,,0.00883762687896,-0.0114706529519,0.0437155542125,-0.998939146709
101708000000,,163,,101,708000000,"""map""",,,0.0126448580995,-0.00397734297439,0.046084612608,,0.0087796341325,-0.0114327405446,0.0436761047623,-0.998941759813
101740000000,,164,,101,740000000,"""map""",,,0.0130180492997,-0.00404251459986,0.0464049875736,,0.00880255823146,-0.0114437446587,0.0434835779583,-0.998949852008
101772000000,,165,,101,772000000,"""map""",,,0.0134994406253,-0.00408265180886,0.0466256551445,,0.0088187996677,-0.0114216869573,0.0433290676116,-0.998956679798
101808000000,,166,,101,808000000,"""map""",,,0.0142358345911,-0.00413568736985,0.0471228845417,,0.00880749550427,-0.0113598808266,0.0432070524852,-0.998962706797
101840000000,,167,,101,840000000,"""map""",,,0.0142106460407,-0.0040646889247,0.0474418886006,,0.00871206795989,-0.0113004108002,0.0430764394017,-0.998969913908
101872000000,,168,,101,872000000,"""map""",,,0.0136197665706,-0.0039209285751,0.0475726388395,,0.00876371447756,-0.0112325337945,0.042973390357,-0.998974676502
101908000000,,169,,101,908000000,"""map""",,,0.0131895085797,-0.00380263407715,0.0476130694151,,0.0087176546399,-0.0111723625005,0.042908568504,-0.998978554012
101940000000,,170,,101,940000000,"""map""",,,0.0128811514005,-0.0037214695476,0.0476142279804,,0.00869472222682,-0.0112065270487,0.0427769438961,-0.998983990956
101972000000,,171,,101,972000000,"""map""",,,0.0126648275182,-0.00365812168457,0.0474856346846,,0.00870788332113,-0.0109871414247,0.0425826047776,-0.998994654108
102008000000,,172,,102,8000000,"""map""",,,0.0125636039302,-0.00358123308979,0.0474870577455,,0.00871801412289,-0.0109900168769,0.0425120088064,-0.998997477947
102040000000,,173,,102,40000000,"""map""",,,0.0121133457869,-0.00334665342234,0.0474239178002,,0.00877451106782,-0.0110138360202,0.0423377737346,-0.999004137149
102072000000,,174,,102,72000000,"""map""",,,0.0113348374143,-0.00295243109576,0.0473423078656,,0.0087484190405,-0.0110835750604,0.0421379976727,-0.999012060757
102108000000,,175,,102,108000000,"""map""",,,0.0106634274125,-0.00258749211207,0.0472576878965,,0.00873592521641,-0.0110404350445,0.0420775590919,-0.999015179623
102140000000,,176,,102,140000000,"""map""",,,0.010095205158,-0.00224541011266,0.0472462624311,,0.00880234601549,-0.0110203151927,0.0419080023204,-0.999021880972
102172000000,,177,,102,172000000,"""map""",,,0.00963867362589,-0.00192871503532,0.0472846850753,,0.00886337135941,-0.0110592411,0.0418441498449,-0.999023693287
102208000000,,178,,102,208000000,"""map""",,,0.00930769369006,-0.00159170338884,0.0474444106221,,0.00888975973175,-0.0110790285514,0.0417304797945,-0.999027950119
102240000000,,179,,102,240000000,"""map""",,,0.00881667807698,-0.00133106322028,0.047506775707,,0.00882699237297,-0.0110423267136,0.041608759696,-0.999034019265
102272000000,,180,,102,272000000,"""map""",,,0.00810315832496,-0.00105315085966,0.0474633015692,,0.00886839300824,-0.0109610472571,0.0414283290375,-0.999042069313
102308000000,,181,,102,308000000,"""map""",,,0.00751021038741,-0.000795861706138,0.0475886762142,,0.00886215618016,-0.0109760440442,0.041350273074,-0.99904518818
102340000000,,182,,102,340000000,"""map""",,,0.0070385071449,-0.000542381603736,0.0478209778666,,0.00883732600644,-0.0109176447288,0.0412154874525,-0.999051594501
102372000000,,183,,102,372000000,"""map""",,,0.0065914420411,-0.000240418259636,0.0480911172926,,0.00881761560468,-0.0108210166578,0.0411705167651,-0.99905467122
102408000000,,184,,102,408000000,"""map""",,,0.00638750754297,-4.82564500999e-05,0.0482701919973,,0.00882661263974,-0.0107950357599,0.0411566083051,-0.999055429864
102440000000,,185,,102,440000000,"""map""",,,0.00599730527028,0.000268741685431,0.0482012033463,,0.0088299172984,-0.0107860873748,0.0410676784548,-0.999059138786
102472000000,,186,,102,472000000,"""map""",,,0.00523515744135,0.00071285024751,0.047523252666,,0.00883679801838,-0.0107598612513,0.040971625787,-0.999063311324
102508000000,,187,,102,508000000,"""map""",,,0.0044509251602,0.00124302739277,0.0466671474278,,0.00886224319035,-0.0107688605913,0.0409427973426,-0.999064154261
102540000000,,188,,102,540000000,"""map""",,,0.00395188387483,0.00165504519828,0.0460827760398,,0.00887783291449,-0.0107773367177,0.0408820637339,-0.999066388044
102572000000,,189,,102,572000000,"""map""",,,0.00357099436224,0.00202707294375,0.045634355396,,0.00886544429288,-0.0107296739827,0.0408029962461,-0.999070265554
102608000000,,190,,102,608000000,"""map""",,,0.00328049203381,0.00241358322091,0.0451817139983,,0.00888189893292,-0.0107569559176,0.0407471938187,-0.999072120016
102640000000,,191,,102,640000000,"""map""",,,0.00284513877705,0.00277007883415,0.0450227111578,,0.00892188731948,-0.0108069681748,0.0406154006234,-0.999076629729
102672000000,,192,,102,672000000,"""map""",,,0.00227463850752,0.00309718144126,0.0451462715864,,0.00888409666057,-0.0107846126467,0.0405605675735,-0.999079369274
102708000000,,193,,102,708000000,"""map""",,,0.00166596891358,0.0034598573111,0.0453349612653,,0.00887613971424,-0.0107558372974,0.0405217924729,-0.999081392322
102740000000,,194,,102,740000000,"""map""",,,0.00129092985298,0.00372618041001,0.045372530818,,0.00884186971659,-0.0107184813602,0.0404551583054,-0.999084806217
102772000000,,195,,102,772000000,"""map""",,,0.000955303199589,0.00396355846897,0.0454311594367,,0.00887476977703,-0.0106433501576,0.0403302771932,-0.999090327454
102808000000,,196,,102,808000000,"""map""",,,0.000687442254275,0.00420824857429,0.0454437658191,,0.00890922326164,-0.0106687754909,0.040316157999,-0.999090369601
102840000000,,197,,102,840000000,"""map""",,,0.000293586839689,0.00447083869949,0.0452858880162,,0.00892696510923,-0.0106269717441,0.0402222126736,-0.999094373552
102872000000,,198,,102,872000000,"""map""",,,-0.000176086992724,0.00475035607815,0.0449230782688,,0.00892337809961,-0.0105111159021,0.0401035692951,-0.999100400551
102908000000,,199,,102,908000000,"""map""",,,-0.000660196354147,0.00509721040726,0.044556684792,,0.00894050437272,-0.0104854008915,0.0400902087441,-0.999101117048
102940000000,,200,,102,940000000,"""map""",,,-0.000990693923086,0.00536277610809,0.044371638447,,0.00911789358455,-0.0104751094461,0.0400255554785,-0.999102128572
102972000000,,201,,102,972000000,"""map""",,,-0.00126538448967,0.0055531593971,0.0443290919065,,0.00910997981404,-0.010449708767,0.0399357826912,-0.999106090376
103008000000,,202,,103,8000000,"""map""",,,-0.00147729367018,0.00571643328294,0.0442405417562,,0.00908047549719,-0.0104388693302,0.0399053105197,-0.999107734103
103040000000,,203,,103,40000000,"""map""",,,-0.00173542299308,0.0056789224036,0.04393896088,,0.00903732301006,-0.0104534778642,0.0398304155699,-0.999110895116
103072000000,,204,,103,72000000,"""map""",,,-0.00203209323809,0.00542314955965,0.0433660931885,,0.00897438854561,-0.0103888917701,0.0397485663901,-0.999115446976
103108000000,,205,,103,108000000,"""map""",,,-0.00225209561177,0.00513421418145,0.0426293723285,,0.00897359903306,-0.0103824649519,0.0397107185201,-0.999117048556
103140000000,,206,,103,140000000,"""map""",,,-0.00237948144786,0.00492597045377,0.0420872755349,,0.00888816095032,-0.0103471641675,0.0396740929088,-0.999119619514
103172000000,,207,,103,172000000,"""map""",,,-0.00246802251786,0.00476866867393,0.0415893085301,,0.00887428936881,-0.0103935098958,0.0396477932753,-0.999120293864
103208000000,,208,,103,208000000,"""map""",,,-0.00252006086521,0.00465062214062,0.0411577410996,,0.00887679282575,-0.0103843525051,0.039591400792,-0.999122569793
103240000000,,209,,103,240000000,"""map""",,,-0.00272664683871,0.00449027633294,0.040650755167,,0.00879344842064,-0.0104109791059,0.0394981719631,-0.999126784478
103272000000,,210,,103,272000000,"""map""",,,-0.00306946318597,0.00429835636169,0.0400497578084,,0.0088198368753,-0.0104494730904,0.0393786435007,-0.999130830576
103308000000,,211,,103,308000000,"""map""",,,-0.00341681600548,0.00409453688189,0.0393837355077,,0.008797085315,-0.0104467337099,0.0393271821987,-0.999133064359
103340000000,,212,,103,340000000,"""map""",,,-0.00363214500248,0.00395407574251,0.0389025472105,,0.00877155329748,-0.0104595966482,0.0392019217649,-0.999138121981
103372000000,,213,,103,372000000,"""map""",,,-0.00378167675808,0.0038568333257,0.0384614765644,,0.00879105815103,-0.0104904757178,0.0391040567827,-0.999141493728
103408000000,,214,,103,408000000,"""map""",,,-0.00386879360303,0.00381260854192,0.0380795970559,,0.00879030806884,-0.0105311085725,0.0390404993351,-0.999143516777
103440000000,,215,,103,440000000,"""map""",,,-0.00396513938904,0.0036804866977,0.0375564172864,,0.00877737046807,-0.0105138242487,0.0389579336589,-0.999147014966
103472000000,,216,,103,472000000,"""map""",,,-0.00406439648941,0.00340533535928,0.0363545827568,,0.00875188372548,-0.0104228750539,0.0389118250066,-0.999149965245
103508000000,,217,,103,508000000,"""map""",,,-0.00408560875803,0.00319116259925,0.035316016525,,0.00874574814861,-0.0103298891456,0.0388330103999,-0.999154095636
103540000000,,218,,103,540000000,"""map""",,,-0.00403253734112,0.00294695305638,0.0344793498516,,0.00874833400594,-0.0103891748619,0.0386844849057,-0.999159237552
103572000000,,219,,103,572000000,"""map""",,,-0.00394243374467,0.00269415834919,0.0338001698256,,0.0087756315813,-0.0104681953461,0.0386406100364,-0.999159785461
103608000000,,220,,103,608000000,"""map""",,,-0.0038070930168,0.00245793047361,0.033224131912,,0.00883405946104,-0.0104388988412,0.0385950071463,-0.999161387041
103640000000,,221,,103,640000000,"""map""",,,-0.00390719948336,0.00217509502545,0.0326776653528,,0.00886009328948,-0.0104505956618,0.0385086904006,-0.99916433732
103672000000,,222,,103,672000000,"""map""",,,-0.00417701434344,0.00183283514343,0.0322854183614,,0.008882159058,-0.0104670270882,0.0383982235106,-0.999168256977
103708000000,,223,,103,708000000,"""map""",,,-0.00437701726332,0.00141268596053,0.0319422036409,,0.00885511296433,-0.0104733422007,0.038282108943,-0.999172850984
103740000000,,224,,103,740000000,"""map""",,,-0.00447846204042,0.00108554330654,0.0315577089787,,0.00884366820164,-0.0104914843611,0.038138556777,-0.99917824578
103772000000,,225,,103,772000000,"""map""",,,-0.00456327805296,0.000718358380254,0.0311191473156,,0.00885266803552,-0.0104691529521,0.0380207563354,-0.99918292408
103808000000,,226,,103,808000000,"""map""",,,-0.00462847575545,0.000329159171088,0.0307399835438,,0.00884227859041,-0.0105360850287,0.0379718659911,-0.999184188486
103840000000,,227,,103,840000000,"""map""",,,-0.00498931389302,1.14070462587e-05,0.0302622132003,,0.00882897961334,-0.0104758759507,0.0378955380484,-0.999187855262
103872000000,,228,,103,872000000,"""map""",,,-0.0055871726945,-0.000249335105764,0.0298362541944,,0.00883217799938,-0.0105117845717,0.0378261643358,-0.999190046898
103908000000,,229,,103,908000000,"""map""",,,-0.0062601454556,-0.000562451954465,0.0292867645621,,0.00883519882536,-0.0105035125119,0.0378090948622,-0.999190763394
103940000000,,230,,103,940000000,"""map""",,,-0.00674354471266,-0.000830525765195,0.0287383049726,,0.00874970657733,-0.0104589567075,0.0377000609651,-0.999196116044
103972000000,,231,,103,972000000,"""map""",,,-0.00716557027772,-0.00110338872764,0.0279948953539,,0.00873555684308,-0.0104759039389,0.0376631403258,-0.99919738045
104008000000,,232,,104,8000000,"""map""",,,-0.00756863225251,-0.00137365434784,0.0272598415613,,0.00868580504027,-0.0104542155163,0.0376553853056,-0.999198391974
104040000000,,233,,104,40000000,"""map""",,,-0.00806899275631,-0.00163181277458,0.0268860608339,,0.00867624816005,-0.01041675627,0.0375785094539,-0.999201763722
104072000000,,234,,104,72000000,"""map""",,,-0.0083397263661,-0.00174901739229,0.0268407035619,,0.00867791625329,-0.0103778145576,0.0374788321572,-0.999205851966
104108000000,,235,,104,108000000,"""map""",,,-0.00872345082462,-0.00193473778199,0.0268006063998,,0.00869339130837,-0.0103974030463,0.0374698127316,-0.999205851966
104140000000,,236,,104,140000000,"""map""",,,-0.00896449945867,-0.00209328019992,0.0268349349499,,0.00873745987207,-0.0103316183189,0.037426317184,-0.999207790721
104172000000,,237,,104,172000000,"""map""",,,-0.00915991421789,-0.00223405403085,0.0269297566265,,0.00877093014973,-0.0103313887338,0.0373556790659,-0.999210150945
104208000000,,238,,104,208000000,"""map""",,,-0.00931877084076,-0.00239280750975,0.0270085055381,,0.00870291023996,-0.0102934501493,0.0373406747878,-0.999211752525
104240000000,,239,,104,240000000,"""map""",,,-0.00951528921723,-0.00249524204992,0.0270258784294,,0.00870128939729,-0.0103340028262,0.0373159345877,-0.99921221614
104272000000,,240,,104,272000000,"""map""",,,-0.00975409708917,-0.0025661631953,0.0268014129251,,0.00865976462638,-0.0102753827338,0.0372474881057,-0.999215756475
104308000000,,241,,104,308000000,"""map""",,,-0.0100164311007,-0.00272838049568,0.0265504978597,,0.00872411611398,-0.0102664003513,0.0372236329895,-0.999216177944
104340000000,,242,,104,340000000,"""map""",,,-0.0101924100891,-0.00290316483006,0.0264386739582,,0.00869741764949,-0.0102198831545,0.037172846037,-0.999218748902
104372000000,,243,,104,372000000,"""map""",,,-0.0103333164006,-0.00308158667758,0.0263638608158,,0.00874402218577,-0.0102631067233,0.0370792378865,-0.999221404153
104408000000,,244,,104,408000000,"""map""",,,-0.010447403416,-0.00323987496085,0.0262177567929,,0.00874203543931,-0.0102779785516,0.0370392826741,-0.999222752852
104440000000,,245,,104,440000000,"""map""",,,-0.0104331448674,-0.0033350950107,0.0262312814593,,0.00896345822966,-0.0102802014274,0.0369283521688,-0.999224860195
104472000000,,246,,104,472000000,"""map""",,,-0.0102819316089,-0.0033599101007,0.026314239949,,0.0089763979707,-0.0102215600146,0.036882664985,-0.999227051831
104508000000,,247,,104,508000000,"""map""",,,-0.0100559638813,-0.00346959428862,0.0264351740479,,0.00896015138957,-0.0102327687303,0.0368447328214,-0.999228484824
104544000000,,248,,104,540000000,"""map""",,,-0.0098634455353,-0.00359438406304,0.0264689512551,,0.00902415442481,-0.0102798753244,0.0367415573362,-0.999231266516
104572000000,,249,,104,572000000,"""map""",,,-0.00964159425348,-0.00373984128237,0.0265454109758,,0.00899413673136,-0.0102863724422,0.0366769462175,-0.99923375318
104608000000,,250,,104,608000000,"""map""",,,-0.00939161609858,-0.00387794035487,0.0266695972532,,0.00897089039834,-0.0103255463327,0.0366529225138,-0.999234511823
104640000000,,251,,104,640000000,"""map""",,,-0.00902153179049,-0.0040481518954,0.0265955459327,,0.0089713445471,-0.0103453134516,0.0365899551221,-0.999236619165
104672000000,,252,,104,672000000,"""map""",,,-0.00852935761213,-0.0042448262684,0.0264988970011,,0.00891751178514,-0.0103698159583,0.0365515593431,-0.999238178599
104708000000,,253,,104,708000000,"""map""",,,-0.00790725369006,-0.00446804659441,0.0263946857303,,0.00886961864188,-0.0103447779315,0.0365274513458,-0.999239780179
104740000000,,254,,104,740000000,"""map""",,,-0.00740687875077,-0.0046486472711,0.0263255406171,,0.00885331316218,-0.0103809266743,0.0364031181427,-0.999244079158
104772000000,,255,,104,772000000,"""map""",,,-0.0068955081515,-0.00484039820731,0.0262804683298,,0.00878593558026,-0.0104030148333,0.0363374954995,-0.999246818703
104808000000,,256,,104,808000000,"""map""",,,-0.00641781557351,-0.0050261169672,0.0263682287186,,0.00883793548938,-0.010394083735,0.0363299090668,-0.999246734409
104840000000,,257,,104,840000000,"""map""",,,-0.00591263361275,-0.00513124791905,0.0263536013663,,0.00880515618954,-0.0103954544131,0.0362999005107,-0.999248167402
104872000000,,258,,104,872000000,"""map""",,,-0.00564458174631,-0.00514966063201,0.0264184791595,,0.0089005982219,-0.0104005207606,0.0361679808748,-0.999251960618
104908000000,,259,,104,908000000,"""map""",,,-0.00521678198129,-0.00517684733495,0.0266196094453,,0.00891366926025,-0.0103894148191,0.0361546203239,-0.999252424234
104940000000,,260,,104,940000000,"""map""",,,-0.00486492877826,-0.00520780961961,0.0268339551985,,0.00886195943998,-0.0103990423282,0.0360588205372,-0.999256259597
104972000000,,261,,104,972000000,"""map""",,,-0.00453419424593,-0.00521256681532,0.0270748380572,,0.00892497474077,-0.0103722206336,0.036007949291,-0.99925781903
105008000000,,262,,105,8000000,"""map""",,,-0.00419287243858,-0.00522680953145,0.0272422656417,,0.00893571304984,-0.0103766051406,0.0359982555159,-0.999258071911
105040000000,,263,,105,40000000,"""map""",,,-0.00392907625064,-0.00517229363322,0.0267818961293,,0.00891455549652,-0.010396610241,0.0359888146218,-0.999258409086
105072000000,,264,,105,72000000,"""map""",,,-0.003705103416,-0.00505619496107,0.0259139277041,,0.00893290312274,-0.0103129152433,0.0359972018447,-0.999258788408
105108000000,,265,,105,108000000,"""map""",,,-0.00343491509557,-0.00495082419366,0.0249383281916,,0.00889984912752,-0.0103593390091,0.0360030181098,-0.999258366939
105140000000,,266,,105,140000000,"""map""",,,-0.00318787992001,-0.00485344743356,0.0242452565581,,0.00910342482664,-0.0103545028229,0.0360033974314,-0.999256554625
105172000000,,267,,105,172000000,"""map""",,,-0.002880388638,-0.00475899642333,0.0236965995282,,0.00909940428894,-0.0103530310994,0.0359939143905,-0.99925701824
105208000000,,268,,105,208000000,"""map""",,,-0.00257424963638,-0.00467391032726,0.02323240228,,0.00904511737822,-0.0103529459413,0.0359794580214,-0.999257987618
105240000000,,269,,105,240000000,"""map""",,,-0.00250405143015,-0.00436021015048,0.0226123835891,,0.00902697077271,-0.0103471794786,0.0359387863126,-0.999259715638
105272000000,,270,,105,272000000,"""map""",,,-0.00264946278185,-0.00383979384787,0.0219558998942,,0.00896375305181,-0.0103625275993,0.0358970187858,-0.999261612247
105308000000,,271,,105,308000000,"""map""",,,-0.0027661039494,-0.00324359233491,0.0210698004812,,0.00895409269778,-0.0103580424173,0.0358961337019,-0.999261738687
105340000000,,272,,105,340000000,"""map""",,,-0.00280275847763,-0.00282549741678,0.0202588066459,,0.00902060157719,-0.0103375776528,0.0358435765818,-0.999263213827
105372000000,,273,,105,372000000,"""map""",,,-0.0028000746388,-0.00245047709905,0.019499335438,,0.00900428691902,-0.0102603724054,0.0357873948328,-0.999266206253
105408000000,,274,,105,408000000,"""map""",,,-0.00277414894663,-0.00209664832801,0.0187671650201,,0.0090097392148,-0.0102634877736,0.0357419183832,-0.999267765687
105440000000,,275,,105,440000000,"""map""",,,-0.00276533071883,-0.00176694139373,0.0181107129902,,0.0090042266622,-0.0102448304257,0.0357191169382,-0.999268819358
105472000000,,276,,105,472000000,"""map""",,,-0.0028007326182,-0.00143787451088,0.0174983423203,,0.00899468217085,-0.0102134937911,0.0356797517817,-0.999270673819
105508000000,,277,,105,508000000,"""map""",,,-0.00282054510899,-0.00110225775279,0.0167715996504,,0.00897115105849,-0.0102173910575,0.0356561073997,-0.999271643197
105540000000,,278,,105,540000000,"""map""",,,-0.00278309686109,-0.000839258893393,0.0161583535373,,0.00902337067452,-0.0102201309319,0.035561698459,-0.999274509182
105572000000,,279,,105,572000000,"""map""",,,-0.00270663737319,-0.000614731805399,0.0155446026474,,0.00899664949025,-0.0101780289467,0.0355117122967,-0.9992769537
105608000000,,280,,105,608000000,"""map""",,,-0.00257354788482,-0.000410541484598,0.0148745607585,,0.00900753082695,-0.0101556625938,0.0354936734455,-0.999277712343
105640000000,,281,,105,640000000,"""map""",,,-0.00264565367252,-0.000166556681506,0.0138490311801,,0.00900371937713,-0.01004458832,0.0354776154962,-0.999279440364
105672000000,,282,,105,672000000,"""map""",,,-0.00287081860006,0.000134854723001,0.0125523516908,,0.00899586252956,-0.0100511675913,0.03542594346,-0.999281294825
105708000000,,283,,105,708000000,"""map""",,,-0.00304909609258,0.00054076872766,0.0109346723184,,0.0089846853829,-0.00995057524694,0.0353747771859,-0.999284245104
105740000000,,284,,105,740000000,"""map""",,,-0.00310821132734,0.000843342917506,0.00983940903097,,0.00899067286957,-0.00989916004302,0.0353673171937,-0.999284961601
105772000000,,285,,105,772000000,"""map""",,,-0.0031613574829,0.00108605553396,0.00883662048727,,0.00898745925469,-0.00987479117973,0.0353442628675,-0.999286015272
105808000000,,286,,105,808000000,"""map""",,,-0.0031995465979,0.0012964126654,0.00792001746595,,0.00897540599688,-0.00990340814901,0.035289893433,-0.99928778544
105840000000,,287,,105,840000000,"""map""",,,-0.0032207518816,0.0014620606089,0.00705054868013,,0.00896414360986,-0.00990005216503,0.035259547702,-0.999288965551
105872000000,,288,,105,872000000,"""map""",,,-0.00321779586375,0.00165944558103,0.00607322202995,,0.00901473859659,-0.00992491057385,0.0351736524248,-0.999291325775
105908000000,,289,,105,908000000,"""map""",,,-0.00318636535667,0.00181046198122,0.00547469081357,,0.00903469290677,-0.0099629529614,0.0351629892721,-0.999291115041
105940000000,,290,,105,940000000,"""map""",,,-0.00311420555227,0.00191104284022,0.0049453326501,,0.00896343476901,-0.00998408927665,0.0350695497089,-0.99929486611
105972000000,,291,,105,972000000,"""map""",,,-0.00303276209161,0.00200526905246,0.00440666498616,,0.00896902589421,-0.0100612179271,0.0349734548943,-0.999297394921
106008000000,,292,,106,8000000,"""map""",,,-0.00293182185851,0.00207932083867,0.00386666716076,,0.00894521214278,-0.0100581367208,0.0349534351413,-0.999298280005
106040000000,,293,,106,40000000,"""map""",,,-0.00287974020466,0.00198969594203,0.00372151494958,,0.00891479162589,-0.0100902352091,0.0349249438717,-0.999299291529
106072000000,,294,,106,72000000,"""map""",,,-0.00288865691982,0.00180118926801,0.00386919244193,,0.00890257776553,-0.0100978023794,0.0348131704295,-0.999303253333
106108000000,,295,,106,108000000,"""map""",,,-0.00285627646372,0.00159934663679,0.00396269280463,,0.00889800561449,-0.0101263350139,0.0348014957524,-0.999303379774
106140000000,,296,,106,140000000,"""map""",,,-0.00279562547803,0.00145348976366,0.00400934042409,,0.00887926421982,-0.0101014768108,0.0347906218655,-0.999304138417
106172000000,,297,,106,172000000,"""map""",,,-0.00271073868498,0.00132420891896,0.00398522382602,,0.00889338785924,-0.010042159896,0.0347669774835,-0.999305444969
106208000000,,298,,106,208000000,"""map""",,,-0.0026079188101,0.00121693743858,0.00404781941324,,0.00886114490275,-0.0100109678942,0.0347688319448,-0.999306035025
106240000000,,299,,106,240000000,"""map""",,,-0.00247263489291,0.00140912015922,0.00430858926848,,0.00885740284706,-0.0099752130845,0.0347402563815,-0.999307383724
106272000000,,300,,106,272000000,"""map""",,,-0.00230169086717,0.00185712741222,0.00474821962416,,0.00878854197594,-0.00988892218662,0.0346477861959,-0.999312019877
106308000000,,301,,106,308000000,"""map""",,,-0.00203027226962,0.0024074849207,0.00525698671117,,0.00881317557413,-0.00992143181249,0.0346237203454,-0.999312314905
106340000000,,302,,106,340000000,"""map""",,,-0.00178102392238,0.00282022892497,0.00559924915433,,0.00876833774812,-0.0098889156835,0.0345729755398,-0.999314843716
106372000000,,303,,106,372000000,"""map""",,,-0.00149678543676,0.00318992394023,0.00596789596602,,0.00880525423035,-0.0099058576053,0.0345574654995,-0.999314843716
106408000000,,304,,106,408000000,"""map""",,,-0.0012109677773,0.00351513316855,0.00633650971577,,0.00878133103706,-0.00984059411588,0.0345266561533,-0.999316740325
106440000000,,305,,106,440000000,"""map""",,,-0.00101274542976,0.00376572669484,0.00663077039644,,0.00871329770944,-0.00986620137212,0.0345401431448,-0.999316656031
106472000000,,306,,106,472000000,"""map""",,,-0.000889895425644,0.00394661445171,0.00673776539043,,0.00873366850786,-0.00980542491687,0.0345190275737,-0.999317793996
106508000000,,307,,106,508000000,"""map""",,,-0.000679075601511,0.00412811292335,0.00675020972267,,0.0087302253079,-0.00979984737416,0.0345215563846,-0.999317793996
106540000000,,308,,106,540000000,"""map""",,,-0.000451968080597,0.00425662379712,0.00675744609907,,0.0087345646223,-0.00971561607423,0.0345191961611,-0.999318636933
106572000000,,309,,106,572000000,"""map""",,,-0.000156025067554,0.00435726810247,0.00703841401264,,0.00870617188743,-0.00967934764095,0.0344864059129,-0.9993204071
106608000000,,310,,106,608000000,"""map""",,,0.000143510929774,0.0044750967063,0.00727107841522,,0.00872877033613,-0.0096418858427,0.0344959311007,-0.999320238513
106640000000,,311,,106,640000000,"""map""",,,0.000358061952284,0.00470103416592,0.00739337224513,,0.00890528965182,-0.00961994799646,0.0344488530709,-0.999320533541
106672000000,,312,,106,672000000,"""map""",,,0.000452195934486,0.00496763363481,0.00774401240051,,0.00892172284799,-0.00964196457993,0.0344237756961,-0.999320997156
106708000000,,313,,106,708000000,"""map""",,,0.000514851999469,0.00528144231066,0.00812706910074,,0.00887227545738,-0.0096474817835,0.0344342702613,-0.999321039303
106740000000,,314,,106,740000000,"""map""",,,0.000583182787523,0.00550720607862,0.00853350386024,,0.00889606002706,-0.00960946606701,0.0343913226227,-0.99932268303
106772000000,,315,,106,772000000,"""map""",,,0.000682387908455,0.00570702925324,0.00888026040047,,0.008828900588,-0.00958131172525,0.0343640957586,-0.999324537491
106808000000,,316,,106,808000000,"""map""",,,0.000786489748862,0.00589464046061,0.00903661549091,,0.00882672162886,-0.00958630925488,0.0343903532452,-0.999323568114
106840000000,,317,,106,840000000,"""map""",,,0.0008135032258,0.00601956807077,0.00932498741895,,0.00879308050006,-0.00955685786855,0.0343650229892,-0.999325043254
106872000000,,318,,106,872000000,"""map""",,,0.000827114854474,0.0061072469689,0.00966152828187,,0.00875132462119,-0.0095812650509,0.0343192936586,-0.999326686981
106908000000,,319,,106,908000000,"""map""",,,0.000937965931371,0.00623275851831,0.0101076290011,,0.00875459001413,-0.00959710798541,0.0343010019263,-0.999327192743
106940000000,,320,,106,940000000,"""map""",,,0.00106531474739,0.00636687269434,0.0104518700391,,0.00873094900716,-0.00954541413484,0.0342931204657,-0.99932816212
106972000000,,321,,106,972000000,"""map""",,,0.00122081232257,0.0065067159012,0.0108263762668,,0.00881394405441,-0.00954469895551,0.0343268800913,-0.999326265512
107008000000,,322,,107,8000000,"""map""",,,0.00137327285483,0.00662443647161,0.0111412247643,,0.00880980325002,-0.00947550687767,0.034354528424,-0.999326012631
107040000000,,323,,107,40000000,"""map""",,,0.00151711399667,0.0067345299758,0.0113882394508,,0.00884914082998,-0.00948345147629,0.0343498922706,-0.999325675456
107072000000,,324,,107,72000000,"""map""",,,0.001680238056,0.0068415873684,0.0115098105744,,0.00885303640886,-0.00938272878132,0.0342547668335,-0.999329932288
107108000000,,325,,107,108000000,"""map""",,,0.00192630116362,0.00696012191474,0.0114346537739,,0.00885414881401,-0.00936649092591,0.0342716255729,-0.999329426526
107140000000,,326,,107,140000000,"""map""",,,0.00175147422124,0.00696212472394,0.0110715460032,,0.00885142944707,-0.0090956061232,0.0342884843123,-0.999331449575
107172000000,,327,,107,172000000,"""map""",,,0.00131057132967,0.0069008548744,0.0107889501378,,0.00893897667294,-0.00912867395814,0.0342280878784,-0.999332418952
107208000000,,328,,107,208000000,"""map""",,,0.000923021056224,0.00683533633128,0.0105397775769,,0.00892041510208,-0.00915279891301,0.0341980793223,-0.999333430477
107240000000,,329,,107,240000000,"""map""",,,0.000607142806984,0.00676175020635,0.010219600983,,0.00893134058184,-0.00916484609987,0.0341843815965,-0.999333641211
107272000000,,330,,107,272000000,"""map""",,,0.000289886171231,0.00669428147376,0.0098100155592,,0.00896736442757,-0.00920973103239,0.0341351540775,-0.999334568441
107308000000,,331,,107,308000000,"""map""",,,8.80964507814e-05,0.00663605704904,0.00953297689557,,0.00898203426793,-0.00918876418944,0.0340963789768,-0.999336001434
107340000000,,332,,107,340000000,"""map""",,,0.000171024119481,0.00656654732302,0.009216921404,,0.00901906468865,-0.009256405467,0.0340383427664,-0.999336970812
107372000000,,333,,107,372000000,"""map""",,,0.000503510120325,0.00647325301543,0.00881897192448,,0.00901321338693,-0.00927865584405,0.0340575195825,-0.999336170022
107408000000,,334,,107,408000000,"""map""",,,0.000824543531053,0.00641801627353,0.00856031756848,,0.00900615772049,-0.00925367200309,0.0340281010822,-0.999337518721
107440000000,,335,,107,440000000,"""map""",,,0.00112867902499,0.00639180000871,0.00834383163601,,0.00892711866329,-0.0092391937889,0.0340149091187,-0.999338740979
107472000000,,336,,107,472000000,"""map""",,,0.00143264140934,0.00639372691512,0.00817782990634,,0.0088662479024,-0.00924351533288,0.0339834254228,-0.999340300413
107508000000,,337,,107,508000000,"""map""",,,0.00182565953583,0.00645070523024,0.00789546966553,,0.0088819011555,-0.00924705206674,0.0339840576255,-0.999340173972
107540000000,,338,,107,540000000,"""map""",,,0.00194020720664,0.00646338937804,0.00797593593597,,0.00896180456266,-0.009199809833,0.0339514781116,-0.999340974762
107572000000,,339,,107,572000000,"""map""",,,0.00187761499546,0.00641909427941,0.0081848828122,,0.00889046212092,-0.009194379156,0.0339270329395,-0.999342492049
107608000000,,340,,107,608000000,"""map""",,,0.0018490444636,0.00639891857281,0.00820603221655,,0.00893275201765,-0.00920518770296,0.0339249677439,-0.999342112727
107640000000,,341,,107,640000000,"""map""",,,0.00184819987044,0.00637056306005,0.0080449776724,,0.00885953603735,-0.00923019690817,0.0338748551411,-0.999344177923
107672000000,,342,,107,672000000,"""map""",,,0.00189821701497,0.00634822482243,0.0075091868639,,0.00888446803852,-0.00923883223767,0.033811719162,-0.999346032384
107708000000,,343,,107,708000000,"""map""",,,0.00195642351173,0.00634661549702,0.00695654144511,,0.00885287072317,-0.00922021948555,0.0337859252907,-0.999347381083
107740000000,,344,,107,740000000,"""map""",,,0.001996046165,0.00632243417203,0.00620041089132,,0.00895225719018,-0.00929816456656,0.0337426826241,-0.999347212496
107772000000,,345,,107,772000000,"""map""",,,0.00200281152502,0.00625845091417,0.00529113970697,,0.00894975043022,-0.00923538585818,0.0336647531012,-0.999350457803
107808000000,,346,,107,808000000,"""map""",,,0.00205465685576,0.00620566867292,0.00446967966855,,0.00895425093368,-0.00925083398495,0.0336381584398,-0.9993511743
107840000000,,347,,107,840000000,"""map""",,,0.0021302420646,0.00618815049529,0.00369594269432,,0.00897732955393,-0.00924313369605,0.0335794900267,-0.999353028761
107872000000,,348,,107,872000000,"""map""",,,0.00221281661652,0.00620523747057,0.00298672867939,,0.00900066528437,-0.00925682002076,0.0335528110716,-0.99935357667
107904000000,,349,,107,904000000,"""map""",,,0.00236345943995,0.00622484274209,0.00214161816984,,0.00901606531682,-0.00921678252118,0.0335552555888,-0.999353745258
107940000000,,350,,107,940000000,"""map""",,,0.00245341821574,0.00619952380657,0.00161100842524,,0.00908160541037,-0.00923273467632,0.0335191778865,-0.999354166726
107972000000,,351,,107,972000000,"""map""",,,0.00250441441312,0.00609834259376,0.00127168151084,,0.00908201675888,-0.00921322026872,0.0335262164102,-0.999354124579
108008000000,,352,,108,8000000,"""map""",,,0.00256822165102,0.00602715602145,0.000928041990846,,0.00909055830238,-0.00918195762261,0.0335186721243,-0.999354588194
108040000000,,353,,108,40000000,"""map""",,,0.0026476145722,0.00596912950277,0.000605399545748,,0.00912556700689,-0.00920552250081,0.0334913609665,-0.999355009663
108072000000,,354,,108,72000000,"""map""",,,0.00273640360683,0.00595930311829,0.000231268670177,,0.00912998136964,-0.0091850594084,0.0334184469185,-0.999357538474
108108000000,,355,,108,108000000,"""map""",,,0.00291622849181,0.00598200969398,-0.000251429504715,,0.00913629854401,-0.00917465794099,0.0334310488262,-0.999357159152
108140000000,,356,,108,140000000,"""map""",,,0.003018690506,0.00603992026299,-0.000601810985245,,0.0090995533721,-0.00917499086997,0.033396614851,-0.999358634292
108172000000,,357,,108,172000000,"""map""",,,0.00301762740128,0.00611989432946,-0.0009402364376,,0.00909836717909,-0.00912874868751,0.0333973734943,-0.99935905576
108208000000,,358,,108,208000000,"""map""",,,0.00305727845989,0.00624018115923,-0.00149011879694,,0.00906773379798,-0.00911526617203,0.033364330365,-0.999360573047
108240000000,,359,,108,240000000,"""map""",,,0.00314749893732,0.00638960301876,-0.00184564932715,,0.00926180118454,-0.00913375851341,0.0332930178974,-0.999360994515
108272000000,,360,,108,272000000,"""map""",,,0.00327056553215,0.00656363135204,-0.0020979384426,,0.00923171368023,-0.00919094512422,0.0332673504666,-0.999361626718
108308000000,,361,,108,308000000,"""map""",,,0.00345132220536,0.00682294741273,-0.00238538091071,,0.00923530701548,-0.00920175942572,0.0332404607773,-0.999362385361
108340000000,,362,,108,340000000,"""map""",,,0.0035661442671,0.00689106294885,-0.00253578973934,,0.00924937513137,-0.00922525337147,0.0331551555559,-0.999364829879
108372000000,,363,,108,372000000,"""map""",,,0.00365916499868,0.00683092465624,-0.00255841459148,,0.00925219340603,-0.00919848515014,0.0331669566735,-0.999364661291
108408000000,,364,,108,408000000,"""map""",,,0.00374795403332,0.00678393617272,-0.00261433469132,,0.00926312996529,-0.00921570663695,0.0331339556911,-0.999365546375
108440000000,,365,,108,440000000,"""map""",,,0.00384873431176,0.00672441441566,-0.00284927035682,,0.00926919585734,-0.00921322322703,0.0330999853312,-0.999366642193
108472000000,,366,,108,472000000,"""map""",,,0.0040006712079,0.00666926847771,-0.00306006520987,,0.0092644056734,-0.00925033609251,0.0330892378848,-0.99936668434
108508000000,,367,,108,508000000,"""map""",,,0.00423543201759,0.00660248985514,-0.0033574802801,,0.00922917054083,-0.00926796042785,0.0330631068387,-0.999367695864
108540000000,,368,,108,540000000,"""map""",,,0.00438809767365,0.00656440481544,-0.00308624748141,,0.00912129072241,-0.00923653569232,0.0329934380981,-0.999371278346
108572000000,,369,,108,572000000,"""map""",,,0.00449084118009,0.00655769975856,-0.00231661950238,,0.00906203083856,-0.00923820717603,0.0329597627662,-0.999372922074
108608000000,,370,,108,608000000,"""map""",,,0.00458084139973,0.00658148573712,-0.00179068290163,,0.00903170988537,-0.00923808098244,0.0328937608014,-0.999375366591
108640000000,,371,,108,640000000,"""map""",,,0.00469367438927,0.00659194542095,-0.00125292816665,,0.00898572250818,-0.00927255700163,0.0327671095216,-0.999379623422
108672000000,,372,,108,672000000,"""map""",,,0.00483659934253,0.0066325510852,-0.000666975218337,,0.00900341119888,-0.00924152356502,0.0327497450201,-0.999380297772
108708000000,,373,,108,708000000,"""map""",,,0.00503130443394,0.00670806178823,0.000100788805867,,0.00897891407376,-0.0092437829592,0.0327453617478,-0.999380719241
108740000000,,374,,108,740000000,"""map""",,,0.00523356674239,0.00675867218524,0.000715164002031,,0.00895994122127,-0.00919549602691,0.0326869883626,-0.999383205905
108772000000,,375,,108,772000000,"""map""",,,0.00540997972712,0.00683015678078,0.00137311953586,,0.00896312756829,-0.00899751089734,0.0326493933738,-0.999386240478
108808000000,,376,,108,808000000,"""map""",,,0.00562261743471,0.00690397666767,0.00204004743136,,0.00896597185289,-0.008993028154,0.0326168981536,-0.999387294149
108840000000,,377,,108,840000000,"""map""",,,0.00583295756951,0.00699901208282,0.00264388835058,,0.00899999689707,-0.00897955760101,0.0326628382184,-0.999385608275
108872000000,,378,,108,872000000,"""map""",,,0.00606842339039,0.00710879685357,0.00318244867958,,0.00897008743322,-0.00897611837097,0.0326734170774,-0.999385566128
108908000000,,379,,108,908000000,"""map""",,,0.00641168002039,0.00723898643628,0.00387481227517,,0.00894068974529,-0.00899676136822,0.0326764937973,-0.999385523981
108940000000,,380,,108,940000000,"""map""",,,0.00645435182378,0.00720864348114,0.00456956913695,,0.00893953804355,-0.00900304576585,0.0326938161521,-0.999384891779
108972000000,,381,,108,972000000,"""map""",,,0.00629743002355,0.00706643611193,0.00534967239946,,0.00895623007215,-0.0089898242668,0.0326868197752,-0.99938514466
109008000000,,382,,109,8000000,"""map""",,,0.00617365399376,0.00696697412059,0.00620220601559,,0.00895725822863,-0.00898008488358,0.0327057437102,-0.999384596751
109040000000,,383,,109,40000000,"""map""",,,0.00609041238204,0.00690995948389,0.00686766998842,,0.00901325243688,-0.00902052793307,0.0326582863588,-0.9993852711
109072000000,,384,,109,72000000,"""map""",,,0.00604934385046,0.00688225217164,0.00743556348607,,0.0090306962889,-0.00904947195619,0.0326446307799,-0.9993852711
109108000000,,385,,109,108000000,"""map""",,,0.00605944590643,0.00689784623682,0.00794586539268,,0.0090539884062,-0.00906467571665,0.0326450101015,-0.999384891779
109140000000,,386,,109,140000000,"""map""",,,0.00605142395943,0.0068006827496,0.00808917824179,,0.00899588845718,-0.00905687116549,0.0326528072685,-0.9993852711
109172000000,,387,,109,172000000,"""map""",,,0.00603604828939,0.00662066647783,0.00827986095101,,0.00900845889623,-0.00909524704666,0.0326037483368,-0.999386451212
109208000000,,388,,109,208000000,"""map""",,,0.00605588778853,0.00647743046284,0.00850696954876,,0.00896007931497,-0.00901079029814,0.0325767322069,-0.999388516408
109240000000,,389,,109,240000000,"""map""",,,0.00612156558782,0.00640485621989,0.00871005747467,,0.00906268659969,-0.0090062587299,0.0325842764928,-0.999387378443
109272000000,,390,,109,272000000,"""map""",,,0.00623276922852,0.00639214087278,0.00892453547567,,0.00900332803706,-0.00897535191391,0.0325822955909,-0.999388179233
