rosbagTimestamp,header,seq,stamp,secs,nsecs,frame_id,pose,position,x,y,z,orientation,x,y,z,w
515028000000,,12441,,514,936044964,"""map""",,,0.0494359731674,0.067742690444,-0.0113696968183,,0.0100983113109,-0.0115214994203,0.0406646702893,-0.999055429864
515028000000,,12442,,514,967044964,"""map""",,,0.0492588505149,0.0675101950765,-0.0116764102131,,0.0101316685658,-0.0115060176975,0.04062079542,-0.999057073591
515028000000,,12443,,515,44964,"""map""",,,0.0493002720177,0.0675062760711,-0.0119713339955,,0.0101604232532,-0.0114931984701,0.0406577582062,-0.999055429864
515040000000,,12444,,515,32044855,"""map""",,,0.0495333485305,0.0677129551768,-0.0125098628923,,0.0103799708381,-0.011545791769,0.0406581796746,-0.999052563878
515072000000,,12445,,515,63044746,"""map""",,,0.0495191738009,0.0677789524198,-0.0129793919623,,0.0103619104607,-0.01156585939,0.0407149093327,-0.999050203655
515108000000,,12446,,515,104044746,"""map""",,,0.048304527998,0.0669880360365,-0.0130309779197,,0.0103422496556,-0.0116575939402,0.0407655276978,-0.999047211228
515140000000,,12447,,515,135044746,"""map""",,,0.0476475097239,0.0666453763843,-0.0131638208404,,0.0103160851884,-0.0116463636161,0.0407743363891,-0.999047253375
515172000000,,12448,,515,168044636,"""map""",,,0.0472511537373,0.066547781229,-0.0133734783158,,0.0102822526701,-0.0116406610734,0.0407994559108,-0.999046663319
515208000000,,12449,,515,200044636,"""map""",,,0.0471183471382,0.0666890218854,-0.0136660877615,,0.0102441992931,-0.0116083542381,0.0407588684957,-0.99904906569
515240000000,,12450,,515,232044636,"""map""",,,0.0471982620656,0.067037910223,-0.0140452543274,,0.0102408374645,-0.011647128639,0.0407801105074,-0.999047801284
515272000000,,12451,,515,264044527,"""map""",,,0.0474434420466,0.0675628259778,-0.014589083381,,0.0101968467737,-0.0116558437347,0.0407732827179,-0.99904839134
515308000000,,12452,,515,304044527,"""map""",,,0.0465657450259,0.0664992108941,-0.0146343111992,,0.010122788834,-0.0116362579625,0.040822215209,-0.999047421963
515340000000,,12453,,515,336044527,"""map""",,,0.0461804494262,0.0659790411592,-0.0147422831506,,0.0101339112391,-0.0116524045683,0.0408004252884,-0.999047969872
515372000000,,12454,,515,368044417,"""map""",,,0.0460727252066,0.0657397508621,-0.0148643720895,,0.0100958127107,-0.0116404010306,0.0408543732545,-0.999046283998
515408000000,,12455,,515,400044417,"""map""",,,0.0461743846536,0.065776064992,-0.0150075741112,,0.0100614589956,-0.0116383201123,0.0408082224553,-0.999048602074
515440000000,,12456,,515,432044417,"""map""",,,0.0465004704893,0.0660420805216,-0.0151278227568,,0.0100709125666,-0.0116287374665,0.0408073373715,-0.999048644221
515472000000,,12457,,515,464044310,"""map""",,,0.0470165014267,0.0665227174759,-0.0152148902416,,0.010100553408,-0.0116305131495,0.0407969270999,-0.999048770662
515508000000,,12458,,515,504044310,"""map""",,,0.0464731231332,0.0655124336481,-0.0148768723011,,0.0099736378872,-0.0115588788182,0.040755454601,-0.999052563878
515540000000,,12459,,515,535044310,"""map""",,,0.0462958812714,0.065018646419,-0.014626561664,,0.0100079561232,-0.0115240166244,0.0407726505152,-0.999051889528
515572000000,,12460,,515,568044201,"""map""",,,0.0463284514844,0.0647983849049,-0.0145316645503,,0.0100229327424,-0.0114837031638,0.0407385115679,-0.999053575402
515608000000,,12461,,515,600044201,"""map""",,,0.0465479455888,0.0648286119103,-0.0145371016115,,0.00999344896395,-0.0115094608974,0.0407263732755,-0.999054081165
515640000000,,12462,,515,631044201,"""map""",,,0.0469790175557,0.0651051178575,-0.0145874461159,,0.0100256472629,-0.0115236531078,0.0406875138812,-0.999055176983
515672000000,,12463,,515,664044091,"""map""",,,0.0476356744766,0.0655953139067,-0.0144788064063,,0.0101004862364,-0.0115643926467,0.0406869659722,-0.999053954724
515708000000,,12464,,515,703044091,"""map""",,,0.0471224524081,0.0647296532989,-0.0139123788103,,0.0100450955639,-0.011476686866,0.0406023772472,-0.999058970199
515740000000,,12465,,515,736044091,"""map""",,,0.0469917096198,0.064308591187,-0.0135768409818,,0.0100385134939,-0.0114651299861,0.0406038945338,-0.999059138786
515772000000,,12466,,515,768043981,"""map""",,,0.0470911338925,0.0641075521708,-0.0134536791593,,0.0100423282776,-0.0114593277151,0.0406113545259,-0.999058843758
515808000000,,12467,,515,799043981,"""map""",,,0.0474144145846,0.0641512423754,-0.0133137805387,,0.010277997032,-0.0114289852357,0.0405892274305,-0.999057705794
515840000000,,12468,,515,832043981,"""map""",,,0.0479155182838,0.0644071772695,-0.0131741780788,,0.0103029485837,-0.0114383096085,0.040513953159,-0.999060403192
515872000000,,12469,,515,864043871,"""map""",,,0.0485781989992,0.0648447945714,-0.0131209287792,,0.0103249647968,-0.0115168505077,0.0405280302064,-0.999058717318
515908000000,,12470,,515,904043871,"""map""",,,0.0480243563652,0.063896253705,-0.0126320114359,,0.0102733823637,-0.0115270210279,0.0405290838777,-0.99905909664
515940000000,,12471,,515,936043871,"""map""",,,0.0478808358312,0.0634815990925,-0.0124145299196,,0.0102382019283,-0.0115564181255,0.0405180835502,-0.999059560255
515972000000,,12472,,515,967043764,"""map""",,,0.0479779615998,0.0633257776499,-0.012247979641,,0.0102436436462,-0.0115962987577,0.0405261335983,-0.999058675171
516008000000,,12473,,516,43764,"""map""",,,0.0482837706804,0.0633695498109,-0.0121740987524,,0.0102326382973,-0.0115991631794,0.0405201908926,-0.999059054493
516040000000,,12474,,516,32043764,"""map""",,,0.0487897433341,0.0636084675789,-0.012276019901,,0.0102136322501,-0.0115722910649,0.0405008454891,-0.999060276751
516072000000,,12475,,516,63043654,"""map""",,,0.0494270659983,0.0640288367867,-0.0124967750162,,0.0101629788175,-0.0115326922897,0.0404967993917,-0.999061456863
516108000000,,12476,,516,104043654,"""map""",,,0.0492465943098,0.0631163492799,-0.0127066522837,,0.0101418550146,-0.0114377028421,0.0405004661675,-0.999062594828
516140000000,,12477,,516,135043654,"""map""",,,0.0491250827909,0.0623762607574,-0.0130906431004,,0.010082473974,-0.0114460440491,0.0404892551058,-0.999063606352
516172000000,,12478,,516,168043544,"""map""",,,0.0492000542581,0.0619078837335,-0.013557145372,,0.0100982208845,-0.0114234838372,0.0404478669006,-0.99906537652
516208000000,,12479,,516,200043544,"""map""",,,0.0494677312672,0.0616547651589,-0.0139363780618,,0.0100956864348,-0.0113886840816,0.0404698254086,-0.999064828611
516240000000,,12480,,516,232043544,"""map""",,,0.0499159023166,0.0616235844791,-0.0143023738638,,0.0101303797119,-0.0113753026219,0.0404767374918,-0.999064407142
516272000000,,12481,,516,264043433,"""map""",,,0.0505319908261,0.0618007816374,-0.0149766448885,,0.0100791256456,-0.0113339640133,0.0404195863652,-0.999067694597
516308000000,,12482,,516,304043433,"""map""",,,0.0505722351372,0.060944467783,-0.0153235485777,,0.0100823514024,-0.0112883214047,0.040422157323,-0.999068073918
516340000000,,12483,,516,336043433,"""map""",,,0.0506220832467,0.0602983534336,-0.0155755709857,,0.0100644819618,-0.0112821052385,0.0403821599637,-0.999069970526
516372000000,,12484,,516,368043323,"""map""",,,0.0508189313114,0.0599050037563,-0.0160142146051,,0.0100116818388,-0.0111351345679,0.0403219742641,-0.999074522386
516408000000,,12485,,516,400043323,"""map""",,,0.0511782616377,0.0597446300089,-0.016535455361,,0.010034671216,-0.0111944421808,0.0403357562835,-0.99907313154
516440000000,,12486,,516,432043323,"""map""",,,0.0516886413097,0.0597602166235,-0.0170725863427,,0.0100438556481,-0.011230257412,0.0402924714701,-0.999074353799
516472000000,,12487,,516,464043216,"""map""",,,0.0523321516812,0.0599394738674,-0.0175158958882,,0.0100375117654,-0.0111798834904,0.0403021652453,-0.99907460668
516508000000,,12488,,516,504043216,"""map""",,,0.0518359690905,0.0590347200632,-0.017758987844,,0.0100578521061,-0.0111746093309,0.040325893921,-0.999073468715
516540000000,,12489,,516,535043216,"""map""",,,0.0513834282756,0.0583799369633,-0.0179016441107,,0.0100973887723,-0.011142474705,0.0402837049256,-0.999075196736
516572000000,,12490,,516,568043106,"""map""",,,0.0511614233255,0.0580200888216,-0.0180348772556,,0.00999244241983,-0.0110348178656,0.040237132658,-0.99907928498
516608000000,,12491,,516,600043106,"""map""",,,0.0511236824095,0.0578858479857,-0.018292972818,,0.0100230963496,-0.0110512525024,0.0402432018042,-0.999078526337
516640000000,,12492,,516,631043106,"""map""",,,0.0512844510376,0.0579558685422,-0.0186316240579,,0.0100511665623,-0.0110519896606,0.0402142890661,-0.999079453567
516672000000,,12493,,516,664042995,"""map""",,,0.0515817552805,0.0582293570042,-0.019155299291,,0.0101698645589,-0.0110988207774,0.0402292511973,-0.999077135491
516708000000,,12494,,516,703042995,"""map""",,,0.0508037991822,0.0577966794372,-0.0189676489681,,0.0101375031055,-0.0110893185563,0.0401503944438,-0.999080717973
516740000000,,12495,,516,736042995,"""map""",,,0.0501947775483,0.0574793964624,-0.0188240744174,,0.0101268460856,-0.0110953499597,0.0400910516811,-0.99908316249
516772000000,,12496,,516,768042885,"""map""",,,0.0498135760427,0.0573473498225,-0.0189491733909,,0.0101016605859,-0.011021589147,0.0401165505244,-0.999083204637
516808000000,,12497,,516,799042885,"""map""",,,0.0496472492814,0.0574272349477,-0.0191259123385,,0.0101021214024,-0.0110327937879,0.0401062245465,-0.999083499665
516840000000,,12498,,516,832042885,"""map""",,,0.0496530197561,0.0577024333179,-0.0193497035652,,0.0101500592855,-0.0110159971575,0.0400706947532,-0.999084553336
516872000000,,12499,,516,864042774,"""map""",,,0.0497969612479,0.0581196695566,-0.0196364186704,,0.0100677809405,-0.0110114951414,0.0400083174175,-0.999088009378
516908000000,,12500,,516,904042774,"""map""",,,0.0492947585881,0.05801993981,-0.0198111608624,,0.0100120721499,-0.0110339869471,0.0400614224466,-0.999086154916
516940000000,,12501,,516,936042774,"""map""",,,0.0486594252288,0.0577307157218,-0.0200236756355,,0.0100199374351,-0.0110591173759,0.040060748097,-0.999085817742
516972000000,,12502,,516,967042666,"""map""",,,0.048233371228,0.0576470009983,-0.0202015731484,,0.0100138112836,-0.0110388846249,0.040080514969,-0.999085354126
517008000000,,12503,,517,42666,"""map""",,,0.0479954667389,0.0577385649085,-0.0203598532826,,0.0100485930115,-0.0110354904453,0.0400700625505,-0.99908543842
517040000000,,12504,,517,32042666,"""map""",,,0.0479599162936,0.0579988993704,-0.020484296605,,0.0100245241152,-0.011044946239,0.0400548475382,-0.999086154916
517072000000,,12505,,517,63042556,"""map""",,,0.0481484308839,0.0584101714194,-0.0206449385732,,0.00999700267591,-0.0111362582506,0.0400307395409,-0.999086407797
517108000000,,12506,,517,104042556,"""map""",,,0.0475352331996,0.0581978634,-0.0205414816737,,0.0100280481927,-0.0111428077227,0.0400174632836,-0.999086534238
517140000000,,12507,,517,135042556,"""map""",,,0.0467150732875,0.0577730312943,-0.0203414838761,,0.0100318926521,-0.0111626511093,0.03999424037,-0.999087250734
517172000000,,12508,,517,168042445,"""map""",,,0.0461230240762,0.0575674287975,-0.020106267184,,0.00994855960684,-0.0111668784711,0.0400122370744,-0.999087292881
517208000000,,12509,,517,200042445,"""map""",,,0.045740749687,0.0575770586729,-0.0199774038047,,0.00997909491626,-0.0111689253098,0.0400957299813,-0.999083626105
517240000000,,12510,,517,232042445,"""map""",,,0.0455875992775,0.0578046441078,-0.0198769383132,,0.0099421277261,-0.0111631292538,0.0400978794705,-0.999084005427
517272000000,,12511,,517,264042334,"""map""",,,0.0456450916827,0.0581854246557,-0.0198140367866,,0.00989222618674,-0.0111999073182,0.0400818215213,-0.999084721923
517308000000,,12512,,517,304042334,"""map""",,,0.0450298823416,0.0580393783748,-0.0197637919337,,0.00991042720449,-0.0111779604993,0.0400275785272,-0.999086955706
517340000000,,12513,,517,336042334,"""map""",,,0.0442662760615,0.057703986764,-0.0199859943241,,0.00985127443187,-0.0111073049297,0.0400105512004,-0.999088978755
517372000000,,12514,,517,368042224,"""map""",,,0.0437355078757,0.0575911700726,-0.0202409476042,,0.0099570252788,-0.0110957918019,0.040000646691,-0.999088430846
517408000000,,12515,,517,400042224,"""map""",,,0.0434124171734,0.0576629266143,-0.0204935055226,,0.00996215645181,-0.0109323636513,0.0399369206561,-0.999092729825
517440000000,,12516,,517,432042224,"""map""",,,0.0432851091027,0.0579363591969,-0.0208527073264,,0.00998986837514,-0.0108181492727,0.0399356983975,-0.999093783496
517472000000,,12517,,517,472042116,"""map""",,,0.0433811768889,0.058544382453,-0.0210364852101,,0.0100068154418,-0.0108173628882,0.039995631216,-0.999091254685
517508000000,,12518,,517,504042116,"""map""",,,0.0429382734001,0.0582173019648,-0.020954227075,,0.00996709532983,-0.0108370698326,0.039980626938,-0.999092013328
517540000000,,12519,,517,535042116,"""map""",,,0.0424823313951,0.0577627308667,-0.0207524225116,,0.00993251355251,-0.010825873547,0.0399662127158,-0.999093024853
517572000000,,12520,,517,568042005,"""map""",,,0.042233530432,0.0575545877218,-0.0207256637514,,0.00988803150518,-0.0108535758803,0.0399673085339,-0.999093109146
517608000000,,12521,,517,600042005,"""map""",,,0.0421500131488,0.0575706921518,-0.0207952391356,,0.00990640823083,-0.0108559867706,0.0399229700492,-0.999094710727
517640000000,,12522,,517,631042005,"""map""",,,0.0422323159873,0.057755112648,-0.0208678692579,,0.00988777401427,-0.0108803779832,0.0399168587562,-0.999094837167
517672000000,,12523,,517,664041894,"""map""",,,0.042505890131,0.0581087470055,-0.0209634304047,,0.0098605554231,-0.0109085185367,0.0398987356113,-0.99909559581
517708000000,,12524,,517,703041894,"""map""",,,0.0426138229668,0.0582042708993,-0.021090131253,,0.00988111374207,-0.0109658620818,0.0399021073592,-0.999094584286
517740000000,,12525,,517,736041894,"""map""",,,0.0423316285014,0.0578456521034,-0.0213730093092,,0.00988402253317,-0.010954480457,0.0398476957778,-0.999096902363
517772000000,,12526,,517,768041783,"""map""",,,0.042272221297,0.0577023513615,-0.0217021517456,,0.00989862505793,-0.010984942133,0.0398137675647,-0.999097703153
517808000000,,12527,,517,799041783,"""map""",,,0.0423911809921,0.0577278509736,-0.0219816807657,,0.00984451982317,-0.0109288215051,0.0397851077077,-0.999099979083
517840000000,,12528,,517,832041783,"""map""",,,0.0426753051579,0.0579097792506,-0.0222879648209,,0.00987192791053,-0.0109253949745,0.039776973366,-0.999100105523
517872000000,,12529,,517,864041672,"""map""",,,0.0431266352534,0.0582614950836,-0.0226451139897,,0.00984328056589,-0.0108852771016,0.0397502101172,-0.999101917838
517908000000,,12530,,517,904041672,"""map""",,,0.0432924069464,0.0582124628127,-0.0228342283517,,0.00985670701247,-0.0109497340798,0.039727450819,-0.999102002131
517940000000,,12531,,517,936041672,"""map""",,,0.042935911566,0.0575310327113,-0.0227204710245,,0.00986194680417,-0.0109367708781,0.0397205808827,-0.999102297159
517972000000,,12532,,517,967041564,"""map""",,,0.0427716970444,0.0570509396493,-0.0225839987397,,0.00984189210711,-0.0108836191335,0.0397227725188,-0.999103055803
518008000000,,12533,,518,41564,"""map""",,,0.0428106933832,0.0567885413766,-0.0223557911813,,0.0098264786671,-0.0108336680798,0.0396690352869,-0.999105879641
518040000000,,12534,,518,32041564,"""map""",,,0.0430200658739,0.0567145757377,-0.0223937034607,,0.00981843261146,-0.0108219235559,0.0396841660056,-0.99910550032
518072000000,,12535,,518,63041453,"""map""",,,0.0433976687491,0.056827172637,-0.0223926454782,,0.00980814203035,-0.0107638651196,0.0397153546735,-0.999104994558
518108000000,,12536,,518,104041453,"""map""",,,0.04339274019,0.05667963624,-0.0220932066441,,0.00979425637244,-0.0107994379653,0.0397640342835,-0.999102760775
518140000000,,12537,,518,135041453,"""map""",,,0.0427859649062,0.0561594478786,-0.0216124020517,,0.00983214503101,-0.0107810040286,0.039769724108,-0.999102381453
518172000000,,12538,,518,168041342,"""map""",,,0.0423858612776,0.0558720268309,-0.0212998390198,,0.00979348838607,-0.0107921875137,0.039742202216,-0.999103688005
518208000000,,12539,,518,200041342,"""map""",,,0.0422082692385,0.0557855777442,-0.0210515968502,,0.00977377069916,-0.0107689944405,0.0397052815767,-0.99910562676
518240000000,,12540,,518,232041342,"""map""",,,0.0421749316156,0.0558632053435,-0.0208802800626,,0.0097892478945,-0.0107897582665,0.0397109292544,-0.999105036704
518272000000,,12541,,518,272041230,"""map""",,,0.0423269495368,0.0562115982175,-0.0206959024072,,0.00982543717897,-0.0107815518553,0.0397118143382,-0.999104741677
518308000000,,12542,,518,304041230,"""map""",,,0.0421858020127,0.0560377761722,-0.0202957428992,,0.00983288009015,-0.010709240993,0.0397431715935,-0.999104151621
518340000000,,12543,,518,336041230,"""map""",,,0.0417897216976,0.0554189123213,-0.0197303593159,,0.00976989026681,-0.0106649302084,0.0397477234531,-0.999105078851
518372000000,,12544,,518,368041119,"""map""",,,0.0415694266558,0.0550266727805,-0.0194045044482,,0.00979638445902,-0.0106190682222,0.0396904880328,-0.999107607662
518408000000,,12545,,518,400041119,"""map""",,,0.041519574821,0.054818559438,-0.0193728860468,,0.00977457601678,-0.0105800047614,0.0396738400277,-0.999108914215
518440000000,,12546,,518,432041119,"""map""",,,0.0416178442538,0.0547951944172,-0.0193473733962,,0.00978349233898,-0.0105587407296,0.0396657899796,-0.99910937783
518472000000,,12547,,518,464041011,"""map""",,,0.0418603159487,0.0549427606165,-0.0192126333714,,0.00980196257796,-0.0104784147221,0.0396366243604,-0.999111147997
518508000000,,12548,,518,504041011,"""map""",,,0.0418118797243,0.0549718402326,-0.0188515465707,,0.00980207008535,-0.0104856131075,0.0396301337458,-0.999111316585
518540000000,,12549,,518,535041011,"""map""",,,0.0413062125444,0.0547313913703,-0.0184828843921,,0.00980601579593,-0.0104896911032,0.0396106619018,-0.999111990934
518572000000,,12550,,518,568040900,"""map""",,,0.0409565232694,0.0546715445817,-0.018249778077,,0.00976989026681,-0.010491470902,0.0396091446152,-0.999112412403
518608000000,,12551,,518,600040900,"""map""",,,0.0407924056053,0.0547835528851,-0.018034202978,,0.00977090531027,-0.0104556412446,0.0396480883032,-0.999111232291
518640000000,,12552,,518,631040900,"""map""",,,0.0407916270196,0.055075854063,-0.0179106965661,,0.00987677504506,-0.0104693882172,0.039621451495,-0.999111147997
518672000000,,12553,,518,664040788,"""map""",,,0.0409426912665,0.0554776117206,-0.0176899079233,,0.00997978667611,-0.0104381539862,0.0395528785724,-0.999113128899
518708000000,,12554,,518,703040788,"""map""",,,0.0410803295672,0.0558696202934,-0.0172555670142,,0.0099656641274,-0.0104283832231,0.0395632045503,-0.999113002459
518740000000,,12555,,518,736040788,"""map""",,,0.0405064634979,0.0553909614682,-0.0164244491607,,0.00991448044304,-0.0103806587907,0.0395861745828,-0.999113044606
518772000000,,12556,,518,768040677,"""map""",,,0.0400954894722,0.0551210716367,-0.0156704653054,,0.00990959064717,-0.010396563402,0.039627014879,-0.999111316585
518808000000,,12557,,518,799040677,"""map""",,,0.0398624651134,0.0550132952631,-0.0149785298854,,0.00988526714113,-0.0104065793701,0.0396191755652,-0.999111738053
518840000000,,12558,,518,832040677,"""map""",,,0.0397817604244,0.0550681911409,-0.0144213521853,,0.00983517734035,-0.0103735950983,0.0396168574885,-0.999112707431
518872000000,,12559,,518,871040565,"""map""",,,0.0398679673672,0.0553183630109,-0.0139686502516,,0.00979380267644,-0.0103972588662,0.039627562788,-0.99911245455
518908000000,,12560,,518,904040565,"""map""",,,0.0398847647011,0.0553364343941,-0.0134258745238,,0.0097688897319,-0.0103702258199,0.0396053935457,-0.999113887543
518940000000,,12561,,518,936040565,"""map""",,,0.0394624732435,0.0546773523092,-0.0123628284782,,0.00972370143674,-0.0103244058983,0.0396019375041,-0.999114899067
518972000000,,12562,,518,967040457,"""map""",,,0.0392217710614,0.0542176328599,-0.0113516673446,,0.00967822735384,-0.0102828269827,0.0395654383333,-0.999117259291
519008000000,,12563,,519,40457,"""map""",,,0.0391401015222,0.0539618656039,-0.010444120504,,0.00960369775218,-0.0103052209327,0.0395361884204,-0.999118860871
519040000000,,12564,,519,32040457,"""map""",,,0.0391681939363,0.0538508929312,-0.00964124687016,,0.00955500676168,-0.010242937954,0.0395366098889,-0.999119956689
519072000000,,12565,,519,63040346,"""map""",,,0.0393139272928,0.053876247257,-0.0089277131483,,0.00951746641142,-0.0102085863174,0.039450630318,-0.99912408708
519108000000,,12566,,519,104040346,"""map""",,,0.0393760167062,0.0538584887981,-0.00770330894738,,0.00951418871193,-0.010136494915,0.0394757076928,-0.999123876346
519140000000,,12567,,519,135040346,"""map""",,,0.038785059005,0.0532088652253,-0.00648112315685,,0.00949030108004,-0.0101078320123,0.0394454884024,-0.999125520073
519172000000,,12568,,519,168040234,"""map""",,,0.0383591465652,0.0527980625629,-0.00541109032929,,0.00949687150207,-0.0100973103232,0.0393644400128,-0.99912876538
519208000000,,12569,,519,200040234,"""map""",,,0.0380554944277,0.0525578893721,-0.00444739824161,,0.00945543141587,-0.0101217494244,0.0393334199322,-0.999130198373
519240000000,,12570,,519,232040234,"""map""",,,0.0378782451153,0.0524656362832,-0.00352607155219,,0.00950221375918,-0.0101255380309,0.0393277722545,-0.999129861198
519272000000,,12571,,519,264040123,"""map""",,,0.0378270372748,0.0525143109262,-0.0025041536428,,0.00953076779629,-0.0101188015734,0.0393141588225,-0.99913024052
519308000000,,12572,,519,304040123,"""map""",,,0.0379092134535,0.0527928546071,-0.00165069499053,,0.00950911898935,-0.00991187880122,0.0392637511917,-0.999134539498
519340000000,,12573,,519,336040123,"""map""",,,0.0380798615515,0.0531498119235,-0.00106821744703,,0.00948634672606,-0.00990984632707,0.0392799777283,-0.999134075883
519372000000,,12574,,519,368040011,"""map""",,,0.0383431389928,0.053614128381,-0.000505837029777,,0.00952443891604,-0.00992177717792,0.0392211407278,-0.999135930344
519408000000,,12575,,519,400040011,"""map""",,,0.0386694967747,0.0541680566967,-0.000181346724275,,0.00954314250614,-0.00989245916744,0.0391965269683,-0.999137026162
519440000000,,12576,,519,432040011,"""map""",,,0.0382299907506,0.053516484797,-0.000175873879925,,0.00957155107695,-0.00988460903908,0.0391653383004,-0.999138037687
519472000000,,12577,,519,464039902,"""map""",,,0.0379533581436,0.0530713051558,-0.000119615564472,,0.00958515586562,-0.00985651100287,0.0391475944772,-0.999138922771
519508000000,,12578,,519,504039902,"""map""",,,0.0377777963877,0.0527814216912,-1.22165074572e-05,,0.00959951169344,-0.00985046468966,0.0391292184512,-0.999139512827
519540000000,,12579,,519,535039902,"""map""",,,0.0377224572003,0.0526864007115,0.000116706207336,,0.00959292858413,-0.00987071918295,0.0391365941497,-0.999139133505
519572000000,,12580,,519,568039791,"""map""",,,0.0377849824727,0.0527162738144,0.000230087782256,,0.00959323468385,-0.00988374729243,0.0391420310932,-0.999138754183
519608000000,,12581,,519,600039791,"""map""",,,0.0379181392491,0.0528840087354,0.000312413700158,,0.00954275035318,-0.00988085132238,0.0391101259288,-0.999140482204
519640000000,,12582,,519,631039791,"""map""",,,0.0372671447694,0.0520975850523,0.000590075738728,,0.00954144814315,-0.00988560430563,0.0390775885618,-0.99914174661
519672000000,,12583,,519,664039679,"""map""",,,0.0367151983082,0.0515157096088,0.000797845306806,,0.00948419940793,-0.00980322975136,0.0390237248894,-0.999145202651
519708000000,,12584,,519,703039679,"""map""",,,0.0362056829035,0.0510442331433,0.000914290547371,,0.00945620847781,-0.00982249891801,0.0389433929961,-0.999148405812
519736000000,,12585,,519,736039679,"""map""",,,0.0359012819827,0.0508454926312,0.000949769280851,,0.00942756549603,-0.00984103850995,0.0389631177212,-0.999147731462
519772000000,,12586,,519,768039568,"""map""",,,0.0356967374682,0.0507781133056,0.000946954649407,,0.0093952977618,-0.00982357428003,0.0389704934197,-0.999147942196
519808000000,,12587,,519,799039568,"""map""",,,0.035610254854,0.0508131459355,0.000931434042286,,0.00946015275812,-0.00980440910167,0.0390414265658,-0.999144696889
519840000000,,12588,,519,832039568,"""map""",,,0.0349945239723,0.050311293453,0.00134563934989,,0.00944756437115,-0.00979180684412,0.0390080884086,-0.999146256322
519872000000,,12589,,519,864039456,"""map""",,,0.0343202576041,0.0497800670564,0.0018215214368,,0.00940714746762,-0.00975971931441,0.0389999962137,-0.999147267847
519908000000,,12590,,519,904039456,"""map""",,,0.033662751317,0.049393646419,0.00256064441055,,0.00944715680413,-0.00975669910582,0.0390189201487,-0.999146214175
519940000000,,12591,,519,936039456,"""map""",,,0.0332694016397,0.0492429845035,0.00288299587555,,0.00946238098462,-0.00976475842496,0.0390474114183,-0.999144865476
519972000000,,12592,,519,967039347,"""map""",,,0.0329570770264,0.0492350496352,0.00312589108944,,0.00946216766765,-0.00977717720584,0.0390377597899,-0.999145160504
520008000000,,12593,,520,39347,"""map""",,,0.0327418372035,0.0493931770325,0.00332674849778,,0.00954323174921,-0.00972086122689,0.0389830953274,-0.999147057112
520040000000,,12594,,520,32039347,"""map""",,,0.032115843147,0.0489191003144,0.00331047782674,,0.00954121536825,-0.00975983117437,0.0389826317121,-0.999146677791
520072000000,,12595,,520,72039236,"""map""",,,0.031244808808,0.048292092979,0.0031869946979,,0.00950388133793,-0.0097728227655,0.038968470371,-0.999147520728
520108000000,,12596,,520,104039236,"""map""",,,0.0306612588465,0.0480109676719,0.00304836709984,,0.00949085446322,-0.00979451081758,0.03894120136,-0.999148405812
520140000000,,12597,,520,135039236,"""map""",,,0.0301581416279,0.0479030162096,0.00292079430073,,0.00950481551418,-0.00977495740665,0.0389364387661,-0.99914870084
520172000000,,12598,,520,168039124,"""map""",,,0.0297061819583,0.0479762330651,0.00278050429188,,0.0095054202021,-0.00973956576365,0.0389391783113,-0.999148911574
520208000000,,12599,,520,200039124,"""map""",,,0.029291510582,0.0481847710907,0.00278828758746,,0.00958822926197,-0.00972975504539,0.0389195800267,-0.999149038014
520240000000,,12600,,520,232039124,"""map""",,,0.0287362616509,0.047663230449,0.00343392067589,,0.0095466499039,-0.00970897023856,0.0388965678474,-0.999150471007
520272000000,,12601,,520,272039012,"""map""",,,0.0280606038868,0.046912945807,0.00447641778737,,0.00959681783996,-0.00971259748627,0.0388266462258,-0.99915270479
520308000000,,12602,,520,304039012,"""map""",,,0.0275681111962,0.0464977622032,0.00514806015417,,0.00963580113583,-0.00967538699221,0.0388025382284,-0.999153632021
520340000000,,12603,,520,336039012,"""map""",,,0.0271348133683,0.0462244004011,0.00583946611732,,0.00961108127861,-0.0096336939529,0.0388242017085,-0.999153463433
520372000000,,12604,,520,368038900,"""map""",,,0.0267362035811,0.0461251065135,0.00648425798863,,0.00964953554073,-0.00963608657243,0.0388538730899,-0.999151861853
520408000000,,12605,,520,400038900,"""map""",,,0.0263580232859,0.0461611635983,0.00707211717963,,0.0096999751997,-0.0095670311773,0.0388384051965,-0.999152662643
520440000000,,12606,,520,432038900,"""map""",,,0.0256496798247,0.0456052310765,0.00792204402387,,0.00968416840798,-0.00957679253044,0.0388156880451,-0.999153632021
520472000000,,12607,,520,464038792,"""map""",,,0.0248908251524,0.0449825376272,0.00886642374098,,0.00969682835506,-0.00961771308162,0.0388613330821,-0.999151313944
520508000000,,12608,,520,504038792,"""map""",,,0.0240250751376,0.0444338992238,0.00969190057367,,0.00977635906719,-0.00960062292556,0.0388849353172,-0.999149796658
520540000000,,12609,,520,535038792,"""map""",,,0.0234057102352,0.0441926345229,0.0102786691859,,0.00991099550782,-0.00961323308565,0.0388907515823,-0.999148110784
520572000000,,12610,,520,568038680,"""map""",,,0.0228353943676,0.0440890602767,0.0107568567619,,0.00990968542613,-0.00961703773394,0.0389217716628,-0.999146846378
520608000000,,12611,,520,600038680,"""map""",,,0.0222825910896,0.0441139340401,0.0110045867041,,0.00993604078893,-0.0095942477311,0.0388959777916,-0.999147857903
520640000000,,12612,,520,631038680,"""map""",,,0.0216278992593,0.0438805446029,0.0111534241587,,0.00996737029274,-0.00965106309259,0.0389146909923,-0.999146256322
520672000000,,12613,,520,664038568,"""map""",,,0.0208821017295,0.0434270352125,0.0112569723278,,0.00997738281373,-0.00968022606729,0.0389114878318,-0.999146003441
520708000000,,12614,,520,703038568,"""map""",,,0.0200615506619,0.0430774129927,0.0114102046937,,0.00988507515482,-0.00963563681097,0.0388875905687,-0.999148237224
520740000000,,12615,,520,736038568,"""map""",,,0.0194110423326,0.042990591377,0.0115272058174,,0.00990384281925,-0.00965820598531,0.038840217511,-0.999149670217
520772000000,,12616,,520,768038456,"""map""",,,0.0187920853496,0.043087605387,0.0115445982665,,0.00987749040961,-0.00965386100125,0.0388510913979,-0.999149585923
520808000000,,12617,,520,799038456,"""map""",,,0.0182058364153,0.0433149039745,0.01135598775,,0.00984287670318,-0.00959940129463,0.0388119791225,-0.999151946147
520840000000,,12618,,520,832038456,"""map""",,,0.0176366176456,0.0432041957974,0.0110299410298,,0.00986181414861,-0.00959848821238,0.0388257189951,-0.999151271797
520872000000,,12619,,520,864038344,"""map""",,,0.0170804746449,0.0428441315889,0.0107482597232,,0.00981113457492,-0.0096592474683,0.0388440107273,-0.999150513154
520908000000,,12620,,520,904038344,"""map""",,,0.0163629297167,0.0426643267274,0.0104300118983,,0.00978376704979,-0.00964853399871,0.0388110940387,-0.999152072587
520940000000,,12621,,520,936038344,"""map""",,,0.0157709922642,0.0427029617131,0.0102746151388,,0.00974258683658,-0.00964680345179,0.0388234430653,-0.999152030441
520972000000,,12622,,520,967038236,"""map""",,,0.015171774663,0.0428763516247,0.010115631856,,0.00972210178325,-0.00964970931802,0.0387786831121,-0.999153969196
521008000000,,12623,,521,38236,"""map""",,,0.0145775042474,0.0431651175022,0.0099862748757,,0.00962916939713,-0.00957795816194,0.0388695938644,-0.999151988294
521040000000,,12624,,521,32038236,"""map""",,,0.0139411566779,0.0431113690138,0.00989802461118,,0.00966925630556,-0.00958480308642,0.0388622181659,-0.999151861853
521072000000,,12625,,521,63038124,"""map""",,,0.0132830329239,0.0427666530013,0.00985256116837,,0.00972726932799,-0.0096106412191,0.0387993772148,-0.99915350558
521108000000,,12626,,521,104038124,"""map""",,,0.0124937947839,0.0426243580878,0.00987287610769,,0.00972769421782,-0.00959810569577,0.0387139455528,-0.999156919475
521140000000,,12627,,521,135038124,"""map""",,,0.0118996538222,0.0427018515766,0.00990645214915,,0.00972696772489,-0.00959549863639,0.0387334173968,-0.999156245125
521172000000,,12628,,521,168038012,"""map""",,,0.0113223884255,0.0429471768439,0.00987160485238,,0.00972261010501,-0.00959073278066,0.038701090764,-0.999157551678
521208000000,,12629,,521,200038012,"""map""",,,0.0107469260693,0.0433468855917,0.00978202186525,,0.00965302144447,-0.00955618843234,0.0387317315229,-0.999157340943
521240000000,,12630,,521,232038012,"""map""",,,0.0101162130013,0.0434102602303,0.00980778597295,,0.00972727538866,-0.00952388113913,0.0386965810512,-0.999158268174
521272000000,,12631,,521,264037900,"""map""",,,0.0094445059076,0.0431985035539,0.0099578127265,,0.00974588551689,-0.00954259994779,0.0386085784316,-0.999161302747
521308000000,,12632,,521,304037900,"""map""",,,0.008575161919,0.0431957840919,0.00987844355404,,0.00973641066662,-0.00930283940939,0.0386448247213,-0.999162314272
521340000000,,12633,,521,336037900,"""map""",,,0.00792531576008,0.0434185937047,0.00991215649992,,0.00971994143571,-0.00928622336421,0.0386216439546,-0.999163494383
521372000000,,12634,,521,368037788,"""map""",,,0.00726944301277,0.0438088849187,0.00994876306504,,0.0096867239774,-0.00934093834944,0.0386303262054,-0.999162988621
521408000000,,12635,,521,400037788,"""map""",,,0.00662706373259,0.04430905357,0.00983710493892,,0.00968225889129,-0.00935084696446,0.0386033943692,-0.999163957999
521440000000,,12636,,521,432037788,"""map""",,,0.00595850124955,0.0442951507866,0.0097001278773,,0.00970894057318,-0.00935313465547,0.038583416763,-0.999164463761
521472000000,,12637,,521,464037679,"""map""",,,0.00524098286405,0.0438570156693,0.00952678918839,,0.00971281919454,-0.00933982962802,0.0385617954297,-0.999165433138
521508000000,,12638,,521,504037679,"""map""",,,0.00430708331987,0.0436423420906,0.00944952014834,,0.00964471941566,-0.00936786882739,0.0385435036975,-0.999166444663
521536000000,,12639,,521,535037679,"""map""",,,0.00355760287493,0.043687582016,0.00930589530617,,0.00961770802935,-0.00941142680302,0.03850160973,-0.999167961949
521572000000,,12640,,521,568037568,"""map""",,,0.00277548003942,0.0438906513155,0.00906619057059,,0.00960405442092,-0.00945180941594,0.038459336441,-0.999169352795
521608000000,,12641,,521,600037568,"""map""",,,0.00194966164418,0.0442429818213,0.00875583663583,,0.00955869334529,-0.00943091959698,0.0383744105412,-0.999173272452
521640000000,,12642,,521,631037568,"""map""",,,0.00114005093928,0.044540476054,0.00858318526298,,0.00955387172421,-0.00943832007835,0.0383575518018,-0.999173862508
521672000000,,12643,,521,664037456,"""map""",,,0.000362684484571,0.0444165281951,0.00843148306012,,0.00948845590007,-0.00940687322499,0.0382735952796,-0.999177992899
521708000000,,12644,,521,703037456,"""map""",,,-0.000611930037849,0.0444896705449,0.00792513601482,,0.00947242851394,-0.00944299016988,0.0382110493564,-0.999180184535
521740000000,,12645,,521,736037456,"""map""",,,-0.00141707691364,0.0447430200875,0.00736728217453,,0.00950914708297,-0.00943239737857,0.0382139153421,-0.999179847361
521772000000,,12646,,521,768037344,"""map""",,,-0.00223658769391,0.0451386682689,0.00681904796511,,0.00946556829245,-0.00945312730884,0.0381944856449,-0.999180816738
521808000000,,12647,,521,799037344,"""map""",,,-0.0030661621131,0.0456959269941,0.00613142410293,,0.00947109990168,-0.0095059440601,0.0381409170005,-0.999182291878
521840000000,,12648,,521,832037344,"""map""",,,-0.00384668563493,0.0460431203246,0.00546129280701,,0.00944594159401,-0.00952802037948,0.0381072416685,-0.99918359843
521872000000,,12649,,521,871037232,"""map""",,,-0.00448813010007,0.0454883128405,0.00447735702619,,0.00935806971084,-0.00953004703476,0.0380935860896,-0.999184947129
521908000000,,12650,,521,904037232,"""map""",,,-0.00503326207399,0.0452861897647,0.00371337821707,,0.0093172214555,-0.00955508627064,0.0380372779,-0.999187223059
521940000000,,12651,,521,936037232,"""map""",,,-0.0056191268377,0.0452746599913,0.00298787397332,,0.00934990901186,-0.00953167892349,0.0380650526732,-0.999186085094
521972000000,,12652,,521,967037123,"""map""",,,-0.00624589156359,0.0454295016825,0.00229271943681,,0.00928636165856,-0.00948042089563,0.0380333160962,-0.999188403171
522008000000,,12653,,522,37123,"""map""",,,-0.00693659670651,0.0457241795957,0.00171460397542,,0.00930273495291,-0.00947019445571,0.0379767550255,-0.999190510513
522040000000,,12654,,522,32037123,"""map""",,,-0.00766958435997,0.0459187924862,0.00117031682748,,0.00925717147774,-0.00948181786403,0.037971908138,-0.999190974129
522072000000,,12655,,522,63037011,"""map""",,,-0.00838520657271,0.0455250702798,0.000870045798365,,0.00925806285889,-0.00948666635681,0.0379482216091,-0.999191817066
522108000000,,12656,,522,104037011,"""map""",,,-0.00935604516417,0.0453100800514,0.000345708453096,,0.00920839921873,-0.00951695430046,0.0379320372193,-0.999192575709
522140000000,,12657,,522,135037011,"""map""",,,-0.0101696234196,0.0453929081559,-0.000199729896849,,0.00919001949875,-0.00946533995886,0.0379339759743,-0.999193165765
522172000000,,12658,,522,168036899,"""map""",,,-0.0109851574525,0.0456367582083,-0.000818044645712,,0.00917398034886,-0.0094611209626,0.0379294662615,-0.999193545086
522208000000,,12659,,522,200036899,"""map""",,,-0.0118273347616,0.0460174567997,-0.00148662028369,,0.00913531484444,-0.00946451745735,0.0379040938587,-0.999194809492
522240000000,,12660,,522,232036899,"""map""",,,-0.012615935877,0.0463014617562,-0.00193703116383,,0.00912183744297,-0.00945916443716,0.0378830204344,-0.999195821016
522272000000,,12661,,522,264036788,"""map""",,,-0.0131595907733,0.0459728837013,-0.00171439431142,,0.00911860433929,-0.00946512523219,0.0379030823343,-0.999194978079
522308000000,,12662,,522,304036788,"""map""",,,-0.0139459269121,0.0458352454007,-0.0015649558045,,0.00905298805523,-0.00945151334359,0.0379214162134,-0.999195020226
522340000000,,12663,,522,336036788,"""map""",,,-0.0146540664136,0.0459104217589,-0.00147771800403,,0.00904245381264,-0.00945230507872,0.037939623652,-0.99919443017
522372000000,,12664,,522,368036676,"""map""",,,-0.015422616154,0.0461327172816,-0.00154321687296,,0.00903675972813,-0.00940652073904,0.0379244507865,-0.999195525988
522408000000,,12665,,522,400036676,"""map""",,,-0.0163043942302,0.0465109199286,-0.00163185526617,,0.00899553150805,-0.00936190636542,0.03791597927,-0.999196579659
522440000000,,12666,,522,432036676,"""map""",,,-0.0172554757446,0.0470886044204,-0.00180251058191,,0.00920130026842,-0.00935932229336,0.0379112166761,-0.999194935932
522472000000,,12667,,522,464036567,"""map""",,,-0.0178602803499,0.046716388315,-0.000958061835263,,0.00920223177963,-0.00931733316626,0.0378840319588,-0.999196326778
522508000000,,12668,,522,504036567,"""map""",,,-0.0187736358494,0.0465198457241,-7.578797522e-05,,0.00918545280128,-0.00932760309069,0.0378673839536,-0.999197043275
522540000000,,12669,,522,535036567,"""map""",,,-0.0196185745299,0.0465767048299,0.000542725028936,,0.00915853075579,-0.00929857914605,0.0378273444476,-0.999199066323
522572000000,,12670,,522,568036455,"""map""",,,-0.020512830466,0.0468269512057,0.000924751511775,,0.0091442132316,-0.00932996087553,0.0378545291648,-0.999197928359
522608000000,,12671,,522,600036455,"""map""",,,-0.0214999224991,0.0472004003823,0.0012494623661,,0.009145331718,-0.00936023257165,0.0378549506333,-0.999197591184
522640000000,,12672,,522,631036455,"""map""",,,-0.0225898176432,0.047663576901,0.00158817390911,,0.0091220922894,-0.00932562940193,0.0378342565307,-0.999198897736
522672000000,,12673,,522,664036343,"""map""",,,-0.0231001973152,0.0470157191157,0.00197083619423,,0.00910720142505,-0.00929787424104,0.0378627478003,-0.999198223387
522708000000,,12674,,522,703036343,"""map""",,,-0.0239230822772,0.0464687794447,0.00228671589866,,0.00915604242993,-0.0092973519638,0.0378142367777,-0.999199614233
522740000000,,12675,,522,736036343,"""map""",,,-0.0247292984277,0.0462574772537,0.00250457180664,,0.00912661352672,-0.00928478284955,0.0378192943995,-0.999199867114
522772000000,,12676,,522,768036231,"""map""",,,-0.0256377588958,0.046250551939,0.0026131037157,,0.00914419487467,-0.00927699142426,0.0378088841279,-0.999200162142
522808000000,,12677,,522,799036231,"""map""",,,-0.0266296584159,0.0463819615543,0.00259505375288,,0.0091199294646,-0.00927564472132,0.037767411629,-0.999201932309
522840000000,,12678,,522,832036231,"""map""",,,-0.0277397073805,0.0466593056917,0.00253637763672,,0.00911605256678,-0.0092441893892,0.0377299430806,-0.99920366033
522872000000,,12679,,522,864036120,"""map""",,,-0.0281929615885,0.0460431724787,0.00250954111107,,0.00911251132601,-0.00924619885545,0.0377275828571,-0.999203744624
522908000000,,12680,,522,904036120,"""map""",,,-0.0289572067559,0.0456047318876,0.00248336791992,,0.00908067954309,-0.00926565658706,0.0377438515407,-0.999203238861
522940000000,,12681,,522,936036120,"""map""",,,-0.0297165326774,0.0454745590687,0.00250274012797,,0.00909445196221,-0.00929501224777,0.0377186898721,-0.999203786771
522972000000,,12682,,522,967036011,"""map""",,,-0.0305990315974,0.0455046482384,0.00252385158092,,0.00905115939032,-0.00934602559548,0.0376610329833,-0.999205894113
523008000000,,12683,,523,36011,"""map""",,,-0.0316127128899,0.0456955842674,0.00242734863423,,0.00896081870096,-0.00936501693866,0.0376023645702,-0.999208760099
523040000000,,12684,,523,32036011,"""map""",,,-0.0327744632959,0.0460293591022,0.00234085670672,,0.00893138466316,-0.00936649971336,0.037604092591,-0.999208886539
523072000000,,12685,,523,63035899,"""map""",,,-0.0331772267818,0.0455033257604,0.00242922315374,,0.0088753344172,-0.00943072249666,0.0375229599076,-0.999211878965
523108000000,,12686,,523,104035899,"""map""",,,-0.0339106433094,0.0451011843979,0.00248237070628,,0.00877917177251,-0.00941319665167,0.0375332437386,-0.999212469021
523140000000,,12687,,523,135035899,"""map""",,,-0.0346781760454,0.044947784394,0.00246001803316,,0.0087871213308,-0.00939250294006,0.0375048789096,-0.99921369128
523172000000,,12688,,523,168035787,"""map""",,,-0.0356173738837,0.0449612513185,0.00222382764332,,0.0087886210836,-0.00938914872593,0.0374978403859,-0.999213986308
523208000000,,12689,,523,200035787,"""map""",,,-0.0367450602353,0.0451427549124,0.00191308208741,,0.00881514478684,-0.00936068890184,0.0374835526043,-0.999214534217
523240000000,,12690,,523,232035787,"""map""",,,-0.0380154140294,0.0454607494175,0.00141824828461,,0.00879528884675,-0.00931630909354,0.0375106951747,-0.999214112748
523272000000,,12691,,523,264035675,"""map""",,,-0.038572460413,0.0451361909509,0.00105052825529,,0.00884642202898,-0.00935290325939,0.0375048367628,-0.999213564839
523308000000,,12692,,523,304035675,"""map""",,,-0.0391692146659,0.044672627002,0.00040136789903,,0.00898205122545,-0.00938734186502,0.0375033194762,-0.999212047553
523340000000,,12693,,523,336035675,"""map""",,,-0.0398232862353,0.0444952212274,-0.000459362519905,,0.00897495728111,-0.00940547564949,0.0374842269538,-0.999212679756
523372000000,,12694,,523,368035564,"""map""",,,-0.0406393073499,0.0444799549878,-0.00132084044162,,0.0089526655701,-0.00942014536637,0.0374203744783,-0.99921516642
523408000000,,12695,,523,400035564,"""map""",,,-0.0416331291199,0.0445868372917,-0.00221541291103,,0.00892767440282,-0.00949467093444,0.0374416586368,-0.999213859867
523440000000,,12696,,523,432035564,"""map""",,,-0.0427998453379,0.0448323450983,-0.00318036461249,,0.00892585091366,-0.0095225148342,0.0374559464185,-0.999213059077
523472000000,,12697,,523,464035455,"""map""",,,-0.0434559397399,0.0445690192282,-0.00436931056902,,0.00885817589599,-0.00956260605661,0.0374266965056,-0.999214407776
523508000000,,12698,,523,504035455,"""map""",,,-0.0442690476775,0.0442252643406,-0.00596171664074,,0.00881577526089,-0.00954752760997,0.0374337350293,-0.999214618511
523540000000,,12699,,523,535035455,"""map""",,,-0.045135948807,0.0441806949675,-0.00722313346341,,0.00881341063336,-0.00955767623358,0.0374403942314,-0.999214281336
523572000000,,12700,,523,568035343,"""map""",,,-0.0461884699762,0.0443135276437,-0.00837129540741,,0.00873611907545,-0.00960278472138,0.0374264014777,-0.999215124273
523608000000,,12701,,523,600035343,"""map""",,,-0.0473879128695,0.0445362962782,-0.00947175733745,,0.00863251294335,-0.00964325224024,0.0373931054674,-0.999216810147
523640000000,,12702,,523,631035343,"""map""",,,-0.0487139075994,0.0448782779276,-0.0106689743698,,0.00864453689593,-0.00965635044355,0.0373730435675,-0.999217400203
523672000000,,12703,,523,664035232,"""map""",,,-0.049177698791,0.0445691533387,-0.0115882894024,,0.00867685727256,-0.00967841398947,0.0374247577506,-0.999214913539
523708000000,,12704,,523,703035232,"""map""",,,-0.0496903248131,0.0440948195755,-0.012851302512,,0.00862818564739,-0.00963543729256,0.0373940748449,-0.999216936587
523740000000,,12705,,523,736035232,"""map""",,,-0.050317492336,0.0438909232616,-0.0138894794509,,0.00860924874731,-0.00966726059157,0.0374081097454,-0.999216220091
523772000000,,12706,,523,768035120,"""map""",,,-0.0511629842222,0.0438428930938,-0.0147976502776,,0.00861232966547,-0.00967801701061,0.0374153590034,-0.999215798622
523808000000,,12707,,523,799035120,"""map""",,,-0.052196957171,0.0439129807055,-0.0156572274864,,0.00862480739638,-0.00964512835122,0.0374406471125,-0.999215124273
523840000000,,12708,,523,832035120,"""map""",,,-0.0533841252327,0.0440962016582,-0.0166085008532,,0.00864378578476,-0.00969914962155,0.0374409421404,-0.999214407776
523872000000,,12709,,523,864035008,"""map""",,,-0.0539514049888,0.0434835292399,-0.017211580649,,0.00865174388355,-0.00967768477491,0.0374650501378,-0.999213649133
523908000000,,12710,,523,904035008,"""map""",,,-0.0546392686665,0.0425772368908,-0.0178227368742,,0.00859081386394,-0.00969654960552,0.0375268795645,-0.999211668231
523940000000,,12711,,523,936035008,"""map""",,,-0.0554487816989,0.0420133769512,-0.0182410683483,,0.00859493137232,-0.00970062175664,0.037537331983,-0.999211246763
523972000000,,12712,,523,967034900,"""map""",,,-0.0565113313496,0.041585508734,-0.0187795050442,,0.00856108893469,-0.00965738024252,0.0375639266444,-0.999210951735
524008000000,,12713,,524,34900,"""map""",,,-0.0577824376523,0.0412845425308,-0.0195849370211,,0.00852161026157,-0.00968066530619,0.0376029546261,-0.999209603036
524040000000,,12714,,524,32034900,"""map""",,,-0.0592223294079,0.0410934388638,-0.0203632283956,,0.0085453679544,-0.00966165571926,0.0375916171238,-0.999209982357
524072000000,,12715,,524,63034788,"""map""",,,-0.0601545348763,0.0405933596194,-0.0209915526211,,0.00846774695961,-0.00962579500735,0.0375776243701,-0.999211499644
524108000000,,12716,,524,104034788,"""map""",,,-0.0607942342758,0.0396778732538,-0.0216044485569,,0.00852722830477,-0.00955172426716,0.037620234834,-0.999210108798
524140000000,,12717,,524,135034788,"""map""",,,-0.0615567490458,0.0391354858875,-0.0221368279308,,0.00852915063735,-0.00954444665064,0.0376118054643,-0.999210445973
524172000000,,12718,,524,168034676,"""map""",,,-0.0625594556332,0.0387520827353,-0.0226309858263,,0.00848477918433,-0.00950329161132,0.0375909849211,-0.999212047553
524208000000,,12719,,524,200034676,"""map""",,,-0.0637899190187,0.0385197252035,-0.0232865456492,,0.00870519497781,-0.00954665977178,0.0375906898932,-0.999209729476
524240000000,,12720,,524,232034676,"""map""",,,-0.0652067884803,0.0383885465562,-0.0238442253321,,0.0086689116038,-0.00951173077687,0.0375444548004,-0.999212131847
524272000000,,12721,,524,264034565,"""map""",,,-0.0658887475729,0.0380156710744,-0.0240763612092,,0.00868078734271,-0.009537970277,0.0375402822624,-0.999211921112
524308000000,,12722,,524,304034565,"""map""",,,-0.0660048052669,0.037308126688,-0.0239438042045,,0.0085732663693,-0.00947791801491,0.0375782565729,-0.999211963259
524340000000,,12723,,524,336034565,"""map""",,,-0.0664058178663,0.0368793793023,-0.0241373479366,,0.00852048073427,-0.00948323576181,0.0375895097814,-0.999212005406
524372000000,,12724,,524,368034453,"""map""",,,-0.0670586824417,0.0365569069982,-0.0245872568339,,0.0085200552322,-0.00949775148217,0.0375192088381,-0.999214449923
524408000000,,12725,,524,400034453,"""map""",,,-0.0679666399956,0.0363367982209,-0.0252632629126,,0.00847328198504,-0.00948894752412,0.0374455782937,-0.999217695231
524440000000,,12726,,524,432034453,"""map""",,,-0.0691096633673,0.0362196564674,-0.0260287746787,,0.00843938682269,-0.00947490196338,0.0374427544549,-0.99921824314
524472000000,,12727,,524,464034345,"""map""",,,-0.0696906670928,0.0358626581728,-0.0265525840223,,0.00841191345711,-0.00951150275584,0.03743466226,-0.999218411727
524508000000,,12728,,524,504034345,"""map""",,,-0.0698591843247,0.0351538360119,-0.0268881954253,,0.0083725348416,-0.00956291166242,0.0374159490592,-0.999219001783
524540000000,,12729,,524,535034345,"""map""",,,-0.0703279972076,0.0347500033677,-0.0271030776203,,0.00839319395904,-0.00958180999648,0.0374586859636,-0.999216978734
524572000000,,12730,,524,568034233,"""map""",,,-0.0710719823837,0.0344192236662,-0.0272385925055,,0.00840558834291,-0.00962642844485,0.0374625634737,-0.999216304385
524608000000,,12731,,524,600034233,"""map""",,,-0.0720440894365,0.0341949723661,-0.0274547468871,,0.00839968753716,-0.00965344745588,0.0374733952138,-0.999215756475
524640000000,,12732,,524,631034233,"""map""",,,-0.0732503160834,0.0340567231178,-0.0277333837003,,0.00837508406739,-0.00964700977172,0.0375160478245,-0.999214407776
524672000000,,12733,,524,664034122,"""map""",,,-0.0738481432199,0.0337763614953,-0.0277911964804,,0.00836440366908,-0.00960267404475,0.037477230577,-0.999216388678
524708000000,,12734,,524,703034122,"""map""",,,-0.0739784240723,0.0333499163389,-0.0278126709163,,0.00836911794226,-0.00963459196837,0.0374827096673,-0.999215798622
524740000000,,12735,,524,736034122,"""map""",,,-0.0744519233704,0.0331340804696,-0.0280109439045,,0.00843773910317,-0.00962978640446,0.0374662723964,-0.999215882916
524772000000,,12736,,524,768034010,"""map""",,,-0.0752427279949,0.0329916104674,-0.0282394587994,,0.00837577426319,-0.00956834395491,0.0374881887576,-0.999216220091
524808000000,,12737,,524,799034010,"""map""",,,-0.0763079300523,0.0329489409924,-0.0284876935184,,0.00838533139036,-0.00950699888763,0.037478621423,-0.999217020881
524840000000,,12738,,524,832034010,"""map""",,,-0.0776218026876,0.0329655744135,-0.0289841424674,,0.00839996725394,-0.00953833996742,0.0374377389799,-0.999218116699
524872000000,,12739,,524,864033899,"""map""",,,-0.0787117108703,0.0328816175461,-0.0293567553163,,0.00842658249487,-0.00948367468172,0.0374913076244,-0.999216472972
524908000000,,12740,,524,904033899,"""map""",,,-0.0788081437349,0.0323170125484,-0.0294402036816,,0.00843445708198,-0.00949866080866,0.0374362638402,-0.999218327433
524940000000,,12741,,524,936033899,"""map""",,,-0.0792730003595,0.0319807901978,-0.0296340677887,,0.00847551860798,-0.00954518438513,0.0374205852126,-0.999218074552
524972000000,,12742,,524,967033790,"""map""",,,-0.0800642892718,0.0317253544927,-0.0299356095493,,0.00844253396573,-0.00953257008856,0.0373981209423,-0.999219296811
525008000000,,12743,,525,33790,"""map""",,,-0.0811353623867,0.0315729863942,-0.0301867462695,,0.00847288286591,-0.00953041479586,0.0373687024421,-0.999220224041
525040000000,,12744,,525,32033790,"""map""",,,-0.0824644863605,0.0315063484013,-0.0304506756365,,0.00849966224905,-0.00956120405651,0.0373547096884,-0.999220224041
525072000000,,12745,,525,63033679,"""map""",,,-0.083533257246,0.0313405171037,-0.0307352803648,,0.00846184989933,-0.0095413318586,0.0373426556897,-0.999221151272
525108000000,,12746,,525,104033679,"""map""",,,-0.0835592523217,0.0307723581791,-0.031003061682,,0.00869512525606,-0.00956710683789,0.0373557212127,-0.999218453874
525140000000,,12747,,525,135033679,"""map""",,,-0.0840046778321,0.0304432846606,-0.0312400441617,,0.00867808257694,-0.0095821725664,0.0373551311568,-0.999218453874
525172000000,,12748,,525,168033568,"""map""",,,-0.084807947278,0.0301985517144,-0.0314870029688,,0.00861683448034,-0.00958507757086,0.0372778338367,-0.999221825622
525208000000,,12749,,525,200033568,"""map""",,,-0.0859034061432,0.0300128944218,-0.0317095145583,,0.00866654475368,-0.00959132645853,0.0372914894156,-0.999220814097
525240000000,,12750,,525,232033568,"""map""",,,-0.0872774943709,0.0299280826002,-0.0318708308041,,0.00867883290609,-0.00960141301433,0.0372783395989,-0.999221151272
525272000000,,12751,,525,264033456,"""map""",,,-0.0883529931307,0.0298399738967,-0.0318740569055,,0.00865725857642,-0.00961748454609,0.037329758754,-0.999219212517
525308000000,,12752,,525,304033456,"""map""",,,-0.0881452560425,0.0294579677284,-0.031415078789,,0.00862698413293,-0.00962217716962,0.0373181683707,-0.999219929013
525340000000,,12753,,525,336033456,"""map""",,,-0.0884272605181,0.0292853526771,-0.0309907440096,,0.00859787148544,-0.00961416371194,0.037285251682,-0.999221488447
525372000000,,12754,,525,368033345,"""map""",,,-0.0890812054276,0.0292044989765,-0.0306534953415,,0.00856437470136,-0.00960184423751,0.0372396066451,-0.999223553642
525408000000,,12755,,525,400033345,"""map""",,,-0.0900845900178,0.0291757807136,-0.0304837841541,,0.00851299114874,-0.00956918170584,0.0372403231415,-0.999224270139
525440000000,,12756,,525,432033345,"""map""",,,-0.0914042070508,0.0291941650212,-0.0302818063647,,0.00852071982708,-0.00957912177664,0.0372552852727,-0.999223553642
525472000000,,12757,,525,464033237,"""map""",,,-0.0924553871155,0.0290894042701,-0.0299183670431,,0.00848952169261,-0.00962019939583,0.0371749112326,-0.999226461775
525508000000,,12758,,525,504033237,"""map""",,,-0.0922656059265,0.0285691805184,-0.0292293224484,,0.00849681935357,-0.00963495639044,0.0371833406023,-0.999225871719
525540000000,,12759,,525,535033237,"""map""",,,-0.0925815626979,0.0282656438649,-0.0290175303817,,0.00846290986788,-0.0096642165519,0.0371675355341,-0.999226503922
525572000000,,12760,,525,568033126,"""map""",,,-0.0932487174869,0.0280231852084,-0.0288537349552,,0.00840118379144,-0.00969973782528,0.0371781565399,-0.999226335334
525608000000,,12761,,525,600033126,"""map""",,,-0.0942397937179,0.0278710015118,-0.0287211686373,,0.00835826496413,-0.00970879956234,0.037172846037,-0.999226756803
525640000000,,12762,,525,631033126,"""map""",,,-0.0955563858151,0.0277805551887,-0.0286269932985,,0.00837208011662,-0.00968461233386,0.0371763020786,-0.999226756803
525672000000,,12763,,525,664033015,"""map""",,,-0.0971747785807,0.027733264491,-0.0286060217768,,0.00836727570516,-0.00967626692858,0.0371510982632,-0.999227852621
525708000000,,12764,,525,703033015,"""map""",,,-0.0969671607018,0.027303557843,-0.0281243138015,,0.00838748516018,-0.00975696361434,0.0371774821904,-0.999225829572
525740000000,,12765,,525,736033015,"""map""",,,-0.0972381010652,0.0270371250808,-0.0278781689703,,0.0083766139486,-0.00985039128253,0.0371659761007,-0.999225450251
525772000000,,12766,,525,768032903,"""map""",,,-0.0978847593069,0.026809245348,-0.0277562048286,,0.00836135654248,-0.00987450479519,0.0371917278252,-0.999224396579
525808000000,,12767,,525,799032903,"""map""",,,-0.0989026129246,0.0266655758023,-0.0276771169156,,0.00842708883328,-0.0098301752009,0.037124166427,-0.99922679895
525840000000,,12768,,525,832032903,"""map""",,,-0.100221954286,0.0265462417156,-0.0275597441941,,0.00844833636024,-0.00987057665952,0.0370969817097,-0.999227178271
525872000000,,12769,,525,864032792,"""map""",,,-0.101832769811,0.0264531057328,-0.0274209715426,,0.00843486529726,-0.00980377114697,0.0370568579099,-0.999229538495
525908000000,,12770,,525,904032792,"""map""",,,-0.101350337267,0.0256510768086,-0.026743594557,,0.00862376059872,-0.00984018762929,0.0370386926182,-0.999228231943
525940000000,,12771,,525,936032792,"""map""",,,-0.101439721882,0.0251085143536,-0.0261692460626,,0.00862497606609,-0.00988698269073,0.037052938253,-0.999227220418
525972000000,,12772,,525,967032684,"""map""",,,-0.101939104497,0.0246284399182,-0.0257555767894,,0.00863900141775,-0.00998121415365,0.0370943264583,-0.999224607314
526008000000,,12773,,526,32684,"""map""",,,-0.102778568864,0.0242356136441,-0.0254578106105,,0.00861039502634,-0.010006446163,0.0370866557318,-0.999224860195
526040000000,,12774,,526,32032684,"""map""",,,-0.103917226195,0.0238933134824,-0.0253078974783,,0.00861860798186,-0.0100333928988,0.0370672260347,-0.999225239516
526072000000,,12775,,526,63032573,"""map""",,,-0.105362154543,0.0236027613282,-0.0253578089178,,0.00862509275195,-0.0100524188258,0.0370968131223,-0.999223890817
526108000000,,12776,,526,104032573,"""map""",,,-0.104767143726,0.0223799534142,-0.0250496454537,,0.00856172134322,-0.0100979028486,0.0370470798411,-0.999225829572
526140000000,,12777,,526,135032573,"""map""",,,-0.104770116508,0.0215484704822,-0.0249766819179,,0.00855901991133,-0.0101088940388,0.0369979787626,-0.999227557593
526172000000,,12778,,526,168032462,"""map""",,,-0.10516603291,0.0208066478372,-0.0249621029943,,0.00848986401227,-0.0101109310816,0.0369685602623,-0.999229243467
526208000000,,12779,,526,200032462,"""map""",,,-0.105912685394,0.0201590806246,-0.0248936377466,,0.00851193710709,-0.0101121098763,0.0369412912513,-0.999230044257
526240000000,,12780,,526,232032462,"""map""",,,-0.107008159161,0.0196129083633,-0.024792265147,,0.00850352609432,-0.0101313644829,0.0369289422247,-0.999230423579
526272000000,,12781,,526,264032351,"""map""",,,-0.108429148793,0.0191562306136,-0.0247681941837,,0.00847574662902,-0.0101243754324,0.0369124628069,-0.999231308663
526308000000,,12782,,526,304032351,"""map""",,,-0.107720546424,0.0183362420648,-0.0242861304432,,0.00851617549954,-0.0101371227138,0.0368546794776,-0.99923295239
526340000000,,12783,,526,336032351,"""map""",,,-0.107679441571,0.0178234819323,-0.0240003950894,,0.00851322093961,-0.0101844236609,0.0368686722313,-0.999232025159
526372000000,,12784,,526,368032240,"""map""",,,-0.108043037355,0.0173659548163,-0.0238417983055,,0.00852193126086,-0.0101963402707,0.0368714539233,-0.999231687984
526408000000,,12785,,526,400032240,"""map""",,,-0.108776450157,0.0169904977083,-0.023790711537,,0.00846537422375,-0.0102789019133,0.0368875961663,-0.999230718607
526440000000,,12786,,526,432032240,"""map""",,,-0.109859362245,0.0166746303439,-0.0237860251218,,0.00848092583462,-0.0102678244538,0.0368958148018,-0.999230423579
526472000000,,12787,,526,464032133,"""map""",,,-0.111213028431,0.0164466816932,-0.0237589906901,,0.00848582548808,-0.0102434832494,0.0368921901728,-0.999230760754
526508000000,,12788,,526,504032133,"""map""",,,-0.110256798565,0.0157181266695,-0.023349814117,,0.00847674835753,-0.0102763720323,0.0369102711708,-0.99922987567
526540000000,,12789,,526,535032133,"""map""",,,-0.109983980656,0.0152190346271,-0.0230663847178,,0.0084970229673,-0.0103267592482,0.0368923587602,-0.999229833523
526572000000,,12790,,526,568032022,"""map""",,,-0.110117778182,0.0147879840806,-0.0227654185146,,0.0084802412776,-0.0103131780848,0.0368840136842,-0.999230339285
526608000000,,12791,,526,600032022,"""map""",,,-0.110633812845,0.0144085809588,-0.0224902890623,,0.00843947342129,-0.0104060723731,0.0368844772995,-0.999229707082
526640000000,,12792,,526,631032022,"""map""",,,-0.111508049071,0.0140768392012,-0.0222467835993,,0.00842207944984,-0.0104106155071,0.0368671549448,-0.999230507872
526672000000,,12793,,526,664031911,"""map""",,,-0.112662561238,0.0138164618984,-0.0221086200327,,0.008647254421,-0.0103808017155,0.0368590627499,-0.999229159173
526708000000,,12794,,526,703031911,"""map""",,,-0.112110078335,0.013197007589,-0.0217601526529,,0.00861708007628,-0.0104221028282,0.0368399280806,-0.999229664935
526740000000,,12795,,526,736031911,"""map""",,,-0.111617065966,0.0126990461722,-0.0215939842165,,0.00863288909574,-0.0104653665682,0.0368467558701,-0.999228906292
526772000000,,12796,,526,768031800,"""map""",,,-0.11152921617,0.0122699243948,-0.0213492810726,,0.00867386809788,-0.0104827451462,0.0368253452711,-0.999229159173
526808000000,,12797,,526,799031800,"""map""",,,-0.11186093092,0.011907665059,-0.0210637468845,,0.00870067505758,-0.0105272453858,0.0368355869552,-0.999228021208
526840000000,,12798,,526,832031800,"""map""",,,-0.112569436431,0.011599781923,-0.0209311228245,,0.00872227597599,-0.0105622476849,0.0368493268279,-0.999227009684
526872000000,,12799,,526,864031690,"""map""",,,-0.113590709865,0.0113144442439,-0.0208606272936,,0.00862965317266,-0.010571564608,0.0368476831008,-0.99922772618
526908000000,,12800,,526,904031690,"""map""",,,-0.112963743508,0.0107929874212,-0.0200388357043,,0.00862257003257,-0.0105940590067,0.0367714394518,-0.999230381432
526940000000,,12801,,526,936031690,"""map""",,,-0.112492136657,0.0104004330933,-0.0193460993469,,0.00863260946128,-0.0106397047845,0.0367297983655,-0.999231308663
526972000000,,12802,,526,967031582,"""map""",,,-0.112439133227,0.0100836399943,-0.0186339169741,,0.00858857810534,-0.010619293609,0.0367303041277,-0.999231898718
527008000000,,12803,,527,31582,"""map""",,,-0.112792812288,0.00984120834619,-0.0179752316326,,0.00860702286687,-0.0106164339618,0.0367128131855,-0.999232362334
527040000000,,12804,,527,32031582,"""map""",,,-0.11351954937,0.00967227295041,-0.0173940137029,,0.00860664461537,-0.0106105995044,0.0367176179263,-0.999232362334
527072000000,,12805,,527,63043474,"""map""",,,-0.114554107189,0.00955026783049,-0.0169197022915,,0.00856889914908,-0.0105573025096,0.0366841111817,-0.999234427529
