rosbagTimestamp,header,seq,stamp,secs,nsecs,frame_id,pose,position,x,y,z,orientation,x,y,z,w
107648000000,,191,,107,572000000,"""map""",,,-0.00140999234281,0.00343994260766,-0.00717806257308,,0.00901858961053,-0.00925747323518,0.0333097923431,-0.999361500278
107648000000,,192,,107,572000000,"""map""",,,-0.00105217972305,0.00337483128533,-0.00745453359559,,0.00895446144155,-0.00925341965707,0.0333023744977,-0.999362427508
107672000000,,193,,107,672000000,"""map""",,,-0.000689787790179,0.00333613785915,-0.00770603818819,,0.00892728670532,-0.00925138794436,0.0332947037713,-0.99936293327
107708000000,,194,,107,708000000,"""map""",,,-0.000308515504003,0.00333907362074,-0.00806905701756,,0.00891183895927,-0.00926051498023,0.03327586413,-0.999363649767
107740000000,,195,,107,740000000,"""map""",,,-4.56210545963e-06,0.00325122196227,-0.00840077456087,,0.00898845565311,-0.00921689795169,0.0332342230437,-0.999364745585
107772000000,,196,,107,772000000,"""map""",,,0.000234427658143,0.00305801606737,-0.00863546319306,,0.00892876492166,-0.00920115372683,0.0332509553425,-0.999364787732
107808000000,,197,,107,808000000,"""map""",,,0.000568311545067,0.00285118957981,-0.00907072983682,,0.00895885797729,-0.00922926942026,0.0332093564031,-0.999365672816
107840000000,,198,,107,840000000,"""map""",,,0.000857288774569,0.00268588331528,-0.00946106668562,,0.00888473919422,-0.00926589989867,0.0331468526267,-0.999368075186
107872000000,,199,,107,872000000,"""map""",,,0.00117575237527,0.00253770104609,-0.00992920901626,,0.00889425246644,-0.00926366486035,0.0331262849647,-0.999368665242
107908000000,,200,,107,908000000,"""map""",,,0.00150064332411,0.00240589887835,-0.0104353101924,,0.00887263911801,-0.00925308591906,0.0330673215236,-0.999370899025
107940000000,,201,,107,940000000,"""map""",,,0.0017147208564,0.00230032298714,-0.010895434767,,0.00897142604198,-0.00933496014414,0.033022140102,-0.999370814731
107972000000,,202,,107,972000000,"""map""",,,0.00181443057954,0.00219816947356,-0.0112337842584,,0.00892186643127,-0.00929476672385,0.032994323182,-0.999372500605
108008000000,,203,,108,8000000,"""map""",,,0.00200698152184,0.00208450248465,-0.0117030348629,,0.00897474493138,-0.00930863697799,0.0329134433797,-0.999374565801
108040000000,,204,,108,40000000,"""map""",,,0.00219319225289,0.00203369394876,-0.0121892178431,,0.00900985271083,-0.00928006459423,0.032851023897,-0.999376630996
108072000000,,205,,108,72000000,"""map""",,,0.00239279703237,0.00200960319489,-0.0127382408828,,0.00902131777521,-0.00927928902431,0.0328447018698,-0.99937671529
108108000000,,206,,108,108000000,"""map""",,,0.00263317301869,0.00198001903482,-0.013255957514,,0.00902280162004,-0.00924843277733,0.0328233334176,-0.999377684667
108140000000,,207,,108,140000000,"""map""",,,0.00276345014572,0.00194136216305,-0.0135766416788,,0.00909872244842,-0.00927242368752,0.0328007005599,-0.999377473933
108172000000,,208,,108,172000000,"""map""",,,0.00279634888284,0.00186344794929,-0.0137352356687,,0.00912755866157,-0.00929010705842,0.0328271687808,-0.999376209528
108208000000,,209,,108,208000000,"""map""",,,0.0028778386768,0.00178741686977,-0.013943919912,,0.00912309969015,-0.00920335498131,0.0328207203129,-0.999377263199
108240000000,,210,,108,240000000,"""map""",,,0.0029741905164,0.00173881452065,-0.0140694854781,,0.00912093217065,-0.00921958637732,0.0327852326665,-0.999378274723
108272000000,,211,,108,272000000,"""map""",,,0.00309121469036,0.00173746258952,-0.0142526533455,,0.00912633144845,-0.00922294705857,0.0327470476218,-0.999379454835
108308000000,,212,,108,308000000,"""map""",,,0.00327034899965,0.00174996373244,-0.0144296744838,,0.00913887575151,-0.00918538201546,0.0327306524977,-0.999380255625
108340000000,,213,,108,340000000,"""map""",,,0.00309444288723,0.00192634924315,-0.0145227406174,,0.00911923589376,-0.00920605183683,0.0327108856257,-0.999380887828
108372000000,,214,,108,372000000,"""map""",,,0.00253759208135,0.00222233566456,-0.0145778097212,,0.009153477037,-0.00916817816208,0.0327188513801,-0.999380677094
108408000000,,215,,108,408000000,"""map""",,,0.00196589925326,0.00261227437295,-0.0147383194417,,0.00907881441643,-0.00913274794599,0.0326834058805,-0.999382826583
108440000000,,216,,108,440000000,"""map""",,,0.00160963181406,0.00294128945097,-0.0148239126429,,0.00928783631464,-0.00914279614671,0.032618162559,-0.999382910877
108472000000,,217,,108,472000000,"""map""",,,0.00132854422554,0.00327841355465,-0.0148933092132,,0.00928856761288,-0.00918896111998,0.0326005030295,-0.999383121611
108508000000,,218,,108,508000000,"""map""",,,0.00109952606726,0.00363535108045,-0.0150070320815,,0.00926097279986,-0.00922605741316,0.0325809890386,-0.99938366952
108540000000,,219,,108,540000000,"""map""",,,0.000845652539283,0.00393140222877,-0.014932516031,,0.00928126224746,-0.0092138325016,0.0325001513832,-0.999386198331
108572000000,,220,,108,572000000,"""map""",,,0.000582827080507,0.00416991207749,-0.0147415501997,,0.00927906827813,-0.00916094844246,0.0325164200667,-0.999386198331
108608000000,,221,,108,608000000,"""map""",,,0.000292187614832,0.00445249350742,-0.0145561303943,,0.00932097499456,-0.00920643585059,0.0324878445034,-0.999386282625
108640000000,,222,,108,640000000,"""map""",,,0.000109124353912,0.00464299786836,-0.0144026391208,,0.00931242600642,-0.00919466083813,0.0324609126672,-0.999387336296
108672000000,,223,,108,672000000,"""map""",,,6.68500433676e-07,0.00482197850943,-0.0143100246787,,0.00929418505927,-0.00922267063451,0.0324735145749,-0.99938687268
108708000000,,224,,108,708000000,"""map""",,,-5.28996388311e-05,0.0049840528518,-0.0142644848675,,0.00923889292666,-0.00921253768734,0.032420072371,-0.99938914861
108740000000,,225,,108,740000000,"""map""",,,-0.000138235336635,0.0050588529557,-0.0138833690435,,0.0091701449805,-0.00919861063888,0.0323576950352,-0.999392014596
108772000000,,226,,108,772000000,"""map""",,,-0.000263121444732,0.0050684157759,-0.013229303062,,0.00916774747462,-0.00921048064897,0.0323376752822,-0.999392562505
108808000000,,227,,108,808000000,"""map""",,,-0.000408118299674,0.00511978333816,-0.0123954163864,,0.00910388323021,-0.00919445949329,0.0322583549133,-0.999395849959
108840000000,,228,,108,840000000,"""map""",,,-0.000473441730719,0.0051490329206,-0.0118161924183,,0.00904908224833,-0.00923534411263,0.0321414817023,-0.999399685322
108872000000,,229,,108,872000000,"""map""",,,-0.000498774286825,0.00520865246654,-0.0112739568576,,0.00906634571993,-0.00920582249356,0.0321427882547,-0.999399811763
108908000000,,230,,108,908000000,"""map""",,,-0.00049836630933,0.00528361508623,-0.0106523213908,,0.0090070587946,-0.00918228164194,0.0321134119012,-0.99940145549
108940000000,,231,,108,940000000,"""map""",,,-0.000532078032847,0.00519703002647,-0.010037118569,,0.00900858518758,-0.00915636012621,0.032062287774,-0.999403352098
108972000000,,232,,108,972000000,"""map""",,,-0.000649226421956,0.00499243242666,-0.00943630002439,,0.00900699752938,-0.00919053651793,0.0320449232724,-0.999403604979
109008000000,,233,,109,8000000,"""map""",,,-0.000729039893486,0.00476003438234,-0.00872741825879,,0.00902180625574,-0.00892995634701,0.0320152940379,-0.999406765993
109040000000,,234,,109,40000000,"""map""",,,-0.000760006078053,0.00461724912748,-0.00825494341552,,0.00902276309519,-0.00892938014629,0.0320420151399,-0.999405923056
109072000000,,235,,109,72000000,"""map""",,,-0.000747980666347,0.00449983635917,-0.00785621069372,,0.00902779612963,-0.00893799610531,0.0320208995688,-0.999406470965
109108000000,,236,,109,108000000,"""map""",,,-0.000678046024404,0.00438729673624,-0.00751190632582,,0.00897054358848,-0.0089448107226,0.0320721501365,-0.999405290853
109140000000,,237,,109,140000000,"""map""",,,-0.000849993375596,0.00418595410883,-0.00718278670684,,0.00895003302283,-0.00895312240978,0.0320960473997,-0.999404658651
109172000000,,238,,109,172000000,"""map""",,,-0.00122525857296,0.00391609594226,-0.00678121484816,,0.00897227629754,-0.00895839180753,0.0320812960027,-0.999404827238
109208000000,,239,,109,208000000,"""map""",,,-0.00162343401462,0.00364080932923,-0.00624052388594,,0.00897645560878,-0.00891461289794,0.0320743417727,-0.999405459441
109240000000,,240,,109,240000000,"""map""",,,-0.00188243004959,0.00347336824052,-0.00597226759419,,0.00902451104209,-0.00896327262815,0.0320495172789,-0.999405333
109272000000,,241,,109,272000000,"""map""",,,-0.00208418280818,0.00333645869978,-0.00583847565576,,0.00901684570235,-0.00895875226032,0.0320565558026,-0.999405290853
109308000000,,242,,109,308000000,"""map""",,,-0.002230520593,0.00324171525426,-0.00587554881349,,0.0090783816575,-0.00901083498913,0.0320392334479,-0.999404827238
109340000000,,243,,109,340000000,"""map""",,,-0.00238275201991,0.00315122283064,-0.00601317919791,,0.00900266911891,-0.00899649420044,0.0320431952516,-0.999405501587
109372000000,,244,,109,372000000,"""map""",,,-0.00251900916919,0.00308320927434,-0.00619545252994,,0.00898961685872,-0.00901939038393,0.0320224168553,-0.999406049497
109408000000,,245,,109,408000000,"""map""",,,-0.0026271357201,0.00303633371368,-0.00635587750003,,0.00897068898791,-0.00895234922049,0.0319742430075,-0.999408367573
109440000000,,246,,109,440000000,"""map""",,,-0.00265602720901,0.003064410761,-0.00645799282938,,0.00906234127027,-0.00894811213612,0.0319711241407,-0.999407693224
109472000000,,247,,109,472000000,"""map""",,,-0.0026324337814,0.00314170331694,-0.00650794804096,,0.00905989207636,-0.0089552896796,0.0319650549945,-0.999407861811
109508000000,,248,,109,508000000,"""map""",,,-0.00255682342686,0.00329066230915,-0.00653058569878,,0.00900224276086,-0.00890210990567,0.0319712927281,-0.999408620454
109540000000,,249,,109,540000000,"""map""",,,-0.00253647658974,0.00343068689108,-0.00641077803448,,0.00894679012346,-0.00886598007544,0.0319180191115,-0.999411149265
109572000000,,250,,109,572000000,"""map""",,,-0.00254232482985,0.00354361254722,-0.00614336086437,,0.0089234723255,-0.00883716617305,0.0318818149687,-0.999412792992
109608000000,,251,,109,608000000,"""map""",,,-0.00248911138624,0.00369692291133,-0.00588334770873,,0.00895635596348,-0.00887570036987,0.0318279091494,-0.999413846663
109640000000,,252,,109,640000000,"""map""",,,-0.00242105522193,0.00382096110843,-0.0057949014008,,0.00887590888024,-0.00889286659425,0.0318115140254,-0.999414984628
109672000000,,253,,109,672000000,"""map""",,,-0.00234852451831,0.00396601855755,-0.00567644182593,,0.00893772921729,-0.00891400706014,0.0318031268025,-0.999414436719
109708000000,,254,,109,708000000,"""map""",,,-0.00225066510029,0.00414051348343,-0.00557721592486,,0.00891064654996,-0.0088858681363,0.0317497688923,-0.999416628355
109740000000,,255,,109,740000000,"""map""",,,-0.00226183934137,0.00440367776901,-0.00548829976469,,0.00898889794292,-0.00891141916287,0.0317759420852,-0.999414900335
109772000000,,256,,109,772000000,"""map""",,,-0.00234966725111,0.00474798912182,-0.0054371454753,,0.00898599124579,-0.00888123136429,0.031760979954,-0.999415701125
109808000000,,257,,109,808000000,"""map""",,,-0.00238811923191,0.00522703491151,-0.00539341382682,,0.00903820296958,-0.00883018394719,0.0317458913822,-0.999416122593
109840000000,,258,,109,840000000,"""map""",,,-0.00235099904239,0.00565173057839,-0.00549328420311,,0.00906044151342,-0.00879484036765,0.0316966638632,-0.999417808467
109872000000,,259,,109,872000000,"""map""",,,-0.00226702308282,0.00610065925866,-0.00564475776628,,0.0090432368838,-0.00879380331439,0.0316777399282,-0.999418524964
109908000000,,260,,109,908000000,"""map""",,,-0.00217364332639,0.00656469073147,-0.00592103460804,,0.00908620139763,-0.00857468604721,0.031656919385,-0.9994207166
109940000000,,261,,109,940000000,"""map""",,,-0.00199616327882,0.00685544451699,-0.00597088830546,,0.00910450562165,-0.00856320171011,0.0316575094409,-0.999420632306
109972000000,,262,,109,972000000,"""map""",,,-0.00179898692295,0.00703159254044,-0.00588854355738,,0.00911429741705,-0.00856316295888,0.0316675403908,-0.999420210838
110008000000,,263,,110,8000000,"""map""",,,-0.00154352548998,0.00731049152091,-0.0057558673434,,0.00912482036148,-0.00860215202474,0.0316086190966,-0.99942164383
110040000000,,264,,110,40000000,"""map""",,,-0.00129250378814,0.0075618182309,-0.00568111566827,,0.00912855974183,-0.00861361053454,0.0316133816905,-0.999421433096
110072000000,,265,,110,72000000,"""map""",,,-0.0010107641574,0.00786303449422,-0.00560537632555,,0.0091357187586,-0.00866745249555,0.0315743115619,-0.999422065299
110108000000,,266,,110,108000000,"""map""",,,-0.000733628170565,0.00822168961167,-0.00560292555019,,0.00912326883062,-0.00871291394262,0.0314973092697,-0.999424299082
110140000000,,267,,110,140000000,"""map""",,,-0.000711228,0.00838466081768,-0.0055138785392,,0.00913952782119,-0.0087099825758,0.0314946540183,-0.999424172641
110172000000,,268,,110,172000000,"""map""",,,-0.000932090450078,0.00839543156326,-0.00532141700387,,0.00916765919621,-0.00872209485567,0.0314471123731,-0.999425352753
110208000000,,269,,110,208000000,"""map""",,,-0.00118805933744,0.00848147179931,-0.00510110519826,,0.00910405789371,-0.0086961077633,0.0313639144942,-0.999428724501
110240000000,,270,,110,240000000,"""map""",,,-0.00139684521127,0.00858386419713,-0.00489408243448,,0.00906633652603,-0.0087073872519,0.0313553586839,-0.99942927241
110272000000,,271,,110,272000000,"""map""",,,-0.00157076749019,0.00873971730471,-0.00468459026888,,0.00903982678599,-0.00872806623886,0.0313642095221,-0.999429103823
110308000000,,272,,110,308000000,"""map""",,,-0.00170127174351,0.00893108453602,-0.00448404857889,,0.00910946740467,-0.00872385991958,0.0313260666242,-0.999429651732
110340000000,,273,,110,340000000,"""map""",,,-0.0018857101677,0.00897991564125,-0.00410557817668,,0.00905363973647,-0.00873622101608,0.0313255187152,-0.999430031053
110372000000,,274,,110,372000000,"""map""",,,-0.00210366561078,0.0089231915772,-0.00370812905021,,0.00905619895361,-0.00869476947739,0.0313451591466,-0.999429778172
110408000000,,275,,110,408000000,"""map""",,,-0.00232319394127,0.00893905665725,-0.0032387021929,,0.00908477420821,-0.00865796505062,0.0312842148036,-0.999431801221
110440000000,,276,,110,440000000,"""map""",,,-0.00245630531572,0.00901257712394,-0.00296422932297,,0.00914309388086,-0.00860431050726,0.0312005111625,-0.999434330032
110472000000,,277,,110,472000000,"""map""",,,-0.00258727092296,0.00909976940602,-0.00272035971284,,0.00910935156258,-0.0085774561941,0.0312008904841,-0.999434877941
110508000000,,278,,110,508000000,"""map""",,,-0.00271475547925,0.00922521483153,-0.00249552214518,,0.00912861979286,-0.00853858309381,0.0311002438099,-0.999438165395
110540000000,,279,,110,540000000,"""map""",,,-0.00286934827454,0.00917831342667,-0.00260074529797,,0.00914113584282,-0.00853319381251,0.031052912899,-0.999439556241
110572000000,,280,,110,572000000,"""map""",,,-0.00300583872013,0.00901465676725,-0.00298588816077,,0.00915533268359,-0.00849887580285,0.0309990913735,-0.999441368556
110608000000,,281,,110,608000000,"""map""",,,-0.00312788994052,0.008939223364,-0.00350339594297,,0.00911910802294,-0.00844027795689,0.0309381891774,-0.999444108101
110640000000,,282,,110,640000000,"""map""",,,-0.00327207497321,0.00895727332681,-0.00427498668432,,0.00907618283656,-0.0084396483266,0.0308696584017,-0.999446636912
110672000000,,283,,110,672000000,"""map""",,,-0.00339593016542,0.00904645491391,-0.0051354309544,,0.00909004330514,-0.00846808748886,0.0308747160235,-0.999446046856
110708000000,,284,,110,704000000,"""map""",,,-0.00349857634865,0.00915826950222,-0.00600792048499,,0.00909263150853,-0.00851175018335,0.030870122017,-0.999445836122
110740000000,,285,,110,740000000,"""map""",,,-0.00347375124693,0.0092110298574,-0.00695407297462,,0.00906727945887,-0.00852069393805,0.030867888234,-0.999446046856
110772000000,,286,,110,772000000,"""map""",,,-0.00315459328704,0.00912452209741,-0.00807956140488,,0.00903293938796,-0.00854076730073,0.0308163426383,-0.999447774877
110808000000,,287,,110,808000000,"""map""",,,-0.00275731272995,0.00913396477699,-0.00947606284171,,0.00908912694045,-0.00854855866428,0.0307951427735,-0.999447901317
110840000000,,288,,110,840000000,"""map""",,,-0.00241964776069,0.00919305812567,-0.0103594399989,,0.009095357677,-0.00858262558327,0.0307239988932,-0.999449755778
110872000000,,289,,110,872000000,"""map""",,,-0.00211139512248,0.00928791891783,-0.0111155789346,,0.00911648588392,-0.0085990225595,0.0307423327723,-0.999448786401
110908000000,,290,,110,908000000,"""map""",,,-0.00184548913967,0.00941685587168,-0.0118646733463,,0.00913737882582,-0.00859201305291,0.0307227344878,-0.999449250016
110940000000,,291,,110,940000000,"""map""",,,-0.00167786073871,0.00942956563085,-0.0125046744943,,0.00914552648253,-0.00865110015629,0.0306656676549,-0.999450430128
110972000000,,292,,110,972000000,"""map""",,,-0.00157528545242,0.0093421023339,-0.0130508663133,,0.00911214924486,-0.00863544480408,0.0306590927465,-0.999451104478
111008000000,,293,,111,8000000,"""map""",,,-0.00144247384742,0.00933250971138,-0.0137525163591,,0.00916174312046,-0.00865814989583,0.0306443413495,-0.999450851596
111040000000,,294,,111,40000000,"""map""",,,-0.00131641537882,0.00937364250422,-0.0143323754892,,0.00912953866824,-0.00862625294273,0.0306384407908,-0.999451694533
111072000000,,295,,111,72000000,"""map""",,,-0.00115158362314,0.00948460400105,-0.0148359313607,,0.00917946798995,-0.00863397129016,0.0306262182047,-0.999451525946
111108000000,,296,,111,108000000,"""map""",,,-0.000986359664239,0.00963049940765,-0.0153441764414,,0.00910392637002,-0.00860329494931,0.0305988227532,-0.999453296114
111140000000,,297,,111,140000000,"""map""",,,-0.000918810488656,0.00982812512666,-0.0157318543643,,0.00915414720057,-0.00865932632385,0.0306021102073,-0.999452200296
111172000000,,298,,111,172000000,"""map""",,,-0.000928885419853,0.0100688189268,-0.015953855589,,0.00915649703144,-0.00865597945661,0.0305879067194,-0.999452663911
111208000000,,299,,111,208000000,"""map""",,,-0.00087116699433,0.0104537280276,-0.0161474272609,,0.00911657851232,-0.00860994738072,0.0306165665764,-0.999452579617
111240000000,,300,,111,240000000,"""map""",,,-0.000772897677962,0.0108111435547,-0.0162485279143,,0.00915850205251,-0.00858235772029,0.0305925850196,-0.999453127526
111272000000,,301,,111,272000000,"""map""",,,-0.000645758234896,0.0111967530102,-0.0164592340589,,0.00916502794047,-0.00859354404542,0.0305722702386,-0.999453633288
111308000000,,302,,111,308000000,"""map""",,,-0.0005261755432,0.0116339530796,-0.0167087372392,,0.00915441473428,-0.00856440355384,0.0305548214433,-0.999454476225
111340000000,,303,,111,340000000,"""map""",,,-0.00045362857054,0.0119153754786,-0.0168390776962,,0.00904057626109,-0.00851512582076,0.0305427252978,-0.99945628854
111372000000,,304,,111,372000000,"""map""",,,-0.000419643998612,0.0120742358267,-0.0168333016336,,0.00907978511618,-0.00850089555886,0.0305424724167,-0.999456119953
111408000000,,305,,111,408000000,"""map""",,,-0.000357668090146,0.0123300030828,-0.0168516635895,,0.009019583241,-0.00842671615882,0.030560469121,-0.999456752155
111440000000,,306,,111,440000000,"""map""",,,-0.000286700989818,0.0125638004392,-0.0169650353491,,0.00900389518794,-0.00850117799214,0.0305296176279,-0.999457173624
111472000000,,307,,111,472000000,"""map""",,,-0.000214100917219,0.0128247598186,-0.0170680303127,,0.00903049373888,-0.00843700289157,0.0305095978749,-0.999458058708
111508000000,,308,,111,508000000,"""map""",,,-0.000124212936498,0.0131421266124,-0.0171452723444,,0.0089494579027,-0.00842705685271,0.0304886508911,-0.999459533847
111540000000,,309,,111,540000000,"""map""",,,-0.000163753895322,0.0133982114494,-0.0169819742441,,0.0089128061142,-0.00834618083705,0.0305044559593,-0.999460081756
111572000000,,310,,111,572000000,"""map""",,,-0.000258840213064,0.0136011084542,-0.016752704978,,0.00913269231441,-0.00837199364149,0.0304710335085,-0.999458943791
111608000000,,311,,111,608000000,"""map""",,,-0.000343789928593,0.0139198107645,-0.0164112709463,,0.00916753759185,-0.00836647730226,0.0304602017684,-0.999458985938
111640000000,,312,,111,640000000,"""map""",,,-0.000426694808993,0.014197464101,-0.0160574987531,,0.00904304283954,-0.00834854995091,0.030431373324,-0.999461093281
111672000000,,313,,111,672000000,"""map""",,,-0.000475480948808,0.0145040554926,-0.0158029273152,,0.00907497735026,-0.00838792263953,0.0304243769472,-0.999460671812
111708000000,,314,,111,708000000,"""map""",,,-0.000526926189195,0.0148393958807,-0.0155920386314,,0.00910004153365,-0.00843330427924,0.0303912495242,-0.999461093281
111740000000,,315,,111,740000000,"""map""",,,-0.00061859987909,0.0150268599391,-0.0151608651504,,0.00909230775159,-0.00846280954274,0.0303909123494,-0.999460924693
111772000000,,316,,111,772000000,"""map""",,,-0.000784295960329,0.0150730852038,-0.0146439708769,,0.00903784883727,-0.00846702677945,0.0304070124456,-0.999460924693
111808000000,,317,,111,808000000,"""map""",,,-0.000968431180809,0.0152080785483,-0.0141010079533,,0.00896892602181,-0.00846578562885,0.0304115643052,-0.999461430455
111840000000,,318,,111,840000000,"""map""",,,-0.00110603414942,0.015382998623,-0.0137527883053,,0.00898565220856,-0.00847411047519,0.0303915024053,-0.99946176763
111872000000,,319,,111,872000000,"""map""",,,-0.00126292463392,0.0156088173389,-0.0136163691059,,0.00902376672731,-0.00848170157947,0.0304104684872,-0.9994608404
111908000000,,320,,111,908000000,"""map""",,,-0.00143184140325,0.0159070733935,-0.0135304480791,,0.00905357220478,-0.00851423392512,0.0303579956608,-0.999461809777
111940000000,,321,,111,940000000,"""map""",,,-0.00163366319612,0.0160475894809,-0.0134817929938,,0.00896601784811,-0.00856756635789,0.0303386502573,-0.999462779155
111972000000,,322,,111,972000000,"""map""",,,-0.00187231227756,0.0160323884338,-0.0134289218113,,0.00901309927352,-0.00857546286219,0.0303240674477,-0.999462779155
112008000000,,323,,112,8000000,"""map""",,,-0.00217002141289,0.0160994008183,-0.013352512382,,0.00895944028498,-0.00855345376967,0.0302703723627,-0.999465055084
112040000000,,324,,112,40000000,"""map""",,,-0.00237883091904,0.0162140205503,-0.0132344579324,,0.00898748458807,-0.00856536863023,0.030244704932,-0.999465434406
112072000000,,325,,112,72000000,"""map""",,,-0.00260238256305,0.0163655187935,-0.0130594205111,,0.00894229524335,-0.00852010556969,0.0302461800717,-0.999466235196
112108000000,,326,,112,108000000,"""map""",,,-0.00279117748141,0.0165382977575,-0.012917490676,,0.00897457332908,-0.00846930789531,0.0302135162641,-0.999467288867
112140000000,,327,,112,140000000,"""map""",,,-0.00298125902191,0.0167478956282,-0.0129230292514,,0.0090376665645,-0.00824909515991,0.0301321306996,-0.999471039937
112172000000,,328,,112,172000000,"""map""",,,-0.00314738322049,0.0170038137585,-0.0128735499457,,0.00905057609481,-0.00824314512796,0.030143973964,-0.999470660615
112208000000,,329,,112,208000000,"""map""",,,-0.00337136653252,0.0173628982157,-0.0129692545161,,0.00910774808902,-0.00826975184897,0.0301950559444,-0.999468384685
112240000000,,330,,112,240000000,"""map""",,,-0.0034157554619,0.017445044592,-0.0129848616198,,0.00916163616872,-0.00825354832019,0.0301743196949,-0.999468637567
112272000000,,331,,112,272000000,"""map""",,,-0.00336044281721,0.0173461455852,-0.0127719305456,,0.00914246746098,-0.00822720896826,0.0302265396403,-0.999467415308
112308000000,,332,,112,308000000,"""map""",,,-0.00336080649868,0.017315896228,-0.0125260557979,,0.00911856196606,-0.00828322114211,0.0302174780678,-0.999467457455
112340000000,,333,,112,340000000,"""map""",,,-0.00339268776588,0.0173581913114,-0.0123673006892,,0.00908604287362,-0.00839089596798,0.0302707516843,-0.999465265819
112372000000,,334,,112,372000000,"""map""",,,-0.00345038063824,0.0174711681902,-0.0121579654515,,0.00907443798172,-0.00841975472599,0.030263333839,-0.999465350112
112408000000,,335,,112,408000000,"""map""",,,-0.00351670151576,0.0176894180477,-0.011929133907,,0.00905166839377,-0.00843420294554,0.0302263710529,-0.999466572371
112440000000,,336,,112,440000000,"""map""",,,-0.00357573619112,0.017676088959,-0.0116382110864,,0.00907089684385,-0.00852079601245,0.0302097230477,-0.999466108756
112472000000,,337,,112,472000000,"""map""",,,-0.003633817425,0.017488412559,-0.0112788816914,,0.00907239807837,-0.00851207713012,0.0302002821536,-0.99946644593
112508000000,,338,,112,508000000,"""map""",,,-0.00370290339924,0.0173579901457,-0.0110030686483,,0.00901911089995,-0.00845178118598,0.0301907569659,-0.99946779463
112540000000,,339,,112,540000000,"""map""",,,-0.00379715813324,0.0172862242907,-0.0107436543331,,0.00909555435543,-0.00843936406175,0.0302138955857,-0.999466488077
112572000000,,340,,112,572000000,"""map""",,,-0.00392940687016,0.0172652900219,-0.0105824284256,,0.00905751470496,-0.0084528966369,0.0301711586813,-0.999468005364
112608000000,,341,,112,608000000,"""map""",,,-0.00410897145048,0.0172954238951,-0.0103547638282,,0.00913894303367,-0.00851462798169,0.0301404336287,-0.999467626042
112640000000,,342,,112,640000000,"""map""",,,-0.0042094392702,0.0172293037176,-0.0100033171475,,0.00911743165673,-0.00845883413592,0.0301261037003,-0.99946872186
112672000000,,343,,112,672000000,"""map""",,,-0.00425370549783,0.0171188246459,-0.00952297262847,,0.00909739309401,-0.00850189936591,0.0301339430141,-0.999468300392
112708000000,,344,,112,708000000,"""map""",,,-0.00433085020632,0.0170798450708,-0.00920194759965,,0.00909957178562,-0.0085321078932,0.0300653279447,-0.999470154853
112740000000,,345,,112,740000000,"""map""",,,-0.00440297136083,0.0171152763069,-0.00887673161924,,0.0091005972629,-0.00858583380632,0.0300153417824,-0.999471166377
112772000000,,346,,112,772000000,"""map""",,,-0.00451528513804,0.0171999391168,-0.00860926322639,,0.00911956453834,-0.00856417440093,0.0300344343047,-0.999470618468
112808000000,,347,,112,808000000,"""map""",,,-0.0046721259132,0.0174139812589,-0.00828317180276,,0.00916420399839,-0.00864217173333,0.030023223243,-0.999469859825
112840000000,,348,,112,840000000,"""map""",,,-0.00474415626377,0.0174494478852,-0.00798999238759,,0.00911987024705,-0.00862631451664,0.0300040885738,-0.999470955643
112872000000,,349,,112,872000000,"""map""",,,-0.00476722931489,0.017367195338,-0.00755947129801,,0.00912515969712,-0.00862611561562,0.0299447458111,-0.999472725811
112908000000,,350,,112,908000000,"""map""",,,-0.00483783287928,0.01736321114,-0.00708836130798,,0.00914547964356,-0.00868309167226,0.0298981735435,-0.999473442307
112940000000,,351,,112,940000000,"""map""",,,-0.00490933284163,0.0174179039896,-0.00665481807664,,0.00915476189013,-0.00870481370112,0.0299141050522,-0.999472683664
112972000000,,352,,112,972000000,"""map""",,,-0.00498651620001,0.0175129547715,-0.00634500524029,,0.00915514773548,-0.0086999760949,0.0298998594174,-0.999473105132
113008000000,,353,,113,8000000,"""map""",,,-0.00510146189481,0.0176782961935,-0.005934022367,,0.00912025461067,-0.00864714055454,0.0298363441167,-0.999475760384
113040000000,,354,,113,40000000,"""map""",,,-0.00516925752163,0.017649833113,-0.00568881910294,,0.00929513585863,-0.00865006237246,0.029807052057,-0.999475043888
113072000000,,355,,113,72000000,"""map""",,,-0.00522574270144,0.0174665227532,-0.00522219343111,,0.00933376774641,-0.00867890495497,0.0297733767251,-0.999475423209
113108000000,,356,,113,108000000,"""map""",,,-0.00534063531086,0.0173605140299,-0.00470208562911,,0.00928230739103,-0.00870374430716,0.0297772542351,-0.999475591797
113140000000,,357,,113,140000000,"""map""",,,-0.00548715516925,0.0173086188734,-0.00432146247476,,0.0092318903348,-0.00873416926922,0.0297925113943,-0.999475338915
113172000000,,358,,113,172000000,"""map""",,,-0.0056537440978,0.0173108056188,-0.00407092738897,,0.00922144110619,-0.00872155495207,0.0298218456009,-0.999474664566
113208000000,,359,,113,208000000,"""map""",,,-0.00590538373217,0.0173632018268,-0.00377691024914,,0.00918800336474,-0.00871503616404,0.0298078528471,-0.999475423209
113240000000,,360,,113,240000000,"""map""",,,-0.00607933057472,0.0171812195331,-0.0035091417376,,0.0092431380692,-0.00875197520142,0.0297269730449,-0.999477066936
113272000000,,361,,113,272000000,"""map""",,,-0.00621491065249,0.0168086923659,-0.00325375748798,,0.00923416157249,-0.00877100503859,0.0297102828928,-0.999477404111
113308000000,,362,,113,308000000,"""map""",,,-0.0064025032334,0.0165497679263,-0.00300159677863,,0.009173694983,-0.00874690134236,0.0296903052867,-0.999478837104
113340000000,,363,,113,340000000,"""map""",,,-0.00663388334215,0.0163603741676,-0.00284429942258,,0.00914798371789,-0.00872702420537,0.0296329434258,-0.999480902299
113372000000,,364,,113,372000000,"""map""",,,-0.00686492118984,0.0162749029696,-0.00267775123939,,0.00914157169639,-0.00875599532753,0.0296186556442,-0.999481197327
113408000000,,365,,113,408000000,"""map""",,,-0.00709823193029,0.016243096441,-0.00255402969196,,0.00914757111917,-0.00875042000741,0.0296195828748,-0.999481113034
113440000000,,366,,113,440000000,"""map""",,,-0.0072978422977,0.0161690730602,-0.00240554241464,,0.0091101277396,-0.00874819661709,0.0295499562811,-0.999483557551
113472000000,,367,,113,472000000,"""map""",,,-0.0073828198947,0.015902325511,-0.00238862680271,,0.00910555391132,-0.00876485605418,0.0295335190102,-0.999483894726
113508000000,,368,,113,508000000,"""map""",,,-0.00757220666856,0.0156674608588,-0.00234663416632,,0.00904009260131,-0.0087237293014,0.0294365812586,-0.999487772236
113540000000,,369,,113,540000000,"""map""",,,-0.00781029462814,0.0155660286546,-0.00233062822372,,0.00904669799823,-0.00874700602007,0.0294549151377,-0.999486887152
113572000000,,370,,113,572000000,"""map""",,,-0.00807691644877,0.0155158014968,-0.0023339393083,,0.00899211687246,-0.00871672314927,0.0294195539318,-0.999488699466
113608000000,,371,,113,608000000,"""map""",,,-0.00838735327125,0.0155324935913,-0.00235028495081,,0.0089930669361,-0.00872777703493,0.0294197646661,-0.99948865732
113640000000,,372,,113,640000000,"""map""",,,-0.00864331051707,0.0153162935749,-0.00219606398605,,0.00897306785518,-0.0087307909359,0.029395572375,-0.999489500257
113672000000,,373,,113,672000000,"""map""",,,-0.00884180422872,0.0149121079594,-0.00197346741334,,0.00899743604964,-0.00870521365372,0.0294115038838,-0.999488994494
113708000000,,374,,113,708000000,"""map""",,,-0.00914876628667,0.0145505527034,-0.00159123505,,0.00896696892015,-0.0086949616592,0.0293801887753,-0.999490301047
113740000000,,375,,113,740000000,"""map""",,,-0.00940342713147,0.0143380174413,-0.00128670025151,,0.0089821034151,-0.00867871290693,0.0292896151979,-0.999492956298
113772000000,,376,,113,772000000,"""map""",,,-0.00968999136239,0.0141985509545,-0.00111848604865,,0.00905330541194,-0.00864138117123,0.0292842625481,-0.999492829858
113808000000,,377,,113,808000000,"""map""",,,-0.00996784958988,0.0141210081056,-0.000970198481809,,0.009146156936,-0.00863004165218,0.0292925233304,-0.999491818333
113840000000,,378,,113,840000000,"""map""",,,-0.0103132417426,0.0138783957809,-0.000768847006839,,0.00908631571685,-0.00860093063047,0.0292638213266,-0.99949346206
113872000000,,379,,113,872000000,"""map""",,,-0.0105164824054,0.0137126808986,-0.000628916081041,,0.00910571892817,-0.00864151423838,0.0292823237931,-0.999492408389
113908000000,,380,,113,908000000,"""map""",,,-0.010893817991,0.0135348904878,-0.000549185380805,,0.00916736680245,-0.00872242807919,0.0292775190523,-0.999491228277
113940000000,,381,,113,940000000,"""map""",,,-0.0112042268738,0.0135115180165,-0.000559546344448,,0.00912057289346,-0.0087221307875,0.0293049566507,-0.999490848956
113972000000,,382,,113,972000000,"""map""",,,-0.0115281296894,0.0135291675106,-0.000574941572268,,0.00910698961038,-0.00873651749488,0.0292687525078,-0.999491902627
114008000000,,383,,114,8000000,"""map""",,,-0.0118514345959,0.0135991945863,-0.000622208230197,,0.00911566920642,-0.00867706543437,0.0292342763858,-0.999493419913
114040000000,,384,,114,40000000,"""map""",,,-0.0120258443058,0.0135639542714,-0.000566022528801,,0.0090916575212,-0.00871174027225,0.0292243718764,-0.999493630648
114072000000,,385,,114,72000000,"""map""",,,-0.0121033545583,0.0134206740186,-0.000323301239405,,0.00907252077345,-0.00864986155755,0.029194995523,-0.999495190081
114108000000,,386,,114,108000000,"""map""",,,-0.0122248269618,0.0133601808921,-0.000145834390423,,0.00907947582663,-0.00866153672849,0.0291445457453,-0.999496496633
114140000000,,387,,114,140000000,"""map""",,,-0.0123667810112,0.0133927445859,-0.000205482559977,,0.00908405162025,-0.00861041237488,0.0290952339325,-0.999498266801
114172000000,,388,,114,172000000,"""map""",,,-0.0125614618883,0.0134923588485,-0.000493474886753,,0.00911749318949,-0.00861277323636,0.0290948546109,-0.999497971773
114208000000,,389,,114,208000000,"""map""",,,-0.0128014236689,0.0136314863339,-0.000658370903693,,0.00911541696329,-0.0086093637868,0.0290944752893,-0.99949801392
114240000000,,390,,114,240000000,"""map""",,,-0.0127562871203,0.0137978354469,-0.00061392923817,,0.00914809972462,-0.00871508600763,0.0291222922093,-0.999496075165
114272000000,,391,,114,272000000,"""map""",,,-0.0124386297539,0.0139894653112,-0.000412042048993,,0.00913467914319,-0.00869980853648,0.0291118397908,-0.999496580927
114308000000,,392,,114,308000000,"""map""",,,-0.0120803276077,0.0142960306257,-0.00030624557985,,0.00914847814076,-0.00863470365339,0.0290774058156,-0.999498056067
114340000000,,393,,114,340000000,"""map""",,,-0.0118417246267,0.0145776225254,-0.000265077076619,,0.00906899920669,-0.00862888263443,0.0290732332776,-0.999498941151
114372000000,,394,,114,372000000,"""map""",,,-0.0116339297965,0.0149242868647,-0.000333443109412,,0.00910180149385,-0.00863286005804,0.0290707887604,-0.99949868827
114408000000,,395,,114,408000000,"""map""",,,-0.0114770354703,0.015310251154,-0.000586571870372,,0.00919874965866,-0.00858053091783,0.0290382092465,-0.999499151885
114440000000,,396,,114,440000000,"""map""",,,-0.0113015249372,0.0156947989017,-0.00073979771696,,0.00931708094886,-0.00865791642122,0.0290263238352,-0.999497718892
114472000000,,397,,114,472000000,"""map""",,,-0.0110972104594,0.016113974154,-0.000952368718572,,0.0093198465271,-0.0087278976206,0.0290626965655,-0.999496075165
114508000000,,398,,114,508000000,"""map""",,,-0.0109316064045,0.0166561920196,-0.00123175396584,,0.00928779041203,-0.00871056816593,0.0290092965084,-0.999498056067
114540000000,,399,,114,540000000,"""map""",,,-0.0108463373035,0.0171345919371,-0.00149975938257,,0.00928404996154,-0.00875260166247,0.029028051856,-0.999497170983
114572000000,,400,,114,572000000,"""map""",,,-0.0108127826825,0.0176204629242,-0.00180842168629,,0.00925960981081,-0.00877158379632,0.0290268717442,-0.999497255277
114608000000,,401,,114,608000000,"""map""",,,-0.0108071519062,0.0181213729084,-0.00212471024133,,0.0092632528996,-0.00875537436122,0.029028599765,-0.999497381717
114640000000,,402,,114,640000000,"""map""",,,-0.0107638984919,0.0184690933675,-0.00224231230095,,0.00923071365982,-0.00869481252973,0.0290094650958,-0.999498730416
114672000000,,403,,114,672000000,"""map""",,,-0.0106794284657,0.0186996273696,-0.00215727789328,,0.00919657938407,-0.0087109817113,0.0289967788944,-0.999499278325
114708000000,,404,,114,708000000,"""map""",,,-0.0105959046632,0.0190529394895,-0.00211906572804,,0.00920646053572,-0.00871828857131,0.0289687512401,-0.999499910528
114740000000,,405,,114,740000000,"""map""",,,-0.0105659374967,0.0193751230836,-0.00211831042543,,0.00923159246688,-0.00869750566808,0.0288934769687,-0.999502017871
114772000000,,406,,114,772000000,"""map""",,,-0.0105942049995,0.0197373200208,-0.00202308106236,,0.00924265988357,-0.0086667846491,0.02887446874,-0.999502734367
114808000000,,407,,114,808000000,"""map""",,,-0.0106425704435,0.0201602317393,-0.00200439081527,,0.00920944530639,-0.00865772988849,0.0288690739434,-0.999503324423
114840000000,,408,,114,840000000,"""map""",,,-0.0105860382318,0.0203953199089,-0.00193113705609,,0.00921515976462,-0.00867849287075,0.0288750587959,-0.999502902954
114872000000,,409,,114,872000000,"""map""",,,-0.0103900432587,0.0204088035971,-0.00183482805733,,0.00917530179044,-0.00868185694247,0.0288418049324,-0.999504209507
114908000000,,410,,114,908000000,"""map""",,,-0.0101883551106,0.0204881317914,-0.00163403921761,,0.00921933967009,-0.00869772553963,0.0288258312768,-0.999504083066
114940000000,,411,,114,940000000,"""map""",,,-0.0100764324889,0.0206022076309,-0.00149227469228,,0.0091908805457,-0.00872057649899,0.0288376323944,-0.999503830185
114972000000,,412,,114,972000000,"""map""",,,-0.00998474936932,0.0207443460822,-0.00138966005761,,0.00920437471947,-0.00871175403995,0.0288060644049,-0.999504715269
115008000000,,413,,115,8000000,"""map""",,,-0.00988463032991,0.0209510922432,-0.00141813058872,,0.00920683382756,-0.00863628078517,0.0287199583934,-0.999507791989
115040000000,,414,,115,40000000,"""map""",,,-0.00982557516545,0.0209555644542,-0.00122409826145,,0.00914382968087,-0.0086685361717,0.0286625965326,-0.999509772891
115072000000,,415,,115,72000000,"""map""",,,-0.00979270134121,0.0208135489374,-0.000889470917173,,0.00914273773176,-0.00863577498183,0.0286630601479,-0.999510067919
115108000000,,416,,115,108000000,"""map""",,,-0.00977462064475,0.0207299627364,-0.000539040949661,,0.00914421639055,-0.00867025021899,0.028627151033,-0.999510742268
115140000000,,417,,115,140000000,"""map""",,,-0.00979256816208,0.0207121726125,-0.000274848658592,,0.00917160900211,-0.0086315662033,0.0285968474489,-0.999511711646
115172000000,,418,,115,172000000,"""map""",,,-0.00984070729464,0.0207605678588,8.35994433146e-06,,0.00914264777869,-0.00863927092709,0.0285764905211,-0.999512512436
115208000000,,419,,115,208000000,"""map""",,,-0.00991394650191,0.0208953339607,7.81854032539e-05,,0.00923100354288,-0.0085809289874,0.0285603061312,-0.999512681023
115240000000,,420,,115,240000000,"""map""",,,-0.00997145753354,0.0209447536618,0.000357297511073,,0.00933580933728,-0.00855214688809,0.0285127644861,-0.999513271079
115272000000,,421,,115,272000000,"""map""",,,-0.0100295264274,0.020916832611,0.00063444674015,,0.00932244178927,-0.0084978977202,0.0285005840469,-0.999514240457
115308000000,,422,,115,308000000,"""map""",,,-0.0101332264021,0.0209998879582,0.00104600889608,,0.00928582976039,-0.00847621275505,0.0285183278701,-0.99951419831
115340000000,,423,,115,340000000,"""map""",,,-0.0102428039536,0.0211634840816,0.00138141028583,,0.00920950560437,-0.00848285368251,0.0284760124342,-0.999516052771
115372000000,,424,,115,372000000,"""map""",,,-0.0103730307892,0.0213908385485,0.00162708223797,,0.00923613566255,-0.00853310474437,0.0284690160574,-0.999515631303
115408000000,,425,,115,408000000,"""map""",,,-0.0105356778949,0.0216812435538,0.00178916729055,,0.00920567546835,-0.00856736342329,0.0284511036467,-0.999516094918
115440000000,,426,,115,440000000,"""map""",,,-0.0106659336016,0.0217268187553,0.00211582798511,,0.00919328161955,-0.00855504341379,0.0284651806941,-0.999515926331
115472000000,,427,,115,472000000,"""map""",,,-0.0107864029706,0.0215388201177,0.00254532927647,,0.00924721343073,-0.0086069818519,0.0284967908305,-0.999514071869
115508000000,,428,,115,508000000,"""map""",,,-0.0109803946689,0.021404247731,0.00305903865956,,0.0092019940605,-0.00853055488061,0.0285311826589,-0.999514156163
115540000000,,429,,115,540000000,"""map""",,,-0.0111621683463,0.0214213524014,0.0034685775172,,0.00925068891995,-0.00853305790539,0.0285099406473,-0.99951432475
115572000000,,430,,115,572000000,"""map""",,,-0.0113649042323,0.0215363483876,0.00392968812957,,0.00917992211813,-0.00850825541112,0.0284977180612,-0.999515504862
115608000000,,431,,115,608000000,"""map""",,,-0.0115843014792,0.0217189788818,0.00434223143384,,0.00914013814789,-0.00854598603958,0.0284768553712,-0.999516137065
115640000000,,432,,115,640000000,"""map""",,,-0.011710668914,0.0217142384499,0.00489459047094,,0.00910394970719,-0.00852899042582,0.028437110893,-0.999517780792
115672000000,,433,,115,672000000,"""map""",,,-0.0117628602311,0.0215963702649,0.00553365284577,,0.00913417759981,-0.00850602627912,0.0284733993296,-0.999516642827
115708000000,,434,,115,708000000,"""map""",,,-0.0118986507878,0.02160833776,0.0063971481286,,0.00905135768424,-0.00852352384786,0.0284586479326,-0.999517738645
115740000000,,435,,115,740000000,"""map""",,,-0.0120190214366,0.0217083580792,0.0071360534057,,0.00905251995356,-0.00853013240373,0.0284669508618,-0.999517359323
115772000000,,436,,115,772000000,"""map""",,,-0.0121738957241,0.0218934956938,0.00788974110037,,0.0090372696268,-0.00854296192088,0.0284833459858,-0.999516895708
115808000000,,437,,115,808000000,"""map""",,,-0.0123687172309,0.0221646409482,0.00858476012945,,0.00908100782753,-0.00851881937053,0.0285083812139,-0.999516052771
115840000000,,438,,115,840000000,"""map""",,,-0.0126398839056,0.0222020410001,0.00960561912507,,0.00905261715061,-0.00846097627831,0.0284937562574,-0.999517190736
115872000000,,439,,115,872000000,"""map""",,,-0.0129591077566,0.0220313705504,0.010716939345,,0.00927692311056,-0.00845810459208,0.0284886564888,-0.999515294128
115908000000,,440,,115,908000000,"""map""",,,-0.0133629916236,0.02191038616,0.0121128400788,,0.00922537348124,-0.00849540331824,0.0284965800963,-0.999515209834
115940000000,,441,,115,940000000,"""map""",,,-0.0137024857104,0.0218839142472,0.0131198354065,,0.00922280054785,-0.00847836479619,0.028470491197,-0.999516179212
115972000000,,442,,115,972000000,"""map""",,,-0.0140388635918,0.0219174027443,0.0139523325488,,0.00921718361595,-0.00851673114647,0.0284901316285,-0.999515336275
116008000000,,443,,116,8000000,"""map""",,,-0.0144092831761,0.022042632103,0.01464352943,,0.00916505397356,-0.00856114791558,0.0284731043017,-0.999515926331
116040000000,,444,,116,40000000,"""map""",,,-0.0147326942533,0.0219896864146,0.0157348718494,,0.00916255430324,-0.00860527945261,0.0284934190826,-0.9995149991
116072000000,,445,,116,72000000,"""map""",,,-0.0150094972923,0.0217750575393,0.0172585695982,,0.00913671060894,-0.008586721442,0.0285043772633,-0.999515083394
116108000000,,446,,116,108000000,"""map""",,,-0.0153765371069,0.0216650180519,0.0191309992224,,0.00913404066371,-0.00862407692646,0.0285148718285,-0.999514451191
116140000000,,447,,116,140000000,"""map""",,,-0.0157065298408,0.0216936022043,0.0203236360103,,0.0090727674601,-0.00863142718867,0.0285239755478,-0.999514704072
116172000000,,448,,116,172000000,"""map""",,,-0.0160645768046,0.0218219216913,0.0214828290045,,0.00908876564647,-0.00863381424788,0.0285073275426,-0.9995149991
116208000000,,449,,116,208000000,"""map""",,,-0.0164721738547,0.0220253616571,0.0224824808538,,0.00910801669286,-0.008439014992,0.0285061474309,-0.999516516386
116240000000,,450,,116,240000000,"""map""",,,-0.0169474482536,0.0218991748989,0.0233964119107,,0.00914471110154,-0.00846959485608,0.0285331635608,-0.99951512554
116272000000,,451,,116,268000000,"""map""",,,-0.0174961015582,0.0214688275009,0.0241225808859,,0.00915400464627,-0.00851771717282,0.0285478306641,-0.99951419831
116308000000,,452,,116,308000000,"""map""",,,-0.0181908849627,0.0211004503071,0.0249203275889,,0.00912552774118,-0.00861465504787,0.0285000782847,-0.999515083394
116340000000,,453,,116,340000000,"""map""",,,-0.0187344700098,0.0209164414555,0.0253914203495,,0.00908824955337,-0.00865590689323,0.0285076225706,-0.999514788366
116372000000,,454,,116,372000000,"""map""",,,-0.019266249612,0.0208080466837,0.025695014745,,0.00909094579922,-0.00865563804244,0.028501932746,-0.999514914806
116408000000,,455,,116,408000000,"""map""",,,-0.0198117587715,0.0207995902747,0.0258471611887,,0.00907754530341,-0.0087054020489,0.0284956528656,-0.999514872659
116440000000,,456,,116,440000000,"""map""",,,-0.0202108640224,0.0206160563976,0.0260712318122,,0.00910656528134,-0.00874514333722,0.0285601796907,-0.999512385995
116472000000,,457,,116,472000000,"""map""",,,-0.020486343652,0.0202771946788,0.0263843871653,,0.00911472430823,-0.00880566786833,0.0285663752774,-0.999511585205
116508000000,,458,,116,508000000,"""map""",,,-0.020868120715,0.019999993965,0.0266708768904,,0.00905538700939,-0.00883366503404,0.0285817588771,-0.999511458765
116540000000,,459,,116,540000000,"""map""",,,-0.0211894158274,0.0198734235018,0.0266601163894,,0.00900225112128,-0.00883750623155,0.028616024265,-0.999510910856
116572000000,,460,,116,572000000,"""map""",,,-0.021519606933,0.019834311679,0.0266076549888,,0.00902265693575,-0.00889654722652,0.0286326722701,-0.999509688597
116608000000,,461,,116,608000000,"""map""",,,-0.0219043008983,0.0198567491025,0.0265077799559,,0.00906157364146,-0.00898636148414,0.0286766314331,-0.999507286227
116640000000,,462,,116,640000000,"""map""",,,-0.022108072415,0.0197154823691,0.0264058467001,,0.00899047046103,-0.00896705440617,0.0287153643869,-0.999506991199
116672000000,,463,,116,672000000,"""map""",,,-0.0222050324082,0.0194260329008,0.026491491124,,0.00900830113752,-0.00899077525395,0.0286996436124,-0.999507033346
116708000000,,464,,116,708000000,"""map""",,,-0.0224067494273,0.0191789437085,0.0266287997365,,0.00893007708445,-0.00898155513307,0.028717556023,-0.999507328373
116740000000,,465,,116,740000000,"""map""",,,-0.0225991699845,0.0190611705184,0.0267233457416,,0.00898894910617,-0.00897268771293,0.0286932794383,-0.999507581255
116772000000,,466,,116,772000000,"""map""",,,-0.022814784199,0.0190228205174,0.0267801769078,,0.0089258394856,-0.00894409237659,0.0287018352485,-0.999508213457
116808000000,,467,,116,808000000,"""map""",,,-0.0230570249259,0.0190845895559,0.0266430582851,,0.00889324568566,-0.00894982941441,0.0286434197165,-0.999510067919
116840000000,,468,,116,840000000,"""map""",,,-0.0231873970479,0.0189849231392,0.0265375711024,,0.00889117247436,-0.00893961550227,0.0286353696684,-0.99951044724
116872000000,,469,,116,872000000,"""map""",,,-0.0232202336192,0.0187455154955,0.0265072546899,,0.00886413365555,-0.00898981138016,0.028615181328,-0.999510826562
116908000000,,470,,116,908000000,"""map""",,,-0.0233474634588,0.0185146145523,0.026519773528,,0.00888805636265,-0.00895383467439,0.0285798622689,-0.99951192238
116940000000,,471,,116,940000000,"""map""",,,-0.0234801191837,0.0183957424015,0.0265345647931,,0.00893954506374,-0.00898308352998,0.0286166564677,-0.999510110065
116972000000,,472,,116,972000000,"""map""",,,-0.0236768238246,0.0183507651091,0.026574159041,,0.00893599679249,-0.00897784681749,0.0286455270589,-0.999509393569
117008000000,,473,,117,8000000,"""map""",,,-0.0239467453212,0.0183779858053,0.026562076062,,0.00896523522455,-0.00899756326706,0.0286230627887,-0.999509604303
117040000000,,474,,117,40000000,"""map""",,,-0.0240461863577,0.0182269141078,0.0265290234238,,0.00891972707227,-0.00902365357598,0.0286330094449,-0.99950952001
117072000000,,475,,117,72000000,"""map""",,,-0.0240077711642,0.0179396942258,0.0263789985329,,0.00896926085826,-0.0090228389127,0.0286341474098,-0.999509056394
117108000000,,476,,117,108000000,"""map""",,,-0.0240612365305,0.0176731944084,0.0261913090944,,0.00894586609805,-0.00902081517198,0.0285930963794,-0.999510405093
117140000000,,477,,117,140000000,"""map""",,,-0.0241796988994,0.0175602268428,0.0259788203984,,0.00896483214129,-0.00904970424104,0.0284979709423,-0.99951272317
117172000000,,478,,117,172000000,"""map""",,,-0.0243568755686,0.017482124269,0.0257927533239,,0.00897881274794,-0.00902034662014,0.0284888250762,-0.999513102492
117208000000,,479,,117,208000000,"""map""",,,-0.0245887823403,0.0174226611853,0.0257164705545,,0.00894578519483,-0.00895211110134,0.0285014269839,-0.999513650401
117240000000,,480,,117,240000000,"""map""",,,-0.0246204100549,0.0171357411891,0.0256516076624,,0.00891868259785,-0.00891153903051,0.0284642534635,-0.999515336275
117272000000,,481,,117,272000000,"""map""",,,-0.0244585797191,0.0166281405836,0.0256488509476,,0.0088957555364,-0.00892256355852,0.0284282600548,-0.999516432093
117308000000,,482,,117,308000000,"""map""",,,-0.0244181603193,0.0161087326705,0.0257784686983,,0.0089477019555,-0.00899718939385,0.0284750430567,-0.999513987576
117340000000,,483,,117,340000000,"""map""",,,-0.0244707800448,0.0157772433013,0.0257189795375,,0.009107410693,-0.00897259686723,0.0284743265603,-0.999512765317
117372000000,,484,,117,372000000,"""map""",,,-0.0245446376503,0.015509000048,0.0256400499493,,0.0090795811989,-0.00895400029061,0.0284630312049,-0.99951352396
117408000000,,485,,117,408000000,"""map""",,,-0.0246502850205,0.0152680715546,0.0255190767348,,0.00903368008075,-0.00890808845054,0.028463536967,-0.999514366897
117440000000,,486,,117,440000000,"""map""",,,-0.0248111803085,0.015065016225,0.025399858132,,0.00907177331,-0.00895040218864,0.0284648435193,-0.999513566107
117472000000,,487,,117,472000000,"""map""",,,-0.0250324308872,0.0149071933702,0.0252406802028,,0.00903700280308,-0.00898058922577,0.0284650121067,-0.999513650401
117508000000,,488,,117,508000000,"""map""",,,-0.0253527034074,0.0147929824889,0.0249002762139,,0.00905992225107,-0.00897972179918,0.028423497461,-0.999514619778
117540000000,,489,,117,540000000,"""map""",,,-0.0254181288183,0.0145929893479,0.0247016325593,,0.00901983099265,-0.00895829709802,0.028367273565,-0.999516727121
117572000000,,490,,117,572000000,"""map""",,,-0.0253302734345,0.0143056996167,0.0245475228876,,0.00899915254783,-0.00898400682289,0.0283502040914,-0.999517190736
117608000000,,491,,117,608000000,"""map""",,,-0.0253085680306,0.0140975415707,0.0242316555232,,0.00896361042033,-0.00899043733186,0.0282997121669,-0.99951887661
117640000000,,492,,117,640000000,"""map""",,,-0.0253464896232,0.0139557030052,0.0239181220531,,0.00896692362463,-0.00902632069668,0.0282896390701,-0.999518834463
117672000000,,493,,117,672000000,"""map""",,,-0.0254574138671,0.0138625949621,0.0236119329929,,0.00901808658028,-0.00900323017632,0.0282691135549,-0.999519129491
117708000000,,494,,117,708000000,"""map""",,,-0.0256839245558,0.0138217397034,0.0232760813087,,0.00900450006879,-0.00905423650384,0.0282883325178,-0.999518286554
117740000000,,495,,117,740000000,"""map""",,,-0.0256580282003,0.0136899529025,0.0229651033878,,0.00897363651801,-0.00899320148562,0.0282610213599,-0.999519888134
117772000000,,496,,117,772000000,"""map""",,,-0.0254247225821,0.0134483901784,0.0226098876446,,0.00894175556356,-0.00898761652592,0.0282500210325,-0.999520520337
117808000000,,497,,117,808000000,"""map""",,,-0.0253061484545,0.0132612613961,0.0222969222814,,0.0088972738172,-0.00895893792871,0.0281737352367,-0.999523302029
117840000000,,498,,117,840000000,"""map""",,,-0.0252744480968,0.0131235709414,0.0219799280167,,0.00896973717758,-0.00898839750183,0.0281468455473,-0.999523217735
117872000000,,499,,117,872000000,"""map""",,,-0.0252830348909,0.0130081791431,0.0216973088682,,0.00894249652388,-0.00895526938048,0.0281277951718,-0.99952422926
117908000000,,500,,117,908000000,"""map""",,,-0.0253886505961,0.0129171200097,0.021362407133,,0.00901446570192,-0.00885418990101,0.0280765867509,-0.999525957281
117940000000,,501,,117,940000000,"""map""",,,-0.0254387315363,0.0127345612273,0.0212290622294,,0.00916273090636,-0.00884624736034,0.0281036028808,-0.999523892085
117972000000,,502,,117,972000000,"""map""",,,-0.0254312232137,0.0124415466562,0.0213728882372,,0.00915093623016,-0.00888255964856,0.0281294810457,-0.999522964854
118008000000,,503,,118,8000000,"""map""",,,-0.0255175027996,0.0121902879328,0.0215503163636,,0.00918029835284,-0.0089357052502,0.0280848475332,-0.999523512763
118040000000,,504,,118,40000000,"""map""",,,-0.0257018133998,0.0119777778164,0.0216174218804,,0.00911738089736,-0.00890349990277,0.0281204194733,-0.999523344176
118072000000,,505,,118,72000000,"""map""",,,-0.0259400401264,0.0117996707559,0.0215919557959,,0.00910191583878,-0.00894961098857,0.0281492479177,-0.999522248358
118108000000,,506,,118,108000000,"""map""",,,-0.0263138078153,0.0116064464673,0.0215311143547,,0.00908234283616,-0.00892793671448,0.0281316726819,-0.999523133442
118140000000,,507,,118,140000000,"""map""",,,-0.0262573938817,0.0113574564457,0.0217119920999,,0.00914589674918,-0.00891487999433,0.0281160362011,-0.999523091295
118172000000,,508,,118,172000000,"""map""",,,-0.0259009916335,0.01103361696,0.022089894861,,0.00913413476355,-0.0088939254888,0.0281419565129,-0.999522711973
118208000000,,509,,118,208000000,"""map""",,,-0.0256569143385,0.0107690896839,0.0224702302366,,0.00918812067827,-0.00893876603131,0.0281242969834,-0.999522248358
118240000000,,510,,118,240000000,"""map""",,,-0.0255269855261,0.0104990499094,0.0228357482702,,0.0091703843357,-0.00895533279883,0.0281076489782,-0.999522796267
118272000000,,511,,118,272000000,"""map""",,,-0.0254858601838,0.0102577377111,0.0231976713985,,0.0091655303379,-0.00895426253024,0.0281002732797,-0.999523007001
118308000000,,512,,118,308000000,"""map""",,,-0.0255582593381,0.0100025441498,0.0234690029174,,0.00918816598408,-0.00899651195735,0.0280742686742,-0.999523133442
118340000000,,513,,118,340000000,"""map""",,,-0.0254372172058,0.00974627677351,0.0236609485,,0.00917010007085,-0.00901135890502,0.0281303239827,-0.999521616155
118372000000,,514,,118,372000000,"""map""",,,-0.0251620355994,0.00944656506181,0.0237605683506,,0.00915841000548,-0.00899379905752,0.0281101777891,-0.999522459092
118408000000,,515,,118,408000000,"""map""",,,-0.0249546375126,0.0092175938189,0.0237735044211,,0.0090813739577,-0.0089385150744,0.0281619341191,-0.999522206211
118440000000,,516,,118,440000000,"""map""",,,-0.0248066838831,0.00901636853814,0.0237710028887,,0.00907917599852,-0.00901896524329,0.0281226954031,-0.999522585533
118472000000,,517,,118,472000000,"""map""",,,-0.024709539488,0.00883508101106,0.0237851049751,,0.00901846942101,-0.00896805511214,0.0281101356423,-0.999523934232
118508000000,,518,,118,508000000,"""map""",,,-0.0247006118298,0.00859519932419,0.0237158108503,,0.00901343517109,-0.00899762673043,0.028128300934,-0.999523217735
118540000000,,519,,118,540000000,"""map""",,,-0.0244543924928,0.00831119064242,0.0236786678433,,0.00900861264821,-0.00900831293361,0.028089905155,-0.999524271407
118572000000,,520,,118,572000000,"""map""",,,-0.0239985007793,0.00798741169274,0.0236351527274,,0.00906378173091,-0.00898549419132,0.0280927289938,-0.999523892085
118608000000,,521,,118,608000000,"""map""",,,-0.0236796829849,0.00767451710999,0.0234749894589,,0.00902461582013,-0.008980521815,0.0281045722583,-0.999523934232
118640000000,,522,,118,640000000,"""map""",,,-0.0234759878367,0.00736709032208,0.0232526101172,,0.00898732251699,-0.00898777100059,0.0281200822985,-0.999523765644
118672000000,,523,,118,672000000,"""map""",,,-0.0233667511493,0.00707596261054,0.0229477062821,,0.00893207654391,-0.00898770318626,0.0281197451237,-0.999524271407
118708000000,,524,,118,708000000,"""map""",,,-0.0232596192509,0.00673526059836,0.0224910639226,,0.00910162695897,-0.0090014704888,0.0281120743973,-0.999522838414
118740000000,,525,,118,740000000,"""map""",,,-0.0229557529092,0.00636993674561,0.022155335173,,0.00915319360498,-0.00907466641692,0.0280912538541,-0.999522332652
118772000000,,526,,118,772000000,"""map""",,,-0.0224543698132,0.00588862132281,0.0220243744552,,0.00910590545061,-0.00902181102504,0.0281154039983,-0.999522543386
118808000000,,527,,118,808000000,"""map""",,,-0.0220889281482,0.00543895270675,0.0216718781739,,0.00909575398188,-0.00908866185883,0.0280941619867,-0.999522627679
118840000000,,528,,118,840000000,"""map""",,,-0.0218350496143,0.00500915339217,0.0211329907179,,0.00907118280908,-0.00908360379712,0.0281115264883,-0.999522374798
118872000000,,529,,118,872000000,"""map""",,,-0.0216745473444,0.00459490297362,0.0204618927091,,0.00903034664164,-0.00914561612176,0.0281164576696,-0.99952207977
118908000000,,530,,118,908000000,"""map""",,,-0.0216096993536,0.00420464528725,0.0196623615921,,0.00903120065554,-0.00912635578887,0.0281031392654,-0.999522585533
118940000000,,531,,118,940000000,"""map""",,,-0.0215230956674,0.00380219565704,0.0188227146864,,0.00901921761503,-0.00920003391306,0.0281881494589,-0.9995196774
118972000000,,532,,118,972000000,"""map""",,,-0.0212675742805,0.00340488087386,0.0180953051895,,0.00901282577175,-0.00923042970366,0.0282184951898,-0.999518581582
119008000000,,533,,119,8000000,"""map""",,,-0.0211073085666,0.00294098211452,0.0171644166112,,0.00899307213243,-0.00924271544826,0.0282100658201,-0.999518834463
119040000000,,534,,119,40000000,"""map""",,,-0.0210777409375,0.00257913814858,0.016371531412,,0.00902673120142,-0.00917160890436,0.0282684813521,-0.999517570058
119072000000,,535,,119,72000000,"""map""",,,-0.0211306493729,0.00223449687473,0.0156871266663,,0.00906480973689,-0.00915326826489,0.0282744662046,-0.999517232883
119108000000,,536,,119,108000000,"""map""",,,-0.0212470572442,0.00188071024604,0.0150708211586,,0.00903789308323,-0.00914266500375,0.02824403618,-0.999518412995
119140000000,,537,,119,140000000,"""map""",,,-0.0212304946035,0.00139745709021,0.014522976242,,0.00911730675322,-0.0091383938963,0.0282410437538,-0.999517780792
119172000000,,538,,119,172000000,"""map""",,,-0.0211037509143,0.000806994736195,0.0140125714242,,0.00913050791006,-0.0091356794022,0.0282557951507,-0.99951727503
119208000000,,539,,119,208000000,"""map""",,,-0.0210682433099,0.000119940283184,0.0133711574599,,0.00906505699463,-0.00919377437548,0.0282439097395,-0.999517696498
119240000000,,540,,119,240000000,"""map""",,,-0.0211582165211,-0.000401626661187,0.0128364497796,,0.00905342217497,-0.00919625806066,0.0282369976563,-0.999518033673
119272000000,,541,,119,272000000,"""map""",,,-0.0213121026754,-0.000908059533685,0.0122740920633,,0.00899825406481,-0.00918303368948,0.0282536456615,-0.999518160114
119308000000,,542,,119,308000000,"""map""",,,-0.0215221941471,-0.00138758367393,0.0117472531274,,0.00906312070914,-0.0091236171595,0.0282544464516,-0.999518033673
119340000000,,543,,119,340000000,"""map""",,,-0.0216247122735,-0.00179840670899,0.0113095771521,,0.00923008721421,-0.00910832135716,0.0283278662617,-0.999514577631
119372000000,,544,,119,372000000,"""map""",,,-0.0216254275292,-0.0021875903476,0.0111072994769,,0.00922800604378,-0.00914031493622,0.0283157701162,-0.999514704072
119408000000,,545,,119,408000000,"""map""",,,-0.0216895584017,-0.00268481182866,0.0105643458664,,0.00915841613303,-0.00911977512853,0.0283380236522,-0.999514872659
119440000000,,546,,119,440000000,"""map""",,,-0.0218191910535,-0.00309241982177,0.0101088006049,,0.00920889319656,-0.00917564773468,0.0283563575313,-0.99951339752
119472000000,,547,,119,472000000,"""map""",,,-0.0219951458275,-0.00348561094142,0.00962942838669,,0.00916914776919,-0.00920752223809,0.0283405946099,-0.999513903282
119508000000,,548,,119,508000000,"""map""",,,-0.0221983846277,-0.00386333093047,0.00910462625325,,0.00913415550256,-0.00926856257419,0.0283491082733,-0.99951339752
119540000000,,549,,119,540000000,"""map""",,,-0.0223312005401,-0.00417942972854,0.00864144321531,,0.00914148181021,-0.0092816379754,0.0282902712728,-0.999514914806
119572000000,,550,,119,572000000,"""map""",,,-0.0223902650177,-0.00442695990205,0.00812316965312,,0.00916616775239,-0.00928413543341,0.0283005551039,-0.99951432475
119608000000,,551,,119,608000000,"""map""",,,-0.0225938763469,-0.00473464233801,0.00734916608781,,0.00924045022493,-0.00928556582295,0.0283417325748,-0.999512512436
119640000000,,552,,119,640000000,"""map""",,,-0.0228492170572,-0.00497417617589,0.00678137456998,,0.00914475467352,-0.00926433284571,0.0283353262539,-0.999513776841
119672000000,,553,,119,672000000,"""map""",,,-0.0231748297811,-0.00520966621116,0.00630985898897,,0.0091369249446,-0.00930348031725,0.0283231036678,-0.999513776841
119708000000,,554,,119,708000000,"""map""",,,-0.0235804952681,-0.00546504184604,0.00578045099974,,0.00908771039064,-0.00928833399936,0.0283622159432,-0.999513271079
