rosbagTimestamp,header,seq,stamp,secs,nsecs,frame_id,pose,position,x,y,z,orientation,x,y,z,w
102276000000,,180,,102,276000000,"""map""",,,0.00793763995171,-0.00114618439693,0.0472695231438,,0.00869724774501,-0.0107937177654,0.0412960722269,-0.999050835857
102312000000,,181,,102,312000000,"""map""",,,0.00733504444361,-0.000849674339406,0.0473025999963,,0.00867018411759,-0.0107487287211,0.0410926715359,-0.999059939577
102344000000,,182,,102,344000000,"""map""",,,0.0069836564362,-0.000615219003521,0.047361407429,,0.00869541616809,-0.0107218964074,0.0410047110631,-0.999063606352
102376000000,,183,,102,376000000,"""map""",,,0.0067275846377,-0.000391878362279,0.047414701432,,0.0087099735414,-0.0106743617593,0.040969392004,-0.999065460814
102412000000,,184,,102,412000000,"""map""",,,0.00654994603246,-0.000147269485751,0.0474703758955,,0.00867639048799,-0.0106156735075,0.0409228618833,-0.999068242506
102444000000,,185,,102,444000000,"""map""",,,0.00605811132118,0.000210191938095,0.0470587201416,,0.0086766220487,-0.0105622394531,0.0407995402045,-0.999073890183
102476000000,,186,,102,476000000,"""map""",,,0.00535536790267,0.000637361779809,0.0462545752525,,0.00866051396772,-0.01060483156,0.040774926445,-0.999074564533
102512000000,,187,,102,512000000,"""map""",,,0.00464115571231,0.00115571194328,0.045264005661,,0.00870434833653,-0.0105985394965,0.0407221164438,-0.999076376847
102544000000,,188,,102,544000000,"""map""",,,0.00419867131859,0.00155627867207,0.0446226447821,,0.00874110771474,-0.0105918163333,0.0406507618293,-0.999079032099
102576000000,,189,,102,576000000,"""map""",,,0.00387265137397,0.001922257361,0.0440827645361,,0.0087559023287,-0.0105870539864,0.0406214276227,-0.999080212211
102612000000,,190,,102,612000000,"""map""",,,0.00363270030357,0.00230860779993,0.0434941090643,,0.00875696694821,-0.0106021144877,0.0405239419621,-0.99908396328
102644000000,,191,,102,644000000,"""map""",,,0.00322957127355,0.00265700090677,0.0432060472667,,0.00874326551814,-0.0105427806977,0.0404018003951,-0.999089610958
102676000000,,192,,102,676000000,"""map""",,,0.00255457824096,0.00303625059314,0.0432088263333,,0.00873802358617,-0.0105797038888,0.0403662706019,-0.999090748923
102712000000,,193,,102,712000000,"""map""",,,0.00210518483073,0.00330609199591,0.0432157479227,,0.00871436595095,-0.0105155051013,0.0403004372245,-0.999094289258
102744000000,,194,,102,744000000,"""map""",,,0.00175170623697,0.00355795631185,0.0430971980095,,0.00868977985029,-0.0105342749368,0.040215722059,-0.9990977453
102776000000,,195,,102,776000000,"""map""",,,0.00144067534711,0.00378565210849,0.0429693087935,,0.00875153873047,-0.0104996204315,0.0401564214431,-0.999099894789
102812000000,,196,,102,812000000,"""map""",,,0.00119659048505,0.00402561249211,0.0428622700274,,0.00875509248359,-0.0104640034634,0.0400898715693,-0.999102971509
102844000000,,197,,102,844000000,"""map""",,,0.000820360844955,0.0042803036049,0.0426444485784,,0.00877807963819,-0.0104269418955,0.0399955047755,-0.999106891166
102876000000,,198,,102,876000000,"""map""",,,0.000354036979843,0.00455883098766,0.0422970242798,,0.00876562368041,-0.0103270277698,0.039923855133,-0.999110937263
102912000000,,199,,102,912000000,"""map""",,,-0.00012995218276,0.00491826981306,0.0420192442834,,0.00876448324596,-0.0102483736833,0.0398774935997,-0.999113634662
102944000000,,200,,102,944000000,"""map""",,,-0.000453153101262,0.00516732269898,0.0419703163207,,0.00896581540741,-0.0102595880788,0.039812587453,-0.999114309011
102976000000,,201,,102,976000000,"""map""",,,-0.000721379765309,0.005356493406,0.042039591819,,0.00895469028577,-0.0102393928237,0.0397685439963,-0.999116374207
103012000000,,202,,103,12000000,"""map""",,,-0.000922958482988,0.00552686769515,0.0420382060111,,0.00893007088745,-0.0102450685307,0.0396925953753,-0.999119493073
103044000000,,203,,103,44000000,"""map""",,,-0.00118980568368,0.00549555663019,0.0418416522443,,0.00886476685638,-0.0102430930206,0.0395877340162,-0.999124297814
103076000000,,204,,103,76000000,"""map""",,,-0.00149847997818,0.00523905456066,0.0414560511708,,0.00882935432517,-0.0102211357885,0.039559411334,-0.999125983688
103112000000,,205,,103,112000000,"""map""",,,-0.00173356302548,0.00495154503733,0.0409745238721,,0.00880413733887,-0.0101743317132,0.0394655924492,-0.99913036696
103144000000,,206,,103,144000000,"""map""",,,-0.00187347538304,0.00474832579494,0.0406264215708,,0.00873168081474,-0.0101594678698,0.0394472585701,-0.9991318421
103176000000,,207,,103,176000000,"""map""",,,-0.00197248905897,0.0045993658714,0.0403429083526,,0.00872223349987,-0.0101698476837,0.0394485651224,-0.999131799953
103212000000,,208,,103,212000000,"""map""",,,-0.00203029508702,0.00449128448963,0.0400769896805,,0.00873279482509,-0.0101787871784,0.0393744288158,-0.999134539498
103244000000,,209,,103,244000000,"""map""",,,-0.00224970653653,0.00433725025505,0.0397317297757,,0.00864780768071,-0.0102198507212,0.0392569234022,-0.999139512827
103276000000,,210,,103,276000000,"""map""",,,-0.00261982227676,0.00414603902027,0.0392102710903,,0.00867821687886,-0.0102150167576,0.0391898256194,-0.99914187305
103312000000,,211,,103,312000000,"""map""",,,-0.00299413269386,0.00394255761057,0.038641538471,,0.00863405620124,-0.0102532953156,0.0390845427918,-0.999146003441
103344000000,,212,,103,344000000,"""map""",,,-0.00322684179991,0.00380489742383,0.0381848029792,,0.00860897133544,-0.0102367851932,0.0389970037874,-0.999149838804
103376000000,,213,,103,376000000,"""map""",,,-0.00339009286836,0.00371762667783,0.0374971032143,,0.00862657167827,-0.0102928470049,0.0389338678084,-0.999151608972
103412000000,,214,,103,412000000,"""map""",,,-0.00350020173937,0.00367809226736,0.0368525348604,,0.00861251866775,-0.0102918575418,0.0388210828417,-0.999156076538
103444000000,,215,,103,444000000,"""map""",,,-0.00361485546455,0.00354740093462,0.0360159613192,,0.00862929978122,-0.0103045067823,0.0387552073175,-0.999158394615
103476000000,,216,,103,476000000,"""map""",,,-0.00371386203915,0.00332052307203,0.034983959049,,0.00860220363816,-0.0103171689469,0.0387512455138,-0.999158647496
103512000000,,217,,103,512000000,"""map""",,,-0.00378228677437,0.00304344645701,0.0335084721446,,0.00858872537236,-0.0100936726057,0.0385859034271,-0.999167456187
103544000000,,218,,103,544000000,"""map""",,,-0.00374613516033,0.00279422523454,0.0323360301554,,0.00859496829197,-0.0102029370757,0.0385132422602,-0.999169057767
103576000000,,219,,103,576000000,"""map""",,,-0.00367013807409,0.00254010525532,0.0312447175384,,0.00863208221408,-0.0102568129311,0.0384685666008,-0.999169900704
103612000000,,220,,103,612000000,"""map""",,,-0.00354584329762,0.00230540032499,0.0302407387644,,0.00868477408884,-0.0102224562526,0.0384233008855,-0.999171502285
103644000000,,221,,103,644000000,"""map""",,,-0.00366323627532,0.00202161329798,0.0293405503035,,0.00872024930526,-0.0102273023993,0.0383154049533,-0.999175295501
103676000000,,222,,103,676000000,"""map""",,,-0.0039480747655,0.00168011034839,0.0285532809794,,0.00874352761885,-0.0102568920388,0.0382542498761,-0.999177192109
103712000000,,223,,103,712000000,"""map""",,,-0.00416542682797,0.00126697786618,0.0275849290192,,0.00869360574692,-0.0102583371324,0.0380908043976,-0.999183851311
103744000000,,224,,103,744000000,"""map""",,,-0.00428241072223,0.000940999481827,0.0267671942711,,0.0087094020894,-0.0102743814169,0.0379814754726,-0.999187644528
103776000000,,225,,103,776000000,"""map""",,,-0.00438092090189,0.000577752944082,0.0261071417481,,0.00867840686895,-0.0102458903119,0.0379228070594,-0.999190510513
103812000000,,226,,103,812000000,"""map""",,,-0.0044572353363,0.000198139998247,0.0254828538746,,0.00869001742022,-0.010322440431,0.0377930790597,-0.999194472317
103844000000,,227,,103,844000000,"""map""",,,-0.00483490526676,-0.000112557005195,0.0249832570553,,0.00867734397812,-0.0102766864873,0.0377016625453,-0.999198560561
103876000000,,228,,103,876000000,"""map""",,,-0.00545788323507,-0.000367323780665,0.0247202124447,,0.00868571416113,-0.0102948108669,0.0376834551067,-0.99919898203
103912000000,,229,,103,912000000,"""map""",,,-0.00615913327783,-0.000679639924783,0.0240088365972,,0.00862899652147,-0.0102385630988,0.0376240701972,-0.999202311631
103944000000,,230,,103,944000000,"""map""",,,-0.00665787002072,-0.000944934668951,0.0234184898436,,0.00861083765057,-0.0102676999066,0.0375596698127,-0.999204587561
103976000000,,231,,103,976000000,"""map""",,,-0.00709775695577,-0.00121278734878,0.0228668544441,,0.00861428817684,-0.0102684219184,0.0375343817036,-0.999205514791
104012000000,,232,,104,12000000,"""map""",,,-0.00751561298966,-0.00147456547711,0.0223384536803,,0.00855116355766,-0.0101870289453,0.0374905489811,-0.999208465071
104044000000,,233,,104,44000000,"""map""",,,-0.00793041847646,-0.00168407487217,0.0222458690405,,0.0085331214961,-0.0102144447293,0.0373942012854,-0.999212005406
104076000000,,234,,104,76000000,"""map""",,,-0.00830698478967,-0.00184332800563,0.0223570950329,,0.0085328790694,-0.0101745673075,0.037343414333,-0.999214323483
104112000000,,235,,104,112000000,"""map""",,,-0.00869810022414,-0.00202986435033,0.0225231200457,,0.00855182835834,-0.0101814645734,0.037292205912,-0.99921596721
104144000000,,236,,104,144000000,"""map""",,,-0.00893841776997,-0.00218380894512,0.0226262230426,,0.00859000130234,-0.0101249300915,0.0372452121759,-0.999217948112
104176000000,,237,,104,176000000,"""map""",,,-0.009137859568,-0.00231929635629,0.0228281244636,,0.00860612288349,-0.0101362197669,0.0372150350324,-0.999218875342
104212000000,,238,,104,212000000,"""map""",,,-0.00932569429278,-0.00251206220128,0.0230642817914,,0.00852979000175,-0.0100907205976,0.0371699379045,-0.999221657034
104244000000,,239,,104,244000000,"""map""",,,-0.00949509534985,-0.00257536326535,0.0230765491724,,0.00855290310298,-0.0101051958998,0.0371100893796,-0.999223511496
104276000000,,240,,104,276000000,"""map""",,,-0.00974144320935,-0.00265195104294,0.0229657012969,,0.00849540047827,-0.0100693630114,0.0370901960671,-0.999225113076
104312000000,,241,,104,312000000,"""map""",,,-0.0100128995255,-0.00282162055373,0.0229404531419,,0.00856401200797,-0.0100622977343,0.037027355116,-0.99922692539
104344000000,,242,,104,344000000,"""map""",,,-0.0101933460683,-0.00299621652812,0.0229547526687,,0.00856626316005,-0.010008079518,0.0369756409328,-0.999229327761
104376000000,,243,,104,372000000,"""map""",,,-0.0103332363069,-0.00317056267522,0.0228210855275,,0.00858463284751,-0.0100546133431,0.0369527130473,-0.999229580642
104412000000,,244,,104,412000000,"""map""",,,-0.010446883738,-0.00332474661991,0.0224791876972,,0.00866301318528,-0.0100264970734,0.036837610004,-0.999233416005
104444000000,,245,,104,444000000,"""map""",,,-0.0104020284489,-0.00341599574313,0.02201968804,,0.00880821047781,-0.0100741216128,0.0367595961874,-0.99923455397
104476000000,,246,,104,476000000,"""map""",,,-0.0102805038914,-0.00343754841015,0.0218485109508,,0.00884563951346,-0.0100265826019,0.0367665504174,-0.999234511823
104512000000,,247,,104,512000000,"""map""",,,-0.0100553818047,-0.00353822507896,0.0217042937875,,0.00882063511356,-0.0100563864742,0.0366413321305,-0.999239021536
104544000000,,248,,104,544000000,"""map""",,,-0.00985841080546,-0.00365948863328,0.0215822365135,,0.00886613757562,-0.0100469577632,0.0365943805412,-0.999240370235
104576000000,,249,,104,576000000,"""map""",,,-0.00962921138853,-0.00379264866933,0.0214859135449,,0.00884489255936,-0.0100559683396,0.0365501684971,-0.999242098256
104612000000,,250,,104,612000000,"""map""",,,-0.00937559921294,-0.00391757767648,0.0213694497943,,0.00882986601425,-0.0101222006714,0.0365100868442,-0.999243067633
104644000000,,251,,104,644000000,"""map""",,,-0.00887721963227,-0.00412859721109,0.0210851859301,,0.00880974031786,-0.0101582987063,0.0364601006819,-0.999244669214
104676000000,,252,,104,676000000,"""map""",,,-0.00850528571755,-0.00426561571658,0.0208576954901,,0.00878459725318,-0.0101545909361,0.036450870522,-0.999245301416
104712000000,,253,,104,712000000,"""map""",,,-0.00787783041596,-0.00447377422825,0.0206747613847,,0.00869017654103,-0.0101438513099,0.03638550076,-0.999248631017
104744000000,,254,,104,744000000,"""map""",,,-0.00736808031797,-0.0046469066292,0.0206075571477,,0.0086995554496,-0.0101826383467,0.0362794592891,-0.999251918472
104776000000,,255,,104,776000000,"""map""",,,-0.00685418909416,-0.00482479296625,0.0206412822008,,0.00864528216252,-0.010158302493,0.0362139209397,-0.999255079485
104812000000,,256,,104,812000000,"""map""",,,-0.00637133559212,-0.00500113796443,0.0207371916622,,0.00866743913944,-0.0101955949629,0.0361990009553,-0.999254995191
104844000000,,257,,104,844000000,"""map""",,,-0.00595636805519,-0.00509375240654,0.0209154002368,,0.00868395881074,-0.0101578029869,0.0361399953674,-0.999257439709
104876000000,,258,,104,876000000,"""map""",,,-0.00560151319951,-0.00510909408331,0.0212043505162,,0.00871479779151,-0.0101766564577,0.0360777444722,-0.999259167729
104912000000,,259,,104,912000000,"""map""",,,-0.00515915267169,-0.00512716732919,0.0213461648673,,0.00874440076655,-0.0101340103501,0.0360216891637,-0.999261443659
104944000000,,260,,104,944000000,"""map""",,,-0.00478297751397,-0.00514492113143,0.0214279256761,,0.00870408039123,-0.0101863781386,0.0359390813406,-0.999264141058
104976000000,,261,,104,976000000,"""map""",,,-0.00442317314446,-0.00513930013403,0.0215635281056,,0.00874954317598,-0.0101570035962,0.0358875357448,-0.999265953372
105012000000,,262,,105,12000000,"""map""",,,-0.0040540099144,-0.00514452066272,0.021743632853,,0.00877227926048,-0.0101812335889,0.0358453046026,-0.99926704919
105044000000,,263,,105,44000000,"""map""",,,-0.0037586374674,-0.00508550927043,0.0214346479625,,0.00877092702165,-0.0101936098628,0.0358411320646,-0.999267091337
105076000000,,264,,105,76000000,"""map""",,,-0.00350764696486,-0.00497151585296,0.0206885226071,,0.00873890159064,-0.0101546244396,0.0358688225441,-0.999266712015
105112000000,,265,,105,112000000,"""map""",,,-0.00319880037569,-0.00486517045647,0.0198379959911,,0.00872958985361,-0.0101534560993,0.0358678110197,-0.999266880603
105144000000,,266,,105,144000000,"""map""",,,-0.00291254371405,-0.00476148957387,0.0192607771605,,0.00894483804834,-0.0101191733012,0.0358724893199,-0.999265152582
105176000000,,267,,105,176000000,"""map""",,,-0.00256792502478,-0.00465960660949,0.0187999419868,,0.00894129351484,-0.0101359018957,0.0358595923843,-0.999265489757
105212000000,,268,,105,212000000,"""map""",,,-0.00222760858014,-0.00456798681989,0.0183604545891,,0.00886780431061,-0.0101321543659,0.0358149588717,-0.99926772354
105244000000,,269,,105,244000000,"""map""",,,-0.00212597218342,-0.00425418093801,0.0178705304861,,0.00887336571898,-0.0101424968074,0.0357906401401,-0.999268440036
105276000000,,270,,105,276000000,"""map""",,,-0.00224318820983,-0.00373382866383,0.0173353459686,,0.00887105760279,-0.0101594680756,0.0357635397165,-0.99926932512
105312000000,,271,,105,308000000,"""map""",,,-0.00231848610565,-0.00314433756284,0.016579715535,,0.0088269394013,-0.0101559748262,0.0357213085743,-0.999271179581
105344000000,,272,,105,344000000,"""map""",,,-0.00232214154676,-0.00272868666798,0.0159436427057,,0.00887075837663,-0.0101156329659,0.035664368182,-0.999273244777
105376000000,,273,,105,376000000,"""map""",,,-0.00228567514569,-0.00235010194592,0.0154262054712,,0.00887389280154,-0.010062176521,0.0356262674309,-0.999275183532
105412000000,,274,,105,412000000,"""map""",,,-0.00222365302034,-0.00199229340069,0.0148796727881,,0.00886088642403,-0.0100260870883,0.0355557979002,-0.999278133811
105444000000,,275,,105,444000000,"""map""",,,-0.00219042925164,-0.00165799574461,0.0143947619945,,0.00883528612366,-0.0100457841957,0.0355398663915,-0.999278723867
105476000000,,276,,105,476000000,"""map""",,,-0.00221019866876,-0.00133588444442,0.0139005156234,,0.00882747685593,-0.0100044607748,0.0355061910595,-0.999280451888
105512000000,,277,,105,512000000,"""map""",,,-0.00220147985965,-0.00100176269189,0.0131588121876,,0.0088260118002,-0.0100183683704,0.0354369437874,-0.999282769965
105544000000,,278,,105,544000000,"""map""",,,-0.00213650916703,-0.000737641588785,0.0124689070508,,0.00884581361617,-0.00997266599898,0.0353480982308,-0.999286226006
105576000000,,279,,105,576000000,"""map""",,,-0.00203084712848,-0.000511622056365,0.0117822503671,,0.0088425474412,-0.00993479026435,0.0353091545427,-0.999287996174
105612000000,,280,,105,612000000,"""map""",,,-0.00186633621342,-0.000307568901917,0.0110898027197,,0.00884038576886,-0.00994622819464,0.0352697050925,-0.999289260579
105644000000,,281,,105,644000000,"""map""",,,-0.00192630977836,-5.98470869591e-05,0.0100274654105,,0.00882973171233,-0.00983122932487,0.0352380528093,-0.999291578656
105676000000,,282,,105,676000000,"""map""",,,-0.00214996282011,0.000250579847489,0.00873491726816,,0.00884907390539,-0.00983235996347,0.0352278111251,-0.99929178939
105712000000,,283,,105,712000000,"""map""",,,-0.00231804233044,0.000670237175655,0.00727899279445,,0.00884257695223,-0.00961817733492,0.0351492072526,-0.999296720571
105744000000,,284,,105,744000000,"""map""",,,-0.00237413006835,0.000977790914476,0.00628997106105,,0.0088309987108,-0.00968730182963,0.0351478164066,-0.999296172662
105776000000,,285,,105,776000000,"""map""",,,-0.00242083659396,0.00122516660485,0.00537160271779,,0.00883329575521,-0.00970216777219,0.0351216010669,-0.999296931306
105812000000,,286,,105,812000000,"""map""",,,-0.00244712270796,0.00144475582056,0.00446266401559,,0.0087758448674,-0.00969109973812,0.0350446409215,-0.99930021876
105844000000,,287,,105,844000000,"""map""",,,-0.00246977107599,0.00161529681645,0.00363930920139,,0.00881863338521,-0.00966673729564,0.0350264756298,-0.999300766669
105876000000,,288,,105,876000000,"""map""",,,-0.00247802096419,0.00177527836058,0.00290540419519,,0.00883981122993,-0.00970290155541,0.0349550788684,-0.999302705424
105912000000,,289,,105,912000000,"""map""",,,-0.00244388566352,0.0019658121746,0.00217200443149,,0.00887001187527,-0.00975049740698,0.0349186639913,-0.999303211186
105944000000,,290,,105,944000000,"""map""",,,-0.00237196148373,0.00206555309705,0.00164531404153,,0.00881244512479,-0.00980737927117,0.0348175958485,-0.999306751521
105976000000,,291,,105,976000000,"""map""",,,-0.00228682626039,0.00216676318087,0.00107263133395,,0.00883808567869,-0.00987214107315,0.0347730466297,-0.999307468018
106012000000,,292,,106,12000000,"""map""",,,-0.00217979331501,0.00224047596566,0.00058101862669,,0.00876122485005,-0.00986082542635,0.0347000904349,-0.999310713325
106044000000,,293,,106,44000000,"""map""",,,-0.00213003437966,0.00214742682874,0.000559365260415,,0.00876207145017,-0.00987745659747,0.0346674266273,-0.999311682703
106076000000,,294,,106,76000000,"""map""",,,-0.00215163896792,0.00195899535902,0.000818620726932,,0.00874992319732,-0.0098859499283,0.0346126778711,-0.999313579311
106112000000,,295,,106,112000000,"""map""",,,-0.00212247017771,0.00175666145515,0.00107390841004,,0.00877340771765,-0.00990087962621,0.0345675385963,-0.999314801569
106144000000,,296,,106,144000000,"""map""",,,-0.00206314888783,0.00161308120005,0.00120193371549,,0.00871339496823,-0.00989148836993,0.0345366449564,-0.99931652959
106176000000,,297,,106,176000000,"""map""",,,-0.00197532307357,0.00148830248509,0.00130671402439,,0.00873332684674,-0.00983838165329,0.0345675385963,-0.999315813094
106212000000,,298,,106,212000000,"""map""",,,-0.00186967523769,0.00138584931847,0.00144397234544,,0.00869032989959,-0.0097800602108,0.0345106824977,-0.999318721226
106244000000,,299,,106,244000000,"""map""",,,-0.00173819472548,0.00157612527255,0.00178383733146,,0.00869213332372,-0.00975205725196,0.0344950460169,-0.999319522017
106276000000,,300,,106,276000000,"""map""",,,-0.0015747975558,0.00202053575777,0.00226952042431,,0.00860221964903,-0.00970823370797,0.0344484737493,-0.999322345855
106312000000,,301,,106,312000000,"""map""",,,-0.00130399281625,0.00256590405479,0.00280370051041,,0.00864535196824,-0.00973839212415,0.0343752646734,-0.99932415817
106344000000,,302,,106,344000000,"""map""",,,-0.00105313991662,0.00297487480566,0.00322656519711,,0.00860749529024,-0.00967721292777,0.0343259107138,-0.999326813421
106376000000,,303,,106,376000000,"""map""",,,-0.000764065189287,0.00333955069073,0.00374253978953,,0.00862884620869,-0.00968951890203,0.034339777027,-0.999326012631
106412000000,,304,,106,412000000,"""map""",,,-0.00047367325169,0.00366555619985,0.00421429798007,,0.00861408884365,-0.00961737078253,0.0342742386775,-0.999329089351
106444000000,,305,,106,444000000,"""map""",,,-0.000273875106359,0.00390519644134,0.00458679860458,,0.00856049332234,-0.00965655603291,0.0342862505294,-0.999328794323
106476000000,,306,,106,476000000,"""map""",,,-0.000156262598466,0.00407193833962,0.00480337115005,,0.00859644359631,-0.00965505817343,0.0342715834261,-0.999328962911
106512000000,,307,,106,512000000,"""map""",,,5.6705721363e-05,0.00423827115446,0.00503397220746,,0.00855926184411,-0.00958246055614,0.0342829630752,-0.99932963726
106544000000,,308,,106,544000000,"""map""",,,0.000292716576951,0.00435555400327,0.00520464964211,,0.00857558378743,-0.00948650872801,0.0342532916938,-0.999331407428
106576000000,,309,,106,576000000,"""map""",,,0.000593672739342,0.00445153098553,0.00550908595324,,0.00856092042962,-0.00945749609696,0.0342495827712,-0.99933191319
106612000000,,310,,106,612000000,"""map""",,,0.000899823149666,0.00456709414721,0.00586518459022,,0.00853414812582,-0.00941224338792,0.0342330612065,-0.999333177595
106644000000,,311,,106,644000000,"""map""",,,0.00110865698662,0.00479878252372,0.00610830727965,,0.00875440714455,-0.00940336135118,0.0341779752755,-0.999333219742
106676000000,,312,,106,676000000,"""map""",,,0.0011834341567,0.00506419781595,0.00658703176305,,0.00876196935519,-0.00939876785918,0.0341683657941,-0.999333472623
106712000000,,313,,106,712000000,"""map""",,,0.00123218656518,0.0053774160333,0.0071317832917,,0.00872138560323,-0.00940361898614,0.0341615380046,-0.999334062679
106744000000,,314,,106,744000000,"""map""",,,0.00130225950852,0.00560423405841,0.00754353869706,,0.00875433433423,-0.00938249508033,0.0341091916188,-0.999335748553
106776000000,,315,,106,776000000,"""map""",,,0.00140209135134,0.00580585002899,0.00804289616644,,0.00871329375817,-0.00937404340244,0.0340984441724,-0.999336549343
106812000000,,316,,106,812000000,"""map""",,,0.00150942441542,0.00599580258131,0.00854745879769,,0.00867253726175,-0.00937301393274,0.0340839878034,-0.999337434427
106844000000,,317,,106,844000000,"""map""",,,0.00153773848433,0.00612618494779,0.00910579413176,,0.00860838321403,-0.00933446796444,0.0340585311069,-0.999339204595
106876000000,,318,,106,876000000,"""map""",,,0.00155318051111,0.00621102051809,0.00966027006507,,0.00860004698722,-0.00936034518276,0.0340307984805,-0.999339963238
106912000000,,319,,106,912000000,"""map""",,,0.00166059355251,0.00634062057361,0.0102898981422,,0.00860188807187,-0.00936755381674,0.0340131810979,-0.999340469
106944000000,,320,,106,944000000,"""map""",,,0.00179180689156,0.0064758034423,0.0107943415642,,0.00859127673842,-0.00931486980335,0.0339921498205,-0.999341775553
106976000000,,321,,106,976000000,"""map""",,,0.00195037154481,0.00661636982113,0.0112408092245,,0.00865425024221,-0.00929596214677,0.0340069012174,-0.999340932616
107012000000,,322,,107,12000000,"""map""",,,0.00210508098826,0.00673600379378,0.0116145191714,,0.0086448603236,-0.00926671789327,0.0340485423038,-0.999339836798
107044000000,,323,,107,44000000,"""map""",,,0.00225696386769,0.00685092248023,0.0119807599112,,0.00868220940784,-0.0092472035114,0.0340192923909,-0.999340764028
107076000000,,324,,107,76000000,"""map""",,,0.00243455218151,0.00695882225409,0.0121549461037,,0.00865750406946,-0.00919014528075,0.0339549763001,-0.999343630014
107112000000,,325,,107,112000000,"""map""",,,0.00269949925132,0.00708406046033,0.0120927607641,,0.00868322469825,-0.00915163571762,0.0339463361961,-0.999344093629
107144000000,,326,,107,144000000,"""map""",,,0.00234413496219,0.00704885274172,0.0116325430572,,0.00871988629804,-0.00888680029962,0.0339297724847,-0.999346664587
107176000000,,327,,107,176000000,"""map""",,,0.0019194604829,0.00699115125462,0.0113357529044,,0.00876744468974,-0.00888144802543,0.0339110171371,-0.999346959615
107212000000,,328,,107,212000000,"""map""",,,0.00154540012591,0.00692919967696,0.0109945377335,,0.00872032083966,-0.00892491431931,0.0338346891944,-0.999349530573
107244000000,,329,,107,244000000,"""map""",,,0.00124664162286,0.00685916421935,0.0106181874871,,0.00877019883606,-0.00892957434489,0.0338495670319,-0.999348561195
107276000000,,330,,107,276000000,"""map""",,,0.00100693362765,0.00681107165292,0.0102135390043,,0.00876578803871,-0.00896538717855,0.0338479233049,-0.999348350461
107312000000,,331,,107,312000000,"""map""",,,0.000772152328864,0.00674775335938,0.00996372383088,,0.00881739617559,-0.00899426635144,0.0337536829516,-0.999350794978
107344000000,,332,,107,344000000,"""map""",,,0.000966339255683,0.00666159810498,0.00964344479144,,0.00885650369714,-0.0090359293138,0.0336990606359,-0.99935197509
107376000000,,333,,107,376000000,"""map""",,,0.00129664561246,0.00657592620701,0.00929652061313,,0.00881074197435,-0.00904130118483,0.0337137277392,-0.999351806502
107412000000,,334,,107,412000000,"""map""",,,0.00161088071764,0.00652602128685,0.00888830330223,,0.00878390720143,-0.00898176126007,0.0337181531583,-0.999352438705
107444000000,,335,,107,444000000,"""map""",,,0.00191736256238,0.00650882022455,0.00831301510334,,0.00874912684208,-0.00900471284297,0.033701252272,-0.999353155202
107476000000,,336,,107,476000000,"""map""",,,0.00222433637828,0.00651930272579,0.00773124210536,,0.00870610368691,-0.00902677189227,0.0336722552403,-0.99935425102
107512000000,,337,,107,512000000,"""map""",,,0.00263145845383,0.00658583501354,0.00682880636305,,0.00873322552349,-0.00903931682559,0.0336693892546,-0.999353998139
107544000000,,338,,107,544000000,"""map""",,,0.00263996887952,0.0065797297284,0.00637754891068,,0.00876895857038,-0.00895234901598,0.0336282539304,-0.9993558526
107576000000,,339,,107,576000000,"""map""",,,0.00258484017104,0.00653977040201,0.00606976402923,,0.00872505314049,-0.00895457779813,0.0336048624295,-0.999356990565
107612000000,,340,,107,612000000,"""map""",,,0.00256390031427,0.00652600917965,0.00563925690949,,0.00875567890718,-0.0089975219897,0.0335979503463,-0.999356569096
107644000000,,341,,107,644000000,"""map""",,,0.00257423054427,0.00650212261826,0.00517475325614,,0.00870350126307,-0.0090191708275,0.0335378910872,-0.999358887173
107676000000,,342,,107,676000000,"""map""",,,0.00262394687161,0.00649099284783,0.00466874986887,,0.0086936326958,-0.0090013502324,0.0334938476305,-0.999360615194
107712000000,,343,,107,712000000,"""map""",,,0.00271108048037,0.00649581011385,0.0040104072541,,0.00873231066111,-0.00899203808378,0.0334499727612,-0.999361837452
107744000000,,344,,107,744000000,"""map""",,,0.00272745476104,0.00644893711433,0.00326154311188,,0.00876795712997,-0.00906872350292,0.0333977528159,-0.999362553949
107776000000,,345,,107,776000000,"""map""",,,0.00273235491477,0.00639295158908,0.00253475643694,,0.00875597540656,-0.00901337168457,0.0333593570369,-0.999364450557
107812000000,,346,,107,812000000,"""map""",,,0.00278901448473,0.00634446600452,0.00178678298835,,0.00879371735375,-0.00907043248765,0.0332944508902,-0.999365799256
107844000000,,347,,107,844000000,"""map""",,,0.0028664865531,0.00633942056447,0.00100825435948,,0.00883611921334,-0.00901136550075,0.0332464034829,-0.999367569424
107876000000,,348,,107,876000000,"""map""",,,0.00295491074212,0.00636359071359,0.000100139535789,,0.00884181209394,-0.00902879016655,0.033227732429,-0.999367948745
107912000000,,349,,107,912000000,"""map""",,,0.00312184914947,0.00638928962871,-0.000954847084358,,0.00885574752341,-0.00899248002889,0.0331944785655,-0.999369255298
107944000000,,350,,107,944000000,"""map""",,,0.00317494338378,0.00633423915133,-0.00155604956672,,0.00890526810506,-0.00900633381941,0.0331970495233,-0.999368623095
107976000000,,351,,107,976000000,"""map""",,,0.00322712748311,0.00622639432549,-0.00202238187194,,0.00891760406883,-0.00901536367366,0.0332153834024,-0.999367822305
108012000000,,352,,108,12000000,"""map""",,,0.00329313636757,0.00615798309445,-0.00236546318047,,0.00894552741758,-0.00894029644067,0.033211885214,-0.999368370214
108044000000,,353,,108,44000000,"""map""",,,0.00337821245193,0.0061011062935,-0.00260369176976,,0.00892625331265,-0.00895421262748,0.0331401934247,-0.999370772584
108076000000,,354,,108,76000000,"""map""",,,0.00347527558915,0.00609729951248,-0.00275327917188,,0.00894160350151,-0.00895247323651,0.0331346721875,-0.999370814731
108112000000,,355,,108,108000000,"""map""",,,0.00367699563503,0.00612280191854,-0.00289398967288,,0.00891838921595,-0.00893414785161,0.0330935368634,-0.999372584899
108144000000,,356,,108,144000000,"""map""",,,0.0037276793737,0.00619533564895,-0.00294737424701,,0.00892875658696,-0.00895348742335,0.0330916402552,-0.999372374165
108176000000,,357,,108,176000000,"""map""",,,0.00372690195218,0.00627584848553,-0.00313241640106,,0.00896686470548,-0.00893110798186,0.0331006175339,-0.999371910549
108212000000,,358,,108,212000000,"""map""",,,0.00377651071176,0.00640208646655,-0.00347519852221,,0.00900539056245,-0.00890279483312,0.0330684173416,-0.999372922074
108244000000,,359,,108,244000000,"""map""",,,0.00387136777863,0.00655729928985,-0.00376579957083,,0.00906091460562,-0.00893064911011,0.0329881275952,-0.999374818682
108276000000,,360,,108,276000000,"""map""",,,0.0040048668161,0.00673631159589,-0.00405331235379,,0.00909680821388,-0.00899394415854,0.0329944917694,-0.999373680717
108312000000,,361,,108,312000000,"""map""",,,0.00419612741098,0.00700389128178,-0.00434246566147,,0.00904439078754,-0.00902157133542,0.0329588776824,-0.999375071563
108344000000,,362,,108,344000000,"""map""",,,0.00428027380258,0.00699196336791,-0.00426169624552,,0.00907008645853,-0.00898497675283,0.0328748790133,-0.999377979695
108376000000,,363,,108,376000000,"""map""",,,0.00436040526256,0.00692707393318,-0.00408365344629,,0.0090901215536,-0.00895181818281,0.0328871858931,-0.999377726814
108412000000,,364,,108,412000000,"""map""",,,0.00443680444732,0.00687671359628,-0.00387946749106,,0.00913412053281,-0.00901334042428,0.032850475988,-0.999377937549
108444000000,,365,,108,444000000,"""map""",,,0.00453616445884,0.00681076897308,-0.00363557552919,,0.00909322112709,-0.008999849322,0.0328184022363,-0.999379496982
108476000000,,366,,108,476000000,"""map""",,,0.00468817166984,0.00675241230056,-0.00354126794264,,0.00908382202231,-0.00902905217723,0.0328369047028,-0.999378696192
108512000000,,367,,108,512000000,"""map""",,,0.00492582842708,0.00668281735852,-0.00357063161209,,0.00899570729828,-0.00900312543173,0.0327687111019,-0.999381899352
108544000000,,368,,108,544000000,"""map""",,,0.00503793917596,0.00664149178192,-0.0028886757791,,0.00895239719777,-0.00900861005278,0.0327077667589,-0.999384259576
108576000000,,369,,108,576000000,"""map""",,,0.00512410188094,0.0066292420961,-0.0022062016651,,0.00891217553725,-0.00902467761784,0.0327020347875,-0.999384681044
108612000000,,370,,108,612000000,"""map""",,,0.00520393857732,0.0066449707374,-0.00155562045984,,0.00886964998963,-0.00901385710904,0.0326027368125,-0.999388389967
108644000000,,371,,108,644000000,"""map""",,,0.00531631801277,0.00664961151779,-0.000929365167394,,0.00879721949345,-0.00904866495749,0.0324950937614,-0.999392267477
108676000000,,372,,108,676000000,"""map""",,,0.0054546832107,0.0066874907352,-0.000512478349265,,0.00883679380987,-0.0090117485267,0.0324998985021,-0.99939209889
108712000000,,373,,108,712000000,"""map""",,,0.00565044954419,0.00675482861698,0.000254807207966,,0.00875788142987,-0.00898127402974,0.0324550542553,-0.999394543407
108744000000,,374,,108,744000000,"""map""",,,0.0058470601216,0.00680899946019,0.000838468549773,,0.00878998598912,-0.0089804042365,0.0324173749727,-0.999395470638
108776000000,,375,,108,776000000,"""map""",,,0.0060119908303,0.00687356200069,0.00116164865904,,0.00879554193363,-0.00899883511715,0.0324013591703,-0.999395723519
108812000000,,376,,108,812000000,"""map""",,,0.00622039102018,0.00694389315322,0.00142381852493,,0.00881181820843,-0.00874291713008,0.0323811708298,-0.999398547357
108844000000,,377,,108,844000000,"""map""",,,0.00643335888162,0.00703746406361,0.00161797716282,,0.00881335974021,-0.00873782340922,0.0324026657226,-0.999397873008
108876000000,,378,,108,876000000,"""map""",,,0.0066723478958,0.00714340619743,0.00177308195271,,0.00881812588664,-0.00873679516143,0.0324282488596,-0.999396987924
108912000000,,379,,108,912000000,"""map""",,,0.00702599110082,0.00726871239021,0.00196872605011,,0.00876697171973,-0.00875570435504,0.0324483107595,-0.999396650749
108944000000,,380,,108,944000000,"""map""",,,0.00690870126709,0.00716144777834,0.0020674362313,,0.00874520054956,-0.00877718708272,0.0324720394352,-0.999395849959
108976000000,,381,,108,976000000,"""map""",,,0.00670356629416,0.00701603572816,0.00215393654071,,0.00877996364785,-0.00877055437163,0.0324577095067,-0.99939610284
109012000000,,382,,109,12000000,"""map""",,,0.0065384558402,0.00691631715745,0.00232858257368,,0.00878364123949,-0.00873297622581,0.0324379004879,-0.999397030071
109044000000,,383,,109,44000000,"""map""",,,0.006417918019,0.006858848501,0.00252257520333,,0.00882826058049,-0.0087768981939,0.0324268158668,-0.999396566456
109076000000,,384,,109,76000000,"""map""",,,0.00634619174525,0.00682881427929,0.00284985266626,,0.00883691637375,-0.00879475013419,0.03243760546,-0.9993959764
109112000000,,385,,109,112000000,"""map""",,,0.00632892036811,0.00684230215847,0.00304617779329,,0.00887008706768,-0.00882970982087,0.0324443911026,-0.99939517561
109144000000,,386,,109,144000000,"""map""",,,0.00625289231539,0.00667831581086,0.0031381957233,,0.0088147515348,-0.00882668645654,0.0324212103359,-0.999396440015
109176000000,,387,,109,176000000,"""map""",,,0.00620931293815,0.0065021305345,0.00317266467027,,0.00881162934635,-0.00884776583663,0.0324104628895,-0.999396650749
109212000000,,388,,109,212000000,"""map""",,,0.00620868615806,0.00636220071465,0.00315520516597,,0.00880308269656,-0.00880352487575,0.032368316041,-0.999398505211
109244000000,,389,,109,244000000,"""map""",,,0.00625474518165,0.00629631476477,0.00317836576141,,0.00886346016002,-0.00878721721077,0.0323605610209,-0.999398336623
109276000000,,390,,109,276000000,"""map""",,,0.00635021086782,0.00628926139325,0.00326272286475,,0.00884876630337,-0.00876106945412,0.0323609824894,-0.999398673798
109312000000,,391,,109,312000000,"""map""",,,0.00654055783525,0.00638752104715,0.00337650580332,,0.00878718412019,-0.00874645408646,0.0323534382035,-0.999399643176
109344000000,,392,,109,344000000,"""map""",,,0.00656744185835,0.00641996320337,0.00372049771249,,0.00875161006936,-0.00867767912582,0.0322919459515,-0.999402551308
109376000000,,393,,109,376000000,"""map""",,,0.00661698030308,0.00644064508379,0.00429552933201,,0.00872324359653,-0.00866712825241,0.0322500519841,-0.999404237182
109412000000,,394,,109,412000000,"""map""",,,0.00669929990545,0.00648267287761,0.00479362066835,,0.00874830867256,-0.00867969240957,0.0322129206106,-0.999405122266
109444000000,,395,,109,444000000,"""map""",,,0.00680504273623,0.00653132656589,0.0051652812399,,0.00868462993191,-0.00874972347054,0.0322069779049,-0.999405248706
109476000000,,396,,109,476000000,"""map""",,,0.00691550085321,0.00660807499662,0.00543108442798,,0.00873226234427,-0.00874937323676,0.0321684978322,-0.999406049497
109512000000,,397,,109,512000000,"""map""",,,0.00708708167076,0.00675433175638,0.00577432429418,,0.00871919067648,-0.00871506526139,0.0321336845354,-0.999407566783
109544000000,,398,,109,544000000,"""map""",,,0.00727171823382,0.00673927180469,0.00614716717973,,0.00877369900526,-0.0087185207031,0.0321522291487,-0.999406470965
109576000000,,399,,109,576000000,"""map""",,,0.00750315096229,0.00671831378713,0.00647296477109,,0.00875980788092,-0.00870450797955,0.0321239907602,-0.999407651077
109612000000,,400,,109,612000000,"""map""",,,0.00776871480048,0.00676629459485,0.00678729871288,,0.00881856266885,-0.00866568601679,0.0321049825315,-0.999408030398
109644000000,,401,,109,644000000,"""map""",,,0.00807792600244,0.00687207793817,0.00692577240989,,0.00882828930435,-0.00862716913249,0.0320631728578,-0.999409631979
109676000000,,402,,109,676000000,"""map""",,,0.00842028856277,0.00702377129346,0.00703615322709,,0.00883957295001,-0.00863700105794,0.0320477471113,-0.999409969153
109712000000,,403,,109,712000000,"""map""",,,0.00886254571378,0.0072597800754,0.00687580090016,,0.00885610452656,-0.00842596440969,0.032038348364,-0.999411950055
109744000000,,404,,109,744000000,"""map""",,,0.00874648522586,0.00735592562705,0.0067663253285,,0.00888258270791,-0.00840259982677,0.0320270951555,-0.999412245083
109776000000,,405,,109,776000000,"""map""",,,0.00850106496364,0.00748612638563,0.00667066080496,,0.00888080723076,-0.00839823371784,0.0320337965044,-0.999412118643
109812000000,,406,,109,812000000,"""map""",,,0.0083053316921,0.0076488754712,0.00655186967924,,0.00888963779812,-0.00843165800029,0.0319671201901,-0.999413804517
109844000000,,407,,109,844000000,"""map""",,,0.00818592030555,0.00784121919423,0.00634694937617,,0.00890750369903,-0.00845792380103,0.0319722621056,-0.999413298754
109876000000,,408,,109,876000000,"""map""",,,0.00812626536936,0.00808623991907,0.00607683882117,,0.0089013666816,-0.00849605422775,0.0319304524319,-0.999414394573
109912000000,,409,,109,912000000,"""map""",,,0.00807701516896,0.00847209338099,0.00567507138476,,0.00887482309855,-0.00853036073346,0.0318638182644,-0.999416459768
109944000000,,410,,109,944000000,"""map""",,,0.00794737506658,0.00883777346462,0.00543593801558,,0.00892370335886,-0.0085261284737,0.0318649562293,-0.999415996153
109976000000,,411,,109,976000000,"""map""",,,0.00777814490721,0.00926244072616,0.00530415680259,,0.00889978784173,-0.00848212829573,0.0317796931547,-0.99941924146
110012000000,,412,,110,12000000,"""map""",,,0.00762579217553,0.00969991646707,0.00523101817816,,0.00889205556196,-0.0084974983747,0.0317312242789,-0.999420758747
110044000000,,413,,110,44000000,"""map""",,,0.00746415928006,0.0101425787434,0.00515342876315,,0.00884271095575,-0.00852859207842,0.0317201396578,-0.999421306656
110076000000,,414,,110,76000000,"""map""",,,0.00733676552773,0.010616812855,0.0051041119732,,0.00884184480508,-0.00855698934078,0.0317530563465,-0.999420000103
110112000000,,415,,110,112000000,"""map""",,,0.0072352453135,0.0112307155505,0.00498019019142,,0.00890348828563,-0.0085705450576,0.0317093922114,-0.999420758747
110144000000,,416,,110,144000000,"""map""",,,0.00704550277442,0.0111938081682,0.00490358518437,,0.00884397239775,-0.00853976395672,0.0316979704155,-0.999421896712
110176000000,,417,,110,176000000,"""map""",,,0.00685600098222,0.0110535435379,0.00481044407934,,0.0089004690237,-0.0085242498726,0.0317197181893,-0.999420800893
110212000000,,418,,110,212000000,"""map""",,,0.00670818798244,0.0109866941348,0.00477275578305,,0.0088981700654,-0.00847136016695,0.0316483214279,-0.999423582585
110244000000,,419,,110,244000000,"""map""",,,0.00659939227626,0.0109806535766,0.004723100923,,0.00894082835604,-0.00842465841303,0.0315659243391,-0.999426237837
110276000000,,420,,110,276000000,"""map""",,,0.00649500265718,0.0109956320375,0.00463730236515,,0.00890736060966,-0.00840144523361,0.0315663458076,-0.999426659305
110312000000,,421,,110,312000000,"""map""",,,0.00637546135113,0.0110762985423,0.00453596003354,,0.00890856747479,-0.00835918470386,0.0314551624212,-0.999430536815
110344000000,,422,,110,344000000,"""map""",,,0.00633156811818,0.0109858065844,0.00442910799757,,0.00896150482202,-0.00832505933904,0.0314119619015,-0.99943167478
110376000000,,423,,110,376000000,"""map""",,,0.00635962933302,0.0109226852655,0.0042419093661,,0.00894627258465,-0.00832598272134,0.03135059609,-0.999433782123
110412000000,,424,,110,412000000,"""map""",,,0.00639926968142,0.0109361605719,0.00392986880615,,0.00892723996924,-0.00814614806622,0.0313181430167,-0.999436479521
110444000000,,425,,110,444000000,"""map""",,,0.00654508173466,0.0110876206309,0.00371632655151,,0.00890354002254,-0.00817619111363,0.0312727508608,-0.999437870367
110476000000,,426,,110,476000000,"""map""",,,0.00663908943534,0.0112209506333,0.00363961420953,,0.00890510093766,-0.00824361800408,0.0312770076925,-0.999437153871
110512000000,,427,,110,512000000,"""map""",,,0.00682156393304,0.0114627908915,0.00353312445804,,0.00889306023335,-0.00827014010212,0.0312775556016,-0.99943702743
110544000000,,428,,110,544000000,"""map""",,,0.00724390568212,0.0114450268447,0.00330458488315,,0.00885883149763,-0.00829074618615,0.0312417729272,-0.999438249689
110576000000,,429,,110,576000000,"""map""",,,0.00773475179449,0.0114215677604,0.00309556163847,,0.00886054344582,-0.0083110322587,0.0311998368129,-0.999439387654
110612000000,,430,,110,612000000,"""map""",,,0.00822320207953,0.0114863039926,0.00278911902569,,0.00890452767466,-0.00830679514218,0.031179227004,-0.999439682682
110644000000,,431,,110,644000000,"""map""",,,0.00873518455774,0.011590433307,0.00245104427449,,0.00890599166026,-0.00833856526372,0.0311075352147,-0.99944157929
110676000000,,432,,110,676000000,"""map""",,,0.00921803154051,0.0117297088727,0.00213688868098,,0.00894808574289,-0.00835747347595,0.0311356471626,-0.999440188444
110712000000,,433,,110,712000000,"""map""",,,0.00976397749037,0.0119518628344,0.00172257772647,,0.00895387642765,-0.00833820238512,0.0311201371224,-0.9994407785
110744000000,,434,,110,744000000,"""map""",,,0.00997814815491,0.0120225492865,0.00142950157169,,0.0089673157776,-0.00839618613833,0.0310533765143,-0.999442295786
110776000000,,435,,110,776000000,"""map""",,,0.0101515967399,0.0120968008414,0.00125367427245,,0.00892313373844,-0.00838473038618,0.0310461272564,-0.999442970136
110812000000,,436,,110,812000000,"""map""",,,0.0103278271854,0.0122349811718,0.00106228049845,,0.00897241050428,-0.0083652435397,0.0310291420764,-0.999443265164
110844000000,,437,,110,844000000,"""map""",,,0.010530853644,0.0124068157747,0.000799901317805,,0.0089533225094,-0.00836525613437,0.0310356326911,-0.99944318087
110876000000,,438,,110,876000000,"""map""",,,0.0107771893963,0.0126427048817,0.000756156165153,,0.00901142941044,-0.00835674948858,0.0310105974631,-0.999443518045
110912000000,,439,,110,912000000,"""map""",,,0.0110860848799,0.012984585017,0.000672507972922,,0.00891765182874,-0.00834657318552,0.0310086165612,-0.999444487422
110944000000,,440,,110,944000000,"""map""",,,0.0111255943775,0.0129144899547,0.000702921999618,,0.00897941743843,-0.00838051516626,0.0309926429056,-0.999444192394
110976000000,,441,,110,976000000,"""map""",,,0.0111149512231,0.0127910329029,0.000718299881555,,0.00891601386391,-0.00832195761499,0.0309853936477,-0.9994454568
111012000000,,442,,111,12000000,"""map""",,,0.0111727584153,0.0127605320886,0.000899766455404,,0.00896172477588,-0.00833444228119,0.031003390352,-0.999444403129
111044000000,,443,,111,44000000,"""map""",,,0.0112831313163,0.0127983577549,0.00114179961383,,0.0089618940424,-0.00831223152999,0.0309667647407,-0.999445709681
111076000000,,444,,111,76000000,"""map""",,,0.0114299571142,0.0128879211843,0.00127964327112,,0.00896972378675,-0.00830565302021,0.0309454805822,-0.999446341884
111112000000,,445,,111,112000000,"""map""",,,0.0116152940318,0.0130985975266,0.00133498595096,,0.00891873042175,-0.00821843501514,0.0309539520987,-0.999447226968
111144000000,,446,,111,144000000,"""map""",,,0.0116295740008,0.0130624296144,0.00135496654548,,0.00886319260573,-0.00822202947454,0.0309150927044,-0.999448912841
111176000000,,447,,111,176000000,"""map""",,,0.0116110192612,0.013012885116,0.00132807297632,,0.00884994886409,-0.00822000156905,0.0309405494009,-0.999448322786
111212000000,,448,,111,212000000,"""map""",,,0.0116317011416,0.0130200013518,0.00130906468257,,0.00882081353797,-0.00812904076743,0.030923269193,-0.999449840072
111244000000,,449,,111,244000000,"""map""",,,0.0116765769199,0.0130636552349,0.0012556060683,,0.00879959072701,-0.0082184663989,0.0308952415387,-0.9994501351
111276000000,,450,,111,276000000,"""map""",,,0.0117323054001,0.0131468567997,0.00124745746143,,0.00880755397067,-0.00813675407287,0.0308710913945,-0.999451441652
111312000000,,451,,111,312000000,"""map""",,,0.0118220364675,0.0133509095758,0.00132340833079,,0.00871604807942,-0.00813812497732,0.0308622827032,-0.999452579617
111344000000,,452,,111,344000000,"""map""",,,0.0117951948196,0.0133195016533,0.00133289291989,,0.00867770411964,-0.00806530267288,0.0308619876753,-0.999453464701
111376000000,,453,,111,376000000,"""map""",,,0.0117830634117,0.0132558317855,0.00135326315649,,0.00891526034494,-0.00806203946137,0.0308271322315,-0.999452495324
111412000000,,454,,111,412000000,"""map""",,,0.0117898425087,0.0132681708783,0.00147769134492,,0.00893824474188,-0.00807929871931,0.0308235918963,-0.999452242442
111444000000,,455,,111,444000000,"""map""",,,0.0117824999616,0.0133123565465,0.00173176953103,,0.00881693178852,-0.00806122150793,0.0307970393817,-0.999454265491
111476000000,,456,,111,476000000,"""map""",,,0.0118111437187,0.0133997295052,0.00194174423814,,0.00885992515484,-0.0081225863727,0.0307687166995,-0.999454265491
111512000000,,457,,111,512000000,"""map""",,,0.0118502359837,0.0135733354837,0.00214603845961,,0.00887704369005,-0.00814311024157,0.0307514786385,-0.999454476225
111544000000,,458,,111,544000000,"""map""",,,0.0116208363324,0.0134011916816,0.00244382210076,,0.00886162510517,-0.00818807376726,0.0307585171622,-0.99945401261
111576000000,,459,,111,576000000,"""map""",,,0.0113071100786,0.0131848780438,0.00274296756834,,0.0088041207312,-0.00817883728952,0.030769686077,-0.999454307638
111612000000,,460,,111,612000000,"""map""",,,0.0110309785232,0.0130342496559,0.00300714396872,,0.00874747069525,-0.00816643234836,0.0307789583837,-0.999454560519
111644000000,,461,,111,644000000,"""map""",,,0.0107777724043,0.0129609359428,0.00321391876787,,0.00874634038592,-0.00819240427362,0.0307626054065,-0.999454897694
111676000000,,462,,111,676000000,"""map""",,,0.0105193285272,0.0129521256313,0.00312525872141,,0.00877890010232,-0.00819591172283,0.030764417721,-0.999454518372
111712000000,,463,,111,712000000,"""map""",,,0.0101995384321,0.0130558442324,0.00283057428896,,0.00879311151339,-0.00821461568337,0.0307121556288,-0.999455867071
111744000000,,464,,111,744000000,"""map""",,,0.00974341854453,0.0130656193942,0.00251245941035,,0.00872528200529,-0.00826764769637,0.0307052435456,-0.999456204246
111776000000,,465,,111,776000000,"""map""",,,0.00924340263009,0.0130661968142,0.00222697062418,,0.00875383429315,-0.00828775921347,0.0306788596185,-0.999456625715
111812000000,,466,,111,812000000,"""map""",,,0.00876849796623,0.0131319575012,0.00220683775842,,0.00876587164299,-0.0082499332607,0.0306273983164,-0.999458438029
111844000000,,467,,111,844000000,"""map""",,,0.00834152661264,0.0132435606793,0.00224746740423,,0.00874959285493,-0.00826735396494,0.0305916577889,-0.999459533847
111876000000,,468,,111,876000000,"""map""",,,0.00791830103844,0.0133882816881,0.00230202660896,,0.00871480254538,-0.00822601521228,0.03058495644,-0.999460334637
111912000000,,469,,111,912000000,"""map""",,,0.00745768332854,0.0135967098176,0.00235242210329,,0.00877176279695,-0.00816758508937,0.0305766535108,-0.999460545372
111944000000,,470,,111,944000000,"""map""",,,0.00710638612509,0.0138049749658,0.00230199657381,,0.00881485177569,-0.00794126136963,0.0304830875071,-0.999464928644
111976000000,,471,,111,976000000,"""map""",,,0.00678501510993,0.0140552176163,0.00237998529337,,0.00881703744376,-0.00793738192509,0.0304974174356,-0.999464422882
112012000000,,472,,112,12000000,"""map""",,,0.00646714959294,0.0143265062943,0.00242486619391,,0.00887013086603,-0.00795940340648,0.0305433153537,-0.99946244198
112044000000,,473,,112,44000000,"""map""",,,0.00620126817375,0.0144935529679,0.00258220918477,,0.00892583998594,-0.00792263534372,0.0305484151223,-0.999462062658
112076000000,,474,,112,76000000,"""map""",,,0.00596258416772,0.0145702743903,0.00289978436194,,0.00891219128058,-0.00791134233438,0.0305838606219,-0.999461177574
112112000000,,475,,112,112000000,"""map""",,,0.00562541279942,0.0147364884615,0.00343895051628,,0.00889676722154,-0.00797983849532,0.0305445376123,-0.999461978364
112144000000,,476,,112,144000000,"""map""",,,0.00532977003604,0.0149406921118,0.00386795168743,,0.00886184872219,-0.00809320413355,0.0306161451079,-0.999459238819
112176000000,,477,,112,176000000,"""map""",,,0.00504731526598,0.0152016859502,0.00422936305404,,0.00885776179497,-0.00810958476964,0.030601098683,-0.999459533847
112212000000,,478,,112,212000000,"""map""",,,0.00477609178051,0.0154952351004,0.00446065235883,,0.0088207806519,-0.00812765251444,0.0305547371496,-0.999461135428
112244000000,,479,,112,244000000,"""map""",,,0.00452257180586,0.0155950961635,0.00478236516938,,0.00884348582597,-0.00819763221152,0.0305458441646,-0.999460671812
112276000000,,480,,112,276000000,"""map""",,,0.00428876047954,0.0155171761289,0.00504116062075,,0.0088477652334,-0.00818011474239,0.0305420509482,-0.9994608404
112312000000,,481,,112,312000000,"""map""",,,0.00399193167686,0.015486529097,0.00521133514121,,0.00879690394773,-0.00812991447077,0.0305476143322,-0.999461599043
112344000000,,482,,112,344000000,"""map""",,,0.00373388454318,0.0155137199908,0.00532262399793,,0.00884448887157,-0.00809362753651,0.0305294490405,-0.999461978364
112376000000,,483,,112,376000000,"""map""",,,0.00345637602732,0.01558610145,0.00527964020148,,0.00884287551985,-0.00812218984659,0.0305136861192,-0.999462231246
112412000000,,484,,112,412000000,"""map""",,,0.00317260273732,0.0156860854477,0.00525325210765,,0.00892425606292,-0.0081671484332,0.0304772290952,-0.999462273392
112444000000,,485,,112,444000000,"""map""",,,0.00303097092547,0.0154533740133,0.00554668903351,,0.00889930475817,-0.00814064633845,0.0304609182648,-0.99946324277
112476000000,,486,,112,476000000,"""map""",,,0.00303095881827,0.0149646736681,0.00603040494025,,0.00889024833062,-0.0081838166886,0.0304786199412,-0.999462399833
112512000000,,487,,112,512000000,"""map""",,,0.00298438547179,0.0144899552688,0.00672397296876,,0.00887739496181,-0.00820739379618,0.0303982880479,-0.999464760056
112544000000,,488,,112,544000000,"""map""",,,0.00293384725228,0.0142156491056,0.00704509951174,,0.00889441059944,-0.00826421285169,0.0303299680065,-0.999466235196
112576000000,,489,,112,576000000,"""map""",,,0.00284364051186,0.0140082724392,0.00731379771605,,0.00890148225616,-0.0082617905192,0.0303487655009,-0.99946564514
112612000000,,490,,112,612000000,"""map""",,,0.00270685064606,0.0138804065064,0.00752138765529,,0.00891776353435,-0.0083185708029,0.0303484283261,-0.999465055084
112644000000,,491,,112,644000000,"""map""",,,0.0027584254276,0.0137807736173,0.00778470141813,,0.00888366193888,-0.00831199410412,0.0303126877986,-0.999466488077
112676000000,,492,,112,676000000,"""map""",,,0.00289452332072,0.0136738764122,0.00826708320528,,0.00890900641528,-0.00830366246654,0.0302437777013,-0.999468384685
112712000000,,493,,112,712000000,"""map""",,,0.00298271887004,0.0136407678947,0.00882442761213,,0.00890197346863,-0.00836995124802,0.0302262446123,-0.999468384685
112744000000,,494,,112,744000000,"""map""",,,0.00304175820202,0.013670399785,0.0092094829306,,0.00891522801452,-0.00838988339406,0.030228267661,-0.999468047511
112776000000,,495,,112,776000000,"""map""",,,0.00308042159304,0.0137327676639,0.00948326382786,,0.00888615290406,-0.00836087751309,0.0301978797833,-0.99946952265
112812000000,,496,,112,812000000,"""map""",,,0.00309327594005,0.0138281341642,0.00986170209944,,0.00887794007203,-0.00835631853294,0.0301543420888,-0.999470913496
112844000000,,497,,112,844000000,"""map""",,,0.00323673477396,0.013850947842,0.0100404396653,,0.00905038093926,-0.00836008837098,0.0301186015612,-0.999470407734
112876000000,,498,,112,876000000,"""map""",,,0.00334530510008,0.0138405794278,0.0102441590279,,0.00908608621408,-0.00837930570812,0.0300760753911,-0.999471208524
112912000000,,499,,112,912000000,"""map""",,,0.00343753397465,0.0138884121552,0.0106064556167,,0.00905114124947,-0.00840760859282,0.0300966009063,-0.999470660615
112944000000,,500,,112,944000000,"""map""",,,0.00346100144088,0.0139769595116,0.010777855292,,0.0089860242862,-0.00842723725274,0.0301014899407,-0.999470913496
112976000000,,501,,112,976000000,"""map""",,,0.00345346704125,0.0140998661518,0.0108423968777,,0.00899551763746,-0.00841885289044,0.0301297704761,-0.999470112706
113012000000,,502,,113,12000000,"""map""",,,0.00339399441145,0.0142421973869,0.0108676943928,,0.00896604410757,-0.00841549534243,0.0300985396613,-0.999471334965
113044000000,,503,,113,44000000,"""map""",,,0.00333606544882,0.0142404707149,0.011010014452,,0.00900761090185,-0.00847424199887,0.030017659859,-0.999472894398
113076000000,,504,,113,76000000,"""map""",,,0.00328745436855,0.0141208386049,0.0112864691764,,0.0089680953914,-0.00842199328341,0.0299975979591,-0.999474327391
113112000000,,505,,113,112000000,"""map""",,,0.00315081840381,0.0140980631113,0.0116360466927,,0.00895199762075,-0.00846606602475,0.0299656085011,-0.999475043888
113144000000,,506,,113,144000000,"""map""",,,0.0029860585928,0.0141401235014,0.01177126728,,0.00891724867603,-0.00844727530098,0.0299160016604,-0.999477024789
113176000000,,507,,113,176000000,"""map""",,,0.00282296794467,0.0142650948837,0.0118363983929,,0.00892024081416,-0.00847683501787,0.0299367379099,-0.999476097559
113212000000,,508,,113,212000000,"""map""",,,0.00264654192142,0.0144222322851,0.0119379693642,,0.0089165355958,-0.00847772956827,0.0298830428249,-0.999477699139
113244000000,,509,,113,244000000,"""map""",,,0.0025358365383,0.0144390612841,0.0121643841267,,0.00889186069453,-0.00847843476654,0.0298510533669,-0.999478837104
113276000000,,510,,113,276000000,"""map""",,,0.00245946575888,0.0143460007384,0.0125269927084,,0.00889170568961,-0.00849349658494,0.0298175466223,-0.999479722188
113312000000,,511,,113,312000000,"""map""",,,0.00227578077465,0.0143080241978,0.0131697524339,,0.00883074381292,-0.00845303338778,0.029724149206,-0.99948343111
113344000000,,512,,113,344000000,"""map""",,,0.00204105628654,0.0143489539623,0.0135908192024,,0.00884638687916,-0.00846154178282,0.0297242334997,-0.999483178229
113376000000,,513,,113,376000000,"""map""",,,0.00178301613778,0.0144321266562,0.0139645552263,,0.00878357150837,-0.00843522447155,0.0297021906979,-0.999484653369
113412000000,,514,,113,412000000,"""map""",,,0.00147325976286,0.0145678911358,0.014381297864,,0.0088039301443,-0.00844162776733,0.0296930448318,-0.999484695516
113444000000,,515,,113,444000000,"""map""",,,0.00120700127445,0.0145304854959,0.0149030908942,,0.00878721231284,-0.00844232057673,0.0296896730839,-0.999484864103
113476000000,,516,,113,476000000,"""map""",,,0.000984254293144,0.0143675440922,0.0154193174094,,0.00879174715322,-0.00843013871753,0.0296958686707,-0.999484821956
113512000000,,517,,113,512000000,"""map""",,,0.000649192836136,0.0142830759287,0.01598245278,,0.00876725827019,-0.00841991703663,0.0296299088527,-0.999487055739
113544000000,,518,,113,544000000,"""map""",,,0.000368946668459,0.0142671614885,0.0164006296545,,0.00877393298921,-0.00840372503238,0.029557500567,-0.999489247375
113576000000,,519,,113,576000000,"""map""",,,5.80211853958e-05,0.0143126146868,0.0166675504297,,0.00895806738432,-0.00834136341933,0.0295570369517,-0.999488193704
113612000000,,520,,113,612000000,"""map""",,,-0.000246352487011,0.0144103290513,0.0168428365141,,0.00894779542766,-0.00834472197575,0.0295675315169,-0.999487898676
113648000000,,521,,113,644000000,"""map""",,,-0.000490504666232,0.0143812671304,0.0168542563915,,0.00888007892169,-0.00831709045659,0.0295478489387,-0.999489373816
113676000000,,522,,113,676000000,"""map""",,,-0.000660583202261,0.014272203669,0.0168094243854,,0.00891598964182,-0.00835511716254,0.0295223079485,-0.99948945811
113712000000,,523,,113,712000000,"""map""",,,-0.000931337533984,0.0142404818907,0.0166256334633,,0.00897650251464,-0.00844672938816,0.0295537916443,-0.999487224327
113744000000,,524,,113,744000000,"""map""",,,-0.00116507930215,0.0143228722736,0.0163964126259,,0.00889927899262,-0.00844576260366,0.0295509256586,-0.99948798297
113772000000,,525,,113,772000000,"""map""",,,-0.00142230349593,0.0144324274734,0.0162715967745,,0.00893158356418,-0.00845653474545,0.0295366800238,-0.99948798297
113812000000,,526,,113,812000000,"""map""",,,-0.00167745526414,0.0145956277847,0.0160326678306,,0.00891769603354,-0.00837077000406,0.0294961347556,-0.999490090312
113844000000,,527,,113,844000000,"""map""",,,-0.00181564525701,0.0146320993081,0.0158401038498,,0.00888548351415,-0.00842665324724,0.0294798239252,-0.99949038534
113872000000,,528,,113,872000000,"""map""",,,-0.00187152985018,0.0145436320454,0.0158480629325,,0.00888296797703,-0.00836470649666,0.0294529342358,-0.99949173404
113912000000,,529,,113,912000000,"""map""",,,-0.00197626720183,0.0145482858643,0.0154975242913,,0.00889064541238,-0.00836169287351,0.0294065727025,-0.999493082739
113944000000,,530,,113,944000000,"""map""",,,-0.00211102166213,0.014630863443,0.0149863669649,,0.00890950567434,-0.00833663834191,0.0293702842659,-0.99949413641
113976000000,,531,,113,976000000,"""map""",,,-0.00230231927708,0.0147745292634,0.0143075212836,,0.00892148315837,-0.00834267863561,0.0293735717201,-0.999493883529
114012000000,,532,,114,12000000,"""map""",,,-0.00253918091767,0.014953892678,0.0137340687215,,0.00891519249428,-0.00833706544918,0.0293581881204,-0.999494431438
114044000000,,533,,114,44000000,"""map""",,,-0.00264952122234,0.015074826777,0.0132600544021,,0.00895270148135,-0.00844573226946,0.0293982697733,-0.999492029067
114076000000,,534,,114,76000000,"""map""",,,-0.00263090897352,0.0151466932148,0.012798987329,,0.00895591651622,-0.00837287878705,0.0293890396135,-0.999492914151
114112000000,,535,,114,112000000,"""map""",,,-0.00262256921269,0.0153112895787,0.0122487163171,,0.00893580775677,-0.00837532011444,0.0293288539138,-0.999494852906
114144000000,,536,,114,144000000,"""map""",,,-0.00264385715127,0.0154905198142,0.0118947131559,,0.00887979443046,-0.00834047932333,0.029347735702,-0.999495021494
114176000000,,537,,114,176000000,"""map""",,,-0.00268567726016,0.0157400853932,0.0113669456914,,0.00889812890637,-0.00836415076741,0.0293406550314,-0.999494852906
114212000000,,538,,114,212000000,"""map""",,,-0.00276634213515,0.0160326231271,0.0105764307082,,0.00911078924755,-0.00828403831353,0.0292958107846,-0.999495021494
114244000000,,539,,114,244000000,"""map""",,,-0.00280573568307,0.016114462167,0.00994896609336,,0.00911682139177,-0.00839159192605,0.0292807643597,-0.999494473585
114276000000,,540,,114,276000000,"""map""",,,-0.00279652606696,0.0160393454134,0.00948269944638,,0.00910267365373,-0.00843813873679,0.029321857537,-0.999492998445
114312000000,,541,,114,312000000,"""map""",,,-0.00285828858614,0.0160162430257,0.00895079039037,,0.00907640528054,-0.00841767810878,0.0292684996268,-0.9994949372
114344000000,,542,,114,344000000,"""map""",,,-0.00295392144471,0.0160750821233,0.0086060622707,,0.00903533249755,-0.00847570446159,0.0292829138489,-0.999494431438
114376000000,,543,,114,376000000,"""map""",,,-0.00309052155353,0.0161665622145,0.00827172398567,,0.00904192049449,-0.00847430184411,0.0292686682141,-0.999494768613
114412000000,,544,,114,412000000,"""map""",,,-0.00329329958186,0.0163377933204,0.00787882506847,,0.00905249317961,-0.00845696722398,0.029284852604,-0.999494347144
