rosbagTimestamp,header,seq,stamp,secs,nsecs,frame_id,pose,position,x,y,z,orientation,x,y,z,w
144784000000,,231,,144,780053421,"""map""",,,-0.00708643486723,-0.0474551431835,-0.0435196459293,,0.0066623495782,-0.0127350670506,0.0377798870961,-0.999182713346
144820000000,,232,,144,812053421,"""map""",,,-0.00686008529738,-0.04739709571,-0.0440381653607,,0.00672288298937,-0.0127856077074,0.0378071139603,-0.999180690298
144852000000,,233,,144,844053421,"""map""",,,-0.0065930839628,-0.0469887144864,-0.0443451888859,,0.00671238348501,-0.0128010344418,0.0378469005853,-0.999179088717
144884000000,,234,,144,876053458,"""map""",,,-0.00636221887544,-0.0467745102942,-0.0448903664947,,0.00674506737821,-0.0128201240007,0.0378925456222,-0.999176854934
144920000000,,235,,144,916053458,"""map""",,,-0.00610292702913,-0.0467760190368,-0.0458004549146,,0.00672965216837,-0.0127162333362,0.0378998791738,-0.999178035046
144952000000,,236,,144,948053458,"""map""",,,-0.00590424146503,-0.0469501838088,-0.0466136038303,,0.0067455599695,-0.0127225250705,0.0378950322863,-0.999177992899
144984000000,,237,,144,980053494,"""map""",,,-0.00574010424316,-0.0472724474967,-0.0476393774152,,0.00674207132997,-0.0125201158183,0.0378735795404,-0.999181406794
145020000000,,238,,145,12053494,"""map""",,,-0.00548250507563,-0.0470575541258,-0.0483444035053,,0.00681487079115,-0.0125814566051,0.037871725079,-0.999180226682
145052000000,,239,,145,44053494,"""map""",,,-0.00519051961601,-0.0464207939804,-0.0487784966826,,0.00682387803366,-0.0125927997049,0.0378640122058,-0.999180268829
145084000000,,240,,145,76053530,"""map""",,,-0.00491952290758,-0.0460312739015,-0.0492472238839,,0.00688769955756,-0.0126010255844,0.0377973358914,-0.999182291878
145120000000,,241,,145,116053530,"""map""",,,-0.00460758153349,-0.0458525791764,-0.0499993786216,,0.00690092214347,-0.0126847907994,0.0378020563385,-0.999180943179
145152000000,,242,,145,148053530,"""map""",,,-0.00435857102275,-0.0459531284869,-0.0506303943694,,0.0069464591791,-0.0126969672874,0.0378137731623,-0.999180015948
145184000000,,243,,145,180053565,"""map""",,,-0.0041074687615,-0.0461936406791,-0.0513351224363,,0.00697968340808,-0.0127495356027,0.0378381340408,-0.999178161487
145220000000,,244,,145,212053565,"""map""",,,-0.00386988488026,-0.0460809841752,-0.0516773611307,,0.00699850691502,-0.0127169603694,0.0378092634495,-0.999179552333
145252000000,,245,,145,244053565,"""map""",,,-0.00367710995488,-0.0456467159092,-0.0517408885062,,0.00694381446436,-0.0126834947839,0.0377840174873,-0.999181364647
145284000000,,246,,145,276053600,"""map""",,,-0.00347527186386,-0.0454154722393,-0.0518721304834,,0.00693955170576,-0.0127319774891,0.0378656559329,-0.999177697871
145320000000,,247,,145,316053600,"""map""",,,-0.00323855271563,-0.0453557036817,-0.0518016852438,,0.00685538313219,-0.0127600683636,0.0379069176975,-0.999176307025
145352000000,,248,,145,348053600,"""map""",,,-0.0030665602535,-0.0454687103629,-0.0517062060535,,0.00684702982438,-0.0127632784388,0.0379395815051,-0.999175084767
145384000000,,249,,145,380053634,"""map""",,,-0.00288203754462,-0.0457614473999,-0.051560793072,,0.00681210095295,-0.0127019228348,0.0379236921433,-0.999176728494
145420000000,,250,,145,412053634,"""map""",,,-0.00271266116761,-0.0456204116344,-0.0512362904847,,0.00683129489118,-0.0128090798801,0.0379428268125,-0.999174452564
145452000000,,251,,145,444053634,"""map""",,,-0.00255996361375,-0.0451064482331,-0.0508075319231,,0.00676231729305,-0.0128147357896,0.0379947938767,-0.999172893131
145484000000,,252,,145,476053667,"""map""",,,-0.00241115014069,-0.0447944886982,-0.0505089983344,,0.00679475489061,-0.0128261177436,0.0380150665108,-0.999171755166
145520000000,,253,,145,516053667,"""map""",,,-0.00224574678577,-0.0446449816227,-0.050275746733,,0.00681490898673,-0.0128257726663,0.0380215149786,-0.999171375844
145552000000,,254,,145,548053667,"""map""",,,-0.00213482044637,-0.0447238124907,-0.0502230413258,,0.00679093335683,-0.0128601414456,0.0380007787292,-0.999171881606
145584000000,,255,,145,580053700,"""map""",,,-0.00202440470457,-0.0449533052742,-0.0501423999667,,0.0067301941505,-0.0129183571094,0.0380110204134,-0.99917116511
145620000000,,256,,145,612053700,"""map""",,,-0.00203297310509,-0.0449020639062,-0.0499043948948,,0.0067285303378,-0.0129400775536,0.0380290171177,-0.999170195732
145652000000,,257,,145,644053700,"""map""",,,-0.00217510620132,-0.0446105413139,-0.0494462139904,,0.00678018261774,-0.0128876271177,0.038070953232,-0.999168973474
145684000000,,258,,145,676053732,"""map""",,,-0.00229223701172,-0.0445353426039,-0.0490627363324,,0.00678681942929,-0.0128958009721,0.0380913101598,-0.999168004096
145720000000,,259,,145,716053732,"""map""",,,-0.00242846552283,-0.0447145961225,-0.0487841591239,,0.0067184845706,-0.0129279817373,0.0380693937986,-0.999168931327
145752000000,,260,,145,748053732,"""map""",,,-0.00250242766924,-0.0450495257974,-0.0486350096762,,0.00667410196349,-0.0129484223003,0.03809986597,-0.999167793362
145784000000,,261,,145,780053764,"""map""",,,-0.00256228120998,-0.0455791242421,-0.0485768988729,,0.00662803447025,-0.0129266597092,0.0380938811175,-0.999168636299
145820000000,,262,,145,812053764,"""map""",,,-0.00249201525003,-0.0457425676286,-0.0483291111887,,0.00664471210991,-0.0129028934965,0.0381305488757,-0.999167371893
145852000000,,263,,145,844053764,"""map""",,,-0.00230790278874,-0.0455855131149,-0.0480231866241,,0.00664256393773,-0.0129392227628,0.0381866463311,-0.999164800936
145884000000,,264,,145,876053795,"""map""",,,-0.0020788856782,-0.0456104539335,-0.047688215971,,0.00672412072377,-0.0129413524958,0.0382346937384,-0.999162356418
145920000000,,265,,145,916053795,"""map""",,,-0.00176336080767,-0.045848749578,-0.0474704392254,,0.00685557937846,-0.012999711393,0.0382456097722,-0.999160291223
145952000000,,266,,145,948053795,"""map""",,,-0.00150026998017,-0.0462251827121,-0.0472251474857,,0.00684902521424,-0.01301465278,0.0382532804986,-0.999159869754
145984000000,,267,,145,980053826,"""map""",,,-0.00125046854373,-0.0467253364623,-0.0472434796393,,0.0068214624924,-0.0129883109997,0.038261794162,-0.999160038342
146020000000,,268,,146,12053826,"""map""",,,-0.00107903487515,-0.0467185042799,-0.047098685056,,0.00679015956703,-0.0130017700031,0.0382327549834,-0.9991612606
146052000000,,269,,146,44053826,"""map""",,,-0.000968743639532,-0.0463102571666,-0.0467290021479,,0.00674726197778,-0.0129738437647,0.0382102064194,-0.99916273574
146084000000,,270,,146,76053856,"""map""",,,-0.000833985977806,-0.0461117178202,-0.0466297604144,,0.00674378189933,-0.0129602267106,0.0382453147442,-0.999161597775
146120000000,,271,,146,116053856,"""map""",,,-0.000630846829154,-0.046142924577,-0.0466720163822,,0.00672901469728,-0.0129911216677,0.0382689591263,-0.999160375517
146152000000,,272,,146,148053856,"""map""",,,-0.000458032154711,-0.0463844425976,-0.0467156134546,,0.00671363537812,-0.0130112609466,0.0382802966285,-0.999159827608
146184000000,,273,,146,180053885,"""map""",,,-0.000291210075375,-0.0468146204948,-0.0469797924161,,0.00665188826942,-0.0130043021067,0.0383465514744,-0.999157804559
146220000000,,274,,146,212053885,"""map""",,,-0.000125712089357,-0.0469479672611,-0.0469284951687,,0.00671077169732,-0.0130567232374,0.0383728932547,-0.99915565507
146252000000,,275,,146,244053885,"""map""",,,7.64806100051e-06,-0.0468350350857,-0.0465381853282,,0.00667348820001,-0.01301178877,0.038402859664,-0.999155360042
146284000000,,276,,146,276053914,"""map""",,,0.000182165706065,-0.0469067133963,-0.0461291968822,,0.00672606178371,-0.0130451104635,0.0383765178837,-0.999155570776
146320000000,,277,,146,316053914,"""map""",,,0.000436911359429,-0.0472455620766,-0.0458502583206,,0.00667373449565,-0.013094336007,0.0383173437083,-0.999157593825
146352000000,,278,,146,348053914,"""map""",,,0.000637621385977,-0.047683916986,-0.0457808859646,,0.00669995082324,-0.0131445687942,0.0383605020812,-0.999155065014
146384000000,,279,,146,380053942,"""map""",,,0.000833070196677,-0.0482952557504,-0.0457303225994,,0.0066260377633,-0.0131193076854,0.0383873074769,-0.999154896426
146420000000,,280,,146,412053942,"""map""",,,0.000888738781214,-0.0485596954823,-0.045498419553,,0.00664342267977,-0.0131168124603,0.0383878975328,-0.999154727839
146452000000,,281,,146,444053942,"""map""",,,0.00085006718291,-0.0485233478248,-0.0450823307037,,0.00665292745265,-0.0131480544703,0.0383765178837,-0.999154727839
146484000000,,282,,146,476053970,"""map""",,,0.000835955550428,-0.048688672483,-0.0447115339339,,0.00673930906503,-0.0131417729435,0.0384569762175,-0.999151145357
146520000000,,283,,146,516053970,"""map""",,,0.000813005608507,-0.0491177104414,-0.0442749746144,,0.00673715397813,-0.0131084983359,0.0385404691244,-0.999148321518
146552000000,,284,,146,548053970,"""map""",,,0.00086263846606,-0.049659576267,-0.0440268516541,,0.00674145592013,-0.0131235154556,0.0385349900341,-0.999148321518
146584000000,,285,,146,580053997,"""map""",,,0.000935830816161,-0.0503050945699,-0.0438451357186,,0.00688651845799,-0.0131907294715,0.0385628912478,-0.999145371238
146620000000,,286,,146,612053997,"""map""",,,0.00103460764512,-0.0510976202786,-0.0436550714076,,0.00684142100081,-0.0132270551158,0.0386412000923,-0.999142168078
146652000000,,287,,146,644053997,"""map""",,,0.00114569999278,-0.0520514808595,-0.0435037352145,,0.00676977794378,-0.0131853086624,0.0386696913619,-0.999142168078
146684000000,,288,,146,676054023,"""map""",,,0.00126740941778,-0.0530994236469,-0.043445892632,,0.0068309244599,-0.0132488641343,0.0386775306757,-0.999140566498
146720000000,,289,,146,716054023,"""map""",,,0.00128343130928,-0.0535997226834,-0.0430570878088,,0.00678253263382,-0.0132446817181,0.0387441226964,-0.999138374862
146752000000,,290,,146,748054023,"""map""",,,0.00124577584211,-0.0536880046129,-0.0427189022303,,0.00677816417882,-0.0132780577416,0.0387477894722,-0.999137826953
146784000000,,291,,146,780054049,"""map""",,,0.00125792738982,-0.0539505779743,-0.0424768738449,,0.0067451019518,-0.0133037192455,0.0387788095527,-0.999136478253
146820000000,,292,,146,812054049,"""map""",,,0.00130027357955,-0.0544011034071,-0.0423477292061,,0.00666714213585,-0.0133365674455,0.0387955839984,-0.999135972491
146852000000,,293,,146,844054049,"""map""",,,0.00136001757346,-0.0550099574029,-0.0423176325858,,0.00668948951446,-0.0133500066926,0.0388161095136,-0.999134834526
146884000000,,294,,146,876054075,"""map""",,,0.00143664306961,-0.0557321459055,-0.0424377508461,,0.00664403677252,-0.0133252572729,0.0388269834005,-0.999135003114
146920000000,,295,,146,916054075,"""map""",,,0.00167196756229,-0.0558553375304,-0.0422363989055,,0.00657691297718,-0.0133610514718,0.0388996867142,-0.999132179275
146952000000,,296,,146,948054075,"""map""",,,0.00192916160449,-0.0556757599115,-0.0419831946492,,0.00659850368815,-0.0133185137771,0.0389057980073,-0.999132390009
146984000000,,297,,146,980054100,"""map""",,,0.00221820687875,-0.055707372725,-0.0419137701392,,0.00656530086187,-0.0133427656664,0.0389556155822,-0.999130282667
147020000000,,298,,147,12054100,"""map""",,,0.00250827730633,-0.0558994226158,-0.0419614464045,,0.00661176282327,-0.0131172823318,0.0389703669792,-0.999132474303
147052000000,,299,,147,44054100,"""map""",,,0.00285544688813,-0.0562437176704,-0.0420453287661,,0.0066214628546,-0.0131274189781,0.0389996590389,-0.999131083457
147084000000,,300,,147,76054124,"""map""",,,0.00321705080569,-0.0567444972694,-0.0422365181148,,0.00662676940625,-0.0131472411678,0.038925902054,-0.999133696561
147120000000,,301,,147,116054124,"""map""",,,0.00348516902886,-0.0566183105111,-0.0420000478625,,0.00659074866802,-0.0131975167605,0.0388853567857,-0.999134792379
147152000000,,302,,147,148054124,"""map""",,,0.0035880159121,-0.0562420152128,-0.0416486226022,,0.00659764428757,-0.0132110149473,0.0388938283023,-0.99913424447
147184000000,,303,,147,180054148,"""map""",,,0.00370699027553,-0.0560292750597,-0.0414210706949,,0.00662076446815,-0.0132615556041,0.0389288944802,-0.999132052834
147220000000,,304,,147,212054148,"""map""",,,0.00383138726465,-0.0560176447034,-0.0413508117199,,0.00662475788205,-0.0133020653109,0.0388812263946,-0.999133359387
147252000000,,305,,147,244054148,"""map""",,,0.00396551983431,-0.0562293641269,-0.0413908958435,,0.00661553924675,-0.0133231601379,0.0388812263946,-0.999133106506
147284000000,,306,,147,276054171,"""map""",,,0.00410599680617,-0.0566004887223,-0.0414042770863,,0.00659399628026,-0.0133184061051,0.0388298915331,-0.999135382435
147320000000,,307,,147,316054171,"""map""",,,0.00408710353076,-0.0563428513706,-0.0411841124296,,0.00655194722561,-0.0133404933586,0.0388365085883,-0.999135087407
147352000000,,308,,147,348054171,"""map""",,,0.00398157443851,-0.0558907426894,-0.0409360416234,,0.00655915466598,-0.0133825226569,0.0388141286117,-0.999135382435
147384000000,,309,,147,380054193,"""map""",,,0.00394039880484,-0.0556654930115,-0.0407160557806,,0.00663928603244,-0.0133890254547,0.0388231480373,-0.999134370911
147420000000,,310,,147,412054193,"""map""",,,0.00392351159826,-0.0556453503668,-0.0405384711921,,0.00656464791499,-0.0134005473494,0.0388344855396,-0.99913424447
147452000000,,311,,147,444054193,"""map""",,,0.00392771605402,-0.0557881519198,-0.0404635854065,,0.00660934563566,-0.0133998008892,0.0388390373992,-0.999133823002
147484000000,,312,,147,476054215,"""map""",,,0.00395979965106,-0.0560985840857,-0.0404479503632,,0.00659454978692,-0.0134106243974,0.0388363821478,-0.999133865149
147520000000,,313,,147,516054215,"""map""",,,0.00394926732406,-0.0558954700828,-0.0401592999697,,0.0066100203145,-0.0133794712909,0.0388536202088,-0.999133485827
147552000000,,314,,147,548054215,"""map""",,,0.00390459387563,-0.0555343404412,-0.0397586748004,,0.00661001241197,-0.0133770478472,0.0388523979502,-0.999133612268
147584000000,,315,,147,580054237,"""map""",,,0.0038656545803,-0.0553496815264,-0.0394903868437,,0.00664263637762,-0.0133873056657,0.0388099560737,-0.999134834526
147620000000,,316,,147,612054237,"""map""",,,0.0038414648734,-0.0553394369781,-0.0393552742898,,0.00661445297759,-0.0133828305265,0.0387941510055,-0.99913571961
147652000000,,317,,147,644054237,"""map""",,,0.00383815355599,-0.0555054582655,-0.0392693094909,,0.00661708550926,-0.0134335901493,0.0388083123466,-0.999134455205
147684000000,,318,,147,676054258,"""map""",,,0.00383639940992,-0.0558547116816,-0.0392097346485,,0.00665578915781,-0.0131786758021,0.0388587199775,-0.999135635316
147720000000,,319,,147,716054258,"""map""",,,0.00376434111968,-0.0557100437582,-0.0388519689441,,0.0066646008126,-0.0132129553486,0.0388918895472,-0.999133907296
147752000000,,320,,147,748054258,"""map""",,,0.00365740642883,-0.0554048717022,-0.0386237502098,,0.00666209340438,-0.0131924295041,0.0389014990287,-0.999133738708
147784000000,,321,,147,780054278,"""map""",,,0.0035709659569,-0.0552992559969,-0.0387134216726,,0.00667645823574,-0.0132546929117,0.0389052079514,-0.999132727184
147820000000,,322,,147,812054278,"""map""",,,0.00349653814919,-0.0553600713611,-0.0390100628138,,0.00668645197792,-0.0132742625496,0.0389457110728,-0.999130830576
147852000000,,323,,147,844054278,"""map""",,,0.003461784916,-0.0555879957974,-0.0394037589431,,0.0066906982729,-0.0132787498719,0.0389827581526,-0.999129271142
147884000000,,324,,147,876054298,"""map""",,,0.00345000531524,-0.0559755153954,-0.0398453325033,,0.00673053132529,-0.0132846250767,0.0389956972351,-0.999128470352
147920000000,,325,,147,916054298,"""map""",,,0.00335312401876,-0.0557806231081,-0.0403510928154,,0.00676194719104,-0.0133423840399,0.0390706343318,-0.999124508548
147952000000,,326,,147,948054298,"""map""",,,0.00324340164661,-0.0554009750485,-0.0406570397317,,0.00672809899115,-0.0133151983348,0.0390562201096,-0.99912568866
147984000000,,327,,147,980054317,"""map""",,,0.00316283782013,-0.0552548766136,-0.0408681146801,,0.00668334726983,-0.0133792322393,0.0391023287619,-0.999123328437
147996000000,,328,,148,12054317,"""map""",,,0.00312493555248,-0.055295843631,-0.0411077402532,,0.00669416386338,-0.0134496089152,0.0391019072934,-0.999122316912
147996000000,,329,,148,44054317,"""map""",,,0.00309463590384,-0.0554928667843,-0.0413170568645,,0.0066855277107,-0.0134824255051,0.039117585921,-0.999121305388
147996000000,,330,,148,76054317,"""map""",,,0.00308616622351,-0.0558653362095,-0.0415491424501,,0.00673807594044,-0.0134653109212,0.0391389543732,-0.99912033601
147996000000,,331,,148,116054317,"""map""",,,0.00298667000607,-0.0556835308671,-0.0413916260004,,0.00678651485245,-0.013466273384,0.0391749477818,-0.999118565843
148152000000,,332,,148,148048336,"""map""",,,0.00286727212369,-0.0553188323975,-0.0411644726992,,0.00680009667439,-0.0134937215191,0.0392113205121,-0.999116669235
148184000000,,333,,148,180048354,"""map""",,,0.00278960145079,-0.0551699735224,-0.041032653302,,0.00684324846182,-0.0134803543827,0.0392214357558,-0.999116163472
148220000000,,334,,148,212048354,"""map""",,,0.00272823544219,-0.0551976785064,-0.0409815125167,,0.00673114541804,-0.0134307123098,0.0392879434827,-0.999115067654
148252000000,,335,,148,244048354,"""map""",,,0.00267548928969,-0.0553814545274,-0.0410333499312,,0.00675650366214,-0.0133964439585,0.0392957827965,-0.999114983361
148284000000,,336,,148,276048372,"""map""",,,0.00264896824956,-0.0557308681309,-0.0411418415606,,0.00677050629401,-0.0133853889719,0.0393245269472,-0.999113971836
148320000000,,337,,148,316048372,"""map""",,,0.00250718928874,-0.0554776862264,-0.0409173630178,,0.0067218987946,-0.0133715005975,0.0393446731408,-0.999113634662
148352000000,,338,,148,348048372,"""map""",,,0.00238469219767,-0.0550034232438,-0.040552098304,,0.00673146283649,-0.0134111719772,0.0393290788068,-0.999113634662
148384000000,,339,,148,380048389,"""map""",,,0.00224851164967,-0.0547271855175,-0.0403210148215,,0.00673535088327,-0.0133726260501,0.0393496464689,-0.999113297487
148420000000,,340,,148,412048389,"""map""",,,0.0021470261272,-0.0546622425318,-0.0402327999473,,0.0067341625397,-0.0134106612759,0.0393513744897,-0.999112749578
148452000000,,341,,148,444048389,"""map""",,,0.00206690607592,-0.0547776781023,-0.0403509885073,,0.00677099723894,-0.0134396020021,0.0393831110666,-0.99911085297
148484000000,,342,,148,476048406,"""map""",,,0.00202289014123,-0.05505124107,-0.0405478700995,,0.0066998955055,-0.013487864095,0.0394089049379,-0.999109672858
148520000000,,343,,148,516048406,"""map""",,,0.00178369006608,-0.0549459569156,-0.0407064147294,,0.0067629955939,-0.0132868463473,0.039425847971,-0.999111274438
148552000000,,344,,148,548048406,"""map""",,,0.00156957830768,-0.0547333694994,-0.0406829603016,,0.00676332585397,-0.0132932450951,0.0394397142842,-0.999110642235
148584000000,,345,,148,580048422,"""map""",,,0.00140828941949,-0.0547115281224,-0.0407553911209,,0.00675635548962,-0.0133775825853,0.0394647073654,-0.99910857704
148620000000,,346,,148,612048422,"""map""",,,0.00127866119146,-0.0548710487783,-0.0409305691719,,0.00679619907872,-0.0133973873236,0.0394501667026,-0.999108619187
148652000000,,347,,148,644048422,"""map""",,,0.00117974262685,-0.055168453604,-0.0411027111113,,0.00678121389844,-0.013412596409,0.0394367640048,-0.999109040655
148684000000,,348,,148,676048438,"""map""",,,0.00109790882561,-0.055584654212,-0.041342202574,,0.00676728469428,-0.013470956294,0.0395133448285,-0.999105289586
148720000000,,349,,148,716048438,"""map""",,,0.000919467187487,-0.0551792494953,-0.0413665063679,,0.00673370715618,-0.0135162453876,0.0395269582606,-0.999104404502
148752000000,,350,,148,748048438,"""map""",,,0.000785442069173,-0.0545556508005,-0.0412925221026,,0.00672320501764,-0.0135236115372,0.0394859915239,-0.999106006082
148784000000,,351,,148,780048453,"""map""",,,0.000683995196596,-0.0541772171855,-0.0412611663342,,0.00677413981333,-0.0135172562534,0.0394721673575,-0.999106258963
148820000000,,352,,148,812048453,"""map""",,,0.00064724922413,-0.0540023334324,-0.0413104370236,,0.00680933473675,-0.0135778927268,0.039509593759,-0.999103730152
148852000000,,353,,148,844048453,"""map""",,,0.000647917739116,-0.0540116876364,-0.0413600020111,,0.00672869003484,-0.0135791814984,0.0394931143413,-0.999104952411
148884000000,,354,,148,876048468,"""map""",,,0.000687151157763,-0.0541924312711,-0.0414747521281,,0.00670234232762,-0.0135794179159,0.0395213105829,-0.999103983033
148920000000,,355,,148,916048468,"""map""",,,0.000659394368995,-0.0538073703647,-0.0411898866296,,0.0066442007501,-0.0135485045196,0.0395582733691,-0.999103350831
148952000000,,356,,148,948048468,"""map""",,,0.000600086117629,-0.0533054247499,-0.0408870093524,,0.00667258698185,-0.0135337580617,0.0395602964178,-0.999103266537
148984000000,,357,,148,980048483,"""map""",,,0.000578134204261,-0.0530127622187,-0.0406828708947,,0.00663975129413,-0.0135572437345,0.0396287007529,-0.999100442698
149020000000,,358,,149,12048483,"""map""",,,0.000614785763901,-0.0528928339481,-0.0406648740172,,0.00666793568199,-0.0135052253038,0.0396583299874,-0.999099810495
149052000000,,359,,149,44048483,"""map""",,,0.000685977924149,-0.0529601834714,-0.040866419673,,0.00664380430631,-0.0135430438686,0.0396518815196,-0.999099684055
149084000000,,360,,149,76048497,"""map""",,,0.000783614697866,-0.0531714111567,-0.0411097183824,,0.00661060971184,-0.013523060994,0.0396496055898,-0.999100274111
149120000000,,361,,149,116048497,"""map""",,,0.00080407934729,-0.0528847239912,-0.040976934135,,0.00657606971094,-0.0135928897609,0.03956080218,-0.999103097949
149152000000,,362,,149,148048497,"""map""",,,0.000790174701251,-0.0525009967387,-0.0406397730112,,0.00654515302192,-0.0135932657898,0.0395853737926,-0.999102297159
149184000000,,363,,149,180048510,"""map""",,,0.00080983916996,-0.0523408055305,-0.0402495451272,,0.00656210099411,-0.0135629269736,0.0396454751986,-0.999100189817
149220000000,,364,,149,212048510,"""map""",,,0.000856988132,-0.0523694381118,-0.0398937314749,,0.00649728836072,-0.0135416046195,0.0396346856054,-0.999101369929
149252000000,,365,,149,244048510,"""map""",,,0.000972258043475,-0.0525785274804,-0.0395100824535,,0.00651100485501,-0.0135618835098,0.039638984584,-0.999100864166
149284000000,,366,,149,276048523,"""map""",,,0.00113176135346,-0.052982673049,-0.0390835590661,,0.00645946156418,-0.0135375993518,0.039627014879,-0.999101959985
149320000000,,367,,149,316048523,"""map""",,,0.0011744084768,-0.0526522621512,-0.0383357033134,,0.00649996270997,-0.0135130073243,0.0396712690699,-0.999100274111
149352000000,,368,,149,348048523,"""map""",,,0.00111469579861,-0.0520539432764,-0.0376789495349,,0.00649925971371,-0.0134268114214,0.0396990438431,-0.999100400551
149384000000,,369,,149,380048535,"""map""",,,0.00108652363997,-0.0516764521599,-0.0371801815927,,0.00647258800259,-0.0135153599745,0.0396964307385,-0.99909947332
149420000000,,370,,149,412048535,"""map""",,,0.00109615456313,-0.0514972321689,-0.0367916785181,,0.00648156659841,-0.0134479302853,0.0397151439392,-0.999099557614
149452000000,,371,,149,444048535,"""map""",,,0.00113724870607,-0.0515052117407,-0.0363751202822,,0.00648055869604,-0.0134441097393,0.0397080632687,-0.999099894789
149484000000,,372,,149,476048547,"""map""",,,0.00119481002912,-0.0516663864255,-0.0360316671431,,0.00645668481127,-0.0134842035753,0.0397313704759,-0.999098588237
149520000000,,373,,149,516048547,"""map""",,,0.00114995345939,-0.051343023777,-0.0353122986853,,0.00646923568177,-0.013396342872,0.0397794178832,-0.9990977453
149552000000,,374,,149,548048547,"""map""",,,0.00109342322685,-0.0509322024882,-0.0348803848028,,0.00645643555217,-0.0133971008567,0.0397779427435,-0.999097956034
149584000000,,375,,149,580048559,"""map""",,,0.0010949462885,-0.0507356785238,-0.0344944745302,,0.00663293009012,-0.0134239095451,0.0397509266136,-0.999097492419
149620000000,,376,,149,612048559,"""map""",,,0.00113846501336,-0.0507040470839,-0.034231711179,,0.00659071903352,-0.0134388779325,0.03979644521,-0.999095722251
149652000000,,377,,149,644048559,"""map""",,,0.00124048499856,-0.0508480146527,-0.0340830758214,,0.0066435800719,-0.0134337363462,0.0398216911722,-0.999094415699
149684000000,,378,,149,676048570,"""map""",,,0.00137657555752,-0.051149290055,-0.0340341702104,,0.00668327845193,-0.0134559516866,0.0398857965288,-0.999091338979
149720000000,,379,,149,716048570,"""map""",,,0.00145353213884,-0.0507813133299,-0.0337554737926,,0.00663658303651,-0.0134021729665,0.0399156786444,-0.999091128244
149752000000,,380,,149,748048570,"""map""",,,0.0015011188807,-0.050210274756,-0.0334123186767,,0.00663559357338,-0.0133899599293,0.039916352994,-0.999091296832
149784000000,,381,,149,780048580,"""map""",,,0.00160880957264,-0.0498797744513,-0.0331280305982,,0.00666545856682,-0.0134153099416,0.0399461929627,-0.999089610958
149820000000,,382,,149,812048580,"""map""",,,0.00174221361522,-0.0497328527272,-0.0329208858311,,0.00666354714138,-0.0134217771779,0.0399840408327,-0.999088009378
149852000000,,383,,149,844048580,"""map""",,,0.00192947150208,-0.0497812442482,-0.0327300354838,,0.0066021842934,-0.0134239763873,0.0400396746727,-0.999086154916
149884000000,,384,,149,876048591,"""map""",,,0.00215301173739,-0.0499933063984,-0.0325515493751,,0.00663532258232,-0.0134313846838,0.0400723384803,-0.999084511189
149920000000,,385,,149,916048591,"""map""",,,0.00225646188483,-0.0497911944985,-0.031860422343,,0.00662371441828,-0.0134264396731,0.0400914310027,-0.999083878986
149952000000,,386,,149,948048591,"""map""",,,0.00228062854148,-0.0494620874524,-0.031015176326,,0.00669891493273,-0.0133909098798,0.0401204280345,-0.999082698875
149984000000,,387,,149,980048600,"""map""",,,0.00231801718473,-0.0493309050798,-0.0302580092102,,0.00671832125156,-0.0134227080306,0.040138087564,-0.999081476616
150020000000,,388,,150,12048600,"""map""",,,0.00238327961415,-0.0493817068636,-0.0295657385141,,0.00678641672932,-0.0134739592569,0.0401863035587,-0.999078357749
150052000000,,389,,150,44048600,"""map""",,,0.00247559230775,-0.0495826043189,-0.0290502887219,,0.00675643978332,-0.0135015167104,0.0402233927854,-0.999076671875
150084000000,,390,,150,76048609,"""map""",,,0.00254864362068,-0.0499595627189,-0.0287871640176,,0.00681625900297,-0.0133268130843,0.0402270595612,-0.99907848419
150120000000,,391,,150,116048609,"""map""",,,0.00258799898438,-0.0497419349849,-0.0279948078096,,0.00680315265018,-0.0133774288151,0.0401930892013,-0.999079242833
150152000000,,392,,150,148048609,"""map""",,,0.00257130246609,-0.0493320152164,-0.0272366311401,,0.00680904497716,-0.0133930906499,0.0402088942695,-0.999078357749
150184000000,,393,,150,180048618,"""map""",,,0.0026062396355,-0.0491346418858,-0.0265458226204,,0.00683724154809,-0.0134927070313,0.0401868514677,-0.999077725547
150220000000,,394,,150,212048618,"""map""",,,0.0026874251198,-0.0491201691329,-0.0259472932667,,0.00681892577896,-0.0135024182579,0.0401732801825,-0.999078231309
150252000000,,395,,150,244048618,"""map""",,,0.00280423881486,-0.0492881946266,-0.0253175236285,,0.00678942957045,-0.0135432941155,0.0401860928245,-0.999077388372
150284000000,,396,,150,276048626,"""map""",,,0.00291798496619,-0.0496450997889,-0.0248041599989,,0.00677450168354,-0.0135767468594,0.0402166071428,-0.999075786792
150320000000,,397,,150,316048626,"""map""",,,0.00297569064423,-0.0495534725487,-0.0239084288478,,0.00673208055124,-0.0135736125168,0.0402752334091,-0.99907380589
150352000000,,398,,150,348048626,"""map""",,,0.00299519463442,-0.0493274331093,-0.023052142933,,0.00673005486834,-0.0135732331952,0.0402807967931,-0.999073553009
150384000000,,399,,150,380048634,"""map""",,,0.00305106653832,-0.0493141785264,-0.0222993567586,,0.00677122805879,-0.0136279809636,0.0403432162757,-0.99907005482
150420000000,,400,,150,412048634,"""map""",,,0.0031497052405,-0.0494977124035,-0.0215878989547,,0.00671114212861,-0.0135998970037,0.0403620980639,-0.99907005482
150452000000,,401,,150,444048634,"""map""",,,0.00327608338557,-0.0498009137809,-0.020892970264,,0.00674772921511,-0.0136054264727,0.0403505498274,-0.999070223408
150484000000,,402,,150,476048641,"""map""",,,0.00340427481569,-0.0502117611468,-0.0202388670295,,0.00671295213819,-0.0136823872766,0.040374573531,-0.999068368946
150520000000,,403,,150,516048641,"""map""",,,0.00341504788958,-0.0500606112182,-0.0193954184651,,0.00671588101489,-0.0136313978217,0.0403510134427,-0.999070012673
150552000000,,404,,150,548048641,"""map""",,,0.00336685264483,-0.0497058480978,-0.0188588164747,,0.00668732850066,-0.0136003178137,0.0403183496351,-0.999071993575
150584000000,,405,,150,580048648,"""map""",,,0.00338037475012,-0.0495300926268,-0.0183894652873,,0.00673251453207,-0.0136323066132,0.0403480631633,-0.999070012673
150620000000,,406,,150,612048648,"""map""",,,0.00343318702653,-0.0495564714074,-0.018028864637,,0.00676465216261,-0.013618136711,0.0403354191087,-0.999070518436
150652000000,,407,,150,644048648,"""map""",,,0.0035411324352,-0.0497492477298,-0.0177449062467,,0.0067521855858,-0.0136382002572,0.0403204991244,-0.999070939904
150684000000,,408,,150,676048655,"""map""",,,0.00370427919552,-0.0501102991402,-0.0174664128572,,0.00682691096039,-0.0136162993718,0.0403322159483,-0.999070265554
150720000000,,409,,150,716048655,"""map""",,,0.00398595444858,-0.0499289669096,-0.0169347766787,,0.00680898241543,-0.0136028996374,0.0403256831867,-0.999070813463
150752000000,,410,,150,748048655,"""map""",,,0.00424078665674,-0.0495784245431,-0.0163968093693,,0.00679323760406,-0.013619683632,0.0403902521587,-0.999068031771
150784000000,,411,,150,780048660,"""map""",,,0.00454898690805,-0.0494162403047,-0.0158338919282,,0.00685212201979,-0.0136004291077,0.0403980914725,-0.999067610303
150820000000,,412,,150,812048660,"""map""",,,0.00487492932007,-0.0494353175163,-0.0152603378519,,0.00680144932481,-0.0135517221681,0.0403432584226,-0.99907085561
150852000000,,413,,150,844048660,"""map""",,,0.0052169393748,-0.0495840646327,-0.014590925537,,0.00680342726324,-0.0135585437014,0.0403455343524,-0.999070687023
150884000000,,414,,150,876048666,"""map""",,,0.00559976696968,-0.0498350299895,-0.014035621658,,0.00680365380255,-0.0135604732368,0.0403390437377,-0.99907085561
150920000000,,415,,150,916048666,"""map""",,,0.00613998994231,-0.0496017709374,-0.0130497124046,,0.00679352571729,-0.0133763557169,0.040349538303,-0.9990730051
150952000000,,416,,150,948048666,"""map""",,,0.00663648126647,-0.0492462106049,-0.0119855422527,,0.00674946941898,-0.0134213827098,0.040353710841,-0.999072541484
150984000000,,417,,150,980048671,"""map""",,,0.00714073004201,-0.0490903034806,-0.0109219523147,,0.00675013323184,-0.0134225799437,0.040382918607,-0.999071319226
151020000000,,418,,151,12048671,"""map""",,,0.00765434419736,-0.049119502306,-0.00976192206144,,0.00681866960515,-0.0134901792082,0.0403667342172,-0.999070560582
151052000000,,419,,151,44048671,"""map""",,,0.00818624626845,-0.0493335425854,-0.00864877179265,,0.00681406045213,-0.0135232809479,0.0403477681354,-0.999070982051
151084000000,,420,,151,76048676,"""map""",,,0.00873915012926,-0.0496983714402,-0.00766268279403,,0.00679743319112,-0.0135704159418,0.0403889456064,-0.999068748268
151120000000,,421,,151,116048676,"""map""",,,0.00922006182373,-0.0495500415564,-0.00667655980214,,0.00684117272953,-0.0136310860009,0.0403688415596,-0.99906845324
151152000000,,422,,151,148048676,"""map""",,,0.00953106209636,-0.0492338500917,-0.0060103200376,,0.00684215297303,-0.0136665509276,0.0403779452789,-0.999067610303
151184000000,,423,,151,180048680,"""map""",,,0.00988010596484,-0.0490765087306,-0.00544327264652,,0.00675864360252,-0.0136720767745,0.0403865853828,-0.999067736744
151220000000,,424,,151,212048680,"""map""",,,0.0102665359154,-0.0490731447935,-0.00494366930798,,0.00682979538534,-0.0136769974191,0.0403802633556,-0.999067483862
151252000000,,425,,151,252048680,"""map""",,,0.0108179813251,-0.0492191575468,-0.00447855191305,,0.00677827283867,-0.0136757428918,0.0403933288786,-0.999067315275
151284000000,,426,,151,276048683,"""map""",,,0.0111805154011,-0.0493927150965,-0.0042649502866,,0.0068017769507,-0.013746966456,0.0404418820481,-0.999064196408
151320000000,,427,,151,316048683,"""map""",,,0.0116240317002,-0.0491128787398,-0.00392304500565,,0.00676905354483,-0.0138034198547,0.0404290694061,-0.999064196408
151352000000,,428,,151,348048683,"""map""",,,0.0119054112583,-0.0486891083419,-0.00368294259533,,0.00679383852593,-0.0138294099722,0.0404358971956,-0.999063353471
151384000000,,429,,151,380048687,"""map""",,,0.0122521007434,-0.0484432913363,-0.00343784247525,,0.00679314902983,-0.0138352282129,0.0405062824326,-0.999060403192
151420000000,,430,,151,412048687,"""map""",,,0.0126299895346,-0.0483542308211,-0.0030753959436,,0.00679323464061,-0.0138627830322,0.0404823851695,-0.999061035395
151452000000,,431,,151,444048687,"""map""",,,0.0130118783563,-0.0483986921608,-0.0028262953274,,0.00681573117955,-0.0138731676206,0.0404969679791,-0.999060108164
151484000000,,432,,151,476048689,"""map""",,,0.0134443612769,-0.0485989637673,-0.00258803274482,,0.00681408514755,-0.0136919081839,0.040519811571,-0.999061709744
151520000000,,433,,151,516048689,"""map""",,,0.0140380933881,-0.0489957667887,-0.00224942131899,,0.00685237852288,-0.0136980507578,0.0405524753786,-0.999060066017
151552000000,,434,,151,548048689,"""map""",,,0.0145206172019,-0.049395263195,-0.00180516252294,,0.00687515461396,-0.013715199586,0.0405536133435,-0.999059602402
151584000000,,435,,151,580048692,"""map""",,,0.0150359971449,-0.0498848035932,-0.00147273787297,,0.00688986188845,-0.0137601472243,0.0405199380115,-0.999060234604
151620000000,,436,,151,612048692,"""map""",,,0.0152699239552,-0.0500474534929,-0.00106470752507,,0.00690193827764,-0.0137896552866,0.0405079683065,-0.999060234604
151652000000,,437,,151,644048692,"""map""",,,0.0152742788196,-0.0499278381467,-0.0007032409776,,0.00690151516279,-0.0138315614371,0.0405024892162,-0.99905989743
151684000000,,438,,151,676048694,"""map""",,,0.0153306396678,-0.0499486252666,-0.00023011630401,,0.00688955237254,-0.0138467708518,0.0405479235189,-0.999057958675
151720000000,,439,,151,716048694,"""map""",,,0.0155169721693,-0.0501327179372,0.000365320593119,,0.00689778944724,-0.0138709341669,0.0405752768236,-0.999056399241
151752000000,,440,,151,748048694,"""map""",,,0.0157875791192,-0.0503699928522,0.000761764240451,,0.00688627183307,-0.0139054955705,0.0405464905261,-0.999057200031
151784000000,,441,,151,780048695,"""map""",,,0.0161341316998,-0.0506801605225,0.00106427667197,,0.00682885136178,-0.0139306829223,0.0405292946119,-0.999057958675
151820000000,,442,,151,812048695,"""map""",,,0.0163158401847,-0.0503948517144,0.00130686094053,,0.00679573118284,-0.0139438202267,0.0405636864403,-0.999056609976
151852000000,,443,,151,844048695,"""map""",,,0.0163312647492,-0.0495621822774,0.0015960263554,,0.00682469890939,-0.0139221333682,0.040526765801,-0.999058211556
151884000000,,444,,151,876048696,"""map""",,,0.016419088468,-0.0489078499377,0.00182783405762,,0.00680252209381,-0.0139398926672,0.0405185050187,-0.999058380143
151920000000,,445,,151,916048696,"""map""",,,0.0166278909892,-0.0483316145837,0.00197631772608,,0.00684369923553,-0.0139880352342,0.0405199380115,-0.999057368619
151952000000,,446,,151,948048696,"""map""",,,0.0168946441263,-0.0480319447815,0.00201967451721,,0.00685245162132,-0.013948086278,0.0405202751863,-0.999057874381
151984000000,,447,,151,980048697,"""map""",,,0.0172313097864,-0.0478626154363,0.00195191416424,,0.0069660617442,-0.0139727560138,0.0404846189525,-0.999058211556
152020000000,,448,,152,12048697,"""map""",,,0.0174143500626,-0.0472898967564,0.00175904110074,,0.00701309861496,-0.0139474458435,0.0404548632774,-0.999059391668
152052000000,,449,,152,44048697,"""map""",,,0.0174814984202,-0.0463681071997,0.00144380494021,,0.00705236466052,-0.0139051847375,0.0404970522728,-0.999058000822
152084000000,,450,,152,76048697,"""map""",,,0.0176521856338,-0.0456581786275,0.00116590969265,,0.00708034391175,-0.0139234814088,0.0404983166782,-0.999057579353
152120000000,,451,,152,116048697,"""map""",,,0.0180297289044,-0.0450372174382,0.000738560745958,,0.00713704261826,-0.0139254840427,0.0405534869029,-0.999054839808
152152000000,,452,,152,148048697,"""map""",,,0.0184310283512,-0.0447145402431,0.00039224041393,,0.00713327014604,-0.0139257346189,0.040576836257,-0.999053912577
152184000000,,453,,152,180048696,"""map""",,,0.0188853498548,-0.0445198118687,1.65104211192e-05,,0.00712669951822,-0.0139561498262,0.0406206268326,-0.999051763088
152220000000,,454,,152,212048696,"""map""",,,0.0193315297365,-0.0440289713442,-0.000297074962873,,0.00713684110364,-0.0137782901255,0.040662815828,-0.999052479584
152252000000,,455,,152,244048696,"""map""",,,0.0196920409799,-0.0432610958815,-0.000698621384799,,0.00716488555078,-0.0138076799791,0.040675038414,-0.999051383766
152284000000,,456,,152,276048696,"""map""",,,0.0201241169125,-0.0426658391953,-0.0010724858148,,0.00718679697293,-0.013838872269,0.0407719761656,-0.999046831907
152320000000,,457,,152,316048696,"""map""",,,0.020737554878,-0.0421155653894,-0.00157120928634,,0.00717649799536,-0.013803590747,0.0407702481448,-0.999047464109
152352000000,,458,,152,348048696,"""map""",,,0.0213045943528,-0.0418043769896,-0.00193791429047,,0.00719142917499,-0.0137801353672,0.0407631253274,-0.999047927725
152384000000,,459,,152,380048694,"""map""",,,0.0219074897468,-0.0416109152138,-0.0022925301455,,0.00722135870579,-0.0137958890689,0.0407737041864,-0.999047042641
152420000000,,460,,152,412048694,"""map""",,,0.0224099382758,-0.041100051254,-0.00255498080514,,0.0072435256432,-0.0138417589988,0.0408143337484,-0.999044682417
152452000000,,461,,152,444048694,"""map""",,,0.0228530149907,-0.0403341427445,-0.00266414741054,,0.00724960631392,-0.0138835097328,0.0408386946268,-0.999042996543
152484000000,,462,,152,476048693,"""map""",,,0.0233601555228,-0.0396736972034,-0.00288885599002,,0.00726715026888,-0.0139762074456,0.0409014934311,-0.99903903474
152520000000,,463,,152,516048693,"""map""",,,0.0240535661578,-0.0390164554119,-0.00331950956024,,0.00727906169267,-0.0139603302668,0.0409417858183,-0.999037517453
152552000000,,464,,152,548048693,"""map""",,,0.0246352870017,-0.0386212095618,-0.00362035934813,,0.00730337449736,-0.0139500760702,0.0409411114687,-0.999037517453
152584000000,,465,,152,580048691,"""map""",,,0.0252679120749,-0.038314152509,-0.00387190328911,,0.00724909297847,-0.013927652959,0.040917382793,-0.99903916118
152620000000,,466,,152,612048691,"""map""",,,0.0255909115076,-0.0377069972456,-0.0040944586508,,0.00726951345585,-0.0139534636232,0.0409482764329,-0.999037433159
152652000000,,467,,152,644048691,"""map""",,,0.0256464295089,-0.036852773279,-0.00425291480497,,0.00728497706871,-0.0139101844074,0.040947433496,-0.999037938922
152684000000,,468,,152,676048688,"""map""",,,0.0258090216666,-0.0361023135483,-0.00442006904632,,0.00731112062714,-0.0138820810205,0.0409437245733,-0.999038276096
152720000000,,469,,152,716048688,"""map""",,,0.0261063594371,-0.0353184789419,-0.00459206523374,,0.00732590100007,-0.0138471966008,0.0409676218364,-0.999037728187
152752000000,,470,,152,748048688,"""map""",,,0.0264045223594,-0.0347910560668,-0.00465387525037,,0.00732688486557,-0.0138891814474,0.040966610312,-0.999037138131
152784000000,,471,,152,780048685,"""map""",,,0.0267522428185,-0.0343532375991,-0.00472329836339,,0.00736467412507,-0.0138676595543,0.0409695605914,-0.999037053838
152816000000,,472,,152,812048685,"""map""",,,0.0268675498664,-0.0337079949677,-0.00468795048073,,0.00738296947932,-0.0138585206029,0.0409647137039,-0.999037264572
152852000000,,473,,152,844048685,"""map""",,,0.0267458502203,-0.0328681096435,-0.00462284637615,,0.00735672351723,-0.0138169601883,0.0409897489319,-0.999036927397
152884000000,,474,,152,876048682,"""map""",,,0.0267341099679,-0.0321554467082,-0.00465685687959,,0.00738358060862,-0.0138294142528,0.0410035309513,-0.999036042313
152920000000,,475,,152,916048682,"""map""",,,0.0268249474466,-0.0313892662525,-0.00504269404337,,0.00737200109127,-0.0136146046075,0.0410420531709,-0.999037475306
152952000000,,476,,152,948048682,"""map""",,,0.0270072296262,-0.0308826882392,-0.00526589853689,,0.00738369618318,-0.0136105999984,0.0410397350942,-0.999037517453
152984000000,,477,,152,980048678,"""map""",,,0.0272863022983,-0.0304674040526,-0.00557559123263,,0.00746261483993,-0.0136120224545,0.0410602184626,-0.99903608446
153020000000,,478,,153,12048678,"""map""",,,0.0274314545095,-0.0298534668982,-0.00564405322075,,0.00747113640586,-0.0136607968949,0.0410683106575,-0.999035072936
153052000000,,479,,153,44048678,"""map""",,,0.0274587590247,-0.029054004699,-0.00538759957999,,0.00745009064048,-0.0136982970534,0.0410642224132,-0.999034862202
153084000000,,480,,153,76048674,"""map""",,,0.0275522153825,-0.0283125173301,-0.00502902781591,,0.00746881964629,-0.0137029147675,0.0410787209291,-0.999034019265
153120000000,,481,,153,116048674,"""map""",,,0.0277922637761,-0.0274871047586,-0.00466408208013,,0.00748050123804,-0.0137286595772,0.0410446662755,-0.999035030789
153152000000,,482,,153,148048674,"""map""",,,0.0280709639192,-0.0269146896899,-0.00453069293872,,0.00748479593605,-0.0137374778174,0.0410769086146,-0.999033555649
153184000000,,483,,153,180048669,"""map""",,,0.0283869095147,-0.026403201744,-0.0045372992754,,0.00748597209654,-0.0137287376147,0.0410949053189,-0.999032923447
153220000000,,484,,153,212048669,"""map""",,,0.0285895969719,-0.025745972991,-0.00419735861942,,0.00745924375059,-0.0137796345441,0.0410919128927,-0.999032544125
153252000000,,485,,153,244048669,"""map""",,,0.0286983735859,-0.024962157011,-0.00370426382869,,0.00740444165227,-0.013747384961,0.0411024917516,-0.999032923447
153284000000,,486,,153,276048664,"""map""",,,0.0289092212915,-0.0242260806262,-0.00330852321349,,0.00745483841711,-0.0137971225228,0.0411487689913,-0.999029973167
153320000000,,487,,153,316048664,"""map""",,,0.0292902998626,-0.0233636591583,-0.00293984380551,,0.00743246074546,-0.0137293164754,0.0412248861997,-0.999027950119
153352000000,,488,,153,348048664,"""map""",,,0.0296788215637,-0.0227528400719,-0.00287305261008,,0.00739647820281,-0.0137606444254,0.0412012839646,-0.999028708762
153384000000,,489,,153,380048659,"""map""",,,0.0301225800067,-0.0222038049251,-0.00291819102131,,0.00740064909445,-0.0137708311211,0.0412336948911,-0.999027233622
153420000000,,490,,153,412048659,"""map""",,,0.0302574839443,-0.0213611219078,-0.00283855432644,,0.00737742420529,-0.0137680342826,0.0411971535734,-0.999028961643
153452000000,,491,,153,444048659,"""map""",,,0.0301234368235,-0.0202826857567,-0.00263096555136,,0.00734452859003,-0.0137311755465,0.0411654169965,-0.999031026838
153484000000,,492,,153,476048653,"""map""",,,0.0301308389753,-0.0192725677043,-0.00248062331229,,0.00739103335682,-0.0137109335347,0.0411641947379,-0.999030984692
153520000000,,493,,153,516048653,"""map""",,,0.030291121453,-0.0181238409132,-0.00233132997528,,0.00733584535142,-0.0136474491856,0.041179746925,-0.999031701188
153552000000,,494,,153,548048653,"""map""",,,0.0305026508868,-0.0172923654318,-0.00222252984531,,0.00737523717898,-0.0136185492891,0.041196984986,-0.999031068985
153584000000,,495,,153,580048646,"""map""",,,0.0307994224131,-0.0164912864566,-0.00218286854215,,0.00738814168788,-0.0136659661401,0.0412095868937,-0.999029762433
153620000000,,496,,153,612048646,"""map""",,,0.0309497434646,-0.0155596286058,-0.0020373868756,,0.0074171726347,-0.0136163899217,0.0412167940048,-0.999029973167
153652000000,,497,,153,644048646,"""map""",,,0.0309809688479,-0.0145138744265,-0.00186179310549,,0.00746408471127,-0.0136254225181,0.0412381203102,-0.999028624468
153684000000,,498,,153,676048640,"""map""",,,0.0311044696718,-0.0135299796239,-0.00180315691978,,0.00745902906509,-0.0135974389864,0.0413401999772,-0.999024746958
153720000000,,499,,153,716048640,"""map""",,,0.03136651963,-0.0123570095748,-0.00171028776094,,0.00742497408222,-0.0135889230181,0.0413438246062,-0.999024999839
153752000000,,500,,153,748048640,"""map""",,,0.0316503159702,-0.0114662060514,-0.00157038646284,,0.00736260860022,-0.0135872134365,0.0413401578304,-0.999025632042
153784000000,,501,,153,780048633,"""map""",,,0.0319752879441,-0.0106198843569,-0.00134891038761,,0.00744597770075,-0.0135386181202,0.041373664575,-0.99902432549
153820000000,,502,,153,812048633,"""map""",,,0.0321490056813,-0.00979653187096,-0.000851411488838,,0.00742929808546,-0.0134908789117,0.041400638558,-0.999023988315
153852000000,,503,,153,844048633,"""map""",,,0.0322087295353,-0.00899588968605,-0.000182704883628,,0.00741818086634,-0.0134922812822,0.0414290033871,-0.99902285035
153884000000,,504,,153,876048625,"""map""",,,0.0323701351881,-0.00824466906488,0.000341825769283,,0.00745422234872,-0.0135090445327,0.0414222177444,-0.999022639616
153920000000,,505,,153,916048625,"""map""",,,0.0326980166137,-0.0073094018735,0.00090218137484,,0.00742920226723,-0.0134676622544,0.0414049375366,-0.999024072608
153952000000,,506,,153,948048625,"""map""",,,0.0330822058022,-0.00658112578094,0.0012756093638,,0.00733556448218,-0.0134388199805,0.041420953339,-0.999024494077
153984000000,,507,,153,980048617,"""map""",,,0.0335340388119,-0.00584449805319,0.00149753934238,,0.0074112971006,-0.0134571024932,0.0414139569621,-0.999023988315
154020000000,,508,,154,12048617,"""map""",,,0.0335909947753,-0.00510464794934,0.00174873904325,,0.00734819865857,-0.0133954857763,0.0414410573857,-0.999024114755
154052000000,,509,,154,44048617,"""map""",,,0.033301949501,-0.00436013191938,0.00194462272339,,0.00739759246012,-0.0134161927205,0.0414510883357,-0.999023103231
154084000000,,510,,154,76048609,"""map""",,,0.0331444106996,-0.00363677693531,0.00202276115306,,0.00733501229261,-0.0133791614457,0.0414496553428,-0.999024114755
154120000000,,511,,154,116048609,"""map""",,,0.0331367850304,-0.00274956435896,0.00200873194262,,0.00736406233722,-0.0133821140301,0.0414016922292,-0.999025884923
154152000000,,512,,154,148048609,"""map""",,,0.0332491658628,-0.00203447695822,0.00188604183495,,0.00733256579977,-0.0133534485754,0.041402872341,-0.999026390685
154184000000,,513,,154,180048600,"""map""",,,0.03345445171,-0.00133980740793,0.00172525690868,,0.00757610082718,-0.0134113478086,0.0414108380953,-0.999023482553
154220000000,,514,,154,212048600,"""map""",,,0.0333370268345,-0.000675493327435,0.00172256829683,,0.00753949003307,-0.0134468140523,0.041424577968,-0.999022723909
154252000000,,515,,154,244048600,"""map""",,,0.0329521149397,-1.28220708575e-05,0.00172338273842,,0.00746932079866,-0.0133968015482,0.0414414367074,-0.999023229671
154284000000,,516,,154,276048591,"""map""",,,0.0327065065503,0.000668850727379,0.00170897168573,,0.00747697012239,-0.0134213682218,0.0414439655183,-0.999022723909
154320000000,,517,,154,316048591,"""map""",,,0.0325782261789,0.00154622260015,0.00150732509792,,0.00744856874412,-0.0134478940653,0.0414916336039,-0.999020658714
154352000000,,518,,154,348048591,"""map""",,,0.0325575359166,0.00227039819583,0.00122896453831,,0.00747317097912,-0.0134750692337,0.0414861545136,-0.999020321539
154384000000,,519,,154,380048581,"""map""",,,0.0326042883098,0.00299517856911,0.000943942693993,,0.00741353450557,-0.0134394077315,0.0415245502926,-0.999019605043
154420000000,,520,,154,412048581,"""map""",,,0.0322986729443,0.00364384287968,0.000779576716013,,0.00742300108287,-0.013432971776,0.0415697738611,-0.999017792728
154452000000,,521,,154,444048581,"""map""",,,0.0317137129605,0.00422796746716,0.00073640618939,,0.00736946273146,-0.0133647070523,0.0415666971411,-0.999019183574
154484000000,,522,,154,476048571,"""map""",,,0.0312986858189,0.00484843505546,0.000658866483718,,0.00734780254405,-0.0133615822587,0.0415393016896,-0.999020532273
154520000000,,523,,154,516048571,"""map""",,,0.0309709701687,0.0056148217991,0.000298490835121,,0.0073584350744,-0.0133903846905,0.0416039971021,-0.99901737126
154552000000,,524,,154,548048571,"""map""",,,0.0308497585356,0.0062286616303,4.46252088295e-05,,0.00743533397514,-0.0133534647098,0.0415977172216,-0.999017581994
154584000000,,525,,154,580048560,"""map""",,,0.0308234579861,0.00685846665874,-0.000190271690371,,0.00739678475528,-0.0132931479597,0.0415876441249,-0.999019057133
154620000000,,526,,154,612048560,"""map""",,,0.030546752736,0.00737462565303,-0.000498450710438,,0.00735435473263,-0.0132508812561,0.0415529994154,-0.999021417357
154652000000,,527,,154,644048560,"""map""",,,0.0300268493593,0.00777022680268,-0.000884430774022,,0.00730804687065,-0.0132545141169,0.0415806056012,-0.999020532273
154684000000,,528,,154,676048550,"""map""",,,0.0296398159117,0.00821780320257,-0.00135257374495,,0.00736219174155,-0.0132904212562,0.0416089282833,-0.999018424931
154720000000,,529,,154,716048550,"""map""",,,0.0293060839176,0.00880376808345,-0.00197366857901,,0.00731693425805,-0.0132611459894,0.0415921116908,-0.99901990007
154752000000,,530,,154,748048550,"""map""",,,0.0291855968535,0.00931112747639,-0.00255140452646,,0.00732524640683,-0.0133022852648,0.0416100662483,-0.999018551371
154784000000,,531,,154,780048538,"""map""",,,0.0291596576571,0.00982944481075,-0.00325785996392,,0.00749034186862,-0.0133053886558,0.0415527886811,-0.999019689336
154820000000,,532,,154,812048538,"""map""",,,0.0288340672851,0.0100301448256,-0.0037552609574,,0.00755736095538,-0.0133139994545,0.0416117099754,-0.999016570469
154852000000,,533,,154,844048538,"""map""",,,0.0282402820885,0.0100116068497,-0.00413992349058,,0.0075562048805,-0.0133761433363,0.0416010046758,-0.999016233295
154884000000,,534,,154,876048527,"""map""",,,0.0277900341898,0.0101072294638,-0.00459885038435,,0.00756857498054,-0.0133476033344,0.04163518577,-0.99901509533
154920000000,,535,,154,916048527,"""map""",,,0.0273613780737,0.0103189777583,-0.00519854063168,,0.00751300600714,-0.0133186059733,0.0416165990098,-0.999016654763
154952000000,,536,,154,948048527,"""map""",,,0.0271272305399,0.010568308644,-0.00569188315421,,0.00752012388545,-0.013342056414,0.0416097712203,-0.999016570469
154984000000,,537,,154,980048515,"""map""",,,0.0270073283464,0.0108948210254,-0.00622322037816,,0.00747933693135,-0.0133348697178,0.0415718812035,-0.999018551371
155020000000,,538,,155,12048515,"""map""",,,0.0266918987036,0.0111275548115,-0.00638024881482,,0.00747480120605,-0.013412955645,0.0415875598312,-0.999016865497
155052000000,,539,,155,44060502,"""map""",,,0.0261755604297,0.0112698953599,-0.0062151690945,,0.00743751145256,-0.0134065970685,0.0415816171255,-0.9990174977
155084000000,,540,,155,76060502,"""map""",,,0.0257740784436,0.0114436699077,-0.00610004318878,,0.00741246799274,-0.0133664525246,0.0415252667891,-0.99902057442
155120000000,,541,,155,116060502,"""map""",,,0.0254322458059,0.0117450458929,-0.00595616688952,,0.00735194676464,-0.0134170270964,0.0415436849619,-0.999019605043
155152000000,,542,,155,148060502,"""map""",,,0.0252767112106,0.0120637314394,-0.00585151091218,,0.00736063560088,-0.0134339569586,0.0415362249697,-0.999019562896
155184000000,,543,,155,180060489,"""map""",,,0.0252296924591,0.0124156726524,-0.00583664979786,,0.00732975809526,-0.0133864228868,0.0415308301731,-0.999020658714
155220000000,,544,,155,212060489,"""map""",,,0.0249985065311,0.0125633468851,-0.0058558867313,,0.00738515617636,-0.0134137090199,0.0416116678285,-0.999016528323
155252000000,,545,,155,244060489,"""map""",,,0.0246030557901,0.0125500522554,-0.00589588703588,,0.00742609360788,-0.0134201591341,0.0416206029604,-0.999015769679
155284000000,,546,,155,276060476,"""map""",,,0.0243211984634,0.0126298554242,-0.00597367016599,,0.00745502643157,-0.0134524854376,0.0416881643586,-0.999012271491
155320000000,,547,,155,316060476,"""map""",,,0.0241200402379,0.0128506449983,-0.00606359820813,,0.00735844989165,-0.0134227320675,0.0417184257958,-0.999012187197
155352000000,,548,,155,348060476,"""map""",,,0.0240707229823,0.0131353121251,-0.00619235588238,,0.00737299779838,-0.0134161815253,0.0417590975046,-0.999010459176
155384000000,,549,,155,380060462,"""map""",,,0.0241146665066,0.0134588172659,-0.00642849970609,,0.00734984567838,-0.0133101324811,0.041737012556,-0.999012987987
155420000000,,550,,155,412060462,"""map""",,,0.0238873288035,0.013711120002,-0.00668448535725,,0.00758078999334,-0.013338827241,0.04171863653,-0.999011639288
155452000000,,551,,155,444060462,"""map""",,,0.023421453312,0.0138793056831,-0.0066738538444,,0.00759210411726,-0.0133277080463,0.0417171613903,-0.999011765729
155484000000,,552,,155,476060447,"""map""",,,0.0230482872576,0.014110898599,-0.0066625289619,,0.00754282095119,-0.0133635608556,0.0417387405768,-0.999010754204
155520000000,,553,,155,516060447,"""map""",,,0.0227358154953,0.0145057700574,-0.00674725649878,,0.00756583115485,-0.0133930722107,0.0417371389965,-0.999010248442
155552000000,,554,,155,548060447,"""map""",,,0.0225980039686,0.0149174528196,-0.00688476907089,,0.00754572414466,-0.0133906754379,0.0417280352772,-0.999010838498
155584000000,,555,,155,580060432,"""map""",,,0.0225589368492,0.0154008222744,-0.00707841524854,,0.00747052428874,-0.0134290573875,0.0417841748795,-0.999008478275
155620000000,,556,,155,612060432,"""map""",,,0.0223245769739,0.0157388076186,-0.00689165480435,,0.00744546930439,-0.0134179912056,0.0418214326935,-0.999007298163
155652000000,,557,,155,644060432,"""map""",,,0.0219611823559,0.0159680116922,-0.00645213760436,,0.00746035273955,-0.0134284077333,0.0418335709859,-0.999006539519
155684000000,,558,,155,676060417,"""map""",,,0.0217393245548,0.0162611454725,-0.00600423058495,,0.00739513839401,-0.0133900172227,0.0418921972522,-0.99900506438
155720000000,,559,,155,716060417,"""map""",,,0.0216204114258,0.0167449787259,-0.00550764286891,,0.00744506232389,-0.0133833702037,0.0418649703881,-0.999005907317
155752000000,,560,,155,748060417,"""map""",,,0.0216534268111,0.0172196384519,-0.00528300786391,,0.00737334946115,-0.0133258713656,0.0418575946896,-0.999007551044
155784000000,,561,,155,780060401,"""map""",,,0.0217706337571,0.0177527200431,-0.00516649428755,,0.00740255591008,-0.0133249401837,0.0418715031496,-0.999006792401
155820000000,,562,,155,812060401,"""map""",,,0.0216482207179,0.0180873777717,-0.00485545769334,,0.00734789408173,-0.0133390962564,0.0418680049611,-0.999007087429
155852000000,,563,,155,844060401,"""map""",,,0.0213297009468,0.0182762220502,-0.00434301327914,,0.00739680714579,-0.0133175575705,0.0418850744348,-0.999006286638
155884000000,,564,,155,876060384,"""map""",,,0.0211071036756,0.0185617916286,-0.00400366913527,,0.00731043541158,-0.0133183316895,0.0418802696941,-0.999007129575
155920000000,,565,,155,916060384,"""map""",,,0.0209311302751,0.0190161745995,-0.00370569550432,,0.00733221578336,-0.0133310287569,0.0418729782893,-0.999007171722
155952000000,,566,,155,948060384,"""map""",,,0.0208666268736,0.019457032904,-0.00356134795584,,0.0073174890818,-0.0133285239829,0.0418685107233,-0.999007424603
155984000000,,567,,155,980060367,"""map""",,,0.0209077857435,0.0199713166803,-0.00346373091452,,0.00729856843954,-0.013277250366,0.04184996611,-0.999009026184
156020000000,,568,,156,12060367,"""map""",,,0.0207983106375,0.0202306713909,-0.00336267263629,,0.00722829449655,-0.013188836156,0.041834666804,-0.999011428554
156052000000,,569,,156,44060367,"""map""",,,0.0205635484308,0.020261792466,-0.00340195209719,,0.00714583287035,-0.013148560891,0.0418294405948,-0.999012692959
156084000000,,570,,156,76060350,"""map""",,,0.0204431544989,0.0204098019749,-0.00348602305166,,0.00737303401833,-0.0131678740258,0.0418102216318,-0.999011597141
156120000000,,571,,156,116060350,"""map""",,,0.0204095765948,0.0206968449056,-0.00361300585791,,0.0072874551717,-0.0131729879532,0.0418178502114,-0.999011892169
156152000000,,572,,156,148060350,"""map""",,,0.0204270258546,0.0210030674934,-0.00376772321761,,0.00727333005055,-0.0132006343102,0.0417851021101,-0.99901294584
156184000000,,573,,156,180060332,"""map""",,,0.0204593800008,0.0213744360954,-0.00400241557509,,0.0072748377882,-0.0132641354522,0.0417906233473,-0.999011892169
156220000000,,574,,156,212060332,"""map""",,,0.0202612169087,0.0215443857014,-0.00392766529694,,0.00721705248326,-0.0132291832024,0.0417928149834,-0.999012650813
156252000000,,575,,156,244060332,"""map""",,,0.0198656469584,0.021530110389,-0.00354265142232,,0.00722945287634,-0.0132378456969,0.0417586338893,-0.999013873071
156284000000,,576,,156,276060313,"""map""",,,0.0195471029729,0.0216404050589,-0.00320643442683,,0.0072108025666,-0.0132241245928,0.0417252114384,-0.999015601092
156320000000,,577,,156,316060313,"""map""",,,0.0192774850875,0.0218941941857,-0.00295572681352,,0.00720190497176,-0.0132652856002,0.0417181307678,-0.999015432505
156352000000,,578,,156,348060313,"""map""",,,0.0191749017686,0.0221799407154,-0.00283636036329,,0.00722167842915,-0.0132564953481,0.0417113872721,-0.999015685386
156384000000,,579,,156,380060294,"""map""",,,0.0191230457276,0.0225914269686,-0.00279883597977,,0.00723308606639,-0.0132971891181,0.0417646187417,-0.999012861547
156420000000,,580,,156,412060294,"""map""",,,0.019026523456,0.022875694558,-0.0026221734006,,0.00714987863854,-0.0132874166469,0.041778190027,-0.99901294584
156452000000,,581,,156,444060294,"""map""",,,0.0188882034272,0.0230436399579,-0.00237560155801,,0.00713411341229,-0.0133164291545,0.0417624271056,-0.999013367309
156484000000,,582,,156,476060275,"""map""",,,0.018825430423,0.0233290158212,-0.00215235166252,,0.00708967252398,-0.013344420918,0.0417621320777,-0.999013325162
156520000000,,583,,156,516060275,"""map""",,,0.0188671760261,0.0238256938756,-0.00192686845548,,0.00705322867091,-0.0133455904931,0.0417624271056,-0.99901362019
156552000000,,584,,156,548060275,"""map""",,,0.018993018195,0.0243295580149,-0.00183374714106,,0.00703070546092,-0.0133694492313,0.0417360010316,-0.999014505274
156584000000,,585,,156,580060255,"""map""",,,0.019179712981,0.0248862579465,-0.00174589222297,,0.00698144567318,-0.0133834518632,0.0417546720855,-0.999013873071
156620000000,,586,,156,620060255,"""map""",,,0.0190554112196,0.02523284778,-0.00174729735591,,0.00695954281212,-0.0134230603519,0.0417383612551,-0.999014168099
156652000000,,587,,156,644060255,"""map""",,,0.0188401639462,0.0253355000168,-0.00175454153214,,0.00697605318148,-0.0134118881443,0.0417840905858,-0.999012355785
156684000000,,588,,156,676060235,"""map""",,,0.0186344049871,0.0255680400878,-0.00181789509952,,0.00717900672067,-0.0133981726379,0.0417531969458,-0.999012313638
156720000000,,589,,156,716060235,"""map""",,,0.0184966716915,0.0259666945785,-0.00183942448348,,0.00715865473192,-0.0134063613096,0.0417858607534,-0.999011007085
156752000000,,590,,156,748060235,"""map""",,,0.0184994321316,0.026379911229,-0.00192450627219,,0.00714182299284,-0.013448337595,0.0417746496917,-0.999011091379
156784000000,,591,,156,780060214,"""map""",,,0.0185898561031,0.0268488321453,-0.00204354175366,,0.0070607966644,-0.0134814060782,0.0417850599633,-0.999010712057
156820000000,,592,,156,812060214,"""map""",,,0.0187124554068,0.0274038910866,-0.00226209498942,,0.00700428498453,-0.0134703537258,0.0418085779047,-0.999010374883
156852000000,,593,,156,844060214,"""map""",,,0.0189010407776,0.0280462149531,-0.00252239010297,,0.00701769262144,-0.0135085219776,0.0418216855746,-0.999009152624
156884000000,,594,,156,876060192,"""map""",,,0.0191665720195,0.0287530273199,-0.00280234590173,,0.00698221485316,-0.0135298239168,0.041779580873,-0.999010880645
156920000000,,595,,156,916060192,"""map""",,,0.0191532690078,0.0292134676129,-0.00331901549362,,0.00699948221944,-0.0135338420261,0.0418400616006,-0.9990081411
156952000000,,596,,156,948060192,"""map""",,,0.0190297886729,0.0294513776898,-0.00369708240032,,0.0069632705033,-0.0134966668594,0.0418856223438,-0.999007003135
156984000000,,597,,156,980060171,"""map""",,,0.018998298794,0.0298088919371,-0.00402411958203,,0.00699254609941,-0.0135183428519,0.0418887412106,-0.999006413079
