rosbagTimestamp,header,seq,stamp,secs,nsecs,frame_id,pose,position,x,y,z,orientation,x,y,z,w
135988000000,,504,,135,932000000,"""map""",,,-0.0265565142035,-0.0240235254169,-0.048752900213,,0.00754399497141,-0.0117942738239,0.0344342281145,-0.999308943158
135988000000,,505,,135,932000000,"""map""",,,-0.0264982897788,-0.0247288476676,-0.048719663173,,0.00753934712891,-0.0117562269088,0.0344740147395,-0.999308015927
136020000000,,506,,136,20000000,"""map""",,,-0.0261936932802,-0.0251911394298,-0.048149716109,,0.00758438712808,-0.0117061582638,0.0345011573099,-0.999307341577
136052000000,,507,,136,52000000,"""map""",,,-0.0258863680065,-0.0253956895322,-0.0476249828935,,0.00752206050021,-0.0116560568562,0.034496394716,-0.999308563836
136084000000,,508,,136,84000000,"""map""",,,-0.0256664026529,-0.0257171317935,-0.0472648665309,,0.00753433889793,-0.0116667827352,0.034513379896,-0.999307763046
136120000000,,509,,136,120000000,"""map""",,,-0.0254954397678,-0.0261114314198,-0.0471065863967,,0.00769311908252,-0.0116435217908,0.0344412244913,-0.999309364626
136152000000,,510,,136,152000000,"""map""",,,-0.0254030246288,-0.0266233049333,-0.0469892211258,,0.00770174914366,-0.0116406447744,0.0344695893204,-0.999308310955
136184000000,,511,,136,184000000,"""map""",,,-0.0253775790334,-0.0272241104394,-0.0469398722053,,0.00768636455614,-0.0117239674476,0.0345549366886,-0.999304475592
136220000000,,512,,136,220000000,"""map""",,,-0.0252137612551,-0.0276131890714,-0.0462485849857,,0.00761693124521,-0.0117562246039,0.0345955662506,-0.999303211186
136252000000,,513,,136,252000000,"""map""",,,-0.0250462554395,-0.0278085712343,-0.0453459471464,,0.00762098672693,-0.0117359649761,0.034594343992,-0.999303506214
136284000000,,514,,136,284000000,"""map""",,,-0.0249476507306,-0.0281338263303,-0.0444857217371,,0.00758928982731,-0.0117023355776,0.0346136051018,-0.999303464067
136320000000,,515,,136,320000000,"""map""",,,-0.0248648580164,-0.0285545755178,-0.0437787696719,,0.00757387609919,-0.0117234694233,0.0346179040803,-0.999303211186
136352000000,,516,,136,352000000,"""map""",,,-0.0247717592865,-0.0290239416063,-0.0432248450816,,0.0075553225955,-0.0117131971168,0.034622708821,-0.99930329548
136384000000,,517,,136,384000000,"""map""",,,-0.0247335284948,-0.0295619256794,-0.042714882642,,0.00754279049351,-0.011681581712,0.0346860976812,-0.999301525312
136420000000,,518,,136,420000000,"""map""",,,-0.0247292332351,-0.0303754452616,-0.0423361212015,,0.00747277239506,-0.0116387476723,0.0346979409456,-0.999302157515
136452000000,,519,,136,452000000,"""map""",,,-0.024740671739,-0.0311265289783,-0.0422182306647,,0.00743458241122,-0.0116681052572,0.0347196465726,-0.999301356725
136484000000,,520,,136,484000000,"""map""",,,-0.0247591268271,-0.0319697149098,-0.0423012077808,,0.00742204471161,-0.0116259376646,0.0346895115759,-0.999303000452
136520000000,,521,,136,520000000,"""map""",,,-0.024659505114,-0.0323871485889,-0.0422479510307,,0.00738470425019,-0.011657152345,0.0346648556695,-0.999303801242
136552000000,,522,,136,552000000,"""map""",,,-0.0244769491255,-0.0324364341795,-0.0419604107738,,0.00738192403991,-0.0116195282155,0.0346681009769,-0.99930409627
136584000000,,523,,136,584000000,"""map""",,,-0.0243403017521,-0.0326148867607,-0.0417382121086,,0.00746085586755,-0.0116350053285,0.0346723156617,-0.999303169039
136620000000,,524,,136,620000000,"""map""",,,-0.024226071313,-0.0330694504082,-0.0416958406568,,0.00751510034331,-0.0115229314254,0.0346830631081,-0.999303716948
136652000000,,525,,136,652000000,"""map""",,,-0.0241795890033,-0.0335553623736,-0.0418639704585,,0.00752139207754,-0.0115484605618,0.0347038415044,-0.999302663277
136684000000,,526,,136,684000000,"""map""",,,-0.0242145489901,-0.0341333821416,-0.0421866439283,,0.00751681420539,-0.0115187769973,0.0347173284959,-0.999302578983
136720000000,,527,,136,720000000,"""map""",,,-0.0239323526621,-0.034384675324,-0.0417806208134,,0.00746624160917,-0.0115156927041,0.0347304783127,-0.99930249469
136752000000,,528,,136,752000000,"""map""",,,-0.0232240892947,-0.0343067087233,-0.0408330187201,,0.00743035257985,-0.0114884628765,0.0347550499254,-0.999302283955
136784000000,,529,,136,784000000,"""map""",,,-0.0227558761835,-0.0344188921154,-0.0402116179466,,0.00767484282607,-0.0115514826225,0.0347577051768,-0.99929954441
136820000000,,530,,136,820000000,"""map""",,,-0.0223735440522,-0.0346662551165,-0.039673294872,,0.00761906031961,-0.0116233862985,0.0347660923997,-0.999298912208
136852000000,,531,,136,852000000,"""map""",,,-0.0220693144947,-0.0350188016891,-0.0394007712603,,0.00765860361241,-0.0116084014475,0.0347706021125,-0.999298532886
136884000000,,532,,136,884000000,"""map""",,,-0.0218226350844,-0.035487100482,-0.0393357798457,,0.00769805783706,-0.0116036472501,0.034824423638,-0.99929646769
136920000000,,533,,136,920000000,"""map""",,,-0.0213992930949,-0.0355009846389,-0.0387300401926,,0.00773221670533,-0.0116389160951,0.0348272474769,-0.9992956669
136952000000,,534,,136,952000000,"""map""",,,-0.0207846425474,-0.0351403020322,-0.0375512689352,,0.00770562615982,-0.0116057977272,0.0348724710453,-0.999294697523
136984000000,,535,,136,984000000,"""map""",,,-0.0202363263816,-0.0349450595677,-0.0364194586873,,0.00771177038008,-0.0116299162612,0.0348674977172,-0.999294528935
137020000000,,536,,137,20000000,"""map""",,,-0.0197041630745,-0.0349155403674,-0.0353505201638,,0.007668061464,-0.0116080697057,0.0348722181642,-0.999294950404
137052000000,,537,,137,52000000,"""map""",,,-0.0193534493446,-0.0350328609347,-0.034733902663,,0.00767868000028,-0.0116019793215,0.0349071579016,-0.999293728145
137084000000,,538,,137,84000000,"""map""",,,-0.0190269667655,-0.0352573171258,-0.0343808345497,,0.00766575244231,-0.0115425512772,0.0348830920511,-0.999295371872
137120000000,,539,,137,120000000,"""map""",,,-0.0186083111912,-0.0351653322577,-0.0339973084629,,0.00768140933799,-0.0115849990806,0.0349140699848,-0.999293643852
137152000000,,540,,137,152000000,"""map""",,,-0.0181563459337,-0.0347850397229,-0.0334345251322,,0.00771017143401,-0.011583897171,0.034917062411,-0.999293348824
137184000000,,541,,137,184000000,"""map""",,,-0.0177482943982,-0.0345729030669,-0.0329771153629,,0.00768087459985,-0.0116173744457,0.0349663320769,-0.999291452215
137220000000,,542,,137,220000000,"""map""",,,-0.0172872971743,-0.0344898477197,-0.0326113961637,,0.00764789419698,-0.0116480104301,0.0350053600587,-0.999290019223
137252000000,,543,,137,252000000,"""map""",,,-0.0169638581574,-0.034537114203,-0.0324527360499,,0.00766569399649,-0.0116039373389,0.0349439942472,-0.999292548033
137284000000,,544,,137,284000000,"""map""",,,-0.0166639126837,-0.0346749648452,-0.0323158204556,,0.00767992892994,-0.0116040244314,0.0349694930906,-0.999291494362
137320000000,,545,,137,320000000,"""map""",,,-0.0163740236312,-0.034516800195,-0.0319578833878,,0.00767743633897,-0.0115635232856,0.0350123564355,-0.999290524985
137352000000,,546,,137,352000000,"""map""",,,-0.0161121189594,-0.0341002009809,-0.0313688106835,,0.00766356673309,-0.0115753737941,0.0350154331555,-0.999290398544
137384000000,,547,,137,384000000,"""map""",,,-0.0159156303853,-0.0338128097355,-0.0309894680977,,0.00765729047466,-0.0115580320123,0.0350716991982,-0.999288670523
137420000000,,548,,137,420000000,"""map""",,,-0.0156993735582,-0.0336793400347,-0.0307054817677,,0.0078886853987,-0.0116803808561,0.0350208700989,-0.999287237531
137452000000,,549,,137,452000000,"""map""",,,-0.0155456652865,-0.0337388850749,-0.030576473102,,0.00787319231597,-0.0117144501623,0.0350278243289,-0.999286689622
137484000000,,550,,137,484000000,"""map""",,,-0.0154240364209,-0.0339011065662,-0.0305670853704,,0.00786791144756,-0.0117521814699,0.0349800298027,-0.999287954027
137520000000,,551,,137,520000000,"""map""",,,-0.0153037495911,-0.033775575459,-0.0306196659803,,0.00786018688512,-0.0118081128075,0.0349694509437,-0.999287743293
137552000000,,552,,137,552000000,"""map""",,,-0.0151768159121,-0.0333885103464,-0.0306853428483,,0.00780928369955,-0.0117723172914,0.0349849188371,-0.999288038321
137584000000,,553,,137,584000000,"""map""",,,-0.0150579446927,-0.0331603549421,-0.0309024788439,,0.00779217257297,-0.0118238505395,0.034966037049,-0.999288206908
137620000000,,554,,137,620000000,"""map""",,,-0.0149050774053,-0.0330666825175,-0.0312933698297,,0.00777874238091,-0.011838604406,0.0349506955961,-0.99928871267
137652000000,,555,,137,652000000,"""map""",,,-0.0148088540882,-0.0331206843257,-0.0317286327481,,0.00779603888777,-0.0118930629087,0.0349830643758,-0.999286773915
137684000000,,556,,137,684000000,"""map""",,,-0.0147235477343,-0.0332614332438,-0.0321487411857,,0.00774152556122,-0.0118549005837,0.0349894285499,-0.999287406118
137720000000,,557,,137,720000000,"""map""",,,-0.0145088573918,-0.0330892950296,-0.0322521589696,,0.00772795905045,-0.0119057644213,0.0349847923966,-0.999287068943
137752000000,,558,,137,752000000,"""map""",,,-0.0142009016126,-0.0326719209552,-0.0319013893604,,0.00776607297239,-0.011911250097,0.0350106284147,-0.999285762391
137784000000,,559,,137,784000000,"""map""",,,-0.0139142274857,-0.0323733463883,-0.0315860211849,,0.0077111019574,-0.0118937825332,0.0350140001626,-0.999286352447
137820000000,,560,,137,820000000,"""map""",,,-0.01359056402,-0.0321767963469,-0.031219271943,,0.007808339676,-0.0118967041659,0.0350387403627,-0.99928470872
137852000000,,561,,137,852000000,"""map""",,,-0.0133540574461,-0.0321200415492,-0.0310636684299,,0.00780915758828,-0.0118370281797,0.0350504150397,-0.999285003748
137884000000,,562,,137,884000000,"""map""",,,-0.0131683079526,-0.0321350321174,-0.0311142895371,,0.0078396286073,-0.0118302779339,0.0350899487836,-0.999283402167
137920000000,,563,,137,920000000,"""map""",,,-0.0130429295823,-0.0319268964231,-0.0308901164681,,0.00781172047887,-0.0117912239396,0.0350857762456,-0.999284287251
137952000000,,564,,137,952000000,"""map""",,,-0.0129524543881,-0.0315448045731,-0.0305621419102,,0.00778784000865,-0.0117830029993,0.0350822780572,-0.999284666573
137984000000,,565,,137,984000000,"""map""",,,-0.0128587791696,-0.031273573637,-0.0302961785346,,0.00773812911792,-0.011797261805,0.0351091255997,-0.999283950076
138020000000,,566,,138,20000000,"""map""",,,-0.0126811275259,-0.031037280336,-0.0300231073052,,0.00773680988863,-0.0117564183807,0.0351815760323,-0.999281884881
138052000000,,567,,138,52000000,"""map""",,,-0.012528010644,-0.0309158787131,-0.0298961922526,,0.00764104632192,-0.0117460917442,0.0351732731031,-0.999283022846
138084000000,,568,,138,84000000,"""map""",,,-0.0123855406418,-0.0308918021619,-0.0297477059066,,0.00785562086677,-0.0117548019832,0.0351899632551,-0.999280662622
138120000000,,569,,138,120000000,"""map""",,,-0.0121822291985,-0.030629824847,-0.0292144361883,,0.00776211709553,-0.0117654555869,0.0352501911017,-0.999279187482
138152000000,,570,,138,152000000,"""map""",,,-0.0119410268962,-0.0301650296897,-0.028418045491,,0.00773487788368,-0.0117494534493,0.0352744255396,-0.999278723867
138184000000,,571,,138,184000000,"""map""",,,-0.0117383468896,-0.0298266839236,-0.0276814457029,,0.00770636883339,-0.0117801251598,0.0352420989067,-0.999279693245
138220000000,,572,,138,220000000,"""map""",,,-0.0115074580535,-0.0295581351966,-0.0270051863045,,0.00767742333272,-0.0116904114768,0.0353173310313,-0.999278302399
138252000000,,573,,138,252000000,"""map""",,,-0.011350132525,-0.029435755685,-0.026668002829,,0.00768355701627,-0.0116781665002,0.0353513856849,-0.999277206581
138284000000,,574,,138,284000000,"""map""",,,-0.0111974682659,-0.0294171571732,-0.0264194030315,,0.00764294869236,-0.011693885793,0.0353800455419,-0.999276363644
138320000000,,575,,138,320000000,"""map""",,,-0.0110777616501,-0.0291232392192,-0.0259918887168,,0.00763710839039,-0.0117527797576,0.0354127514964,-0.999274509182
138352000000,,576,,138,352000000,"""map""",,,-0.0110049881041,-0.0286039747298,-0.0252971686423,,0.00762267721068,-0.0117413973097,0.0354304531727,-0.999274172008
138384000000,,577,,138,384000000,"""map""",,,-0.0109557257965,-0.0281959082931,-0.0249270945787,,0.00765866963149,-0.0117588510441,0.0354158282163,-0.999274214154
138420000000,,578,,138,420000000,"""map""",,,-0.0109016876668,-0.0278282277286,-0.0245462693274,,0.00762442581099,-0.0117906727379,0.0354536339394,-0.999272739015
138452000000,,579,,138,452000000,"""map""",,,-0.0108240870759,-0.0276346299797,-0.0242573972791,,0.00766636538261,-0.0117822965456,0.0354617682812,-0.999272191106
138484000000,,580,,138,484000000,"""map""",,,-0.0107167391106,-0.027530323714,-0.0238892510533,,0.00763178636295,-0.0118195663782,0.0355101528633,-0.999270336644
138520000000,,581,,138,520000000,"""map""",,,-0.0104123642668,-0.0272318217903,-0.0233815442771,,0.00768802375903,-0.0117892242692,0.0354625690713,-0.999271896078
138552000000,,582,,138,552000000,"""map""",,,-0.00995440222323,-0.0267881620675,-0.0227730162442,,0.00765748211111,-0.0117983605865,0.0354923668932,-0.999271010994
138584000000,,583,,138,584000000,"""map""",,,-0.00948226917535,-0.0264652892947,-0.0221814699471,,0.00766530644305,-0.0117129175646,0.0354869720966,-0.999272106812
138620000000,,584,,138,620000000,"""map""",,,-0.00893073622137,-0.0262020658702,-0.0215676575899,,0.00767972807386,-0.0116396628846,0.0354578907711,-0.99927387698
138652000000,,585,,138,652000000,"""map""",,,-0.00850088894367,-0.0261026043445,-0.0211408659816,,0.00769455800227,-0.0116511181017,0.0354750445385,-0.999272991896
138684000000,,586,,138,684000000,"""map""",,,-0.00809147208929,-0.0260880161077,-0.020846163854,,0.0077259172332,-0.0116561144788,0.0354271657186,-0.999274424889
138720000000,,587,,138,720000000,"""map""",,,-0.00771114649251,-0.0259499419481,-0.0206045340747,,0.00790182797144,-0.0116597466811,0.035359983642,-0.999275352119
138752000000,,588,,138,752000000,"""map""",,,-0.00736987544224,-0.025726692751,-0.0201403927058,,0.00787129406142,-0.011702960207,0.0353598993483,-0.999275099238
138784000000,,589,,138,784000000,"""map""",,,-0.00708027509972,-0.0256105121225,-0.0199549421668,,0.00785762893361,-0.0116765950484,0.0353550946076,-0.999275773588
138820000000,,590,,138,820000000,"""map""",,,-0.0067335809581,-0.0256085265428,-0.019809352234,,0.00781738346773,-0.0117773489008,0.0353940804425,-0.999273455511
138852000000,,591,,138,852000000,"""map""",,,-0.00647349236533,-0.0256934408098,-0.0196556635201,,0.00776171949928,-0.0117653987875,0.0354067666439,-0.999273581952
138884000000,,592,,138,884000000,"""map""",,,-0.00620851991698,-0.0258358400315,-0.0194608457386,,0.00776842776291,-0.0118023928545,0.0354344149765,-0.999272148959
138920000000,,593,,138,920000000,"""map""",,,-0.00602255342528,-0.0256331153214,-0.0191732887179,,0.00774332717436,-0.0117744569026,0.0354655614976,-0.999271516756
138952000000,,594,,138,952000000,"""map""",,,-0.00589955272153,-0.0251470245421,-0.0187715925276,,0.00768588661746,-0.0117914983881,0.0354267442501,-0.999273160483
138984000000,,595,,138,984000000,"""map""",,,-0.00578995002434,-0.0248150359839,-0.0183557327837,,0.00762172660169,-0.0117804183767,0.0354698604761,-0.999272275399
139020000000,,596,,139,20000000,"""map""",,,-0.00564934825525,-0.0245540570468,-0.0178530048579,,0.00760876084814,-0.0118738977818,0.0354747073637,-0.999271137434
139052000000,,597,,139,52000000,"""map""",,,-0.00552168814465,-0.0244515612721,-0.0176051855087,,0.00756305637756,-0.0117961304255,0.0354707034131,-0.99927252828
139084000000,,598,,139,84000000,"""map""",,,-0.00536879012361,-0.0244060065597,-0.0175162982196,,0.00760406526116,-0.0118287257445,0.0355484643486,-0.999269030092
139120000000,,599,,139,120000000,"""map""",,,-0.00523836957291,-0.0241872128099,-0.017432352528,,0.00759570289836,-0.0117590532172,0.0355938565044,-0.999268313596
139152000000,,600,,139,152000000,"""map""",,,-0.00512387556955,-0.0237869173288,-0.0173015091568,,0.00764401240638,-0.0117395747878,0.0356338117168,-0.999266712015
139184000000,,601,,139,184000000,"""map""",,,-0.00504951644689,-0.0235022138804,-0.0170049034059,,0.00758708633739,-0.011792346758,0.0356784030825,-0.999264941848
139220000000,,602,,139,220000000,"""map""",,,-0.00499219447374,-0.0232688896358,-0.0168753992766,,0.00764976709756,-0.0117566887132,0.0356894877037,-0.999264562526
139252000000,,603,,139,252000000,"""map""",,,-0.0049632107839,-0.0231919903308,-0.0168266482651,,0.00759474998446,-0.0117303716283,0.0356966105211,-0.999264941848
139284000000,,604,,139,284000000,"""map""",,,-0.00493114767596,-0.0231769066304,-0.0168018806726,,0.00760892943553,-0.0117326386678,0.0357033540169,-0.999264604673
139320000000,,605,,139,320000000,"""map""",,,-0.00506869610399,-0.0230161305517,-0.0165299288929,,0.00772563389442,-0.0117553164711,0.0356535364419,-0.999265279022
139352000000,,606,,139,352000000,"""map""",,,-0.00533686438575,-0.0228229351342,-0.0159838292748,,0.00774427860653,-0.0117773000038,0.0357062621494,-0.999262960946
139384000000,,607,,139,384000000,"""map""",,,-0.00556605588645,-0.0227010175586,-0.0154281929135,,0.00774662500062,-0.0117647277306,0.0357634554228,-0.999260980044
139420000000,,608,,139,420000000,"""map""",,,-0.00576024409384,-0.0226317960769,-0.0148624898866,,0.0077441212144,-0.0117511235182,0.035781494274,-0.999260558575
139452000000,,609,,139,452000000,"""map""",,,-0.00592067884281,-0.0226749926805,-0.0143815735355,,0.00776020188347,-0.0117824448828,0.0357770688549,-0.999260263548
139484000000,,610,,139,484000000,"""map""",,,-0.00604973500594,-0.0227738562971,-0.0139154149219,,0.00770335582763,-0.0118140370738,0.0357898814968,-0.999259842079
139520000000,,611,,139,520000000,"""map""",,,-0.00611603446305,-0.0226811170578,-0.0128464680165,,0.00760573039095,-0.0118457264002,0.035770072478,-0.999260937897
139552000000,,612,,139,552000000,"""map""",,,-0.00611412478611,-0.022582931444,-0.0119222486392,,0.00756914890208,-0.0118551310743,0.035791230196,-0.999260347841
139584000000,,613,,139,584000000,"""map""",,,-0.00609716959298,-0.0225574336946,-0.0110792312771,,0.00758392515911,-0.0119054203318,0.0357948126781,-0.999259462757
139620000000,,614,,139,620000000,"""map""",,,-0.0060775950551,-0.022593319416,-0.0101629570127,,0.00757060971843,-0.0118375978207,0.0358250741154,-0.99925929417
139652000000,,615,,139,652000000,"""map""",,,-0.00608026655391,-0.0227104201913,-0.0092745963484,,0.00757411119958,-0.011840627784,0.0358525538606,-0.999258282646
139684000000,,616,,139,684000000,"""map""",,,-0.00610759435222,-0.0228848569095,-0.00852538365871,,0.00755541182828,-0.0118045454719,0.035841300652,-0.999259252023
139720000000,,617,,139,720000000,"""map""",,,-0.00615620752797,-0.0227928385139,-0.00758873205632,,0.00753664265125,-0.011840465782,0.0358688225441,-0.999257945471
139752000000,,618,,139,752000000,"""map""",,,-0.00620657065883,-0.0225955061615,-0.00686624646187,,0.00751226596775,-0.0118808319262,0.0358435765818,-0.999258577674
139784000000,,619,,139,784000000,"""map""",,,-0.006269718986,-0.0224887374789,-0.00624381285161,,0.00753193010676,-0.0118965829937,0.0358387296943,-0.999258451233
139820000000,,620,,139,820000000,"""map""",,,-0.00635934062302,-0.0224652197212,-0.00575284752995,,0.00748500913983,-0.0118337904456,0.0358220395423,-0.999260137107
139852000000,,621,,139,852000000,"""map""",,,-0.00645252037793,-0.0225135143846,-0.00552964396775,,0.00748518628831,-0.0118912095998,0.035863301307,-0.999257987618
139884000000,,622,,139,884000000,"""map""",,,-0.00653840135783,-0.0226194802672,-0.00531236734241,,0.00745405919432,-0.011844363707,0.035893604891,-0.999257608296
139920000000,,623,,139,920000000,"""map""",,,-0.00660618627444,-0.0225576013327,-0.00477982265875,,0.00745545876604,-0.0118783332437,0.0359273223698,-0.999256006716
139952000000,,624,,139,952000000,"""map""",,,-0.00664076441899,-0.0224381089211,-0.00414822343737,,0.0074533094414,-0.0116221579484,0.0359558979331,-0.999258029765
139984000000,,625,,139,984000000,"""map""",,,-0.00671157799661,-0.0223799180239,-0.00357131334022,,0.00749953531459,-0.0116359926514,0.0359803431053,-0.999256681065
140020000000,,626,,140,20000000,"""map""",,,-0.00680918386206,-0.0224015992135,-0.00314714456908,,0.00748607696975,-0.011708971566,0.0359597332963,-0.999256638919
140052000000,,627,,140,52000000,"""map""",,,-0.00692521827295,-0.0224930271506,-0.00278510549106,,0.00749684499564,-0.0117207415673,0.0360010372079,-0.999254953045
140084000000,,628,,140,84000000,"""map""",,,-0.00704646948725,-0.0226315651089,-0.00253892410547,,0.00744877289292,-0.0117520444927,0.0360362298264,-0.999253646492
140120000000,,629,,140,120000000,"""map""",,,-0.00726233795285,-0.0227659326047,-0.00222059641965,,0.007444037464,-0.0117842241054,0.0360534257406,-0.999252634968
140152000000,,630,,140,152000000,"""map""",,,-0.00743477558717,-0.0228956956416,-0.00193110271357,,0.00744842353506,-0.0117893092215,0.0360943924773,-0.999251117681
140184000000,,631,,140,184000000,"""map""",,,-0.00761032430455,-0.0231393035501,-0.0016850810498,,0.00748287265681,-0.0118227455018,0.0360818327165,-0.999250949094
140220000000,,632,,140,220000000,"""map""",,,-0.00778969284147,-0.0234785676003,-0.00151874998119,,0.00742146420462,-0.0118714809235,0.0361326618158,-0.999248926045
140252000000,,633,,140,252000000,"""map""",,,-0.00796822085977,-0.0238524079323,-0.0016919192858,,0.00741869008589,-0.0118833587615,0.036147076038,-0.999248335989
140284000000,,634,,140,284000000,"""map""",,,-0.00814315490425,-0.0242630634457,-0.00196988438256,,0.00734471907403,-0.0119129675811,0.0362331820495,-0.999245427857
140320000000,,635,,140,320000000,"""map""",,,-0.0082023916766,-0.0243600457907,-0.00216851406731,,0.00735431406751,-0.0119252678754,0.0362608303821,-0.999244163451
140352000000,,636,,140,352000000,"""map""",,,-0.00819030031562,-0.0242959279567,-0.00232878932729,,0.00733501048162,-0.0119603212118,0.0362628534308,-0.999243826277
140384000000,,637,,140,384000000,"""map""",,,-0.00817021355033,-0.0243244059384,-0.00254772626795,,0.00728865685079,-0.0119671885139,0.0362746124016,-0.999243615542
140424000000,,638,,140,420000000,"""map""",,,-0.00815715640783,-0.0244214348495,-0.0029216397088,,0.00727000407151,-0.0119721172256,0.0362960230006,-0.999242941193
140452000000,,639,,140,452000000,"""map""",,,-0.00817693024874,-0.0245584454387,-0.00338556407951,,0.00729714680659,-0.0119355717921,0.0362815666316,-0.999243741983
140484000000,,640,,140,484000000,"""map""",,,-0.00820996519178,-0.0247434973717,-0.00394063442945,,0.00732126336501,-0.0119947229183,0.036335135276,-0.999240918144
140520000000,,641,,140,520000000,"""map""",,,-0.00796824041754,-0.0247286632657,-0.0044272034429,,0.00729697887774,-0.0120249092815,0.0363621092591,-0.999239738032
140552000000,,642,,140,552000000,"""map""",,,-0.00768171483651,-0.0246477704495,-0.00498052453622,,0.00728572336428,-0.0120510716084,0.0363448290512,-0.999240075207
140584000000,,643,,140,584000000,"""map""",,,-0.0074142687954,-0.0246199183166,-0.00559122953564,,0.00735312753494,-0.0118305887669,0.0363593697139,-0.999241718934
140620000000,,644,,140,620000000,"""map""",,,-0.00718570640311,-0.0246822983027,-0.00637698173523,,0.007290341243,-0.0118661732194,0.0363796844949,-0.999241044585
140652000000,,645,,140,652000000,"""map""",,,-0.00699637504295,-0.0248291250318,-0.0071730017662,,0.00732729250462,-0.011872105059,0.0363669982935,-0.999241171025
140684000000,,646,,140,684000000,"""map""",,,-0.00683262897655,-0.0250635165721,-0.00802402943373,,0.00732256036842,-0.0118692349574,0.0363414573033,-0.99924218255
140720000000,,647,,140,720000000,"""map""",,,-0.00655112694949,-0.0251007955521,-0.00843989755958,,0.00730079267362,-0.0118729651181,0.0363636686925,-0.999241466053
140752000000,,648,,140,752000000,"""map""",,,-0.00632924493402,-0.0250212624669,-0.00847510062158,,0.00728771891877,-0.0118492420401,0.0363756383974,-0.999241381759
140784000000,,649,,140,784000000,"""map""",,,-0.00615002028644,-0.0250270087272,-0.00860344804823,,0.00728547575154,-0.0118519172125,0.0363402350447,-0.999242646165
140820000000,,650,,140,820000000,"""map""",,,-0.00602968689054,-0.0251571442932,-0.00870157685131,,0.00720660302828,-0.0118496414473,0.0363452926665,-0.999243067633
140852000000,,651,,140,852000000,"""map""",,,-0.00591583596542,-0.025395123288,-0.00885589048266,,0.007220263217,-0.0118877112468,0.0363397292825,-0.999242730459
140884000000,,652,,140,884000000,"""map""",,,-0.00586909102276,-0.0257145743817,-0.00911244563758,,0.0071542474228,-0.0119252831866,0.0363350931292,-0.999242899046
140920000000,,653,,140,920000000,"""map""",,,-0.0059179267846,-0.0257940646261,-0.00933125987649,,0.00711349356056,-0.01190345293,0.0363474421558,-0.999243025486
140952000000,,654,,140,952000000,"""map""",,,-0.00599326379597,-0.0257479604334,-0.00952796917409,,0.0071349606298,-0.0119105284969,0.0363792208796,-0.999241676787
140984000000,,655,,140,984000000,"""map""",,,-0.00612286757678,-0.0258393865079,-0.00979721266776,,0.00708819079884,-0.0119363513441,0.0363693163702,-0.999242056109
141020000000,,656,,141,20000000,"""map""",,,-0.00628879899159,-0.0260587390512,-0.0101636722684,,0.00706153192934,-0.0119576167341,0.0363699485729,-0.999241929668
141052000000,,657,,141,52000000,"""map""",,,-0.00649060867727,-0.0263838283718,-0.0105750160292,,0.00700929897778,-0.0119072352804,0.0363644273357,-0.999243151927
141084000000,,658,,141,84000000,"""map""",,,-0.00668604625389,-0.0268163289875,-0.011088039726,,0.00704571517198,-0.011917512526,0.036364090161,-0.999242730459
141120000000,,659,,141,120000000,"""map""",,,-0.00682858191431,-0.0271520353854,-0.012011195533,,0.00706125682237,-0.0117252939209,0.0362972452592,-0.999247366612
141152000000,,660,,141,152000000,"""map""",,,-0.00686020590365,-0.02738276124,-0.0127394869924,,0.00705755399124,-0.0117407056733,0.0362890266238,-0.999247493052
141184000000,,661,,141,184000000,"""map""",,,-0.00692450348288,-0.0277455281466,-0.0135006150231,,0.00711288654716,-0.0117706058989,0.0363092149642,-0.999246017913
141220000000,,662,,141,220000000,"""map""",,,-0.00700232246891,-0.0282207094133,-0.0141987036914,,0.00708078266703,-0.0117555435043,0.0362673209968,-0.999247872374
141252000000,,663,,141,252000000,"""map""",,,-0.0070912190713,-0.0288093872368,-0.0150415049866,,0.00714494120109,-0.0117701482105,0.0362811873099,-0.999246818703
141284000000,,664,,141,284000000,"""map""",,,-0.00717942090705,-0.0294838771224,-0.0159979630262,,0.00705175814102,-0.0118190652258,0.0362754131917,-0.999247029437
141320000000,,665,,141,320000000,"""map""",,,-0.00728479446843,-0.0304323788732,-0.0172856692225,,0.00704928464785,-0.0118451370029,0.036230526798,-0.999248420283
141352000000,,666,,141,352000000,"""map""",,,-0.00740621984005,-0.0312730297446,-0.0183570384979,,0.00702204329573,-0.0118995551697,0.0362360480352,-0.99924778808
141384000000,,667,,141,384000000,"""map""",,,-0.00757169863209,-0.0321807824075,-0.0195278320462,,0.00698503078948,-0.011884277925,0.0362500407889,-0.999247703787
141420000000,,668,,141,420000000,"""map""",,,-0.0076988353394,-0.0327436253428,-0.0206383485347,,0.00700488162586,-0.0118958699547,0.0362570371657,-0.999247198024
141452000000,,669,,141,452000000,"""map""",,,-0.00783533789217,-0.0329928249121,-0.0216769929975,,0.00694879569502,-0.0118557043373,0.0362921876374,-0.999246776556
141484000000,,670,,141,475933830,"""map""",,,-0.00798394996673,-0.0333702303469,-0.0224989596754,,0.00695381215781,-0.0118732785853,0.036276171835,-0.999247113731
141520000000,,671,,141,515933830,"""map""",,,-0.00816775579005,-0.0340090245008,-0.0237015727907,,0.00688775355821,-0.0118449124392,0.0362531596557,-0.999248715311
141552000000,,672,,141,547933830,"""map""",,,-0.00835199840367,-0.0346155166626,-0.0248660184443,,0.00689574483118,-0.0118241915009,0.0362331820495,-0.999249642542
141584000000,,673,,141,579933441,"""map""",,,-0.0085538988933,-0.0353393144906,-0.0261731501669,,0.00690034147185,-0.0118172583443,0.0362276186655,-0.999249895423
141620000000,,674,,141,611933441,"""map""",,,-0.00879668164998,-0.0357495248318,-0.0270988158882,,0.00687777413937,-0.0118792356143,0.0362365959442,-0.999249010339
141652000000,,675,,141,643933441,"""map""",,,-0.00912308227271,-0.0358709804714,-0.0276167280972,,0.00681814951962,-0.0118120732941,0.036263654221,-0.99924926322
141684000000,,676,,141,675933054,"""map""",,,-0.00945510715246,-0.0361706651747,-0.0281399711967,,0.00680332584738,-0.0117972927565,0.036259481683,-0.999249642542
141720000000,,677,,141,715933054,"""map""",,,-0.00989609956741,-0.0367571152747,-0.0286631770432,,0.00676851666642,-0.0117486090306,0.0362521059845,-0.999250696213
141752000000,,678,,141,747933054,"""map""",,,-0.0102789048105,-0.0373645052314,-0.0289953816682,,0.00676955601429,-0.0117497520992,0.0362568264315,-0.999250527626
141784000000,,679,,141,779932668,"""map""",,,-0.0106876576319,-0.0380791276693,-0.0294950138777,,0.00681608070205,-0.0115853453104,0.0362321283783,-0.999253056436
141820000000,,680,,141,811932668,"""map""",,,-0.0109537458047,-0.0384655557573,-0.0293700136244,,0.00681860161043,-0.0116626781919,0.0362050279547,-0.999253098583
141852000000,,681,,141,843932668,"""map""",,,-0.0111236711964,-0.0385670885444,-0.0286807082593,,0.00682749311374,-0.0116734442422,0.0362187678273,-0.999252424234
141884000000,,682,,141,875932284,"""map""",,,-0.0113215893507,-0.0388445295393,-0.0281175561249,,0.00680369380913,-0.0117311230276,0.0362359637415,-0.999251244122
141920000000,,683,,141,915932284,"""map""",,,-0.0116507178172,-0.0393591970205,-0.0275695025921,,0.00685193170043,-0.0117507402453,0.0362315804692,-0.999250822653
141952000000,,684,,141,947932284,"""map""",,,-0.0119877336547,-0.0398716293275,-0.0271396487951,,0.00685764901921,-0.0117534127835,0.036229135952,-0.999250906947
141984000000,,685,,141,979931902,"""map""",,,-0.0123525345698,-0.040515139699,-0.0266673322767,,0.00686773973207,-0.0117752851869,0.0362006025356,-0.999251623444
142024000000,,686,,142,11931902,"""map""",,,-0.0127377808094,-0.0407621860504,-0.0259110592306,,0.00689277067955,-0.0118178498819,0.0362146374361,-0.999250401185
142052000000,,687,,142,43931902,"""map""",,,-0.0131353409961,-0.0406790934503,-0.0248953755945,,0.00689966745154,-0.0118063775427,0.0362034263744,-0.999250906947
142084000000,,688,,142,75931521,"""map""",,,-0.0135590089485,-0.0407880395651,-0.023980403319,,0.00685486732721,-0.0118617934045,0.0362059973322,-0.999250443332
142120000000,,689,,142,115931521,"""map""",,,-0.0140983927995,-0.0411385372281,-0.0231209825724,,0.00687810670435,-0.0118860350864,0.0361997595986,-0.999250274744
142152000000,,690,,142,147931521,"""map""",,,-0.0145386587828,-0.0415928512812,-0.0226545929909,,0.00688423627199,-0.0118628228742,0.0362122772126,-0.99925006401
142184000000,,691,,142,179931143,"""map""",,,-0.0150178298354,-0.042169008404,-0.0223396290094,,0.00686614539582,-0.0119398653376,0.0362395040768,-0.999248209549
142220000000,,692,,142,211931143,"""map""",,,-0.0152334924787,-0.0424867980182,-0.0218558143824,,0.00680700776973,-0.0119598248338,0.0362431708526,-0.999248251696
142252000000,,693,,142,251931143,"""map""",,,-0.0152280814946,-0.0426927767694,-0.0210897903889,,0.00680817010078,-0.0119626835755,0.036255562026,-0.999247830227
142284000000,,694,,142,275930766,"""map""",,,-0.0152653008699,-0.0429533869028,-0.0207092966884,,0.00677781284533,-0.0119662512404,0.0362487342366,-0.999248167402
142320000000,,695,,142,315930766,"""map""",,,-0.0153963947669,-0.0435890890658,-0.0200810320675,,0.00676840026867,-0.0119831396143,0.0362752446043,-0.999247113731
142352000000,,696,,142,347930766,"""map""",,,-0.0155409276485,-0.0442299544811,-0.0195935368538,,0.0067936661519,-0.0119918625302,0.0362838004145,-0.999246481528
142384000000,,697,,142,379930391,"""map""",,,-0.0157289505005,-0.0449984259903,-0.0191756952554,,0.00681441491372,-0.0120438539606,0.0363314685002,-0.999243994864
142420000000,,698,,142,411930391,"""map""",,,-0.0156882442534,-0.0453153289855,-0.0185169614851,,0.00681531777824,-0.0120314818849,0.0363461777503,-0.999243615542
142452000000,,699,,142,443930391,"""map""",,,-0.0154517004266,-0.0452490635216,-0.0176602508873,,0.00683918804102,-0.012102215492,0.036351825428,-0.999242351137
142484000000,,700,,142,475930018,"""map""",,,-0.0152745628729,-0.0453366413713,-0.0170012302697,,0.00683914062581,-0.0120727785525,0.0364031181427,-0.999240875997
142520000000,,701,,142,515930018,"""map""",,,-0.0151797104627,-0.045623190701,-0.0164694990963,,0.00684518178386,-0.0120688684445,0.0363977654929,-0.999241086731
142552000000,,702,,142,547930018,"""map""",,,-0.0151609713212,-0.0460218526423,-0.016214620322,,0.00687504233212,-0.0120912212561,0.0363636686925,-0.999241887522
142584000000,,703,,142,579929646,"""map""",,,-0.0152253359556,-0.046532753855,-0.0161301381886,,0.00687826837703,-0.0120936020591,0.0363439439674,-0.999242477577
142620000000,,704,,142,611929646,"""map""",,,-0.0152565510944,-0.0467117540538,-0.0161716733128,,0.00688247120808,-0.0120473287707,0.0363547757074,-0.999242688312
142652000000,,705,,142,643929646,"""map""",,,-0.0152367092669,-0.0466069914401,-0.0161965619773,,0.006827497065,-0.0120351932771,0.0363167171032,-0.99924458492
142684000000,,706,,142,675929276,"""map""",,,-0.0152593543753,-0.0466596707702,-0.0164640452713,,0.0068588584362,-0.0121008197069,0.036359622595,-0.999241971815
142720000000,,707,,142,715929276,"""map""",,,-0.0153504246846,-0.0469737388194,-0.0168855097145,,0.00688952603075,-0.012113025994,0.0363911062909,-0.999240496676
142752000000,,708,,142,747929276,"""map""",,,-0.0154530052096,-0.0474011078477,-0.0172220859677,,0.0068751826021,-0.0121535531523,0.0364037924923,-0.999239611592
142784000000,,709,,142,779928908,"""map""",,,-0.0155978593975,-0.0480069294572,-0.0176487024873,,0.0068251888665,-0.0121618741914,0.0364102831069,-0.999239611592
142820000000,,710,,142,811928908,"""map""",,,-0.0156042324379,-0.0481742843986,-0.0178028885275,,0.00676663158276,-0.0121418420907,0.0364015165624,-0.999240623116
142852000000,,711,,142,843928908,"""map""",,,-0.0154889496043,-0.0479503944516,-0.017752289772,,0.00674745081542,-0.0121556201589,0.0364383107612,-0.99923923227
142884000000,,712,,142,875928542,"""map""",,,-0.0154178412631,-0.0479032471776,-0.0177681464702,,0.00676791920191,-0.0120837523735,0.0364415560685,-0.999239864473
142920000000,,713,,142,915928542,"""map""",,,-0.0154446261004,-0.0481156669557,-0.0180488489568,,0.00676513586355,-0.0120231916328,0.0363831405365,-0.999242730459
142952000000,,714,,142,947928542,"""map""",,,-0.0155172403902,-0.0484939329326,-0.0183319915086,,0.00682762350555,-0.0120197833357,0.0363788837048,-0.999242435431
142984000000,,715,,142,979928177,"""map""",,,-0.0156600102782,-0.0490090660751,-0.0186855550855,,0.00680393253151,-0.0121129415357,0.0363535534488,-0.999242477577
143020000000,,716,,143,11928177,"""map""",,,-0.0157212819904,-0.0490459948778,-0.0187847912312,,0.00677221554628,-0.0121003358413,0.0363492123234,-0.999242941193
143052000000,,717,,143,43928177,"""map""",,,-0.0157151278108,-0.0486714057624,-0.0187042802572,,0.00680570418087,-0.0121357599382,0.0363648909511,-0.999241761081
143084000000,,718,,143,75927814,"""map""",,,-0.0157322566956,-0.0484772138298,-0.0187125690281,,0.00676721110193,-0.0121188272772,0.0363706650693,-0.999241971815
143120000000,,719,,143,115927814,"""map""",,,-0.0158206857741,-0.0485149361193,-0.0188293531537,,0.00681592561482,-0.0120736386116,0.0363900104728,-0.9992415082
143152000000,,720,,143,147927814,"""map""",,,-0.015937237069,-0.0487640425563,-0.0191822685301,,0.00680238939709,-0.0121052163147,0.0363650173916,-0.999242140403
143184000000,,721,,143,179927453,"""map""",,,-0.0161208882928,-0.0491963103414,-0.0198951289058,,0.00685668639178,-0.0121467296434,0.0363621935528,-0.999241339613
143220000000,,722,,143,211927453,"""map""",,,-0.0161819644272,-0.0492196194828,-0.0204762481153,,0.0068249409245,-0.0121337678411,0.0363907691161,-0.999240665263
143252000000,,723,,143,243927453,"""map""",,,-0.0161352027208,-0.0489176847041,-0.0208304226398,,0.00681154876338,-0.0121696901269,0.0363728145586,-0.999241002438
143284000000,,724,,143,275927094,"""map""",,,-0.0161616895348,-0.04877993837,-0.0212430804968,,0.00697862051724,-0.0121248521363,0.0363647223637,-0.999240665263
143320000000,,725,,143,315927094,"""map""",,,-0.0162401180714,-0.0488803125918,-0.0217052418739,,0.00691707656952,-0.0121744487695,0.0363633315177,-0.999240538822
143352000000,,726,,143,347927094,"""map""",,,-0.0163665190339,-0.0491857752204,-0.0221302080899,,0.00681255403157,-0.012141064185,0.0363683469927,-0.9992415082
143384000000,,727,,143,379926736,"""map""",,,-0.0165277719498,-0.0496450215578,-0.0224767401814,,0.00682724879372,-0.0122138952563,0.0364065741843,-0.99923910583
143420000000,,728,,143,411926736,"""map""",,,-0.0163884870708,-0.0496170185506,-0.0224253982306,,0.0067679911479,-0.012204067632,0.0365148072912,-0.999235734082
143452000000,,729,,143,443926736,"""map""",,,-0.0159950312227,-0.0491615198553,-0.0220965966582,,0.00678379786245,-0.0122548832311,0.0364917951119,-0.999235818375
143484000000,,730,,143,475926380,"""map""",,,-0.015679936856,-0.0489405766129,-0.0218581482768,,0.00680091294031,-0.0123015863844,0.0365179683049,-0.999234174648
143520000000,,731,,143,515926380,"""map""",,,-0.0154032120481,-0.0489158593118,-0.0218679569662,,0.00678301040786,-0.012343193885,0.0365202863815,-0.999233711033
143552000000,,732,,143,547926380,"""map""",,,-0.015257014893,-0.0490549392998,-0.0220258366317,,0.00676004235105,-0.012302925864,0.0365588086011,-0.99923295239
143584000000,,733,,143,579926026,"""map""",,,-0.0151542676613,-0.0493308492005,-0.0220564696938,,0.0068104086582,-0.0122912753884,0.0365991431351,-0.999231224369
143620000000,,734,,143,615926026,"""map""",,,-0.0149081721902,-0.0492373481393,-0.0219805520028,,0.00679418294471,-0.0122153759936,0.0365896179473,-0.999232657362
143652000000,,735,,143,647926026,"""map""",,,-0.0145725021139,-0.0488089956343,-0.0218120012432,,0.00680236190286,-0.0122255216949,0.0366101856094,-0.999231730131
143684000000,,736,,143,679925673,"""map""",,,-0.0143485842273,-0.0486221946776,-0.0217804182321,,0.00678940240549,-0.0122296790864,0.0366359794807,-0.9992308029
143720000000,,737,,143,711925673,"""map""",,,-0.0141924610361,-0.0486285276711,-0.0218814332038,,0.00680545442787,-0.0122103896592,0.0366573479329,-0.999230170698
143756000000,,738,,143,743925673,"""map""",,,-0.0140604199842,-0.0488035567105,-0.0220380555838,,0.00683485350107,-0.0122392836288,0.0366959122993,-0.999228189796
143784000000,,739,,143,775925322,"""map""",,,-0.0139630595222,-0.0490899197757,-0.0222442056984,,0.00685758234158,-0.0122388873496,0.0367166906956,-0.999227304712
143820000000,,740,,143,815925322,"""map""",,,-0.0137023916468,-0.0487414523959,-0.0221550911665,,0.00690938723921,-0.0122485286059,0.0367172807515,-0.99922679895
143852000000,,741,,143,847925322,"""map""",,,-0.0134562337771,-0.0482102781534,-0.0218198262155,,0.00712586333133,-0.0122555177387,0.0367257101212,-0.999224860195
143884000000,,742,,143,879924973,"""map""",,,-0.0132565815002,-0.0478890091181,-0.0216606725007,,0.00719650688242,-0.0123659238779,0.0367370897703,-0.999222584265
143920000000,,743,,143,911924973,"""map""",,,-0.0131545700133,-0.0477521233261,-0.0216805748641,,0.00717695337889,-0.0123746337876,0.0367515039925,-0.999222078503
143952000000,,744,,143,943924973,"""map""",,,-0.0131325274706,-0.0478008165956,-0.0218796133995,,0.00714872470392,-0.0124037580831,0.0367433275039,-0.999222162796
143984000000,,745,,143,975924626,"""map""",,,-0.0131385717541,-0.0480273105204,-0.0221423450857,,0.00708035889364,-0.0124303682203,0.0367785201224,-0.999221109125
144020000000,,746,,144,15924626,"""map""",,,-0.0130497859791,-0.0477433539927,-0.0225071907043,,0.00712103883426,-0.012483885169,0.036840096668,-0.999217863818
144052000000,,747,,144,47924626,"""map""",,,-0.0129474531859,-0.0473379157484,-0.0228206925094,,0.00707891832753,-0.0124874281385,0.0368379471788,-0.999218158846
144084000000,,748,,144,79924281,"""map""",,,-0.0128604611382,-0.0471730977297,-0.0231222044677,,0.00705629403096,-0.0125543698463,0.0369368236854,-0.999213859867
144120000000,,749,,144,111924281,"""map""",,,-0.0127832237631,-0.0472007542849,-0.0234870854765,,0.00701271073224,-0.0124845649516,0.0369701618425,-0.99921381772
144152000000,,750,,144,143924281,"""map""",,,-0.0127184884623,-0.0473445281386,-0.0239272955805,,0.00702242969672,-0.0124713188227,0.0369640926964,-0.999214154895
144184000000,,751,,144,175923937,"""map""",,,-0.0126654924825,-0.0476483330131,-0.0244181603193,,0.006978661347,-0.0125269449249,0.037009274118,-0.999212047553
144220000000,,752,,144,215923937,"""map""",,,-0.0126329828054,-0.0474948137999,-0.0252580195665,,0.00692322869231,-0.0124870018956,0.0370413478697,-0.999211752525
144252000000,,753,,144,247923937,"""map""",,,-0.0126123065129,-0.0471747890115,-0.0257561225444,,0.00692615328847,-0.0125289004728,0.0370460683167,-0.999211078175
144284000000,,754,,144,279923594,"""map""",,,-0.0125789223239,-0.0470421537757,-0.0263525191694,,0.00693529586188,-0.0124928919176,0.0370971081503,-0.999209518742
144320000000,,755,,144,311923594,"""map""",,,-0.0125791803002,-0.0471155308187,-0.0269789174199,,0.00695653869671,-0.0124562022628,0.0371470943126,-0.999208001455
144352000000,,756,,144,343923594,"""map""",,,-0.0125877698883,-0.0473884381354,-0.0276107825339,,0.00699172374195,-0.0124644877406,0.0371761756381,-0.999206568463
144384000000,,757,,144,375923254,"""map""",,,-0.0126406187192,-0.0478104613721,-0.0281920544803,,0.00693169461123,-0.0124835935985,0.0372172266685,-0.999205219763
144420000000,,758,,144,415923254,"""map""",,,-0.0123011460528,-0.0477485582232,-0.0282058920711,,0.00692920860572,-0.0124807295884,0.0372224528777,-0.999205051176
144452000000,,759,,144,447923254,"""map""",,,-0.0118542741984,-0.0474692471325,-0.0280289053917,,0.00698967221117,-0.012497576474,0.0372457179381,-0.999203618183
144484000000,,760,,144,479922915,"""map""",,,-0.0114339562133,-0.047371532768,-0.0280123818666,,0.00714722980789,-0.0124790916236,0.0372583198458,-0.999202227337
144520000000,,761,,144,511922915,"""map""",,,-0.011029029265,-0.047479942441,-0.0279431045055,,0.00716464468813,-0.0125158170044,0.0372689408516,-0.999201215813
144552000000,,762,,144,551922915,"""map""",,,-0.0105802351609,-0.0478469058871,-0.0279132630676,,0.00718554261027,-0.0125225753174,0.037267718593,-0.999201089372
144584000000,,763,,144,575922578,"""map""",,,-0.0103182829916,-0.0481968596578,-0.0280117988586,,0.00713312082108,-0.0124670998573,0.0372942711076,-0.999201173666
144620000000,,764,,144,615922578,"""map""",,,-0.0098619107157,-0.0481096357107,-0.0284497048706,,0.0070767084168,-0.0125082011018,0.0372887920173,-0.99920125796
144652000000,,765,,144,647922578,"""map""",,,-0.00953398738056,-0.0478070601821,-0.0289728976786,,0.00706068981555,-0.0124820899767,0.0372883705488,-0.999201679428
144684000000,,766,,144,679922243,"""map""",,,-0.00925448630005,-0.0476897545159,-0.0294281542301,,0.00703125732122,-0.0124738695302,0.0372988229672,-0.999201595134
144720000000,,767,,144,711922243,"""map""",,,-0.0090034622699,-0.0477332994342,-0.0299942772835,,0.00700620513568,-0.0125046589555,0.0372920794715,-0.999201595134
144752000000,,768,,144,743922243,"""map""",,,-0.0087730512023,-0.04793356359,-0.0307173896581,,0.00704461984783,-0.0125201000133,0.0373365022498,-0.999199572086
144784000000,,769,,144,775921909,"""map""",,,-0.00859035458416,-0.0482930094004,-0.0316049307585,,0.00699137323164,-0.0125030970526,0.0373811779092,-0.999198391974
144820000000,,770,,144,815921909,"""map""",,,-0.00828024093062,-0.0481224991381,-0.0322342440486,,0.00706367483317,-0.0125892438939,0.0374165391151,-0.999195483841
144852000000,,771,,144,847921909,"""map""",,,-0.00800413731486,-0.0477623231709,-0.0326208733022,,0.00702674563279,-0.0125741770541,0.0374527011111,-0.999194640904
144884000000,,772,,144,879921577,"""map""",,,-0.00777116324753,-0.0476040430367,-0.0331397764385,,0.00707376538139,-0.0125999659863,0.0375090514476,-0.999191817066
144920000000,,773,,144,911921577,"""map""",,,-0.00756300287321,-0.0476324558258,-0.0335442200303,,0.007068153759,-0.0125023336349,0.0375216955022,-0.999192660003
144952000000,,774,,144,943921577,"""map""",,,-0.00736276432872,-0.0478168539703,-0.034062217921,,0.00706339626884,-0.0125052432492,0.0375035723573,-0.999193334352
144984000000,,775,,144,975921247,"""map""",,,-0.00720625929534,-0.0481538921595,-0.0348709449172,,0.00706994960988,-0.0122980037377,0.0374794222131,-0.999196748247
145020000000,,776,,145,15921247,"""map""",,,-0.00686180917546,-0.047753110528,-0.0356074720621,,0.00710822800331,-0.01237067824,0.0374745753255,-0.999195778869
145052000000,,777,,145,47921247,"""map""",,,-0.00656382367015,-0.0471685305238,-0.0359709262848,,0.00714113152111,-0.0123903937455,0.0374924877361,-0.999194640904
145084000000,,778,,145,79920919,"""map""",,,-0.00629229191691,-0.0468269661069,-0.0363507308066,,0.00720614451666,-0.0123896191325,0.0374085733608,-0.999197296156
145120000000,,779,,145,111920919,"""map""",,,-0.006043497473,-0.0467077605426,-0.0367608293891,,0.00721938587108,-0.0124624548137,0.0374114814933,-0.999196158191
145152000000,,780,,145,151920919,"""map""",,,-0.00573743553832,-0.0468566194177,-0.0375361070037,,0.00726892702197,-0.0124767292598,0.0374220182054,-0.99919523096
145184000000,,781,,145,175920592,"""map""",,,-0.00555526604876,-0.0470546446741,-0.0379381589592,,0.00729618450842,-0.0125392142676,0.0374510152372,-0.999193207912
145220000000,,782,,145,215920592,"""map""",,,-0.00525528052822,-0.0468148998916,-0.0382856875658,,0.00731915898604,-0.0125154034385,0.0373984159703,-0.999195315254
145252000000,,783,,145,247920592,"""map""",,,-0.00504966825247,-0.0464262664318,-0.0384456403553,,0.00728479086525,-0.0124882450629,0.0373967300963,-0.99919590531
145284000000,,784,,145,279920267,"""map""",,,-0.00483850296587,-0.0462407954037,-0.0387499779463,,0.00728035079355,-0.0125146489111,0.0374437659793,-0.999193882261
145320000000,,785,,145,311920267,"""map""",,,-0.00464457506314,-0.0462172888219,-0.0391121208668,,0.00716905759488,-0.0125409780144,0.0375008328121,-0.999192196387
145352000000,,786,,145,343920267,"""map""",,,-0.00447059888393,-0.0463364757597,-0.0394334979355,,0.00717976124804,-0.0125430698811,0.0375408301714,-0.999190636954
145384000000,,787,,145,375919943,"""map""",,,-0.0042943013832,-0.0466326437891,-0.0396162196994,,0.00713749042852,-0.0124773117424,0.0375343395567,-0.999191985653
145420000000,,788,,145,415919943,"""map""",,,-0.00407064286992,-0.0463370084763,-0.0395270735025,,0.00717281014612,-0.012571638365,0.0375511561493,-0.999189920457
145452000000,,789,,145,447919943,"""map""",,,-0.00389381404966,-0.045867241919,-0.0393646098673,,0.00708811704185,-0.0126025652614,0.0376103303246,-0.999187897409
145484000000,,790,,145,479919622,"""map""",,,-0.00372854829766,-0.0456007234752,-0.0391454361379,,0.00711635855844,-0.0126100813946,0.0376351126715,-0.999186633003
145520000000,,791,,145,511919622,"""map""",,,-0.00358169991523,-0.0454992987216,-0.0390488468111,,0.00712129912398,-0.0126058283495,0.0376413925519,-0.999186422269
145552000000,,792,,145,543919622,"""map""",,,-0.00345873646438,-0.0455758459866,-0.0390682592988,,0.00712662180996,-0.0126484239961,0.0376365035175,-0.999186085094
145584000000,,793,,145,575919302,"""map""",,,-0.00334547529928,-0.0458104610443,-0.0391708612442,,0.00706487865253,-0.0126860723271,0.0376274419451,-0.999186380122
145620000000,,794,,145,615919302,"""map""",,,-0.00336724147201,-0.0456615537405,-0.0390182211995,,0.0070564282094,-0.0127220670528,0.0376457336773,-0.999185284304
145652000000,,795,,145,647919302,"""map""",,,-0.00348259648308,-0.0454132258892,-0.0387496203184,,0.0070920564551,-0.0126746613971,0.0376732134226,-0.999184609954
145684000000,,796,,145,679918983,"""map""",,,-0.00358421448618,-0.0453844703734,-0.0385276377201,,0.00710384374325,-0.0126904763435,0.0377093754186,-0.99918292408
145720000000,,797,,145,711918983,"""map""",,,-0.00368267577142,-0.0455503836274,-0.0385023728013,,0.00705315820665,-0.0127105540484,0.0376904514836,-0.999183724871
145752000000,,798,,145,743918983,"""map""",,,-0.00375117734075,-0.045881871134,-0.0385070182383,,0.00700982729511,-0.0127335425201,0.0377186898721,-0.999182713346
145784000000,,799,,145,775918667,"""map""",,,-0.00380764715374,-0.0464132837951,-0.0386305786669,,0.00693958957207,-0.0127309728794,0.0377391310936,-0.999182418318
145820000000,,800,,145,815918667,"""map""",,,-0.00367482984439,-0.0465128906071,-0.0386143662035,,0.00695995901224,-0.0127018079188,0.0377548097213,-0.999182081144
145852000000,,801,,145,847918667,"""map""",,,-0.00346494955011,-0.0464003309608,-0.0385297723114,,0.00695851350705,-0.0127215912544,0.0378008762267,-0.999180100242
145884000000,,802,,145,879918352,"""map""",,,-0.00321907107718,-0.0464649349451,-0.0384983308613,,0.00703694879213,-0.0127273719581,0.0378618627165,-0.999177192109
145920000000,,803,,145,911918352,"""map""",,,-0.00295335426927,-0.0466745793819,-0.0386028178036,,0.00721277820013,-0.0127751908504,0.037844751096,-0.999176011997
145952000000,,804,,145,943918352,"""map""",,,-0.00268216663972,-0.0470526255667,-0.0386252999306,,0.00717905874568,-0.0128110202815,0.0378943579367,-0.999173862508
145984000000,,805,,145,975918038,"""map""",,,-0.00242691067979,-0.0475639589131,-0.038733266294,,0.00713022865823,-0.0127779629935,0.0378944422304,-0.999174621151
146020000000,,806,,146,15918038,"""map""",,,-0.00220914417878,-0.0474289245903,-0.0384227223694,,0.0071098931331,-0.0127775662205,0.0378897217834,-0.999174958326
146052000000,,807,,146,47918038,"""map""",,,-0.00207269890234,-0.0470655634999,-0.038188368082,,0.00707351645157,-0.0127666923335,0.0378576480316,-0.999176602053
146084000000,,808,,146,79917727,"""map""",,,-0.00191847712267,-0.0469119884074,-0.0381022319198,,0.00707143248747,-0.0127489527909,0.0378801544487,-0.999176011997
146120000000,,809,,146,111917727,"""map""",,,-0.00173992244527,-0.0469576157629,-0.0382331311703,,0.007039946816,-0.0127713149867,0.0379033773623,-0.99917504262
146152000000,,810,,146,143917727,"""map""",,,-0.00155820092186,-0.0471971556544,-0.0385895073414,,0.00704666298217,-0.0127969517951,0.0379266845695,-0.999173736068
146184000000,,811,,146,175917417,"""map""",,,-0.00138492847327,-0.0476261414587,-0.0391293652356,,0.00697683717871,-0.0127879024058,0.0379983763588,-0.999171670872
146220000000,,812,,146,215917417,"""map""",,,-0.00116296776105,-0.0476977191865,-0.0392792969942,,0.00701788327008,-0.0128522247528,0.0380202084263,-0.999169732117
146252000000,,813,,146,247917417,"""map""",,,-0.00100380997173,-0.0476260818541,-0.039175927639,,0.00699983454075,-0.0128036472171,0.0380554853385,-0.999169099914
146284000000,,814,,146,279917108,"""map""",,,-0.000802462163847,-0.0477388128638,-0.0392664596438,,0.00704446015079,-0.0128290314738,0.0380411554101,-0.99916901562
146320000000,,815,,146,311917108,"""map""",,,-0.000582049193326,-0.0480278655887,-0.0394197404385,,0.00700636433882,-0.0128797713403,0.0379812225915,-0.999170870082
146352000000,,816,,146,343917108,"""map""",,,-0.000371415371774,-0.0484655983746,-0.0396146699786,,0.00703047266544,-0.0129208365294,0.0380197869579,-0.999168720593
146384000000,,817,,146,375916802,"""map""",,,-0.000160583891557,-0.0490758754313,-0.0397602431476,,0.00696330540616,-0.0129148750553,0.0380675393372,-0.999167498334
146424000000,,818,,146,415916802,"""map""",,,-9.09236405278e-05,-0.0492998659611,-0.0398404896259,,0.00702050427722,-0.012954839158,0.038052029297,-0.999167161159
146452000000,,819,,146,447916802,"""map""",,,-9.87192906905e-05,-0.0493042729795,-0.0398303680122,,0.00698174366457,-0.0129427337929,0.0380467187941,-0.999167751215
146484000000,,820,,146,479916497,"""map""",,,-9.00812519831e-05,-0.0495039410889,-0.039907515049,,0.00706715655798,-0.0129381980676,0.0381141116048,-0.999164674495
146520000000,,821,,146,511916497,"""map""",,,-9.25193307921e-05,-0.0498601421714,-0.0401178859174,,0.00707243512149,-0.0129053989291,0.0382087312797,-0.999161429188
146552000000,,822,,146,543916497,"""map""",,,-3.55193333235e-05,-0.0503997839987,-0.0403135307133,,0.00707430571716,-0.0129203712677,0.0382024935462,-0.999161513481
146584000000,,823,,146,575916194,"""map""",,,4.81084862258e-05,-0.0510491319001,-0.0406721904874,,0.0072089049706,-0.0129725141633,0.0382213753343,-0.999159153258
146620000000,,824,,146,615916194,"""map""",,,0.000182991308975,-0.0520629435778,-0.040998056531,,0.00716258624263,-0.0130068592351,0.0382992205635,-0.999155992244
146652000000,,825,,146,647916194,"""map""",,,0.00030430580955,-0.0530499704182,-0.0412260256708,,0.00709817630921,-0.012972083146,0.0383417467336,-0.999155275748
146684000000,,826,,146,679915892,"""map""",,,0.000427635328379,-0.0541280210018,-0.0414510294795,,0.00714835542509,-0.0130372941988,0.0383485323762,-0.999153800608
146720000000,,827,,146,711915892,"""map""",,,0.000465980963781,-0.0546447634697,-0.0415175072849,,0.00710253784949,-0.013043053829,0.038386169512,-0.999152662643
146752000000,,828,,146,743915892,"""map""",,,0.000436361995526,-0.0546885617077,-0.0413517765701,,0.00711602484101,-0.0130654140493,0.0384302551155,-0.999150555301
146784000000,,829,,146,775915592,"""map""",,,0.000453448126791,-0.0549138598144,-0.0412635691464,,0.00710711209964,-0.0131168845709,0.0384561332805,-0.999148953721
146820000000,,830,,146,815915592,"""map""",,,0.00051449611783,-0.0554585196078,-0.0411869771779,,0.00700267648957,-0.0131212056107,0.0384834865852,-0.999148574399
146852000000,,831,,146,847915592,"""map""",,,0.000580629275646,-0.0560752563179,-0.0413027666509,,0.00702283914677,-0.0131386656012,0.0384958356118,-0.999147689315
146884000000,,832,,146,879915294,"""map""",,,0.000663496146444,-0.0568073615432,-0.0415817014873,,0.00696814504975,-0.0131074854944,0.0384952877028,-0.999148490105
146920000000,,833,,146,911915294,"""map""",,,0.000850556592923,-0.0570098087192,-0.0416652522981,,0.00694038180111,-0.0131669141972,0.0385830374414,-0.999144612595
146952000000,,834,,146,943915294,"""map""",,,0.00111904426012,-0.0567615963519,-0.041641343385,,0.00693679931899,-0.0131287897385,0.0385903288462,-0.999144823329
146984000000,,835,,146,975914997,"""map""",,,0.00142318580765,-0.0567356161773,-0.0416893810034,,0.00692354940349,-0.0131215918471,0.038618735822,-0.999143896099
147020000000,,836,,147,15914997,"""map""",,,0.0017996794777,-0.0569394566119,-0.0419776439667,,0.00693754709628,-0.012917622503,0.038652411154,-0.999145118357
147052000000,,837,,147,47914997,"""map""",,,0.0021570364479,-0.0572792738676,-0.0422569140792,,0.00695333372522,-0.0129280064328,0.0386842741715,-0.999143685365
147084000000,,838,,147,79914702,"""map""",,,0.00252943276428,-0.0577782653272,-0.0427084602416,,0.00694595374619,-0.0129664381024,0.0386165020391,-0.999145877001
147120000000,,839,,147,111914702,"""map""",,,0.00278118252754,-0.0577673614025,-0.0428319759667,,0.00692479734533,-0.0129834509413,0.0385788649034,-0.999147267847
147152000000,,840,,147,143914702,"""map""",,,0.00289425835945,-0.0573164001107,-0.0427169017494,,0.00691940485363,-0.0130124087896,0.0385885165317,-0.99914655135
147184000000,,841,,147,175914409,"""map""",,,0.00301982392557,-0.0570384375751,-0.0427161231637,,0.00693315559223,-0.0130540587663,0.0386175135634,-0.999144781183
147220000000,,842,,147,215914409,"""map""",,,0.00318511133082,-0.0569780878723,-0.0427903607488,,0.00694119345722,-0.0130951496387,0.0386154483679,-0.999144233274
147252000000,,843,,147,247914409,"""map""",,,0.00332620064728,-0.0571779347956,-0.0428807474673,,0.00694476968317,-0.0131192717948,0.0385766732672,-0.999145413385
147284000000,,844,,147,279914117,"""map""",,,0.00347034074366,-0.0575392842293,-0.0430508106947,,0.00692424318013,-0.0131203251367,0.038531660433,-0.999147267847
147320000000,,845,,147,311914117,"""map""",,,0.00348774157465,-0.0574166849256,-0.0430435948074,,0.00691881907829,-0.0131556155491,0.038540300537,-0.99914655135
147352000000,,846,,147,343914117,"""map""",,,0.00338805792853,-0.0568840056658,-0.0428858287632,,0.00688931002816,-0.0131673820931,0.0385134108476,-0.999147647168
147384000000,,847,,147,375925827,"""map""",,,0.00335056497715,-0.0565911903977,-0.042712431401,,0.00693975486674,-0.0131847752413,0.038531955461,-0.999146298469
147420000000,,848,,147,415925827,"""map""",,,0.00334112183191,-0.0565173402429,-0.0425803363323,,0.00690109040159,-0.0131760745513,0.0385314496988,-0.999146719938
147452000000,,849,,147,447925827,"""map""",,,0.00335443671793,-0.0566468909383,-0.0425388328731,,0.00693429652059,-0.0131929652301,0.0385341049502,-0.999146172029
147484000000,,850,,147,479925539,"""map""",,,0.00339673785493,-0.0569493547082,-0.0425581969321,,0.00691548552599,-0.013209472636,0.038545568893,-0.999145666266
147520000000,,851,,147,511925539,"""map""",,,0.00340527179651,-0.0568521209061,-0.0424053668976,,0.00696877659393,-0.0132147564679,0.0385588872972,-0.999144654742
147552000000,,852,,147,543925539,"""map""",,,0.00336962100118,-0.0564153529704,-0.0419696234167,,0.00693626688575,-0.0131724370807,0.038562554073,-0.999145286945
147584000000,,853,,147,575925252,"""map""",,,0.00333713041618,-0.0561619587243,-0.0416869372129,,0.00697081742336,-0.0131674999725,0.0385310703771,-0.999146340616
147620000000,,854,,147,615925252,"""map""",,,0.00331451511011,-0.0560982823372,-0.0414434634149,,0.00694555236332,-0.0131783442249,0.03850160973,-0.999147562875
147652000000,,855,,147,647925252,"""map""",,,0.00331927160732,-0.0562550090253,-0.041302934289,,0.00693990238071,-0.0132224189625,0.0385046443031,-0.999146888525
147684000000,,856,,147,679924966,"""map""",,,0.00332539877854,-0.0565925985575,-0.0412348285317,,0.00697765311536,-0.0129652122218,0.0385577914791,-0.999147942196
147720000000,,857,,147,711924966,"""map""",,,0.00329451099969,-0.0565440878272,-0.0409439913929,,0.00697243250377,-0.0130210511985,0.0385719106734,-0.999146719938
147752000000,,858,,147,743924966,"""map""",,,0.00319875008427,-0.0561662316322,-0.040637973696,,0.00700192344393,-0.0129919185065,0.0386043215999,-0.999145581973
147784000000,,859,,147,775924682,"""map""",,,0.00312038464472,-0.0559933595359,-0.0404085591435,,0.00700220628879,-0.0130437383861,0.0386187779689,-0.999144359714
147820000000,,860,,147,815924682,"""map""",,,0.00304102851078,-0.0560237318277,-0.0402785539627,,0.00702035544616,-0.013056355111,0.0386532119441,-0.999142715987
147852000000,,861,,147,847924682,"""map""",,,0.00301875080913,-0.0562434084713,-0.0402265451849,,0.00700279930812,-0.0130816478299,0.0386700285367,-0.999141915197
147884000000,,862,,147,879924400,"""map""",,,0.00302037736401,-0.0566211827099,-0.0401590876281,,0.00706172619997,-0.0130801631413,0.0386954009395,-0.999140482204
147920000000,,863,,147,911924400,"""map""",,,0.0029701073654,-0.0565474554896,-0.0398923233151,,0.00708271039144,-0.0131328608607,0.0387635102467,-0.999137026162
147952000000,,864,,147,943924400,"""map""",,,0.00286761228926,-0.0560931973159,-0.0395145900548,,0.00706925764423,-0.0131426481492,0.0387680199595,-0.999136815428
147984000000,,865,,147,975924119,"""map""",,,0.00279281055555,-0.0558795742691,-0.0391289144754,,0.00702099028307,-0.0131846474837,0.0387981128093,-0.999135466729
148020000000,,866,,148,15924119,"""map""",,,0.00275683146901,-0.055886477232,-0.0389292538166,,0.00699318291194,-0.0132188150777,0.0388253396734,-0.99913411803
148052000000,,867,,148,47924119,"""map""",,,0.00273723690771,-0.0560747906566,-0.0390639826655,,0.00701678547638,-0.0132764373929,0.0388247917644,-0.999133232946
148084000000,,868,,148,79923840,"""map""",,,0.00273767719045,-0.0564464889467,-0.0392710082233,,0.00708242260749,-0.0132744525397,0.0388641569209,-0.999131209897
