rosbagTimestamp,header,seq,stamp,secs,nsecs,frame_id,pose,position,x,y,z,orientation,x,y,z,w
97788000000,,45,,97,740000000,"""map""",,,0.0298865772784,0.00781208276749,0.0439709722996,,0.0109134605017,-0.0189909718489,0.0529645536776,-0.998356213647
97788000000,,46,,97,780000000,"""map""",,,0.0305697843432,0.00786828994751,0.0438228771091,,0.0108470285073,-0.0189312030079,0.0530014321701,-0.998356087206
97816000000,,47,,97,816000000,"""map""",,,0.031770054251,0.00800538249314,0.0435993671417,,0.010754680811,-0.018886091392,0.0530256244611,-0.998356592969
97848000000,,48,,97,848000000,"""map""",,,0.0330064669251,0.00819922797382,0.0436104014516,,0.0107062524357,-0.0188227673984,0.0530186280843,-0.998358700311
97880000000,,49,,97,880000000,"""map""",,,0.0344610512257,0.00843775924295,0.0435192212462,,0.0106692129291,-0.0187792616433,0.0530607327859,-0.998357730934
97916000000,,50,,97,916000000,"""map""",,,0.0361082591116,0.0087138582021,0.0435353443027,,0.0105803064571,-0.018724892538,0.0530631351563,-0.998359543248
97948000000,,51,,97,948000000,"""map""",,,0.0371260307729,0.00899826083332,0.0432709306479,,0.0106119916675,-0.0186836426271,0.0530845457554,-0.998358868898
97980000000,,52,,97,980000000,"""map""",,,0.0375290513039,0.00930900592357,0.0430881045759,,0.0105903818588,-0.0186073742828,0.0531526550625,-0.99835684585
98016000000,,53,,98,16000000,"""map""",,,0.038378868252,0.00978281442076,0.0427541993558,,0.0105920380982,-0.0185572096549,0.0531848974017,-0.99835604506
98048000000,,54,,98,48000000,"""map""",,,0.0393000282347,0.0101912310347,0.042438171804,,0.0105982303922,-0.0185399538131,0.0531577126844,-0.99835777308
98080000000,,55,,98,80000000,"""map""",,,0.0404902026057,0.0106410346925,0.042283192277,,0.0106082537689,-0.0182156729972,0.0531387044557,-0.998364643017
98116000000,,56,,98,116000000,"""map""",,,0.0419174954295,0.0111307501793,0.0421517714858,,0.0105878751091,-0.0181869611152,0.0531340683024,-0.998365654541
98148000000,,57,,98,148000000,"""map""",,,0.0428563654423,0.0113678667694,0.0418014042079,,0.0106185175143,-0.0181709858133,0.0531226043596,-0.998366244597
98180000000,,58,,98,180000000,"""map""",,,0.0433217361569,0.0113999731839,0.0411179810762,,0.0106397084888,-0.0180836374576,0.053039575068,-0.998371976568
98216000000,,59,,98,216000000,"""map""",,,0.0441998504102,0.0115149114281,0.0402813628316,,0.0105802317123,-0.0179698617107,0.0529677146913,-0.99837850933
98248000000,,60,,98,248000000,"""map""",,,0.0451796241105,0.0116757471114,0.0396628640592,,0.0105629156137,-0.0179626588802,0.052949717987,-0.998379731588
98280000000,,61,,98,280000000,"""map""",,,0.046408507973,0.0118637364358,0.039195317775,,0.0105657829165,-0.0178474438843,0.0529357673801,-0.998382555427
98316000000,,62,,98,316000000,"""map""",,,0.0478480271995,0.0121054379269,0.039001993835,,0.0105299712661,-0.0178014326966,0.0528772254075,-0.998386812259
98348000000,,63,,98,348000000,"""map""",,,0.048597600311,0.0121401688084,0.0388714298606,,0.0104444151393,-0.0177659852214,0.0528714934361,-0.99838866672
98380000000,,64,,98,380000000,"""map""",,,0.048728775233,0.0120049733669,0.0386463068426,,0.0103447740625,-0.0176153872877,0.0528585965005,-0.998393049993
98416000000,,65,,98,416000000,"""map""",,,0.0492572523654,0.0119046065956,0.038574706763,,0.0102510602156,-0.0174810287323,0.0528870456232,-0.998394862307
98448000000,,66,,98,448000000,"""map""",,,0.0499647893012,0.0118841882795,0.0384716242552,,0.0102541260695,-0.0174500906406,0.052867910954,-0.998396379594
98480000000,,67,,98,480000000,"""map""",,,0.0508925393224,0.0119394594803,0.0384546965361,,0.0102415699307,-0.0173549773865,0.0528595237312,-0.998398613377
98516000000,,68,,98,516000000,"""map""",,,0.0520393960178,0.0120464544743,0.0384852923453,,0.0102400374976,-0.0173153507879,0.0528280400353,-0.998401015747
98548000000,,69,,98,548000000,"""map""",,,0.0524190142751,0.0122028598562,0.0383166819811,,0.0101700743876,-0.0172992342281,0.052787789795,-0.998404176761
98580000000,,70,,98,580000000,"""map""",,,0.0520880818367,0.012384172529,0.0380757376552,,0.0102392169511,-0.0171757459376,0.0527376350453,-0.998408222858
98616000000,,71,,98,616000000,"""map""",,,0.0520312897861,0.0126588428393,0.0379233360291,,0.0101974323021,-0.0169738427769,0.0525940407324,-0.998419644654
98648000000,,72,,98,648000000,"""map""",,,0.0522660240531,0.012947098352,0.0378831252456,,0.0102070826133,-0.0168870426595,0.0525570779462,-0.998422974255
98680000000,,73,,98,680000000,"""map""",,,0.0527397878468,0.0132789202034,0.0378874838352,,0.0101458557548,-0.0167560456445,0.0524176140245,-0.998433131645
98716000000,,74,,98,716000000,"""map""",,,0.05345672369,0.0136777795851,0.0380480922759,,0.0102052149811,-0.0166635985079,0.052321224182,-0.998439158645
98748000000,,75,,98,748000000,"""map""",,,0.0534196048975,0.0138504998758,0.0382909327745,,0.0102128056944,-0.0165431964863,0.0522978748279,-0.998442277512
98780000000,,76,,98,780000000,"""map""",,,0.0526545383036,0.0138169433922,0.0384790860116,,0.0101841198249,-0.0163946311502,0.0522910891853,-0.998445354232
98816000000,,77,,98,816000000,"""map""",,,0.0520485341549,0.0138592319563,0.0385982729495,,0.0101418626702,-0.0161908112957,0.0522290490243,-0.998452434902
98848000000,,78,,98,848000000,"""map""",,,0.051854070276,0.0139421522617,0.0388611592352,,0.0101313124579,-0.0161516493002,0.0522118531101,-0.998454036482
98880000000,,79,,98,880000000,"""map""",,,0.0518935248256,0.0140495412052,0.0393192917109,,0.0100788965956,-0.0160190589367,0.0521423529569,-0.998460316363
98916000000,,80,,98,916000000,"""map""",,,0.0521463565528,0.0142058413476,0.0398030690849,,0.0100125897247,-0.0158414172142,0.0521098155898,-0.998465542572
98948000000,,81,,98,948000000,"""map""",,,0.0516886748374,0.0143491392955,0.0397744625807,,0.00997624531186,-0.015825396802,0.052099194584,-0.998466722684
98980000000,,82,,98,980000000,"""map""",,,0.0505876280367,0.0144784711301,0.0394157655537,,0.00994567370017,-0.0156375924207,0.0520214336485,-0.998474014089
99016000000,,83,,99,16000000,"""map""",,,0.0495964102447,0.0147590460256,0.0391819030046,,0.00987228484165,-0.0154827060451,0.0518836134539,-0.99848429792
99048000000,,84,,99,48000000,"""map""",,,0.0490572936833,0.0150619605556,0.0391680710018,,0.00987157394285,-0.0154388071389,0.0518761534617,-0.998485351591
99080000000,,85,,99,80000000,"""map""",,,0.0487616583705,0.0154219614342,0.0392736457288,,0.00991918901569,-0.0153247923405,0.0518123852799,-0.998490029891
99116000000,,86,,99,116000000,"""map""",,,0.0486794263124,0.0158555917442,0.0394456274807,,0.0100874575096,-0.0152048399401,0.0517103056128,-0.998495424688
99148000000,,87,,99,148000000,"""map""",,,0.0479187071323,0.0161211509258,0.0394791141152,,0.0100603383174,-0.0151611655976,0.0516697603445,-0.998498459261
99180000000,,88,,99,180000000,"""map""",,,0.046525336802,0.0162518899888,0.0392805486917,,0.0100011364833,-0.0149777991477,0.0515377985618,-0.998508616651
99216000000,,89,,99,216000000,"""map""",,,0.0451290458441,0.0164543520659,0.0392604134977,,0.00999561722174,-0.0148386625226,0.0514304505387,-0.998516329524
99248000000,,90,,99,248000000,"""map""",,,0.0442699044943,0.0166742969304,0.0394931286573,,0.00994519329195,-0.0148205056273,0.0513762496915,-0.99851986986
99280000000,,91,,99,280000000,"""map""",,,0.0436517558992,0.016917642206,0.0399053245783,,0.00990735167816,-0.0146605836912,0.0513208265857,-0.998525475391
99316000000,,92,,99,316000000,"""map""",,,0.043268494308,0.0172099098563,0.0404115207493,,0.00991156916182,-0.0145771749133,0.0512455523143,-0.998530533012
99348000000,,93,,99,348000000,"""map""",,,0.0423192791641,0.017193203792,0.0402562581003,,0.00985768606236,-0.0145083263899,0.0511576761351,-0.998536560012
99380000000,,94,,99,380000000,"""map""",,,0.0408707745373,0.0168774146587,0.039605461061,,0.00983333390964,-0.0144167957827,0.0510769649202,-0.998542249836
99416000000,,95,,99,416000000,"""map""",,,0.0394277647138,0.0166381262243,0.0389408394694,,0.00966371309462,-0.0142094393795,0.0509837360913,-0.99855169073
99448000000,,96,,99,448000000,"""map""",,,0.0385532155633,0.0165298357606,0.0386657863855,,0.00963663489691,-0.0141819663844,0.0509041628413,-0.998556326884
99480000000,,97,,99,480000000,"""map""",,,0.0379160456359,0.0164891500026,0.0384441241622,,0.00952735108217,-0.0140619792458,0.050778775967,-0.99856547275
99516000000,,98,,99,516000000,"""map""",,,0.0374868549407,0.0165010951459,0.0382676646113,,0.00954020274288,-0.0139846771511,0.050669994951,-0.998572005511
99548000000,,99,,99,548000000,"""map""",,,0.0365775860846,0.0163312777877,0.03780195117,,0.00948809689041,-0.013926779729,0.0506436110238,-0.998574618616
99580000000,,100,,99,580000000,"""map""",,,0.0352227836847,0.0159942805767,0.0370260253549,,0.0094350967345,-0.0137768638827,0.0505314161131,-0.998582879398
99616000000,,101,,99,616000000,"""map""",,,0.0339029021561,0.0155954305083,0.0363285429776,,0.00935808028356,-0.0136612349917,0.0504861503978,-0.998587515552
99648000000,,102,,99,648000000,"""map""",,,0.0331188328564,0.0153266806155,0.0360575690866,,0.00933624525259,-0.0135954862373,0.0504511263667,-0.998590423684
99680000000,,103,,99,680000000,"""map""",,,0.0325633510947,0.0151112889871,0.0358850508928,,0.00926104029295,-0.0135456704733,0.0503484987906,-0.998596956446
99716000000,,104,,99,716000000,"""map""",,,0.0322117842734,0.0149236973375,0.0357440523803,,0.00922167497181,-0.0134911826654,0.0502564922203,-0.99860264627
99748000000,,105,,99,748000000,"""map""",,,0.0313657335937,0.014451851137,0.0354154109955,,0.0091979385582,-0.0134940142421,0.0502032607506,-0.998605470109
99780000000,,106,,99,780000000,"""map""",,,0.0300851948559,0.0137136122212,0.0349383279681,,0.00912317548193,-0.0133918632876,0.050096039168,-0.998612972248
99816000000,,107,,99,816000000,"""map""",,,0.0288303792477,0.0128716370091,0.034456409514,,0.0090784537244,-0.0132636538915,0.0500130098764,-0.998619209982
99848000000,,108,,99,848000000,"""map""",,,0.028104968369,0.0122832003981,0.0342638157308,,0.00916602088153,-0.0132421334802,0.0499384942483,-0.998622497436
99880000000,,109,,99,880000000,"""map""",,,0.0276393331587,0.0117144715041,0.0343455038965,,0.00925919241706,-0.0131738786346,0.0498126016118,-0.99862886161
99916000000,,110,,99,916000000,"""map""",,,0.0273731667548,0.0111622745171,0.0345907397568,,0.00916459430949,-0.0131387013273,0.0496624745374,-0.998637628154
99948000000,,111,,99,948000000,"""map""",,,0.0266440846026,0.0105185108259,0.0346097201109,,0.00913843132401,-0.0131112877658,0.049597484097,-0.998641421371
99980000000,,112,,99,980000000,"""map""",,,0.0254954379052,0.0098038520664,0.0345060229301,,0.00901209927368,-0.0130344562012,0.0494825917879,-0.998649260685
100020000000,,113,,100,12000000,"""map""",,,0.0244220867753,0.00900375656784,0.0344680398703,,0.00903238787752,-0.0130133457338,0.0493468367889,-0.998656130621
100048000000,,114,,100,48000000,"""map""",,,0.0238283500075,0.00841043330729,0.034455973655,,0.00902110602228,-0.0129850833085,0.0493190198688,-0.998657985082
100080000000,,115,,100,80000000,"""map""",,,0.0234565585852,0.00785761792213,0.0344716310501,,0.00893274202629,-0.012898520761,0.0491886175195,-0.998666245865
100116000000,,116,,100,116000000,"""map""",,,0.0232627112418,0.00735689327121,0.0345586165786,,0.00889699771212,-0.0128255657186,0.0490611233028,-0.99867379015
100148000000,,117,,100,148000000,"""map""",,,0.0227731354535,0.00684529030696,0.034521818161,,0.00889733933209,-0.0128024713859,0.0489754809066,-0.99867834201
100180000000,,118,,100,180000000,"""map""",,,0.0219974648207,0.00629624305293,0.0342715494335,,0.00890802421673,-0.0127385247386,0.0488634967301,-0.998684537597
100216000000,,119,,100,216000000,"""map""",,,0.0213223546743,0.00562435062602,0.0339602269232,,0.00890742691686,-0.0126491042726,0.0486997140768,-0.998693641316
100248000000,,120,,100,248000000,"""map""",,,0.0210719201714,0.00522371986881,0.0339022167027,,0.00892380080287,-0.0126570780941,0.0486388961744,-0.998696380861
100280000000,,121,,100,280000000,"""map""",,,0.0208956003189,0.00471547432244,0.0338762849569,,0.00884517239961,-0.0126211039479,0.0484352426024,-0.998707423336
100316000000,,122,,100,316000000,"""map""",,,0.0208990518004,0.00417022453621,0.0337843298912,,0.00885523002061,-0.0126023825153,0.0482602910342,-0.99871606344
100348000000,,123,,100,348000000,"""map""",,,0.0205226913095,0.00362769979984,0.0337801091373,,0.008793480607,-0.0125543947063,0.0482263628212,-0.998718887278
100380000000,,124,,100,380000000,"""map""",,,0.019784944132,0.00295630702749,0.0338179878891,,0.0087412469969,-0.0125544715914,0.048095665444,-0.998725588627
100416000000,,125,,100,416000000,"""map""",,,0.0192170776427,0.00230556889437,0.0339569635689,,0.00873490669501,-0.0124673196466,0.0479540941798,-0.998733554382
100448000000,,126,,100,448000000,"""map""",,,0.0188239105046,0.00166165025439,0.0342781245708,,0.00873927547928,-0.0124896706472,0.0479068475626,-0.998735535284
100480000000,,127,,100,480000000,"""map""",,,0.0185959041119,0.00103320914786,0.0345868170261,,0.00876866582676,-0.0122500979174,0.0478222166908,-0.998742278779
100516000000,,128,,100,516000000,"""map""",,,0.0185660738498,0.000316213758197,0.0352612696588,,0.00873930033933,-0.0121674844967,0.0477683108716,-0.998746114143
100548000000,,129,,100,548000000,"""map""",,,0.017966106534,0.00010845005454,0.0351596958935,,0.00872610821111,-0.0121815485379,0.0476931630407,-0.998749696625
100580000000,,130,,100,580000000,"""map""",,,0.0173263177276,2.70808632195e-05,0.0349488854408,,0.00868795938631,-0.0121462617475,0.0475371354075,-0.998757873113
100616000000,,131,,100,616000000,"""map""",,,0.0168942026794,-5.3206764278e-05,0.0348334796727,,0.00868588892238,-0.0121072350829,0.0473816556833,-0.998765754574
100648000000,,132,,100,648000000,"""map""",,,0.0166353713721,-0.000129950247356,0.0347836576402,,0.0086764315647,-0.0121263954353,0.047315822306,-0.998768704853
100680000000,,133,,100,680000000,"""map""",,,0.0165270194411,-0.000234864346567,0.0347449891269,,0.00863440259566,-0.0121294714967,0.0472234785609,-0.998773383154
100716000000,,134,,100,716000000,"""map""",,,0.0166083369404,-0.00040825229371,0.0347767956555,,0.00866937147367,-0.0120791703855,0.0470918960998,-0.998779958062
100748000000,,135,,100,748000000,"""map""",,,0.0157458558679,-0.000580709427595,0.0347345322371,,0.00868847963647,-0.012086803081,0.0470571249498,-0.998781348908
100780000000,,136,,100,780000000,"""map""",,,0.0147178787738,-0.000758583308198,0.0345590934157,,0.00872064015143,-0.0119334703765,0.0469037947149,-0.998790115452
100816000000,,137,,100,816000000,"""map""",,,0.0139027787372,-0.000933294766583,0.0344137847424,,0.00868115942036,-0.0118260364133,0.046768840506,-0.99879803906
100848000000,,138,,100,848000000,"""map""",,,0.0132717592642,-0.00108749594074,0.0343683362007,,0.00868066584125,-0.0118484450366,0.0467087391,-0.998800567871
100880000000,,139,,100,880000000,"""map""",,,0.0128364767879,-0.00125160627067,0.0344366319478,,0.00872062500491,-0.0118295527117,0.0465519949704,-0.998807774982
100916000000,,140,,100,916000000,"""map""",,,0.0124559821561,-0.00144773244392,0.0345691591501,,0.00870006080019,-0.0117779035599,0.0464385356542,-0.998813844128
100948000000,,141,,100,948000000,"""map""",,,0.0117906797677,-0.00152243045159,0.0351828485727,,0.00870904647537,-0.0117434006021,0.0463829018142,-0.998816794407
100984000000,,142,,100,984000000,"""map""",,,0.0110924364999,-0.00159990414977,0.0359301306307,,0.00864297157679,-0.0116521558032,0.0462613081562,-0.998824085812
101016000000,,143,,101,16000000,"""map""",,,0.0105674248189,-0.00168419652618,0.0366488955915,,0.00861676084683,-0.0116427827392,0.0461577112026,-0.998829143434
101048000000,,144,,101,48000000,"""map""",,,0.0101782428101,-0.00176809856202,0.0373941026628,,0.00860497174769,-0.0116278573218,0.0461068399564,-0.998831798686
101080000000,,145,,101,80000000,"""map""",,,0.00992287043482,-0.0018965115305,0.0380442515016,,0.00859354040284,-0.0116117364815,0.0459800200893,-0.998837909979
101116000000,,146,,101,116000000,"""map""",,,0.00978368986398,-0.00210741884075,0.0387660525739,,0.00859855982908,-0.0115792320417,0.0458469203417,-0.998844400593
101148000000,,147,,101,148000000,"""map""",,,0.00975069124252,-0.00223485194147,0.0389793477952,,0.00860557909036,-0.0116003089233,0.0457781788317,-0.998847224432
101180000000,,148,,101,180000000,"""map""",,,0.00982074812055,-0.00233557634056,0.0391516201198,,0.00860055884094,-0.011601915278,0.0456149440875,-0.998854768718
101216000000,,149,,101,216000000,"""map""",,,0.00999157503247,-0.00243382714689,0.0394297502935,,0.00863246482844,-0.0116078479408,0.0454065279216,-0.99886383029
101248000000,,150,,101,248000000,"""map""",,,0.0102571099997,-0.00253552664071,0.0398119464517,,0.0086964333724,-0.0116432484948,0.0453459629003,-0.998865642605
101280000000,,151,,101,280000000,"""map""",,,0.0106379790232,-0.00265166489407,0.0402251034975,,0.00868696416092,-0.0115793821899,0.0452048973983,-0.998872849716
101316000000,,152,,101,316000000,"""map""",,,0.0112254684791,-0.00280914641917,0.0405705943704,,0.00868959652796,-0.011543949038,0.045083135153,-0.998878708128
101348000000,,153,,101,348000000,"""map""",,,0.0113024814054,-0.0029723951593,0.0404979176819,,0.00891913822543,-0.0115577303166,0.0449955540017,-0.998880562589
101380000000,,154,,101,380000000,"""map""",,,0.0113848028705,-0.00317000760697,0.0404752753675,,0.00891061007406,-0.0115222492556,0.0447921954577,-0.998890129924
101416000000,,155,,101,416000000,"""map""",,,0.0115863773972,-0.0033844592981,0.040522672236,,0.00889560991189,-0.0114629208162,0.0446320795802,-0.998898095678
101448000000,,156,,101,448000000,"""map""",,,0.0118779465556,-0.00361411715858,0.0407445318997,,0.00887543177889,-0.0114944114268,0.0445751813347,-0.998900455902
101480000000,,157,,101,480000000,"""map""",,,0.0122773563489,-0.00385718722828,0.041061040014,,0.00890490205722,-0.0114927751906,0.0444444418106,-0.998906103579
101516000000,,158,,101,516000000,"""map""",,,0.0128738787025,-0.00417444529012,0.0414190739393,,0.00890542658792,-0.0114620708822,0.0443316146972,-0.998911456229
101548000000,,159,,101,548000000,"""map""",,,0.0127177955583,-0.00416656443849,0.0413602739573,,0.00888023199213,-0.0115012569146,0.0443015639942,-0.998912594194
101580000000,,160,,101,580000000,"""map""",,,0.0124838445336,-0.00410237722099,0.041217006743,,0.00881071405823,-0.0114385970632,0.0441896641114,-0.998918874075
101616000000,,161,,101,616000000,"""map""",,,0.0123832179233,-0.00406841328368,0.0411162488163,,0.00888488329199,-0.0114692233341,0.0440308126393,-0.99892481678
101648000000,,162,,101,648000000,"""map""",,,0.0124081419781,-0.0040515223518,0.0410334691405,,0.00883139507228,-0.0114398719231,0.043964979262,-0.998928609997
101680000000,,163,,101,680000000,"""map""",,,0.0125492718071,-0.00408504111692,0.0410377494991,,0.00884473586692,-0.0114873872264,0.0438304465215,-0.998933836206
101716000000,,164,,101,716000000,"""map""",,,0.0128854643553,-0.00416551157832,0.0411862879992,,0.00878918450959,-0.011501824333,0.0436342107948,-0.998942687044
101748000000,,165,,101,748000000,"""map""",,,0.0123760746792,-0.00410278979689,0.0412045642734,,0.00880273348661,-0.0114632980799,0.0436015469872,-0.998944415065
101780000000,,166,,101,780000000,"""map""",,,0.0117343384773,-0.00399713637307,0.0411629416049,,0.00881677859461,-0.0114041479415,0.0434216642378,-0.998952844434
101816000000,,167,,101,816000000,"""map""",,,0.0112522188574,-0.00389142544009,0.0412726141512,,0.00876762400935,-0.0112861507597,0.0432387890621,-0.998962580356
101848000000,,168,,101,848000000,"""map""",,,0.0109178973362,-0.00379894510843,0.041400488466,,0.00872060459003,-0.0112562179362,0.0431892665151,-0.998965488489
101880000000,,169,,101,880000000,"""map""",,,0.0107156243175,-0.00374043965712,0.0415653735399,,0.00876572205049,-0.0111842028838,0.0430594963685,-0.998971515488
101916000000,,170,,101,916000000,"""map""",,,0.010627342388,-0.00370381539688,0.0416988246143,,0.00871768295732,-0.0111356716933,0.0429333087041,-0.998977837516
101948000000,,171,,101,948000000,"""map""",,,0.0100431945175,-0.00344241596758,0.0414497628808,,0.00869832191342,-0.0111578526247,0.0428693719349,-0.998980577061
101980000000,,172,,101,980000000,"""map""",,,0.00940595194697,-0.00311175687239,0.0411843322217,,0.00872186142222,-0.010931399748,0.0426899949477,-0.998990523717
102016000000,,173,,102,16000000,"""map""",,,0.0088964542374,-0.00280905747786,0.0411222279072,,0.00879092553663,-0.0109534966327,0.0425096485829,-0.998997393653
102048000000,,174,,102,48000000,"""map""",,,0.0084878699854,-0.00252544740215,0.0410575605929,,0.00878993953087,-0.0109576015053,0.0424268721724,-0.999000849695
102084000000,,175,,102,80000000,"""map""",,,0.0081905098632,-0.00226364424452,0.0410313569009,,0.00875119521719,-0.0110365815713,0.0422357362144,-0.999008393981
102116000000,,176,,102,116000000,"""map""",,,0.00790960155427,-0.00196110038087,0.0409376174212,,0.00876783828327,-0.0109786043006,0.0420999390685,-0.999014631714
102148000000,,177,,102,148000000,"""map""",,,0.00776930805296,-0.00173660716973,0.0409450680017,,0.00882101007234,-0.0109839652645,0.0420204079654,-0.999017455553
102180000000,,178,,102,180000000,"""map""",,,0.00773977488279,-0.001538445591,0.0410881601274,,0.00888866202038,-0.0110418437535,0.0419288650104,-0.999020068658
102216000000,,179,,102,216000000,"""map""",,,0.00785515177995,-0.00137316284236,0.0411507450044,,0.00886753204361,-0.0110748183118,0.0417738067547,-0.999026348538
102248000000,,180,,102,248000000,"""map""",,,0.00765811651945,-0.00119483610615,0.0411323979497,,0.0088500361624,-0.0110420000755,0.0417092377828,-0.999029635992
102280000000,,181,,102,280000000,"""map""",,,0.00718651572242,-0.000981376157142,0.0410011447966,,0.00888135555138,-0.0109821749289,0.041518607587,-0.999037938922
102316000000,,182,,102,316000000,"""map""",,,0.00675668008626,-0.000736358226277,0.0409685447812,,0.00884608407217,-0.0109442215272,0.0413757719174,-0.999044555977
102348000000,,183,,102,348000000,"""map""",,,0.00653379689902,-0.000543971022125,0.0410210564733,,0.0088430541912,-0.0109358822958,0.0413404107115,-0.999046199704
102380000000,,184,,102,380000000,"""map""",,,0.00639362633228,-0.000363484519767,0.0410689897835,,0.00882133127743,-0.0108461478687,0.041300202618,-0.999048981396
102416000000,,185,,102,416000000,"""map""",,,0.00631911540404,-0.000159986870131,0.0410422235727,,0.00888938699556,-0.0108044154916,0.0412253919619,-0.999051889528
102448000000,,186,,102,448000000,"""map""",,,0.00592336803675,0.000167213016539,0.0405733138323,,0.00882792520127,-0.0107971700203,0.0411819385611,-0.999054291899
102480000000,,187,,102,480000000,"""map""",,,0.00529401889071,0.000578309118282,0.0397148430347,,0.00885290404141,-0.0108142260761,0.0410985299479,-0.999057368619
102516000000,,188,,102,516000000,"""map""",,,0.00466222316027,0.0010798163712,0.0387090779841,,0.00883813074783,-0.0108243829727,0.0410600077283,-0.999058970199
102548000000,,189,,102,548000000,"""map""",,,0.00428085587919,0.00145833997522,0.038104031235,,0.0088937451608,-0.0108203470827,0.0410344245913,-0.999059602402
102580000000,,190,,102,580000000,"""map""",,,0.00400915881619,0.00180561444722,0.0375279970467,,0.00887681924985,-0.0107817366182,0.0409572958585,-0.999063311324
102616000000,,191,,102,616000000,"""map""",,,0.00381687353365,0.00217368919402,0.0369772277772,,0.00892833208299,-0.010849272827,0.0408167361187,-0.999067905331
102648000000,,192,,102,648000000,"""map""",,,0.00345418299548,0.00251034926623,0.0367787517607,,0.0089146132838,-0.0108272273911,0.0407807427101,-0.999069759792
102684000000,,193,,102,684000000,"""map""",,,0.00294158421457,0.00280628725886,0.0368625074625,,0.00891029372574,-0.0108371406262,0.0407163423256,-0.999072288603
102716000000,,194,,102,716000000,"""map""",,,0.00241065537557,0.00313282920979,0.0369515456259,,0.00885121775588,-0.010750208059,0.0406241671679,-0.999077472666
102748000000,,195,,102,748000000,"""map""",,,0.00208060140721,0.00337031017989,0.0370221249759,,0.00885451286564,-0.0107586758712,0.0406081092186,-0.999078020575
102780000000,,196,,102,780000000,"""map""",,,0.00179551832844,0.00358324754052,0.0371271669865,,0.00889640205861,-0.0106802796049,0.040495872161,-0.99908303605
102816000000,,197,,102,816000000,"""map""",,,0.00157122791279,0.00380878546275,0.0372206829488,,0.0089605361442,-0.0106622726108,0.0404045399403,-0.999086365651
102848000000,,198,,102,848000000,"""map""",,,0.00122158264276,0.00405444810167,0.037183471024,,0.00894058800788,-0.0106612461046,0.0403658069865,-0.999088093671
102880000000,,199,,102,880000000,"""map""",,,0.000780290400144,0.00433510262519,0.0370470918715,,0.00894717658104,-0.0105194583439,0.04026077704,-0.999093825643
102916000000,,200,,102,916000000,"""map""",,,0.000316638499498,0.00470066908747,0.0369284301996,,0.00914716774008,-0.010500499753,0.0402298834001,-0.999093446321
102948000000,,201,,102,948000000,"""map""",,,8.83465691004e-06,0.00493336608633,0.0370449274778,,0.00912349063664,-0.0104858416636,0.0401693605256,-0.999096228013
102980000000,,202,,102,980000000,"""map""",,,-0.000246977608185,0.00511240586638,0.0372255630791,,0.00912415412023,-0.0104661765368,0.040082158696,-0.999099979083
103016000000,,203,,103,16000000,"""map""",,,-0.000435935158748,0.005279537756,0.0373237840831,,0.00907435387324,-0.0104675961529,0.0400353335473,-0.999102212866
103048000000,,204,,103,48000000,"""map""",,,-0.000694526417647,0.00524621084332,0.0372779071331,,0.00903596591447,-0.0104707809565,0.039965327632,-0.999105373879
103080000000,,205,,103,80000000,"""map""",,,-0.000987493549474,0.00498849898577,0.0368694029748,,0.00898800206,-0.010395952602,0.0398910648849,-0.999109588564
103116000000,,206,,103,116000000,"""map""",,,-0.00121185497846,0.00469535589218,0.036438126117,,0.00895830672409,-0.0104142669717,0.0398257372697,-0.999112285962
103148000000,,207,,103,148000000,"""map""",,,-0.0013482485665,0.00448768632486,0.0361588671803,,0.00890050948303,-0.0103604922852,0.0398244728642,-0.99911338178
103180000000,,208,,103,180000000,"""map""",,,-0.00144550006371,0.00433226767927,0.0359355099499,,0.00888987966917,-0.0104155712191,0.039796150182,-0.999113971836
103216000000,,209,,103,216000000,"""map""",,,-0.00150117441081,0.00421854946762,0.0356285087764,,0.00884734460867,-0.0104054582804,0.0396823115442,-0.999118987311
103252000000,,210,,103,248000000,"""map""",,,-0.00172560953069,0.00406491803005,0.0351131930947,,0.00881146323493,-0.0104356972448,0.0396270570258,-0.999121221094
103280000000,,211,,103,280000000,"""map""",,,-0.00219555106014,0.00382785848342,0.034372150898,,0.008831684091,-0.0104494651879,0.0395171801918,-0.999125225045
103316000000,,212,,103,316000000,"""map""",,,-0.00249799876474,0.00366852292791,0.0338610298932,,0.0088180727992,-0.0104581900794,0.0394033837008,-0.999129776905
103348000000,,213,,103,348000000,"""map""",,,-0.0027399729006,0.00353096309118,0.0335499867797,,0.00880204473138,-0.0104883215364,0.0393560527899,-0.999131420632
103380000000,,214,,103,380000000,"""map""",,,-0.00291774794459,0.00344083411619,0.0332306735218,,0.00880129366136,-0.0104911720463,0.0392482411514,-0.999135635316
103416000000,,215,,103,416000000,"""map""",,,-0.00304214004427,0.00339460396208,0.0328434668481,,0.00879955658559,-0.0105343618647,0.0391454871347,-0.999139259945
103448000000,,216,,103,448000000,"""map""",,,-0.00317142205313,0.00325804902241,0.0322499796748,,0.00876216944983,-0.0105439729102,0.0391214212842,-0.999140482204
103480000000,,217,,103,480000000,"""map""",,,-0.00327498908155,0.00302984379232,0.0315361954272,,0.00875894455737,-0.0105477641509,0.0390821404214,-0.999141999491
103516000000,,218,,103,516000000,"""map""",,,-0.00334226130508,0.0027440271806,0.0305085033178,,0.00873643575304,-0.0105391896545,0.0389051658045,-0.999149122308
103548000000,,219,,103,548000000,"""map""",,,-0.00331730232574,0.00248693581671,0.0297406800091,,0.00873098810824,-0.010581002127,0.0388643676552,-0.999150386713
103580000000,,220,,103,580000000,"""map""",,,-0.0032603177242,0.00222476571798,0.0290912222117,,0.008762017573,-0.0105805778597,0.0388267726663,-0.999151566825
103616000000,,221,,103,616000000,"""map""",,,-0.00314851338044,0.00199951650575,0.0284735262394,,0.00901540343843,-0.0105497629158,0.0387337545716,-0.999153294846
103648000000,,222,,103,648000000,"""map""",,,-0.00326854432933,0.00171281048097,0.0280169602484,,0.00904765919539,-0.0105553326383,0.0387034931344,-0.999154053489
103680000000,,223,,103,680000000,"""map""",,,-0.00355058023706,0.00137576612178,0.0276929046959,,0.00902316619645,-0.0105405013105,0.0385753667149,-0.999159363992
103716000000,,224,,103,716000000,"""map""",,,-0.00376195600256,0.000973567424808,0.0273733735085,,0.00899278325776,-0.0105391384526,0.0383886140292,-0.999166908278
103748000000,,225,,103,748000000,"""map""",,,-0.00388381094672,0.000641810998786,0.0269271805882,,0.0089552229248,-0.0105198229306,0.0383497967817,-0.99916888918
103780000000,,226,,103,780000000,"""map""",,,-0.00397186446935,0.000286281399895,0.0264723468572,,0.00896855096014,-0.0105295966366,0.0382184672017,-0.999173693921
103816000000,,227,,103,816000000,"""map""",,,-0.00404141750187,-8.44371170388e-05,0.0260491166264,,0.00900166356582,-0.0105674645922,0.0381223723871,-0.999176728494
103848000000,,228,,103,848000000,"""map""",,,-0.00441209599376,-0.000384582701372,0.0255678016692,,0.00891289785768,-0.0104904627939,0.0380781181962,-0.999179931654
103880000000,,229,,103,880000000,"""map""",,,-0.00502568669617,-0.000617838115431,0.0247251614928,,0.00891053837502,-0.0105355367904,0.0380343276206,-0.999181238207
103916000000,,230,,103,916000000,"""map""",,,-0.00570775708184,-0.000910186558031,0.0236237086356,,0.00886209452393,-0.0105370013934,0.0379348189113,-0.999185410745
103948000000,,231,,103,948000000,"""map""",,,-0.00620418367907,-0.00117360823788,0.0226188022643,,0.00888144585429,-0.0105223665588,0.0379076763408,-0.999186422269
103980000000,,232,,103,980000000,"""map""",,,-0.00663008727133,-0.00141594838351,0.0215105246753,,0.0088233709544,-0.0104326403635,0.0378393141525,-0.999190468366
104016000000,,233,,104,16000000,"""map""",,,-0.00702979462221,-0.00166576215997,0.0205239225179,,0.0087932841961,-0.0104084498834,0.0377859562423,-0.999192997177
104048000000,,234,,104,48000000,"""map""",,,-0.00743587501347,-0.00186260603368,0.0200290903449,,0.00878706053891,-0.010422224412,0.0377682967128,-0.999193545086
104080000000,,235,,104,80000000,"""map""",,,-0.00780003238469,-0.00200561899692,0.0198165774345,,0.00882829760819,-0.0104318059053,0.0376734663036,-0.999196663953
104116000000,,236,,104,116000000,"""map""",,,-0.0081952214241,-0.00219213427044,0.019471494481,,0.00865241057754,-0.0102638536774,0.0376314458957,-0.999201510841
104148000000,,237,,104,148000000,"""map""",,,-0.00841579958797,-0.00233167898841,0.019314834848,,0.00865193486146,-0.0102307001597,0.0376238594629,-0.99920218519
104180000000,,238,,104,176000000,"""map""",,,-0.00859375484288,-0.00245077419095,0.0192136000842,,0.00872339023329,-0.0102216471483,0.0375383856542,-0.999204882589
104216000000,,239,,104,216000000,"""map""",,,-0.00872207991779,-0.00259368238039,0.0191324986517,,0.00866558574824,-0.0102924091551,0.0375310099557,-0.999204924735
104248000000,,240,,104,248000000,"""map""",,,-0.00890503637493,-0.00267992820591,0.0189621504396,,0.00872395518216,-0.0102841944709,0.0375235499635,-0.999204798295
104280000000,,241,,104,280000000,"""map""",,,-0.00913652032614,-0.0027405184228,0.0185613427311,,0.00870030355616,-0.0102692356324,0.0374689697947,-0.999207200665
104316000000,,242,,104,316000000,"""map""",,,-0.00938947405666,-0.00289476034231,0.0181702990085,,0.00875022600431,-0.0102668969762,0.0374184778702,-0.999208633658
104348000000,,243,,104,348000000,"""map""",,,-0.00954939518124,-0.0030427351594,0.0178534965962,,0.00875950259152,-0.0102516447561,0.0373918832087,-0.999209771623
104380000000,,244,,104,380000000,"""map""",,,-0.00993152614683,-0.00316569604911,0.0188579037786,,0.00810002657233,-0.00908637823741,0.0371501288857,-0.999235565494
104416000000,,245,,104,416000000,"""map""",,,-0.0108253788203,-0.00336796185002,0.0229541398585,,0.00171405100198,-0.00268953108505,0.0359925235445,-0.999347001762
104448000000,,246,,104,448000000,"""map""",,,-0.0121514005587,-0.00360647030175,0.0296886134893,,-0.00198935121184,0.000894101721426,0.0353588035303,-0.999372289871
104480000000,,247,,104,480000000,"""map""",,,-0.0137836225331,-0.00386596284807,0.0377952866256,,-0.013495019181,0.0130663409507,0.0332585839221,-0.999270252351
104516000000,,248,,104,516000000,"""map""",,,-0.0162236616015,-0.0043061231263,0.0482016094029,,-0.0228553155492,0.0239532694349,0.0312050630221,-0.998964561258
104548000000,,249,,104,548000000,"""map""",,,-0.018372097984,-0.00472841272131,0.0562392994761,,-0.0279029268354,0.0299761759179,0.0299783789962,-0.998711300846
104580000000,,250,,104,580000000,"""map""",,,-0.0206861700863,-0.00523724080995,0.0643155947328,,-0.0392787692992,0.0429405283275,0.0270235898877,-0.997939465609
104616000000,,251,,104,616000000,"""map""",,,-0.0240000430495,-0.00619948655367,0.0748651400208,,-0.0504709134889,0.0551753358293,0.0240312479371,-0.99691074533
104648000000,,252,,104,648000000,"""map""",,,-0.0262596644461,-0.00743982708082,0.0809328332543,,-0.0551970674688,0.0602907238578,0.0226817058478,-0.996395457961
104680000000,,253,,104,680000000,"""map""",,,-0.0301835704595,-0.0101892650127,0.0892859324813,,-0.06619083665,0.071981452753,0.0190465401637,-0.995025011034
104716000000,,254,,104,716000000,"""map""",,,-0.0371831096709,-0.0155844250694,0.101313114166,,-0.0738798126644,0.0799088218793,0.0152746501031,-0.993943185727
104748000000,,255,,104,748000000,"""map""",,,-0.0444869697094,-0.0215342175215,0.111488841474,,-0.0767645388935,0.0822773209955,0.0133703711937,-0.993558722175
104780000000,,256,,104,780000000,"""map""",,,-0.0527523010969,-0.0284244045615,0.118020839989,,-0.0788526784905,0.0747838375403,0.00919513579277,-0.994034728682
104816000000,,257,,104,816000000,"""map""",,,-0.061754245311,-0.0360700897872,0.119247667491,,-0.0660663796406,0.0501744072815,0.00426496604136,-0.996543899161
104848000000,,258,,104,848000000,"""map""",,,-0.0708853900433,-0.0438497066498,0.115834645927,,-0.0538172924243,0.0363074526991,0.00230673916585,-0.997887877866
104880000000,,259,,104,880000000,"""map""",,,-0.0799396410584,-0.0517207235098,0.109639525414,,-0.0250402481003,0.00974606161581,-0.000632413461906,-0.999638826541
104916000000,,260,,104,916000000,"""map""",,,-0.0911256372929,-0.0620510429144,0.101234801114,,-0.000668182636129,-0.0108566623549,-0.00229637104112,-0.999938237753
104948000000,,261,,104,948000000,"""map""",,,-0.0995047166944,-0.0701807588339,0.0957637503743,,0.00726106070782,-0.0171570531518,-0.0027271118329,-0.999822755388
104980000000,,262,,104,980000000,"""map""",,,-0.106880493462,-0.077671058476,0.0944859981537,,0.0166761582688,-0.0232942875711,-0.00339724672422,-0.999583782757
105016000000,,263,,105,16000000,"""map""",,,-0.112860895693,-0.0842578262091,0.10341887176,,0.00488264259427,-0.0112749049598,-0.00358197636124,-0.999918133706
105048000000,,264,,105,48000000,"""map""",,,-0.117870829999,-0.090108692646,0.125354856253,,-0.000568719366366,-0.00563996779063,-0.00365366815056,-0.999977265734
105080000000,,265,,105,80000000,"""map""",,,-0.122646681964,-0.095814242959,0.156362846494,,-0.0245687578914,0.0186683979803,-0.00426184717457,-0.999514746219
105116000000,,266,,105,116000000,"""map""",,,-0.129067018628,-0.103571139276,0.199880719185,,-0.0465444836117,0.0423543255923,-0.00517403141689,-0.99800458249
105152000000,,267,,105,148000000,"""map""",,,-0.134938269854,-0.110527284443,0.233708336949,,-0.0532938835543,0.0506938451282,-0.00552840211917,-0.997275947773
105180000000,,268,,105,180000000,"""map""",,,-0.141643449664,-0.11831368506,0.265193790197,,-0.0662724345128,0.0676375546371,-0.00620629203062,-0.995487151228
105216000000,,269,,105,216000000,"""map""",,,-0.149441376328,-0.127182379365,0.295135080814,,-0.0750297423401,0.0783616054729,-0.00670370913675,-0.994074978922
105248000000,,270,,105,248000000,"""map""",,,-0.159529283643,-0.137352958322,0.323070585728,,-0.0770595286375,0.080510363104,-0.00680789614627,-0.993747245028
105280000000,,271,,105,280000000,"""map""",,,-0.172007247806,-0.148993879557,0.350818783045,,-0.0802957739065,0.0834546476044,-0.00703152732447,-0.993246456174
105316000000,,272,,105,316000000,"""map""",,,-0.189620807767,-0.165784999728,0.388899743557,,-0.0815272424229,0.0840729410489,-0.00725258754491,-0.993092409443
105348000000,,273,,105,348000000,"""map""",,,-0.205221801996,-0.180954247713,0.421862214804,,-0.0821376306168,0.0840565705379,-0.00737257962262,-0.993042549721
105380000000,,274,,105,380000000,"""map""",,,-0.222080484033,-0.197561264038,0.45677998662,,-0.0830800688877,0.0841461294629,-0.007602279947,-0.992954884276
105416000000,,275,,105,416000000,"""map""",,,-0.240059837699,-0.215484932065,0.493282943964,,-0.0833699693586,0.084134882881,-0.00780083375034,-0.992929975489
105448000000,,276,,105,448000000,"""map""",,,-0.259095907211,-0.234460398555,0.530887782574,,-0.0833769250909,0.0838182847894,-0.00787872112638,-0.992955600772
105480000000,,277,,105,480000000,"""map""",,,-0.279156982899,-0.254443079233,0.569538474083,,-0.0831523492808,0.083117031315,-0.00809746327016,-0.993031633687
105516000000,,278,,105,516000000,"""map""",,,-0.30555075407,-0.28108382225,0.620054960251,,-0.0827748068269,0.0829339574634,-0.00826520772723,-0.99307706799
105548000000,,279,,105,548000000,"""map""",,,-0.327626109123,-0.303626865149,0.662180125713,,-0.0826138837539,0.0827791690309,-0.00838734929421,-0.993102356099
105580000000,,280,,105,580000000,"""map""",,,-0.350507050753,-0.327235639095,0.705847024918,,-0.0821400936967,0.0821865173802,-0.00850540261689,-0.993189895103
105616000000,,281,,105,616000000,"""map""",,,-0.374147027731,-0.351838797331,0.751075148582,,-0.0815756614139,0.0819517927317,-0.00857414412681,-0.993255180572
105648000000,,282,,105,648000000,"""map""",,,-0.399342566729,-0.377355068922,0.797590553761,,-0.0812253305941,0.0819301670767,-0.00860562782265,-0.993285399862
105680000000,,283,,105,680000000,"""map""",,,-0.425935000181,-0.403703302145,0.845369577408,,-0.0805039204807,0.081583017603,-0.0087131444332,-0.993371758755
105716000000,,284,,105,716000000,"""map""",,,-0.459867119789,-0.437716543674,0.907425403595,,-0.0798837816299,0.0813267759594,-0.00878416187294,-0.993442270432
105748000000,,285,,105,748000000,"""map""",,,-0.487577229738,-0.465786874294,0.958688557148,,-0.0795705008945,0.0812539599522,-0.00879166401198,-0.993473290513
105780000000,,286,,105,780000000,"""map""",,,-0.515770077705,-0.494591325521,1.01153445244,,-0.0788941062084,0.081158614232,-0.0088334736857,-0.99353457203
105816000000,,287,,105,816000000,"""map""",,,-0.54441767931,-0.524057626724,1.06585288048,,-0.0783185662142,0.0809352817861,-0.00890739925799,-0.99359770801
105848000000,,288,,105,848000000,"""map""",,,-0.57436054945,-0.554373621941,1.12165701389,,-0.0780456109579,0.0809029568819,-0.00890571338405,-0.993621816007
105880000000,,289,,105,880000000,"""map""",,,-0.605472683907,-0.585442900658,1.17899000645,,-0.0773587931585,0.0807939052041,-0.00897871172567,-0.993683771874
105916000000,,290,,105,916000000,"""map""",,,-0.644724011421,-0.624992609024,1.25297486782,,-0.0768972815453,0.0806756869161,-0.00903223822328,-0.993728700415
105948000000,,291,,105,948000000,"""map""",,,-0.67637783289,-0.65718972683,1.3139141798,,-0.0767290262224,0.080633007799,-0.00905200509523,-0.993745011245
105980000000,,292,,105,980000000,"""map""",,,-0.7082644701,-0.68979626894,1.37623929977,,-0.0761244897727,0.0805327751846,-0.00911619474551,-0.993799001358
106016000000,,293,,106,16000000,"""map""",,,-0.74036359787,-0.722827911377,1.44004821777,,-0.0755923897615,0.0805813138661,-0.00907940054676,-0.993836048438
106048000000,,294,,106,48000000,"""map""",,,-0.773548364639,-0.75671184063,1.5056501627,,-0.0753685224951,0.0805650916099,-0.00906233107312,-0.993854466611
106084000000,,295,,106,84000000,"""map""",,,-0.816295742989,-0.800004661083,1.58997869492,,-0.0747491029395,0.0805946976307,-0.00909592211138,-0.993898594361
106116000000,,296,,106,116000000,"""map""",,,-0.850548684597,-0.834907054901,1.65896475315,,-0.0742061813957,0.0806982172054,-0.00900083882114,-0.993931721784
106148000000,,297,,106,148000000,"""map""",,,-0.884865283966,-0.870025575161,1.72922933102,,-0.073965724076,0.0807268655379,-0.00898423296282,-0.993947484705
106180000000,,298,,106,180000000,"""map""",,,-0.919236004353,-0.905337870121,1.80076539516,,-0.073458461071,0.080851340328,-0.00890904298508,-0.9939756388
106216000000,,299,,106,216000000,"""map""",,,-0.953599274158,-0.940748274326,1.87252545357,,-0.0725724905221,0.081181288578,-0.00532820458875,-0.994039491276
106248000000,,300,,106,248000000,"""map""",,,-0.988797426224,-0.976158857346,1.94326472282,,-0.0723805929573,0.0812261779351,-0.00529060959988,-0.994050027988
106280000000,,301,,106,280000000,"""map""",,,-1.02463901043,-1.01148664951,2.01175117493,,-0.0718812841821,0.0813753306929,-0.00532209329571,-0.994073925251
106316000000,,302,,106,316000000,"""map""",,,-1.06891667843,-1.05545556545,2.0929453373,,-0.07133832115,0.0813938183421,-0.0053733438635,-0.994111267359
106348000000,,303,,106,348000000,"""map""",,,-1.10396182537,-1.09050679207,2.15456223488,,-0.0711768025727,0.0814487159294,-0.00542219206093,-0.994117968708
106380000000,,304,,106,380000000,"""map""",,,-1.13872897625,-1.12550115585,2.21365261078,,-0.0703098333378,0.0810837749292,-0.00552975081833,-0.9942090059
106416000000,,305,,106,416000000,"""map""",,,-1.1732827425,-1.16045045853,2.27053833008,,-0.0678369624903,0.0788679669305,-0.00569762171595,-0.994557939659
106448000000,,306,,106,448000000,"""map""",,,-1.2088881731,-1.19581103325,2.32591032982,,-0.0664334220563,0.0775373253978,-0.00571405898686,-0.994757209959
106480000000,,307,,106,480000000,"""map""",,,-1.24536681175,-1.23147952557,2.37995004654,,-0.0619471863773,0.0732588710478,-0.00582549525433,-0.995370193724
106516000000,,308,,106,516000000,"""map""",,,-1.29028236866,-1.27577424049,2.44513964653,,-0.0568292543914,0.0679435087356,-0.00590717584674,-0.996051876851
106548000000,,309,,106,548000000,"""map""",,,-1.32558953762,-1.31089186668,2.49546957016,,-0.054092551187,0.0650619527397,-0.00592146362839,-0.996396427338
106584000000,,310,,106,584000000,"""map""",,,-1.36030197144,-1.34567368031,2.54429960251,,-0.0487929317105,0.0592974765732,-0.00598953078873,-0.997029177975
106616000000,,311,,106,616000000,"""map""",,,-1.39441549778,-1.38002288342,2.59127879143,,-0.0437571768596,0.0538490658797,-0.00601064635984,-0.997571818649
106648000000,,312,,106,648000000,"""map""",,,-1.42901015282,-1.41396450996,2.63720035553,,-0.0413909938444,0.0513734400114,-0.00607538391915,-0.997802951967
106680000000,,313,,106,680000000,"""map""",,,-1.46396148205,-1.44748866558,2.68206167221,,-0.0372736395667,0.0469560680023,-0.00614340893264,-0.998182442191
106716000000,,314,,106,716000000,"""map""",,,-1.50650060177,-1.48863732815,2.7357904911,,-0.0335469809771,0.0428100061232,-0.00621375202281,-0.998500524456
106748000000,,315,,106,748000000,"""map""",,,-1.53955197334,-1.52094066143,2.77711677551,,-0.0323390088348,0.0414354248546,-0.00620199305207,-0.998598515879
106780000000,,316,,106,780000000,"""map""",,,-1.57173240185,-1.55268120766,2.81710767746,,-0.0296532674264,0.0381651000719,-0.00619470164728,-0.998812158254
106816000000,,317,,106,812000000,"""map""",,,-1.6030806303,-1.58385050297,2.85578346252,,-0.0269181839123,0.0351769313179,-0.00609704739928,-0.998999922464
106848000000,,318,,106,848000000,"""map""",,,-1.6346424818,-1.61458098888,2.89359664917,,-0.0259971442219,0.0342531033501,-0.00605953670411,-0.999056652122
106880000000,,319,,106,880000000,"""map""",,,-1.66626107693,-1.64485168457,2.93064069748,,-0.0239138732445,0.0322606265625,-0.0059367629344,-0.999175716969
106916000000,,320,,106,916000000,"""map""",,,-1.70439231396,-1.68178498745,2.9750187397,,-0.0220215172834,0.0306958872745,-0.0057018364008,-0.999269957323
106952000000,,321,,106,948000000,"""map""",,,-1.7338436842,-1.71061682701,3.00896763802,,-0.0211465967821,0.0300137872881,-0.0055898522243,-0.999310123269
106980000000,,322,,106,980000000,"""map""",,,-1.76240336895,-1.73884093761,3.04166340828,,-0.0194457205392,0.0285947694117,-0.0052503172127,-0.999388179233
107016000000,,323,,107,16000000,"""map""",,,-1.79013633728,-1.76648926735,3.07304215431,,-0.0181212176292,0.0273497949706,-0.00496317073379,-0.999449418604
107048000000,,324,,107,48000000,"""map""",,,-1.81841397285,-1.79354000092,3.10353136063,,-0.0175664083692,0.0268535461224,-0.00486134394779,-0.999473189426
107080000000,,325,,107,80000000,"""map""",,,-1.84707534313,-1.8199930191,3.13309502602,,-0.0161918761621,0.0256416737503,-0.00471812895655,-0.999528991854
107116000000,,326,,107,116000000,"""map""",,,-1.88155567646,-1.85225117207,3.16840219498,,-0.0148880278421,0.0243238511158,-0.0044789034444,-0.999583276995
107148000000,,327,,107,148000000,"""map""",,,-1.9080811739,-1.87743735313,3.19540882111,,-0.0142251560381,0.0236636832956,-0.00437273553301,-0.9996092816
107180000000,,328,,107,180000000,"""map""",,,-1.93370974064,-1.90206062794,3.2215180397,,-0.0129821743527,0.0222487213949,-0.00423327161128,-0.999659225616
107216000000,,329,,107,216000000,"""map""",,,-1.95851314068,-1.92615151405,3.24674367905,,-0.0118911185561,0.0208005823511,-0.00410447084223,-0.999704575625
107248000000,,330,,107,248000000,"""map""",,,-1.98248767853,-1.94972574711,3.27097010612,,-0.0114129740842,0.0203700223298,-0.00400437207702,-0.999719369168
107280000000,,331,,107,280000000,"""map""",,,-2.00567364693,-1.97276651859,3.2943406105,,-0.0102635972567,0.0191567179526,-0.00386225290384,-0.999756374101
107316000000,,332,,107,316000000,"""map""",,,-2.03358387947,-2.00086688995,3.32252502441,,-0.00932572154671,0.0182090490273,-0.00375342974099,-0.999783685259
107348000000,,333,,107,348000000,"""map""",,,-2.05624675751,-2.02245855331,3.345505476,,-0.0089578592431,0.0178322239329,-0.00370213702635,-0.999794011237
107380000000,,334,,107,380000000,"""map""",,,-2.07850003242,-2.0434820652,3.36812520027,,-0.0081599693514,0.01706494319,-0.00352039981557,-0.999814916074
107416000000,,335,,107,412000000,"""map""",,,-2.10002040863,-2.06404423714,3.38976860046,,-0.00739529117634,0.0164356960101,-0.00339303203937,-0.999831859107
107448000000,,336,,107,448000000,"""map""",,,-2.12082982063,-2.0841562748,3.41044735909,,-0.00715274001442,0.0161896861724,-0.00337356019536,-0.999837675372
107480000000,,337,,107,480000000,"""map""",,,-2.1409573555,-2.10382819176,3.4303085804,,-0.00655656098843,0.0154546345976,-0.0032987916861,-0.999853691175
107516000000,,338,,107,516000000,"""map""",,,-2.16518449783,-2.12780475616,3.45405101776,,-0.00590651433878,0.0146007802766,-0.00322908079866,-0.999870718501
107548000000,,339,,107,548000000,"""map""",,,-2.18569684029,-2.14593267441,3.47348856926,,-0.00565721079076,0.0142348346668,-0.00322149436593,-0.999877546291
107580000000,,340,,107,580000000,"""map""",,,-2.20608568192,-2.1635351181,3.49262166023,,-0.00521792571326,0.0134416431608,-0.00320198037507,-0.999890906842
107616000000,,341,,107,616000000,"""map""",,,-2.22575688362,-2.18079662323,3.51082205772,,-0.00454672628474,0.0125914704329,-0.0032068694095,-0.99990523677
107648000000,,342,,107,648000000,"""map""",,,-2.24474215508,-2.19774627686,3.52818703651,,-0.00433836477804,0.0122376548836,-0.00322191583442,-0.999910505126
107680000000,,343,,107,680000000,"""map""",,,-2.26307559013,-2.21437525749,3.54458189011,,-0.00377965561747,0.0113665519648,-0.00324593953807,-0.999923064887
107716000000,,344,,107,716000000,"""map""",,,-2.28512310982,-2.2347009182,3.56401324272,,-0.00318141929844,0.0103596202899,-0.00325226156534,-0.999936046117
107748000000,,345,,107,748000000,"""map""",,,-2.30359220505,-2.24991965294,3.57957005501,,-0.00290586945905,0.00980658020973,-0.00325984799807,-0.999942452438
107780000000,,346,,107,780000000,"""map""",,,-2.3218870163,-2.26465249062,3.59474515915,,-0.00245866406675,0.00896050297002,-0.00331088783162,-0.999951345423
107816000000,,347,,107,816000000,"""map""",,,-2.3394920826,-2.27914643288,3.60923838615,,-0.00203684885796,0.00789346363301,-0.00332323685824,-0.999961334226
107848000000,,348,,107,848000000,"""map""",,,-2.35645723343,-2.29335832596,3.62312650681,,-0.00189627989855,0.00750940640286,-0.00330604094404,-0.99996462168
107880000000,,349,,107,880000000,"""map""",,,-2.37281870842,-2.30732226372,3.63638925552,,-0.00161665943092,0.00648367114202,-0.00324564451013,-0.999972418847
107916000000,,350,,107,916000000,"""map""",,,-2.39239096642,-2.32446718216,3.65214467049,,-0.00132841713396,0.00538547902779,-0.00316025499504,-0.999979668105
107948000000,,351,,107,948000000,"""map""",,,-2.40883755684,-2.33710980415,3.66509103775,,-0.00126195155385,0.00500527230737,-0.00311178611926,-0.999981859741
107980000000,,352,,107,980000000,"""map""",,,-2.42509961128,-2.34934353828,3.67788958549,,-0.000925554836103,0.00421642159759,-0.00300793628453,-0.999986158719
108016000000,,353,,108,16000000,"""map""",,,-2.44073462486,-2.3613960743,3.69005274773,,-0.000505334951381,0.00353071048229,-0.00292895309042,-0.99998936188
108048000000,,354,,108,48000000,"""map""",,,-2.45575785637,-2.37328577042,3.70167994499,,-0.000364633624528,0.00327195879621,-0.00291171502938,-0.999990331257
108080000000,,355,,108,80000000,"""map""",,,-2.47020363808,-2.384983778,3.71269178391,,-9.35614762006e-05,0.00251739067875,-0.00287546873966,-0.999992691481
108116000000,,356,,108,116000000,"""map""",,,-2.48741149902,-2.39936232567,3.72560310364,,0.000104484342364,0.00165720502846,-0.00277895245657,-0.999994798823
108152000000,,357,,108,148000000,"""map""",,,-2.50169897079,-2.4096570015,3.73604297638,,0.000182508983783,0.00124545242091,-0.00270823004476,-0.999995557467
108180000000,,358,,108,180000000,"""map""",,,-2.51579022408,-2.41951394081,3.7461977005,,0.000358317781396,0.00054318766782,-0.00260615037767,-0.999996400404
108216000000,,359,,108,216000000,"""map""",,,-2.52926802635,-2.42926096916,3.75588440895,,0.000552487602492,1.70220996014e-05,-0.00255076941873,-0.999996653285
108248000000,,360,,108,248000000,"""map""",,,-2.54217720032,-2.43888139725,3.76504731178,,0.000651536421385,-0.000309689383491,-0.00254453168515,-0.999996568991
108280000000,,361,,108,280000000,"""map""",,,-2.55452775955,-2.44838738441,3.77369785309,,0.000742872222944,-0.00112189977826,-0.00246457911352,-0.999996105376
108316000000,,362,,108,316000000,"""map""",,,-2.56925630569,-2.46011090279,3.78394126892,,0.00066482739302,-0.00175025633846,-0.00241568876925,-0.999995346732
108348000000,,363,,108,348000000,"""map""",,,-2.58154773712,-2.46856999397,3.79232788086,,0.000962006591709,-0.00218189970665,-0.00241530944761,-0.999994293061
108380000000,,364,,108,380000000,"""map""",,,-2.5936999321,-2.47675037384,3.79894757271,,0.0122051447638,-0.0109005030622,-0.00293607590781,-0.999861867663
108416000000,,365,,108,416000000,"""map""",,,-2.60529637337,-2.48480582237,3.8029923439,,0.0366864756858,-0.0298133013151,-0.00424895023893,-0.998873018303
108448000000,,366,,108,448000000,"""map""",,,-2.6160261631,-2.49241495132,3.80506682396,,0.0447831697759,-0.0364464724325,-0.00475745196621,-0.998320346679
108480000000,,367,,108,480000000,"""map""",,,-2.62558341026,-2.49917697906,3.80592679977,,0.0586065468219,-0.0492764252101,-0.00587889531139,-0.997046921798
108516000000,,368,,108,516000000,"""map""",,,-2.63562989235,-2.50607037544,3.80671143532,,0.0630065279876,-0.054919911604,-0.00682867454258,-0.996477475728
108548000000,,369,,108,548000000,"""map""",,,-2.64297556877,-2.50898361206,3.8094599247,,0.0625176377157,-0.0548403989401,-0.0070788160885,-0.996510898179
108580000000,,370,,108,580000000,"""map""",,,-2.64899230003,-2.51016640663,3.81489253044,,0.0531790826183,-0.0478760367346,-0.00759781238106,-0.997407783115
108616000000,,371,,108,616000000,"""map""",,,-2.65353155136,-2.51023888588,3.82356142998,,0.0271467579609,-0.0287681225277,-0.00823149024842,-0.999183556283
108648000000,,372,,108,648000000,"""map""",,,-2.65715050697,-2.50986003876,3.83434820175,,0.0173713683947,-0.0211053009377,-0.00847526762021,-0.999590441959
108680000000,,373,,108,680000000,"""map""",,,-2.66039919853,-2.50956177711,3.84551072121,,-0.00450300921916,-0.00204121097446,-0.00872397617327,-0.999949743842
108716000000,,374,,108,712000000,"""map""",,,-2.66434717178,-2.5098118782,3.85786294937,,-0.0214184060887,0.0135586523612,-0.00866349544566,-0.999641186764
108748000000,,375,,108,748000000,"""map""",,,-2.6689646244,-2.51044249535,3.86523866653,,-0.0274434442802,0.0187198461115,-0.0085051497358,-0.999411865762
108780000000,,376,,108,780000000,"""map""",,,-2.67434096336,-2.51182198524,3.87090063095,,-0.0345799501847,0.0244387295954,-0.00797102272462,-0.999071277079
108816000000,,377,,108,816000000,"""map""",,,-2.68007278442,-2.51412940025,3.87549495697,,-0.0345958843276,0.0253363968826,-0.00731315256622,-0.999053448962
108848000000,,378,,108,848000000,"""map""",,,-2.68610215187,-2.51733589172,3.87958407402,,-0.0334482552771,0.024059744475,-0.00707776241728,-0.999125730807
108880000000,,379,,108,880000000,"""map""",,,-2.69239854813,-2.52139258385,3.88343691826,,-0.0282685241575,0.0170747308077,-0.00641529825239,-0.999433992857
108916000000,,380,,108,916000000,"""map""",,,-2.70056176186,-2.52750921249,3.88819336891,,-0.0231648002694,0.0118096503442,-0.00591151697214,-0.999644432072
108948000000,,381,,108,948000000,"""map""",,,-2.70724391937,-2.53135442734,3.89326119423,,-0.0203190746924,0.00947469320477,-0.00561362304686,-0.999732940454
108980000000,,382,,108,980000000,"""map""",,,-2.71384000778,-2.53517389297,3.89837360382,,-0.0142310477066,0.00329929119211,-0.00504995109488,-0.999880538717
109016000000,,383,,109,16000000,"""map""",,,-2.72033953667,-2.53942608833,3.90305924416,,-0.00978346068769,-0.00198006190649,-0.00456142697379,-0.999939755039
109048000000,,384,,109,48000000,"""map""",,,-2.72669482231,-2.54400849342,3.90739607811,,-0.00844777635045,-0.00300299292018,-0.0043885406012,-0.999950207458
109080000000,,385,,109,80000000,"""map""",,,-2.73275566101,-2.54884195328,3.91147494316,,-0.00590456537631,-0.004473052935,-0.00396635561966,-0.99996474812
109116000000,,386,,109,116000000,"""map""",,,-2.7398982048,-2.555164814,3.91580104828,,-0.0041895585793,-0.00721522716252,-0.00355850056662,-0.999958889708
109148000000,,387,,109,148000000,"""map""",,,-2.74517130852,-2.55889034271,3.91893768311,,-0.0036634784881,-0.00816888703186,-0.00333255131176,-0.999954379996
109180000000,,388,,109,180000000,"""map""",,,-2.75012159348,-2.56234431267,3.92204260826,,-0.00294486237328,-0.00715984916702,-0.00298850658736,-0.999965633204
109216000000,,389,,109,216000000,"""map""",,,-2.75474190712,-2.56601500511,3.92513823509,,-0.00231215997497,-0.0069312642524,-0.00270742925464,-0.999969637155
109248000000,,390,,109,248000000,"""map""",,,-2.75913834572,-2.56987738609,3.92781853676,,-0.00214156171527,-0.00773741393858,-0.00258267458305,-0.999964495239
109280000000,,391,,109,280000000,"""map""",,,-2.76342177391,-2.57392406464,3.93030047417,,-0.00238033793543,-0.00759464823933,-0.00223723901266,-0.999965843938
109316000000,,392,,109,316000000,"""map""",,,-2.76848101616,-2.57916903496,3.93342685699,,-0.00268966007746,-0.00567600598029,-0.00208529962377,-0.999978108671
109348000000,,393,,109,348000000,"""map""",,,-2.77207183838,-2.58226084709,3.93607354164,,-0.00268457150404,-0.00574510442133,-0.00201200625421,-0.999977897937
109380000000,,394,,109,380000000,"""map""",,,-2.7755022049,-2.58522486687,3.93850326538,,-0.00271858483397,-0.00757309012632,-0.0018666417737,-0.999965886085
109416000000,,395,,109,416000000,"""map""",,,-2.77890467644,-2.5884616375,3.94078445435,,-0.00310715539891,-0.00596679371641,-0.00162029344415,-0.999976043476
109448000000,,396,,109,448000000,"""map""",,,-2.78213906288,-2.59193444252,3.94304466248,,-0.00315237839114,-0.00511027484194,-0.00159673335584,-0.999980721776
109480000000,,397,,109,480000000,"""map""",,,-2.78521728516,-2.59562444687,3.94505524635,,-0.00277354580616,-0.00653233214817,-0.00151058519748,-0.999973725399
109516000000,,398,,109,516000000,"""map""",,,-2.78910279274,-2.60054636002,3.94718551636,,-0.00268000038198,-0.00754654584357,-0.00130107321353,-0.999967108344
109548000000,,399,,109,548000000,"""map""",,,-2.79172229767,-2.60360074043,3.94947481155,,-0.00277377827237,-0.00647662652678,-0.00121892900578,-0.999974399749
109580000000,,400,,109,580000000,"""map""",,,-2.79398989677,-2.60650753975,3.95189356804,,-0.00259057580006,-0.00519728989183,-0.00117623424824,-0.999982449797
109616000000,,401,,109,616000000,"""map""",,,-2.7961871624,-2.60962843895,3.95378661156,,-0.00213198812448,-0.00843085636641,-0.00109569162074,-0.999961587107
109648000000,,402,,109,648000000,"""map""",,,-2.79846453667,-2.61298036575,3.95541453362,,-0.00221444151888,-0.00859825870961,-0.00105051019913,-0.99996006982
109680000000,,403,,109,680000000,"""map""",,,-2.80068087578,-2.61650633812,3.9572520256,,-0.00263359044559,-0.00545501079112,-0.00102716084506,-0.999981143244
109716000000,,404,,109,716000000,"""map""",,,-2.80317401886,-2.62114858627,3.9594168663,,-0.00245807154133,-0.00679385252,-0.000976711067391,-0.999973430371
109748000000,,405,,109,748000000,"""map""",,,-2.80539417267,-2.62403798103,3.96071052551,,-0.00239109509533,-0.00816525614671,-0.000950116405981,-0.999963357274
109780000000,,406,,109,780000000,"""map""",,,-2.80779957771,-2.62680339813,3.96213245392,,-0.00269543534815,-0.00732345533041,-0.000870079540659,-0.999969131393
109816000000,,407,,109,816000000,"""map""",,,-2.81005072594,-2.62977981567,3.9638645649,,-0.00263591379062,-0.00458716635052,-0.000919939262447,-0.99998561081
109848000000,,408,,109,848000000,"""map""",,,-2.8121213913,-2.63297152519,3.96528148651,,-0.00243656923996,-0.00579057988306,-0.000889045622489,-0.999979920986
109880000000,,409,,109,880000000,"""map""",,,-2.81432986259,-2.63638591766,3.96629571915,,-0.00239239934273,-0.00900574563627,-0.000846814480281,-0.999956234457
109916000000,,410,,109,916000000,"""map""",,,-2.817248106,-2.64089250565,3.96778011322,,-0.00279600933555,-0.00519960673372,-0.000814698581716,-0.999982281209
109948000000,,411,,109,948000000,"""map""",,,-2.81863069534,-2.64344024658,3.96940279007,,-0.00264010781363,-0.00439190419959,-0.000839228047549,-0.999986495894
109980000000,,412,,109,980000000,"""map""",,,-2.81982970238,-2.64582633972,3.97030997276,,0.00262397651896,-0.0106667529361,-0.00103706535446,-0.999939122836
110016000000,,413,,110,16000000,"""map""",,,-2.82131409645,-2.64843893051,3.97066831589,,0.016108907539,-0.0177169729641,-0.00118183977909,-0.999712583526
110048000000,,414,,110,48000000,"""map""",,,-2.82270216942,-2.65096282959,3.9713037014,,0.0208456332162,-0.0181450037629,-0.00127999978928,-0.999617289501
110080000000,,415,,110,80000000,"""map""",,,-2.82361388206,-2.65313887596,3.97178292274,,0.0305604631941,-0.0228591552753,-0.00145393983308,-0.999270463085
110116000000,,416,,110,116000000,"""map""",,,-2.82444167137,-2.65534067154,3.97138643265,,0.0360852075924,-0.0312439561669,-0.00145895530805,-0.99885915199
110148000000,,417,,110,148000000,"""map""",,,-2.82425737381,-2.65626788139,3.97149348259,,0.036727978807,-0.031058336013,-0.00151526349766,-0.99884136602
110180000000,,418,,110,180000000,"""map""",,,-2.82327985764,-2.65646076202,3.97253274918,,0.0340082568313,-0.0244660226433,-0.00181876295379,-0.999120420304
