rosbagTimestamp,header,seq,stamp,secs,nsecs,frame_id,pose,position,x,y,z,orientation,x,y,z,w
113760000000,,414,,113,712000000,"""map""",,,-0.00151526799891,0.0142029169947,0.0219212230295,,0.00914067794859,-0.00866389205409,0.0300362887661,-0.99946952265
113760000000,,415,,113,712000000,"""map""",,,-0.00175015861169,0.0142997289076,0.0217103771865,,0.0090934768533,-0.00868303915334,0.030029924592,-0.999469901972
113780000000,,416,,113,780000000,"""map""",,,-0.00201094895601,0.0144192781299,0.0213560480624,,0.0091330815348,-0.00868352929567,0.03001711195,-0.999469986266
113816000000,,417,,113,816000000,"""map""",,,-0.00226346543059,0.0145985698327,0.0209923367947,,0.00911201654814,-0.00860820839104,0.0299777467935,-0.999472009314
113848000000,,418,,113,848000000,"""map""",,,-0.00234736828133,0.0145569238812,0.0207916535437,,0.00908531952422,-0.0086764622076,0.0299635011587,-0.999472093608
113880000000,,419,,113,880000000,"""map""",,,-0.0024003512226,0.014485437423,0.0205382611603,,0.0090771136069,-0.00860250152666,0.0299376651406,-0.999473568748
113916000000,,420,,113,916000000,"""map""",,,-0.00250812689774,0.0145105561242,0.0202733147889,,0.00908485467412,-0.00859959154195,0.0298918093694,-0.999474917447
113944000000,,421,,113,944000000,"""map""",,,-0.00264949258417,0.0146086793393,0.0199583247304,,0.00910377192075,-0.00857460119786,0.0298556052265,-0.999475971118
113980000000,,422,,113,980000000,"""map""",,,-0.00285075325519,0.0147634092718,0.0195377636701,,0.00911737070021,-0.00858032411427,0.02986104217,-0.99947567609
114016000000,,423,,114,16000000,"""map""",,,-0.00309202214703,0.0149552095681,0.0191104318947,,0.00910950726719,-0.00857505090144,0.0298437619621,-0.99947635044
114048000000,,424,,114,48000000,"""map""",,,-0.00313377100974,0.0150291407481,0.0184798743576,,0.00916021381548,-0.00868423105716,0.0298789124337,-0.999473821629
114080000000,,425,,114,80000000,"""map""",,,-0.00311596388929,0.0151175493374,0.0179167054594,,0.00915018955388,-0.00861114700185,0.0298742762804,-0.99947474886
114116000000,,426,,114,116000000,"""map""",,,-0.00311213755049,0.0152961369604,0.0171730499715,,0.00913012672791,-0.008613634592,0.0298144277555,-0.999476687615
114148000000,,427,,114,148000000,"""map""",,,-0.00313688069582,0.0154892643914,0.0165468621999,,0.00906880491548,-0.00858540620514,0.0298261867262,-0.99947715123
114180000000,,428,,114,180000000,"""map""",,,-0.00318646407686,0.0157462675124,0.0158703960478,,0.00908632059419,-0.00861009664394,0.0298230257126,-0.999476856202
114216000000,,429,,114,216000000,"""map""",,,-0.00327692134306,0.0160436648875,0.0150362253189,,0.00929956848055,-0.00852290998148,0.0297710586484,-0.99947715123
114248000000,,430,,114,248000000,"""map""",,,-0.00326887145638,0.0160294920206,0.0145196244121,,0.00929831201879,-0.00864089214019,0.0297624606913,-0.999476392587
114280000000,,431,,114,280000000,"""map""",,,-0.00326026137918,0.0159684047103,0.013991327025,,0.00930973758079,-0.00867663021877,0.0298157764547,-0.999474411685
114316000000,,432,,114,316000000,"""map""",,,-0.00331855821423,0.0159641355276,0.0134771568701,,0.00925972332742,-0.00867525561,0.0297601426146,-0.999476519027
114348000000,,433,,114,348000000,"""map""",,,-0.00341821508482,0.0160334929824,0.0129911312833,,0.00922331040536,-0.00871016836767,0.0297876223599,-0.999475760384
114380000000,,434,,114,380000000,"""map""",,,-0.00355540076271,0.0161344744265,0.0125065939501,,0.00923621884495,-0.00871343246411,0.029766717523,-0.999476266146
114416000000,,435,,114,416000000,"""map""",,,-0.0037139642518,0.0162777546793,0.0119489477947,,0.00924685876335,-0.00869621895443,0.0297840398777,-0.999475802531
114448000000,,436,,114,448000000,"""map""",,,-0.00376449152827,0.0161596331745,0.0116983391345,,0.0091771056879,-0.00863543402041,0.0297450540429,-0.999478120607
114480000000,,437,,114,480000000,"""map""",,,-0.0038061926607,0.0159938763827,0.0115335676819,,0.00917139015954,-0.00867123449608,0.029713865375,-0.999478794957
114516000000,,438,,114,516000000,"""map""",,,-0.00385505380109,0.0159314647317,0.0113915158436,,0.00913556649076,-0.00865728010259,0.0297040873061,-0.9994795536
114548000000,,439,,114,548000000,"""map""",,,-0.00395298423246,0.0159239564091,0.0112369256094,,0.00917400093866,-0.00861865862805,0.0296155367774,-0.999482124558
114580000000,,440,,114,580000000,"""map""",,,-0.00409758463502,0.0159784704447,0.0110557544976,,0.00918206714165,-0.00858671886956,0.0296133451413,-0.999482377439
114616000000,,441,,114,616000000,"""map""",,,-0.00426883203909,0.016111690551,0.0108961388469,,0.0091627108722,-0.00858367804029,0.0296157896585,-0.999482546027
114648000000,,442,,114,648000000,"""map""",,,-0.00432475749403,0.0160188525915,0.011649530381,,0.0091224532644,-0.00860950035247,0.0296044943031,-0.999483051789
114680000000,,443,,114,680000000,"""map""",,,-0.00433031003922,0.0158614013344,0.0125194331631,,0.0091184896908,-0.00862673491499,0.0296054215337,-0.999482883201
114716000000,,444,,114,716000000,"""map""",,,-0.00438250787556,0.015734706074,0.0137147000059,,0.00912382213148,-0.00865410579458,0.0295740642785,-0.999483473257
114748000000,,445,,114,748000000,"""map""",,,-0.00446972995996,0.015685480088,0.0146243264899,,0.00915438754874,-0.00862867307322,0.0295955170243,-0.999482841055
114780000000,,446,,114,780000000,"""map""",,,-0.00455607101321,0.0156756564975,0.0154422847554,,0.00912707997174,-0.00865678934288,0.0295348255625,-0.999484611222
114816000000,,447,,114,816000000,"""map""",,,-0.00464154360816,0.015736354515,0.0160558130592,,0.00914594566669,-0.00859455190663,0.0294888433508,-0.999486339243
114848000000,,448,,114,848000000,"""map""",,,-0.00460861157626,0.015550384298,0.0162719041109,,0.00907880639556,-0.00861215282569,0.0294217877148,-0.999488741613
114880000000,,449,,114,880000000,"""map""",,,-0.00454543763772,0.0153679633513,0.0163574665785,,0.00906263371548,-0.00858425834148,0.0294392365101,-0.99948865732
114916000000,,450,,114,916000000,"""map""",,,-0.00451744487509,0.015212549828,0.0164676010609,,0.00905612579343,-0.00857872938701,0.0293839398448,-0.999490427487
114948000000,,451,,114,948000000,"""map""",,,-0.00454107671976,0.0151363005862,0.0163959879428,,0.00911017476379,-0.00858408113127,0.029359958288,-0.999490553928
114980000000,,452,,114,980000000,"""map""",,,-0.00460196798667,0.0151319177821,0.0163500607014,,0.00910754704773,-0.00853918695855,0.0293514446246,-0.999491228277
115016000000,,453,,115,16000000,"""map""",,,-0.00469422992319,0.0152070615441,0.0161378215998,,0.00929124069134,-0.00852216302737,0.0293148190133,-0.999490764662
115044000000,,454,,115,44000000,"""map""",,,-0.00472664600238,0.0149782914668,0.0158618576825,,0.00928758848582,-0.00849248497826,0.0292902474006,-0.99949173404
115080000000,,455,,115,80000000,"""map""",,,-0.00478072371334,0.014700694941,0.0155386934057,,0.00925415990225,-0.00839876969075,0.0292668980465,-0.999493504207
115116000000,,456,,115,116000000,"""map""",,,-0.0048794769682,0.0145011497661,0.0149237522855,,0.00922993591875,-0.00844042403029,0.029274821654,-0.999493167032
115148000000,,457,,115,148000000,"""map""",,,-0.00500211631879,0.0144368894398,0.0145129701123,,0.00915874355313,-0.00847963484043,0.0292251726665,-0.9994949372
115180000000,,458,,115,180000000,"""map""",,,-0.00515498314053,0.0144492033869,0.0140359802172,,0.00917840065394,-0.00851523225801,0.0292322954839,-0.999494304997
115216000000,,459,,115,216000000,"""map""",,,-0.00534995319322,0.0145247243345,0.013443893753,,0.00910647193266,-0.00851491996386,0.0292338970641,-0.999494895053
115248000000,,460,,115,248000000,"""map""",,,-0.00547076761723,0.0141030466184,0.0120673328638,,0.0091602664373,-0.00853503786061,0.0292618825715,-0.999493377767
115280000000,,461,,115,280000000,"""map""",,,-0.005568114575,0.013805584982,0.0111588127911,,0.00917417059619,-0.00857428219479,0.0292842204012,-0.999492281949
115316000000,,462,,115,316000000,"""map""",,,-0.00576709816232,0.0134260840714,0.00971152074635,,0.00914041811163,-0.00849686578096,0.029306263203,-0.999492576977
115348000000,,463,,115,348000000,"""map""",,,-0.00597021635622,0.0132556119934,0.00860649067909,,0.00910702321673,-0.00846491067015,0.0292695954448,-0.99949426285
115380000000,,464,,115,380000000,"""map""",,,-0.00619210116565,0.0131754195318,0.00754766957834,,0.00910302027452,-0.008482387433,0.0292836303454,-0.999493714941
115416000000,,465,,115,416000000,"""map""",,,-0.00644410541281,0.0131591046229,0.00655906973407,,0.00903888727964,-0.00852707755982,0.029252568118,-0.999494852906
115452000000,,466,,115,452000000,"""map""",,,-0.00650573987514,0.0129685392603,0.00601382507011,,0.00904773103848,-0.0084803279791,0.0292137087237,-0.999496285899
115480000000,,467,,115,480000000,"""map""",,,-0.00655380589887,0.0128219388425,0.00557497097179,,0.00906629322673,-0.00849224718195,0.0292429164897,-0.999495147934
115516000000,,468,,115,516000000,"""map""",,,-0.00669381534681,0.012768773362,0.00518152723089,,0.00898388018876,-0.00848713175227,0.0292212530096,-0.999496580927
115548000000,,469,,115,548000000,"""map""",,,-0.00682586152107,0.0128063112497,0.00491502974182,,0.0089926551297,-0.00850880264103,0.0292474683493,-0.999495569403
115580000000,,470,,115,580000000,"""map""",,,-0.00700999796391,0.0129244700074,0.00472727976739,,0.00899643523691,-0.00850747363647,0.0292624304806,-0.999495105787
115616000000,,471,,115,616000000,"""map""",,,-0.00723462598398,0.0131251038983,0.00447248667479,,0.00902494782688,-0.00849000088663,0.0292882243519,-0.999494178557
115648000000,,472,,115,648000000,"""map""",,,-0.00730641931295,0.0131357703358,0.00484196329489,,0.00897447600855,-0.00843967719966,0.029250629363,-0.999496201605
115680000000,,473,,115,680000000,"""map""",,,-0.00734723126516,0.0131499748677,0.00534776085988,,0.00920336492379,-0.00845866707141,0.0292509243909,-0.999493967823
115716000000,,474,,115,716000000,"""map""",,,-0.00744395703077,0.0132210906595,0.00600780360401,,0.00917225042446,-0.00845334166893,0.0292706069692,-0.999493672795
115748000000,,475,,115,748000000,"""map""",,,-0.00757025694475,0.0133166462183,0.00632918672636,,0.00914812931796,-0.00848325928419,0.0292556026911,-0.999494178557
115780000000,,476,,115,780000000,"""map""",,,-0.00771811557934,0.0134599553421,0.00653147837147,,0.00915427244751,-0.00849482705064,0.0292510508315,-0.999494094263
115816000000,,477,,115,816000000,"""map""",,,-0.00791922491044,0.0136805828661,0.00666186213493,,0.00911658791716,-0.00857311611826,0.0292491963701,-0.999493841382
115848000000,,478,,115,848000000,"""map""",,,-0.00783984363079,0.0136618604884,0.00689469324425,,0.00909682269157,-0.00859273909823,0.0292690053889,-0.999493251326
115880000000,,479,,115,880000000,"""map""",,,-0.0077071916312,0.0136211896315,0.00710131973028,,0.00904706012568,-0.00856689285208,0.0293125430834,-0.999492703417
115916000000,,480,,115,916000000,"""map""",,,-0.00761915976182,0.0136948581785,0.00710388738662,,0.00908415955981,-0.00863311905125,0.0293106043284,-0.99949186048
115948000000,,481,,115,948000000,"""map""",,,-0.00762496003881,0.0138456886634,0.00707017444074,,0.00903705802821,-0.00863600458749,0.0292971173369,-0.999492619123
115980000000,,482,,115,980000000,"""map""",,,-0.00769171305001,0.0140765523538,0.00694638118148,,0.00903934229274,-0.00864684116374,0.0292749059477,-0.999493167032
116016000000,,483,,116,16000000,"""map""",,,-0.00781615450978,0.0143645768985,0.00672362418845,,0.00905467308541,-0.00843956440333,0.0292754117099,-0.999494768613
116048000000,,484,,116,48000000,"""map""",,,-0.0081025371328,0.0144019145519,0.00655799405649,,0.00912117356837,-0.00851207871474,0.0293011634343,-0.999492787711
116080000000,,485,,116,80000000,"""map""",,,-0.00845028180629,0.0143961589783,0.00633245240897,,0.00912033359485,-0.00855515509882,0.0293117844402,-0.999492113361
116116000000,,486,,116,116000000,"""map""",,,-0.00891284737736,0.0145059833303,0.00599022815004,,0.00909128046331,-0.00862624444339,0.0292508822441,-0.999493588501
116148000000,,487,,116,148000000,"""map""",,,-0.00929118413478,0.0146568194032,0.005622476805,,0.00906169673012,-0.00869270271777,0.0292448973916,-0.999493419913
116180000000,,488,,116,180000000,"""map""",,,-0.00967301987112,0.0148574970663,0.00519301975146,,0.00907452509482,-0.00869456779813,0.0292704805286,-0.99949253483
116216000000,,489,,116,216000000,"""map""",,,-0.01009295322,0.0151236755773,0.00466006901115,,0.00905724793269,-0.00874594702905,0.0292620090121,-0.999492492683
116248000000,,490,,116,248000000,"""map""",,,-0.0103147374466,0.0152147077024,0.00394101534039,,0.00907435519033,-0.00880323027613,0.0293227847676,-0.999490048166
116280000000,,491,,116,280000000,"""map""",,,-0.0105156879872,0.0152870388702,0.00322911096737,,0.00906914451865,-0.00880909158978,0.0293106464753,-0.99949038534
116316000000,,492,,116,316000000,"""map""",,,-0.010810630396,0.0154749695212,0.00238235318102,,0.00906688658562,-0.00886609959612,0.0293334479203,-0.999489247375
116348000000,,493,,116,348000000,"""map""",,,-0.0110655901954,0.0156799964607,0.00162324216217,,0.00900189643333,-0.00889019281737,0.0293668703712,-0.999488699466
116380000000,,494,,116,380000000,"""map""",,,-0.0113563546911,0.0159411840141,0.000886782829184,,0.00902148675876,-0.00894476777443,0.0293846141944,-0.999487477208
116416000000,,495,,116,416000000,"""map""",,,-0.0116970203817,0.0162417087704,0.000171412510099,,0.00902943425266,-0.00899635665532,0.0294267610429,-0.99948570704
116452000000,,496,,116,452000000,"""map""",,,-0.0117350835353,0.0163588635623,-0.00040988024557,,0.00899097494246,-0.00899942314949,0.0294549151377,-0.999485201278
116480000000,,497,,116,480000000,"""map""",,,-0.0117655601352,0.0164582077414,-0.000803101924248,,0.00898224464203,-0.00902650049991,0.0294642717381,-0.99948477981
116516000000,,498,,116,516000000,"""map""",,,-0.0118769267574,0.016649806872,-0.00128062046133,,0.00893593357221,-0.00901399564263,0.0294583290324,-0.999485412012
116548000000,,499,,116,548000000,"""map""",,,-0.0120144765824,0.0168480556458,-0.00168553215917,,0.00897296329452,-0.00899545126466,0.0294400373002,-0.999485833481
116580000000,,500,,116,580000000,"""map""",,,-0.0121731664985,0.0171127580106,-0.0021135462448,,0.00891772350848,-0.00895635059866,0.0294457271247,-0.999486549977
116616000000,,501,,116,616000000,"""map""",,,-0.0123778330162,0.0174421407282,-0.00254617840983,,0.00891271622287,-0.00896428182189,0.0294005457031,-0.999487814383
116648000000,,502,,116,648000000,"""map""",,,-0.0127369081602,0.0175862163305,-0.002866899129,,0.0088877837278,-0.00898189920457,0.0293889974666,-0.999488235851
116680000000,,503,,116,680000000,"""map""",,,-0.013169827871,0.0177075732499,-0.00315638375469,,0.00886211030327,-0.00902750282008,0.0293715065245,-0.999488530879
116716000000,,504,,116,716000000,"""map""",,,-0.0137581527233,0.0178740490228,-0.00356703321449,,0.00890844877214,-0.00897594341035,0.0293806102438,-0.999488362292
116748000000,,505,,116,748000000,"""map""",,,-0.0142332604155,0.0180608350784,-0.00391378207132,,0.00895589752133,-0.00902629247187,0.0293879859423,-0.999487224327
116780000000,,506,,116,780000000,"""map""",,,-0.0147668030113,0.0182955265045,-0.00424665072933,,0.0089505415917,-0.00902020684921,0.0293996184725,-0.999486971446
116816000000,,507,,116,816000000,"""map""",,,-0.0153403636068,0.0185759551823,-0.00456790439785,,0.00897690142283,-0.00902053782699,0.0293704528533,-0.999487645795
116848000000,,508,,116,848000000,"""map""",,,-0.0156062329188,0.0184480715543,-0.00470673758537,,0.00895237050614,-0.00902241349552,0.0293888288793,-0.99948730862
116880000000,,509,,116,880000000,"""map""",,,-0.015808917582,0.018254103139,-0.00482854433358,,0.00898138857533,-0.00905364829754,0.0293894189351,-0.999486718565
116916000000,,510,,116,916000000,"""map""",,,-0.0161577425897,0.0181002281606,-0.00490375002846,,0.00900593859817,-0.0090080669973,0.0293653109378,-0.999487645795
116948000000,,511,,116,948000000,"""map""",,,-0.0164911113679,0.0180708859116,-0.00500565441325,,0.00900094203127,-0.00903243399235,0.0292518516216,-0.999490764662
116980000000,,512,,116,980000000,"""map""",,,-0.0168860442936,0.018053771928,-0.00504859862849,,0.00901203774093,-0.00895223062203,0.0292634841518,-0.999491017543
117016000000,,513,,117,16000000,"""map""",,,-0.0173234641552,0.0180630739778,-0.00501302769408,,0.00897345778041,-0.00897301539285,0.0292768447028,-0.999490806809
117048000000,,514,,117,48000000,"""map""",,,-0.0173855051398,0.0177003480494,-0.00479183346033,,0.00892330105891,-0.00891351786833,0.0292234446457,-0.999493293473
117080000000,,515,,117,80000000,"""map""",,,-0.0173819046468,0.0172540359199,-0.00442932453007,,0.00893768625064,-0.00893320050109,0.0292097890668,-0.99949346206
117116000000,,516,,117,116000000,"""map""",,,-0.0175380501896,0.0168068204075,-0.00401204824448,,0.0089638568253,-0.00898582214262,0.0292154367445,-0.999492619123
117148000000,,517,,117,148000000,"""map""",,,-0.0177214182913,0.0165281314403,-0.00383532559499,,0.00910890389637,-0.00895902332341,0.0292240347016,-0.999491270424
117180000000,,518,,117,180000000,"""map""",,,-0.0179293900728,0.0163044966757,-0.00370188057423,,0.00910567912739,-0.00894547891504,0.029233096274,-0.999491143984
117216000000,,519,,117,216000000,"""map""",,,-0.0181644987315,0.016103701666,-0.00360076944344,,0.00904605440474,-0.0089135159017,0.0292198621636,-0.999492408389
117252000000,,520,,117,252000000,"""map""",,,-0.0184595827013,0.0159425511956,-0.00350336660631,,0.00906216012937,-0.00894817210483,0.0292217166249,-0.999491818333
117280000000,,521,,117,280000000,"""map""",,,-0.0188143197447,0.0158208981156,-0.00341026927345,,0.00905221360174,-0.00895704520491,0.0292282072396,-0.999491649746
117316000000,,522,,117,316000000,"""map""",,,-0.0192866064608,0.0157612189651,-0.00341141293757,,0.00906276727139,-0.00900136804911,0.0291719833437,-0.999492829858
117348000000,,523,,117,344000000,"""map""",,,-0.0193276498467,0.0153931025416,-0.00365697871894,,0.00902361760042,-0.00897363857403,0.0291367907252,-0.999494473585
117380000000,,524,,117,380000000,"""map""",,,-0.0193229243159,0.0149996411055,-0.00401542941108,,0.00900627518773,-0.00899656807833,0.0290995750579,-0.999495442962
117416000000,,525,,117,416000000,"""map""",,,-0.0193770993501,0.0146916424856,-0.00444510392845,,0.00898179829355,-0.00899573052162,0.0290471865252,-0.999497255277
117448000000,,526,,117,448000000,"""map""",,,-0.019504038617,0.014448759146,-0.00486872531474,,0.00898880255943,-0.00905240882675,0.0290525813218,-0.999496496633
117480000000,,527,,117,480000000,"""map""",,,-0.0196949578822,0.0142697300762,-0.0052833580412,,0.00897526248434,-0.00900220442765,0.0290300749047,-0.999497761039
117516000000,,528,,117,516000000,"""map""",,,-0.0200453232974,0.0141246244311,-0.0057135517709,,0.00903712696316,-0.00906153716298,0.0290496731893,-0.999496033018
117548000000,,529,,117,548000000,"""map""",,,-0.0200300533324,0.0138483587652,-0.0059162164107,,0.00896568562784,-0.00898940657594,0.0289859471543,-0.999499236179
117580000000,,530,,117,580000000,"""map""",,,-0.0199868492782,0.0135542433709,-0.00610502343625,,0.0089702748856,-0.0089971176125,0.0289977482719,-0.999498730416
117616000000,,531,,117,616000000,"""map""",,,-0.0200530905277,0.0133147416636,-0.00625831680372,,0.0089039871794,-0.00898768850535,0.0289099563865,-0.999501975724
117648000000,,532,,117,648000000,"""map""",,,-0.0201922617853,0.0131207844242,-0.00638769986108,,0.00896750671434,-0.0089731409742,0.0289106728829,-0.999501512108
117680000000,,533,,117,680000000,"""map""",,,-0.0203650984913,0.0129612125456,-0.00652418844402,,0.00897114124849,-0.00893719956358,0.0288614453638,-0.999503197982
117716000000,,534,,117,716000000,"""map""",,,-0.0206761099398,0.0128082381561,-0.00674053793773,,0.00901652267598,-0.00885790441102,0.0288455560019,-0.999503998772
117748000000,,535,,117,748000000,"""map""",,,-0.0205519199371,0.0126378368586,-0.00654600420967,,0.00913602384992,-0.00887882073125,0.0288769554041,-0.999501764989
117780000000,,536,,117,780000000,"""map""",,,-0.0203687213361,0.0124629521742,-0.00614312663674,,0.00915618264846,-0.0088921528722,0.0288674723632,-0.999501807136
117816000000,,537,,117,816000000,"""map""",,,-0.0203094054013,0.0123203378171,-0.00581073062494,,0.00917264044745,-0.00892582348117,0.0288428164568,-0.999502017871
117848000000,,538,,117,848000000,"""map""",,,-0.0203604307026,0.0122098978609,-0.00568463932723,,0.00912319847954,-0.00894466420288,0.028898113122,-0.999500753465
117880000000,,539,,117,880000000,"""map""",,,-0.0204805620015,0.0121239218861,-0.00568286143243,,0.0091080196666,-0.00897057597421,0.028916489148,-0.999500079116
117916000000,,540,,117,916000000,"""map""",,,-0.0207282882184,0.0120343174785,-0.00573051720858,,0.0091242480863,-0.00894988657401,0.02887059123,-0.999501469962
117948000000,,541,,117,948000000,"""map""",,,-0.0205873493105,0.0118004716933,-0.00556542351842,,0.00916265472099,-0.00893629126221,0.0288869020603,-0.999500753465
117980000000,,542,,117,980000000,"""map""",,,-0.0204222742468,0.0115480506793,-0.00535029917955,,0.00915889915485,-0.00893519203823,0.0288912010389,-0.999500669171
118016000000,,543,,118,16000000,"""map""",,,-0.0203599762172,0.0113406609744,-0.00513069564477,,0.00918869632849,-0.00895963522445,0.0288888408154,-0.999500247703
118048000000,,544,,118,48000000,"""map""",,,-0.0204109121114,0.0111223906279,-0.00501733832061,,0.00917388219486,-0.00895496302609,0.0288601809584,-0.999501259227
118080000000,,545,,118,80000000,"""map""",,,-0.0205367170274,0.0109421629459,-0.00502765225247,,0.00918566277408,-0.00897221504004,0.0288627519161,-0.999500964199
118116000000,,546,,118,116000000,"""map""",,,-0.020818259567,0.0107478257269,-0.00514358934015,,0.00917275304312,-0.00901155347919,0.0288410462892,-0.999501343521
118148000000,,547,,118,148000000,"""map""",,,-0.0208991710097,0.0104907481,-0.00518118590117,,0.0092009035005,-0.00900795882943,0.0288869020603,-0.999499741941
118180000000,,548,,118,180000000,"""map""",,,-0.0209808442742,0.0102342609316,-0.00539481965825,,0.00915631865334,-0.00899366057796,0.0288576521475,-0.999501174934
118216000000,,549,,118,216000000,"""map""",,,-0.0211142804474,0.0100444275886,-0.00564246857539,,0.00909660415255,-0.00895285879632,0.0289454861798,-0.999499573353
118248000000,,550,,118,248000000,"""map""",,,-0.021290468052,0.00987343490124,-0.00583151029423,,0.00903840610934,-0.0090202685601,0.028892001829,-0.999501048493
118280000000,,551,,118,280000000,"""map""",,,-0.0215053856373,0.0097190560773,-0.00596376787871,,0.00903296209489,-0.00896114096846,0.0288801164177,-0.999501975724
118316000000,,552,,118,316000000,"""map""",,,-0.0218897908926,0.0095033980906,-0.00617313710973,,0.00901745957838,-0.009023739954,0.0288824344944,-0.999501427815
118348000000,,553,,118,348000000,"""map""",,,-0.0217843968421,0.00930658075958,-0.00612371601164,,0.0090400238027,-0.00902030381346,0.0288622883008,-0.999501849283
118380000000,,554,,118,380000000,"""map""",,,-0.0216542202979,0.00913504511118,-0.00613885140046,,0.00905731964459,-0.0089864561139,0.0288642270558,-0.999501933577
118416000000,,555,,118,416000000,"""map""",,,-0.0216454789042,0.00895982515067,-0.0061513800174,,0.00902811101295,-0.00901818960519,0.0289083969531,-0.999500584878
118448000000,,556,,118,448000000,"""map""",,,-0.0217384807765,0.0087741529569,-0.00618896866217,,0.00899763769288,-0.00897194644135,0.0288891358433,-0.99950189143
118480000000,,557,,118,480000000,"""map""",,,-0.0218988806009,0.00861633662134,-0.00637193256989,,0.00892942618138,-0.00896793537666,0.028878641278,-0.999502860808
118516000000,,558,,118,516000000,"""map""",,,-0.0221290681511,0.00842690467834,-0.00669734366238,,0.00914076548871,-0.00901303198364,0.0288920439759,-0.999500163409
118548000000,,559,,118,548000000,"""map""",,,-0.0220045726746,0.00818069092929,-0.00705375568941,,0.0091265472967,-0.0090239232088,0.0288834038719,-0.999500458437
118580000000,,560,,118,580000000,"""map""",,,-0.0218642745167,0.00790526065975,-0.00745694153011,,0.00913657759839,-0.00903632820141,0.0288908217172,-0.999499952675
118616000000,,561,,118,616000000,"""map""",,,-0.0218415986747,0.00764886895195,-0.00802515633404,,0.00914410712361,-0.00911365081895,0.0289019484853,-0.999498941151
118648000000,,562,,118,648000000,"""map""",,,-0.0219130497426,0.00740243727341,-0.00868529826403,,0.0090957939428,-0.00911429327992,0.0288938984372,-0.999499573353
118680000000,,563,,118,680000000,"""map""",,,-0.0220647417009,0.0071607362479,-0.00940133817494,,0.00908442776235,-0.00913189719395,0.0288834460188,-0.999499826234
118716000000,,564,,118,716000000,"""map""",,,-0.0222980473191,0.00692034885287,-0.0101661300287,,0.00908188349622,-0.00914152871607,0.0289068796665,-0.999499067591
118748000000,,565,,118,748000000,"""map""",,,-0.0223280731589,0.00663552433252,-0.0107103474438,,0.00905767975782,-0.00916112527709,0.0289650423175,-0.999497466011
118780000000,,566,,118,780000000,"""map""",,,-0.0222063120455,0.00632822886109,-0.0110515151173,,0.0090468286833,-0.00918341526972,0.0290022158379,-0.999496201605
118816000000,,567,,118,816000000,"""map""",,,-0.0222209785134,0.00597601477057,-0.0117055438459,,0.00904116902317,-0.00917324088569,0.0290254387514,-0.99949573799
118848000000,,568,,118,848000000,"""map""",,,-0.0223316922784,0.00569749251008,-0.0122111476958,,0.00907371826203,-0.00914634195871,0.0290329408904,-0.999495485109
118880000000,,569,,118,880000000,"""map""",,,-0.0225270278752,0.00543419644237,-0.0126409931108,,0.00911108520704,-0.00910871949844,0.0290593669644,-0.999494684319
118916000000,,570,,118,916000000,"""map""",,,-0.0227935444564,0.00515589863062,-0.0130705181509,,0.00907361102218,-0.00911694640461,0.0290189481367,-0.999496075165
118948000000,,571,,118,948000000,"""map""",,,-0.0227097161114,0.00475400965661,-0.0127698983997,,0.00917678030003,-0.00910877085494,0.0290281782965,-0.999495021494
118980000000,,572,,118,980000000,"""map""",,,-0.0225973855704,0.00433450285345,-0.0122160390019,,0.00913480162861,-0.00910885029059,0.0290228256468,-0.999495569403
119016000000,,573,,119,16000000,"""map""",,,-0.0226064510643,0.00384112331085,-0.011592304334,,0.00908593525562,-0.00916107655766,0.0290310442822,-0.999495274375
119048000000,,574,,119,48000000,"""map""",,,-0.0227425973862,0.00347326137125,-0.0112542966381,,0.0090595098067,-0.00915047336598,0.0290351325265,-0.999495485109
119080000000,,575,,119,80000000,"""map""",,,-0.0229487083852,0.00310992938466,-0.0110979145393,,0.00907270928181,-0.00915430780312,0.0290236685838,-0.999495653696
119116000000,,576,,119,116000000,"""map""",,,-0.0232181325555,0.00276951654814,-0.0111279990524,,0.00909965413455,-0.00907712522404,0.0290345003238,-0.999495780137
119148000000,,577,,119,148000000,"""map""",,,-0.023103158921,0.00256448006257,-0.0109677184373,,0.00925288546943,-0.00911461101285,0.0290999543796,-0.999492197655
119180000000,,578,,119,180000000,"""map""",,,-0.0229135081172,0.00236348761246,-0.0107453204691,,0.0092861589246,-0.00911715052511,0.0290902184576,-0.999492155508
119216000000,,579,,119,216000000,"""map""",,,-0.0227959752083,0.00208634953015,-0.0108210751787,,0.00921809796384,-0.00910918515661,0.0291410897037,-0.999491354718
119248000000,,580,,119,248000000,"""map""",,,-0.0228020772338,0.00185878144111,-0.0108700776473,,0.00924217845152,-0.00917280172397,0.0291341354737,-0.999490722515
119280000000,,581,,119,280000000,"""map""",,,-0.0228704959154,0.00163687753957,-0.0110645601526,,0.0091979511683,-0.00916275308593,0.0291287828239,-0.999491354718
119316000000,,582,,119,316000000,"""map""",,,-0.0229973550886,0.00142301910091,-0.0114019215107,,0.00919548744782,-0.00927837450921,0.0291075829591,-0.999490975396
119348000000,,583,,119,348000000,"""map""",,,-0.0227060969919,0.0011226272909,-0.0114439325407,,0.00919840659298,-0.00926779122307,0.0290869310034,-0.999491649746
119380000000,,584,,119,380000000,"""map""",,,-0.0223634466529,0.000821491354145,-0.0114458398893,,0.0092289322712,-0.00929306138683,0.0290884482899,-0.99949105969
119416000000,,585,,119,416000000,"""map""",,,-0.0221255403012,0.000451711268397,-0.0116732902825,,0.00930665818873,-0.00928841415336,0.0291219971813,-0.999489373816
119448000000,,586,,119,448000000,"""map""",,,-0.0220610722899,0.00017886760179,-0.0119522083551,,0.00919258408201,-0.00928427688672,0.0291082573087,-0.999490891103
119480000000,,587,,119,480000000,"""map""",,,-0.022113038227,-8.4647013864e-05,-0.0123933600262,,0.00920110761328,-0.00932409710777,0.0291058549384,-0.999490511781
119516000000,,588,,119,516000000,"""map""",,,-0.0222689323127,-0.000361620739568,-0.0128321219236,,0.00911957467375,-0.00930937323075,0.0291447986264,-0.9994902589
119548000000,,589,,119,548000000,"""map""",,,-0.02214798145,-0.000585553003475,-0.012827983126,,0.00909267242061,-0.00934252112001,0.0291541552267,-0.999489921725
119580000000,,590,,119,580000000,"""map""",,,-0.0219990052283,-0.000790703052189,-0.0127303320915,,0.00911548453613,-0.00937385453393,0.0291483811085,-0.999489626697
119616000000,,591,,119,616000000,"""map""",,,-0.0219574328512,-0.00107173004653,-0.0131134344265,,0.00905877568392,-0.00935656932522,0.0292254676944,-0.999488067264
119648000000,,592,,119,648000000,"""map""",,,-0.022010659799,-0.00132563733496,-0.0137280523777,,0.00910912119548,-0.00937358896557,0.029258974439,-0.999486423537
119680000000,,593,,119,680000000,"""map""",,,-0.0221317000687,-0.00158075033687,-0.014376597479,,0.00907804541651,-0.00937279250743,0.0292383224832,-0.999487350767
119716000000,,594,,119,716000000,"""map""",,,-0.0223486516625,-0.0018565779319,-0.0150078432634,,0.00908165862385,-0.00936516086151,0.0292944620854,-0.999485749187
119748000000,,595,,119,748000000,"""map""",,,-0.0222232025117,-0.00208495557308,-0.0152170583606,,0.00904498563845,-0.00931972651765,0.0293045351822,-0.999486212802
119780000000,,596,,119,780000000,"""map""",,,-0.022074546665,-0.0022857291624,-0.0153429368511,,0.00909025574748,-0.00930507477698,0.0292851054851,-0.99948650783
119816000000,,597,,119,816000000,"""map""",,,-0.0220987889916,-0.00252595799975,-0.0157351903617,,0.00907009803965,-0.00940988311295,0.0293218996838,-0.999484611222
119848000000,,598,,119,848000000,"""map""",,,-0.0222210213542,-0.00274848169647,-0.0160595662892,,0.00907290806965,-0.00928133454587,0.0292721242557,-0.999487266474
119880000000,,599,,119,880000000,"""map""",,,-0.0224554594606,-0.00298143760301,-0.0162790007889,,0.0090834103934,-0.00928565342481,0.0292827452616,-0.999486760711
119916000000,,600,,119,916000000,"""map""",,,-0.0227376315743,-0.00318432087079,-0.0166046917439,,0.00910862760608,-0.00930665286571,0.0292505029224,-0.99948730862
119948000000,,601,,119,948000000,"""map""",,,-0.0224398449063,-0.00306792440824,-0.0166597962379,,0.00910524085573,-0.00937172811429,0.0292854426599,-0.999485664893
119980000000,,602,,119,980000000,"""map""",,,-0.0220648422837,-0.00291193206795,-0.0166528299451,,0.00908094611985,-0.0093727209113,0.029301247728,-0.999485454159
120016000000,,603,,120,16000000,"""map""",,,-0.0217431839556,-0.00277133728378,-0.0168050825596,,0.00914470748983,-0.00944738954817,0.0292772240244,-0.999484864103
120048000000,,604,,120,48000000,"""map""",,,-0.021602416411,-0.00269165495411,-0.0170204937458,,0.00914084448833,-0.00944960882258,0.0293138074889,-0.999483768285
120080000000,,605,,120,80000000,"""map""",,,-0.0215540267527,-0.00266284332611,-0.0174504276365,,0.00913000382704,-0.00945888741629,0.0293068532589,-0.999484063313
120116000000,,606,,120,116000000,"""map""",,,-0.0215897615999,-0.00270377844572,-0.0180757455528,,0.00913244687282,-0.00943705813729,0.0293392220386,-0.99948330467
120148000000,,607,,120,148000000,"""map""",,,-0.0212297644466,-0.00274784932844,-0.018407208845,,0.00912709441856,-0.00947859629517,0.0293077804896,-0.999483810432
120180000000,,608,,120,180000000,"""map""",,,-0.0208300184458,-0.00280593405478,-0.0186719503254,,0.00909231894684,-0.00947950150575,0.0293188229639,-0.999483810432
120216000000,,609,,120,216000000,"""map""",,,-0.0205035265535,-0.00288907135837,-0.0191745776683,,0.00913603094985,-0.0095159422719,0.0293026807209,-0.999483599698
120248000000,,610,,120,244000000,"""map""",,,-0.0203919839114,-0.00300317187794,-0.0197052229196,,0.00916426773315,-0.00950410061267,0.0292840939607,-0.999483979019
120280000000,,611,,120,280000000,"""map""",,,-0.0203889720142,-0.0030807654839,-0.0203516930342,,0.00917599509375,-0.00955168835591,0.0292519780621,-0.999484316194
120316000000,,612,,120,316000000,"""map""",,,-0.0204877778888,-0.00315013621002,-0.0210166871548,,0.00914218366945,-0.00954696438977,0.0293049145039,-0.999483136082
120348000000,,613,,120,348000000,"""map""",,,-0.0202323254198,-0.00308702047914,-0.0218418762088,,0.00921728499064,-0.00955830493779,0.0292913853655,-0.999482756761
120380000000,,614,,120,380000000,"""map""",,,-0.0199037529528,-0.00298971147276,-0.0227490849793,,0.0091918632999,-0.00957139604117,0.0292843468418,-0.999483051789
120416000000,,615,,120,416000000,"""map""",,,-0.0196188688278,-0.00288980081677,-0.0238986462355,,0.00914873336791,-0.00951357505135,0.0292415677906,-0.999485285572
120448000000,,616,,120,448000000,"""map""",,,-0.0195300579071,-0.00285157910548,-0.0247270949185,,0.00912524287952,-0.00949852883222,0.0292703962349,-0.99948477981
120480000000,,617,,120,480000000,"""map""",,,-0.0195225756615,-0.00287548708729,-0.0254866182804,,0.00912756289066,-0.00951918939023,0.0292816915903,-0.999484189754
120516000000,,618,,120,516000000,"""map""",,,-0.0196025576442,-0.00296692945994,-0.0262436661869,,0.0091141754011,-0.00952614289995,0.0293214360685,-0.999483136082
120548000000,,619,,120,548000000,"""map""",,,-0.0193086545914,-0.00302599696442,-0.0265512447804,,0.00913634122721,-0.00957325859025,0.0293443218072,-0.999481745236
120580000000,,620,,120,580000000,"""map""",,,-0.0189749728888,-0.00306601286866,-0.0268603246659,,0.009136238165,-0.00954390363954,0.0293254821659,-0.99948263032
120616000000,,621,,120,616000000,"""map""",,,-0.0187045354396,-0.00312310224399,-0.0272513851523,,0.00919151171945,-0.00959585298479,0.0293311719905,-0.999481408062
120648000000,,622,,120,648000000,"""map""",,,-0.0186293106526,-0.00314901233651,-0.0276379659772,,0.00938071148456,-0.00958128078394,0.0293615598683,-0.999478921398
120680000000,,623,,120,680000000,"""map""",,,-0.0186322703958,-0.00319776544347,-0.0279435571283,,0.00936851947966,-0.00959182511049,0.0293537205544,-0.999479174279
120716000000,,624,,120,716000000,"""map""",,,-0.0187209043652,-0.00324319582433,-0.0284365862608,,0.00936113570371,-0.00961683417165,0.0293466820307,-0.999479216426
120748000000,,625,,120,748000000,"""map""",,,-0.0185052976012,-0.00307895359583,-0.028529509902,,0.00931960563358,-0.0096461679975,0.0293562493654,-0.999479005691
120780000000,,626,,120,780000000,"""map""",,,-0.0182567667216,-0.00286312238313,-0.0285733174533,,0.00930606008304,-0.00966891604899,0.0293760162373,-0.999478373489
120816000000,,627,,120,816000000,"""map""",,,-0.018096588552,-0.00264149880968,-0.0287451501936,,0.00932388511303,-0.0097099662151,0.0293771120554,-0.999477783433
120848000000,,628,,120,848000000,"""map""",,,-0.0181135945022,-0.00250835134648,-0.0288387555629,,0.00927844307244,-0.00969879318434,0.0293841927259,-0.999478120607
120880000000,,629,,120,880000000,"""map""",,,-0.0182504318655,-0.00238297018223,-0.028940372169,,0.0092808814158,-0.00971440291177,0.0293798094537,-0.999478036314
120916000000,,630,,120,916000000,"""map""",,,-0.0184634774923,-0.00230267108418,-0.0290781408548,,0.00933215606162,-0.00971805746335,0.0294483823762,-0.99947554965
120944000000,,631,,120,944000000,"""map""",,,-0.0183095671237,-0.00223313923925,-0.0290875863284,,0.0092973355825,-0.00972684172681,0.0294753563592,-0.999474959594
120980000000,,632,,120,980000000,"""map""",,,-0.0181633550674,-0.00218445318751,-0.0290503893048,,0.00931925241706,-0.00973418402474,0.0295089895444,-0.999473695188
121016000000,,633,,121,16000000,"""map""",,,-0.0181431341916,-0.00215470045805,-0.0290257260203,,0.00930935002735,-0.00966867648284,0.029537480814,-0.999473610895
121048000000,,634,,121,48000000,"""map""",,,-0.0182342007756,-0.0021340791136,-0.0290341638029,,0.00932588688254,-0.00968381166721,0.02957056609,-0.999472304342
121080000000,,635,,121,80000000,"""map""",,,-0.0184264853597,-0.00214681192301,-0.0289983730763,,0.00931669259281,-0.009689736942,0.029595601318,-0.999471629993
121116000000,,636,,121,116000000,"""map""",,,-0.018679106608,-0.00216668169014,-0.0289298333228,,0.00933357662444,-0.00969033858415,0.0295924403044,-0.999471503552
121148000000,,637,,121,148000000,"""map""",,,-0.0184935275465,-0.00220196601003,-0.0286296550184,,0.00933697699843,-0.00966678016277,0.0295848538717,-0.999471925021
121180000000,,638,,121,180000000,"""map""",,,-0.0182389747351,-0.00222704187036,-0.0282960627228,,0.00937354198253,-0.00967688491086,0.0295523586515,-0.99947247293
121216000000,,639,,121,216000000,"""map""",,,-0.0180540494621,-0.0022582586389,-0.0280337948352,,0.00933951391767,-0.00972292087628,0.0295790797534,-0.999471545699
121248000000,,640,,121,248000000,"""map""",,,-0.0180189497769,-0.00226801563986,-0.0280661918223,,0.00944197106453,-0.00970169387739,0.0295856968086,-0.999470576322
121280000000,,641,,121,280000000,"""map""",,,-0.0180794429034,-0.00223933998495,-0.0283746402711,,0.00944923399757,-0.00971697950831,0.0296305410555,-0.999469059035
121316000000,,642,,121,316000000,"""map""",,,-0.0182072632015,-0.00221159029752,-0.0286508072168,,0.00962377375419,-0.00978336562576,0.0296745002185,-0.999465476553
121348000000,,643,,121,348000000,"""map""",,,-0.0177907999605,-0.0022235030774,-0.028449261561,,0.00961115414295,-0.00984174881194,0.0296877764757,-0.999464591469
121380000000,,644,,121,380000000,"""map""",,,-0.0172904077917,-0.00225998088717,-0.0282783843577,,0.00954796871131,-0.00986627768097,0.0297012213204,-0.999464549322
121416000000,,645,,121,416000000,"""map""",,,-0.0168430265039,-0.00227433349937,-0.0281910151243,,0.00952160786407,-0.00982446995201,0.0296608867864,-0.99946644593
121448000000,,646,,121,448000000,"""map""",,,-0.0166250970215,-0.00226313108578,-0.0281796753407,,0.00953510834546,-0.00979450849209,0.029686048455,-0.999465813728
121480000000,,647,,121,476000000,"""map""",,,-0.0165251493454,-0.00223852880299,-0.0283490270376,,0.00951908750105,-0.009814487189,0.0296898416713,-0.999465729434
121516000000,,648,,121,516000000,"""map""",,,-0.0165330469608,-0.00217694207095,-0.0286174621433,,0.00952001944442,-0.00985062339889,0.0297119266199,-0.999464633616
121548000000,,649,,121,548000000,"""map""",,,-0.0161276180297,-0.00217271805741,-0.0286143217236,,0.00951491426334,-0.00996671176881,0.0298444784585,-0.999459618141
121580000000,,650,,121,580000000,"""map""",,,-0.0156945344061,-0.00216199760325,-0.0285547431558,,0.00949593398165,-0.0100112475287,0.0297939022403,-0.999460798253
121616000000,,651,,121,616000000,"""map""",,,-0.015365130268,-0.00209823902696,-0.0285581238568,,0.0094971778899,-0.00995980935803,0.0298615479322,-0.999459323113
121648000000,,652,,121,648000000,"""map""",,,-0.0152282966301,-0.00204114755616,-0.028528669849,,0.00950815210196,-0.00993223850728,0.0298746134552,-0.999459070232
121680000000,,653,,121,680000000,"""map""",,,-0.0151780163869,-0.00196394114755,-0.0284999832511,,0.0095238207897,-0.00992845654791,0.0298384514592,-0.999460081756
121716000000,,654,,121,716000000,"""map""",,,-0.0152204120532,-0.00188303878531,-0.0284009668976,,0.00949753982185,-0.00994118071852,0.0298484402623,-0.999459871022
121748000000,,655,,121,748000000,"""map""",,,-0.0151865156367,-0.0018051774241,-0.0281178895384,,0.00948227912301,-0.00989968014913,0.0297472878258,-0.999463495651
121780000000,,656,,121,780000000,"""map""",,,-0.0151832699776,-0.00169256725349,-0.0278768781573,,0.00950385153879,-0.00990256871055,0.0297770856477,-0.999462357686
121816000000,,657,,121,816000000,"""map""",,,-0.0152857964858,-0.00159104564227,-0.0276619810611,,0.00947894503565,-0.00970402447669,0.0297826911786,-0.999464338588
121848000000,,658,,121,848000000,"""map""",,,-0.0154360802844,-0.00151121406816,-0.0273424610496,,0.00949669674082,-0.00980429053279,0.0298330145157,-0.999461725483
121880000000,,659,,121,880000000,"""map""",,,-0.0156557578593,-0.0014603122836,-0.0270726084709,,0.00951796731684,-0.00984284082279,0.0298183895593,-0.999461599043
121916000000,,660,,121,916000000,"""map""",,,-0.0159280896187,-0.00141658890061,-0.0270224828273,,0.00958361403801,-0.00990338571733,0.0298738126651,-0.99945869091
121948000000,,661,,121,948000000,"""map""",,,-0.0157815534621,-0.00139261607546,-0.0267406422645,,0.00957400047151,-0.00991366836505,0.0298627280439,-0.999458985938
121980000000,,662,,121,980000000,"""map""",,,-0.0155799342319,-0.00136400875635,-0.0263771936297,,0.00959972337434,-0.00988943640699,0.0298767629445,-0.999458606617
122016000000,,663,,122,16000000,"""map""",,,-0.0154603365809,-0.00128386821598,-0.0261484477669,,0.00965500237207,-0.00993604873262,0.0299036526338,-0.999456836449
122048000000,,664,,122,48000000,"""map""",,,-0.015457957983,-0.00123429636005,-0.0261317119002,,0.00964465752277,-0.00996611962411,0.0299187833524,-0.999456119953
122080000000,,665,,122,80000000,"""map""",,,-0.0155532639474,-0.00116452516522,-0.0262820199132,,0.00964579977851,-0.00997776630272,0.0299432285246,-0.999455277016
122116000000,,666,,122,116000000,"""map""",,,-0.0156979858875,-0.00108222628478,-0.0264633577317,,0.0096744548096,-0.00995597067122,0.0299796855485,-0.999454139051
122148000000,,667,,122,148000000,"""map""",,,-0.0158847793937,-0.00100303743966,-0.0266957469285,,0.00960172473226,-0.0099626737591,0.0299524586844,-0.999455572044
122180000000,,668,,122,180000000,"""map""",,,-0.0161467473954,-0.000923136190977,-0.0269947461784,,0.00961717295164,-0.0100221679047,0.0299603401451,-0.999454602666
122216000000,,669,,122,216000000,"""map""",,,-0.0165665689856,-0.000834199308883,-0.0274437312037,,0.00960040764324,-0.0100027303873,0.0299316802881,-0.999455782778
122248000000,,670,,122,248000000,"""map""",,,-0.0166565515101,-0.000838639156427,-0.0274306517094,,0.00966249740088,-0.0100437120648,0.0299324810782,-0.9994548134
122280000000,,671,,122,280000000,"""map""",,,-0.0167477689683,-0.000856916303746,-0.0273296423256,,0.00964817304944,-0.010038427595,0.029895265411,-0.999456119953
122316000000,,672,,122,316000000,"""map""",,,-0.0169403925538,-0.000835432321765,-0.0273891631514,,0.0095762661836,-0.010004574847,0.0298697244208,-0.99945789012
122348000000,,673,,122,348000000,"""map""",,,-0.0172154922038,-0.000787290919106,-0.0274824220687,,0.00959646176803,-0.0100193558785,0.0298341946275,-0.999458606617
122380000000,,674,,122,380000000,"""map""",,,-0.0175707191229,-0.000682626094203,-0.0277057942003,,0.0096054875321,-0.0099940285037,0.0298591877086,-0.999457974414
122416000000,,675,,122,416000000,"""map""",,,-0.0180743187666,-0.000503469549585,-0.0280579030514,,0.00960803840425,-0.0100340459485,0.0298370184663,-0.999458227295
122448000000,,676,,122,448000000,"""map""",,,-0.0180990025401,-0.000353419658495,-0.0279864706099,,0.00964201174818,-0.0100533554408,0.0298085271967,-0.99945856447
122480000000,,677,,122,480000000,"""map""",,,-0.0180675238371,-0.000211291218875,-0.0278917830437,,0.00966000034417,-0.0100545634172,0.0298116460635,-0.999458311589
122516000000,,678,,122,516000000,"""map""",,,-0.0181904695928,-2.5975456083e-05,-0.0280419755727,,0.00960824693649,-0.00979559181839,0.0298153549862,-0.999461261868
122548000000,,679,,122,548000000,"""map""",,,-0.0183287132531,0.000104717182694,-0.0281215440482,,0.00965522780009,-0.00981707851019,0.0297717751448,-0.999461936218
122580000000,,680,,122,580000000,"""map""",,,-0.0185755062848,0.000323088781442,-0.028359265998,,0.00964466815209,-0.00982164540317,0.02977451469,-0.999461894071
122616000000,,681,,122,616000000,"""map""",,,-0.0189657080919,0.000606893736403,-0.0285886768252,,0.00962764984941,-0.00987911546079,0.0296906424614,-0.999464001413
122648000000,,682,,122,648000000,"""map""",,,-0.0189470984042,0.000544223817997,-0.0283972397447,,0.00965763373071,-0.00993885826871,0.0296613925486,-0.999464001413
122680000000,,683,,122,680000000,"""map""",,,-0.0188807323575,0.000437366310507,-0.0281029660255,,0.00967241875462,-0.00995792770086,0.0295972450451,-0.9994655187
122716000000,,684,,122,716000000,"""map""",,,-0.0189007017761,0.00038976862561,-0.02793937549,,0.00963259561127,-0.00996781341088,0.0296100155402,-0.999465476553
122744000000,,685,,122,744000000,"""map""",,,-0.0190087519586,0.000376121664885,-0.0277284272015,,0.0095962433782,-0.00999916465695,0.0295539602317,-0.999467162427
122780000000,,686,,122,780000000,"""map""",,,-0.0192211959511,0.00040036579594,-0.0276472046971,,0.00957836076673,-0.0100042728221,0.0295307373182,-0.999467963217
122816000000,,687,,122,816000000,"""map""",,,-0.0195638425648,0.000457725021988,-0.0276158805937,,0.00952467663003,-0.010012091968,0.0294995907971,-0.999469269769
122844000000,,688,,122,848000000,"""map""",,,-0.0193094573915,0.0004989359295,-0.0273885503411,,0.00953771354754,-0.00998532439746,0.029540262506,-0.999468216098
122880000000,,689,,122,880000000,"""map""",,,-0.0189787112176,0.000559056759812,-0.0271401293576,,0.00958665653421,-0.00996054867714,0.0295364271427,-0.999468173951
122916000000,,690,,122,916000000,"""map""",,,-0.0187571458519,0.000671690097079,-0.0269874632359,,0.0095973700038,-0.0100075355602,0.0296433958443,-0.999464380735
122948000000,,691,,122,948000000,"""map""",,,-0.0186745747924,0.000825369381346,-0.0269353874028,,0.00956718946465,-0.010025829371,0.0297077540819,-0.99946256842
122980000000,,692,,122,980000000,"""map""",,,-0.0186817869544,0.00102820515167,-0.0269351843745,,0.0095816070413,-0.0100167433707,0.0297227162132,-0.999462104805
123016000000,,693,,123,16000000,"""map""",,,-0.0188297461718,0.00128276960459,-0.0270270053297,,0.00952996393982,-0.0100943265404,0.0297428202599,-0.999461219721
123048000000,,694,,123,48000000,"""map""",,,-0.0186093281955,0.00164280470926,-0.0267433281988,,0.00955933191737,-0.0100515584992,0.029786189367,-0.999460081756
123080000000,,695,,123,80000000,"""map""",,,-0.0183906983584,0.00203729118221,-0.0264120846987,,0.00950312123351,-0.0100880141649,0.0297857678985,-0.999460250344
123116000000,,696,,123,116000000,"""map""",,,-0.0182719789445,0.00243190745823,-0.0261258352548,,0.00951621425078,-0.010133178629,0.0298134162312,-0.999458817351
123148000000,,697,,123,148000000,"""map""",,,-0.0182711873204,0.00280723930337,-0.0260620508343,,0.00949711730381,-0.0101214530588,0.0298664791134,-0.999457595092
123180000000,,698,,123,180000000,"""map""",,,-0.0183818526566,0.0031816912815,-0.0262600835413,,0.00951613125359,-0.0101290811856,0.0298717474695,-0.999457131477
123216000000,,699,,123,216000000,"""map""",,,-0.0186724569649,0.00366551964544,-0.0266334116459,,0.00950469105956,-0.010128053815,0.0298614214916,-0.999457595092
123248000000,,700,,123,248000000,"""map""",,,-0.0185685772449,0.00392435351387,-0.0265815481544,,0.00947045489463,-0.0102010374217,0.0298064620011,-0.999458775204
123280000000,,701,,123,280000000,"""map""",,,-0.0184161737561,0.00418077642098,-0.0264665484428,,0.00949639710307,-0.0101610063121,0.0298438041089,-0.999457847973
123316000000,,702,,123,316000000,"""map""",,,-0.0183282028884,0.00451099965721,-0.0264947544783,,0.00948908100286,-0.0102064942861,0.0297977376035,-0.999458817351
123348000000,,703,,123,348000000,"""map""",,,-0.0183604881167,0.00489703472704,-0.0267130285501,,0.00948543532104,-0.0101256263171,0.0297657481455,-0.999460629665
123380000000,,704,,123,380000000,"""map""",,,-0.01845744811,0.0053316927515,-0.0268737580627,,0.00952987882295,-0.0100991768853,0.0297222525978,-0.999461725483
123416000000,,705,,123,416000000,"""map""",,,-0.0186665989459,0.00592787051573,-0.0271927174181,,0.00944660251545,-0.0100114739651,0.0297022749916,-0.999464085707
123448000000,,706,,123,448000000,"""map""",,,-0.0187350176275,0.00638627214357,-0.0271841417998,,0.00954580428131,-0.0100885369052,0.0296673352542,-0.99946336921
123480000000,,707,,123,480000000,"""map""",,,-0.018854752183,0.00687694177032,-0.0271804742515,,0.00953988662094,-0.010151175004,0.0296804429241,-0.999462399833
123516000000,,708,,123,516000000,"""map""",,,-0.0190620683134,0.00741571560502,-0.027149554342,,0.00948641463847,-0.0100912890861,0.0296985239221,-0.999462947742
123548000000,,709,,123,548000000,"""map""",,,-0.0193357151002,0.00796947535127,-0.0271930228919,,0.00953669220674,-0.0101038880304,0.0296965851671,-0.99946244198
123580000000,,710,,123,580000000,"""map""",,,-0.0196514222771,0.00855136942118,-0.027306413278,,0.00954898120291,-0.010060642174,0.0296519938014,-0.99946404356
123616000000,,711,,123,616000000,"""map""",,,-0.0200924053788,0.00935508590192,-0.0274416953325,,0.00955944580441,-0.0100692016062,0.0297181643535,-0.999461936218
123648000000,,712,,123,648000000,"""map""",,,-0.020148716867,0.00988855399191,-0.0275201443583,,0.00969422360574,-0.0100623052458,0.0297413029733,-0.999460039609
123680000000,,713,,123,680000000,"""map""",,,-0.0201555527747,0.0103812236339,-0.027478935197,,0.00970187299121,-0.0100648251047,0.0297635565094,-0.999459196672
123716000000,,714,,123,716000000,"""map""",,,-0.0202516503632,0.010871944949,-0.027544433251,,0.00961791480203,-0.0101068840581,0.0298384514592,-0.999457384358
123748000000,,715,,123,748000000,"""map""",,,-0.0204170159996,0.0113852322102,-0.0277355574071,,0.00966029662746,-0.0101978706664,0.0298873418034,-0.999454602666
123780000000,,716,,123,780000000,"""map""",,,-0.0206756647676,0.0119540384039,-0.0279218293726,,0.00962328887507,-0.0102212333766,0.0298958976137,-0.999454476225
123816000000,,717,,123,816000000,"""map""",,,-0.0210544019938,0.0127006014809,-0.0282725505531,,0.00961220532405,-0.0102595437917,0.0299617309911,-0.999452200296
123848000000,,718,,123,848000000,"""map""",,,-0.0209739655256,0.0128553817049,-0.0285399165004,,0.00960442853079,-0.0102537348118,0.0299904329949,-0.999451483799
123880000000,,719,,123,880000000,"""map""",,,-0.0208460409194,0.0129315173253,-0.0288948956877,,0.0096383483474,-0.010271703034,0.0300024026999,-0.999450556569
123916000000,,720,,123,916000000,"""map""",,,-0.0207868665457,0.013101442717,-0.0293545946479,,0.00963181142882,-0.0103545955541,0.030007923937,-0.999449671485
123948000000,,721,,123,948000000,"""map""",,,-0.0208253543824,0.0133473966271,-0.0297672450542,,0.00954869471547,-0.0103933632462,0.0299616888442,-0.999451399506
123980000000,,722,,123,980000000,"""map""",,,-0.0209450740367,0.0136809404939,-0.0301388688385,,0.00959490305492,-0.0103560887215,0.0299870191002,-0.999450598715
124016000000,,723,,124,16000000,"""map""",,,-0.0212253201753,0.0142139354721,-0.0306601058692,,0.00956694199597,-0.0103383902555,0.0300531053586,-0.999449081429
124048000000,,724,,124,48000000,"""map""",,,-0.0210719872266,0.0143986064941,-0.0308752954006,,0.00964164559743,-0.0103366283609,0.0300826502994,-0.999447521995
124080000000,,725,,124,80000000,"""map""",,,-0.0208687223494,0.0145635604858,-0.030938167125,,0.00957419335302,-0.0103276170024,0.0300967273468,-0.999447774877
124116000000,,726,,124,116000000,"""map""",,,-0.0207624454051,0.0148109383881,-0.0310779269785,,0.00961133987309,-0.0103480048819,0.030167618346,-0.999445077478
124148000000,,727,,124,148000000,"""map""",,,-0.0207672324032,0.0151269771159,-0.0313077457249,,0.00959166272782,-0.0103496629323,0.0301288432454,-0.999446426177
124180000000,,728,,124,180000000,"""map""",,,-0.0208657234907,0.0154974469915,-0.0316134952009,,0.00960893750272,-0.01034777044,0.0301472192714,-0.999445751828
124216000000,,729,,124,216000000,"""map""",,,-0.0211666747928,0.0160515978932,-0.0320327281952,,0.00961626763816,-0.01033233889,0.0301650052414,-0.999445330359
124240000000,,730,,124,248000000,"""map""",,,-0.0210686139762,0.016141846776,-0.0321074575186,,0.00962617054236,-0.0103461962717,0.0301984276923,-0.999444023807
124280000000,,731,,124,280000000,"""map""",,,-0.0209392718971,0.0161540601403,-0.0322516709566,,0.00960537617634,-0.0103350314727,0.0301542577951,-0.999445709681
124316000000,,732,,124,316000000,"""map""",,,-0.0208857413381,0.0162603016943,-0.0325527079403,,0.00976707459802,-0.0103543511312,0.0301321728464,-0.999444613863
124348000000,,733,,124,348000000,"""map""",,,-0.0209413506091,0.0164672583342,-0.0327831618488,,0.00975946262611,-0.0104431405676,0.0301004362695,-0.99944465601
124380000000,,734,,124,380000000,"""map""",,,-0.0210853423923,0.0167758334428,-0.0329912602901,,0.00975167204458,-0.0104197569692,0.0301177164774,-0.999444487422
124416000000,,735,,124,416000000,"""map""",,,-0.021357178688,0.0173154175282,-0.0331841595471,,0.00977063820873,-0.0105137944084,0.0300988346893,-0.999443897366
124448000000,,736,,124,448000000,"""map""",,,-0.0209721531719,0.0175856072456,-0.0330987982452,,0.00966316905454,-0.0105422895881,0.0301207931973,-0.999444023807
124480000000,,737,,124,480000000,"""map""",,,-0.0204613059759,0.0178616754711,-0.0327130816877,,0.00967870811191,-0.0105651370901,0.0301166628062,-0.999443686632
124516000000,,738,,124,516000000,"""map""",,,-0.0200431011617,0.0182258784771,-0.0323849059641,,0.00960726360606,-0.0105633435441,0.0301839713233,-0.99944238008
124548000000,,739,,124,548000000,"""map""",,,-0.0197395533323,0.018671611324,-0.032108400017,,0.00954706778126,-0.0104723467695,0.030228267661,-0.999442590814
124580000000,,740,,124,580000000,"""map""",,,-0.019516190514,0.0191662516445,-0.0318044796586,,0.00957688540065,-0.0104991336848,0.0302478659456,-0.999441452849
124616000000,,741,,124,616000000,"""map""",,,-0.0193831082433,0.019860284403,-0.0312558449805,,0.00959224146497,-0.0105154812702,0.0302342525135,-0.99944157929
124648000000,,742,,124,648000000,"""map""",,,-0.0190604161471,0.0198360495269,-0.0307691562921,,0.00948081425249,-0.0104118594565,0.0302205126409,-0.999444108101
124680000000,,743,,124,680000000,"""map""",,,-0.0187267921865,0.0197586230934,-0.0303583703935,,0.00960696100486,-0.0104295862399,0.0302490039105,-0.999441832171
124716000000,,744,,124,716000000,"""map""",,,-0.0184998959303,0.0198043361306,-0.0300201270729,,0.00962261296145,-0.0105198861921,0.0302886219481,-0.999439556241
124748000000,,745,,124,748000000,"""map""",,,-0.01836787723,0.0199584662914,-0.0296611059457,,0.00966804458881,-0.0105626968946,0.030303120464,-0.999438207542
124780000000,,746,,124,780000000,"""map""",,,-0.0183521397412,0.0202244929969,-0.0294402167201,,0.00964415456969,-0.0105823511554,0.0303066186524,-0.999438081101
124816000000,,747,,124,816000000,"""map""",,,-0.0184555836022,0.0206862837076,-0.0293594505638,,0.00965781883316,-0.0106147020309,0.0302729433205,-0.999438713304
124848000000,,748,,124,848000000,"""map""",,,-0.0180936101824,0.0206524804235,-0.0289880838245,,0.00970896856133,-0.0106043702085,0.030232440199,-0.999439514094
124880000000,,749,,124,880000000,"""map""",,,-0.0176506824791,0.0205644071102,-0.0285351518542,,0.00972101383429,-0.0106415419178,0.0302679278455,-0.999437912514
124916000000,,750,,124,916000000,"""map""",,,-0.0172985605896,0.0205534342676,-0.0281617622823,,0.00969920769695,-0.0105876747058,0.0302796446694,-0.999438333982
124948000000,,751,,124,948000000,"""map""",,,-0.0170836541802,0.0206362511963,-0.0278961211443,,0.00961202912223,-0.0104660393537,0.0302587819794,-0.999441157821
124980000000,,752,,124,980000000,"""map""",,,-0.0169819407165,0.0208744481206,-0.0276768170297,,0.00956200213014,-0.0104668335584,0.0303024461144,-0.999440230591
125016000000,,753,,125,16000000,"""map""",,,-0.0171648319811,0.0212997347116,-0.0263367034495,,0.00883676640824,-0.0098694076607,0.0301412765657,-0.999457847973
125048000000,,754,,125,48000000,"""map""",,,-0.0172605570406,0.0212411601096,-0.0235202293843,,0.00617579203564,-0.00767886488665,0.0297381419597,-0.999509224982
125080000000,,755,,125,80000000,"""map""",,,-0.0175177957863,0.0210696645081,-0.0195332523435,,0.0039974619695,-0.00584388708535,0.0294584976198,-0.999540961559
125116000000,,756,,125,116000000,"""map""",,,-0.0180368702859,0.0208938959986,-0.0147317880765,,-0.00183552258225,-0.000499843842637,0.0288568513573,-0.999581801855
125148000000,,757,,125,148000000,"""map""",,,-0.0188184194267,0.0207064524293,-0.00919243413955,,-0.00855784333924,0.00637771429414,0.0282919149999,-0.999542773873
125180000000,,758,,125,180000000,"""map""",,,-0.0196986123919,0.0206396318972,-0.00464617460966,,-0.011971768197,0.0104131421777,0.0279665413294,-0.999482925348
125216000000,,759,,125,216000000,"""map""",,,-0.021322498098,0.0203415118158,-0.00331085617654,,-0.0130003773461,0.0139610222324,0.02730226485,-0.999445203919
125248000000,,760,,125,248000000,"""map""",,,-0.0226309485734,0.0192982032895,-0.00596306426451,,-0.0095770346433,0.0128517137222,0.0264569676563,-0.999521489715
125280000000,,761,,125,280000000,"""map""",,,-0.0241448245943,0.0180260259658,-0.0102068670094,,-0.00695431874317,0.0107733266755,0.0260765080548,-0.999577755757
125316000000,,762,,125,316000000,"""map""",,,-0.0259054191411,0.0168302152306,-0.0145847918466,,-0.00160596071684,0.00531534733041,0.0255026787123,-0.999659394203
125348000000,,763,,125,348000000,"""map""",,,-0.0278046429157,0.0157761201262,-0.0183126237243,,0.00253440738652,7.12467778658e-05,0.0251549250652,-0.999680341187
125380000000,,764,,125,380000000,"""map""",,,-0.0297088287771,0.0149536281824,-0.0212485585362,,0.0040403648271,-0.00216806747317,0.0250056830747,-0.999676842998
125416000000,,765,,125,416000000,"""map""",,,-0.0319124422967,0.0143619580194,-0.0239791478962,,0.00642554672782,-0.00577722241901,0.0247647716886,-0.999656022455
125448000000,,766,,125,448000000,"""map""",,,-0.0329109728336,0.0138127896935,-0.0249415766448,,0.00829431294552,-0.0086935736223,0.0246212195225,-0.9996246652
125480000000,,767,,125,480000000,"""map""",,,-0.0332222469151,0.013506042771,-0.0255534239113,,0.00886987094675,-0.0102624103948,0.0246644200423,-0.99960380251
125516000000,,768,,125,516000000,"""map""",,,-0.0328451283276,0.0134999109432,-0.0256710536778,,0.00874146332877,-0.0137095596462,0.0246054144544,-0.999565027409
125548000000,,769,,125,548000000,"""map""",,,-0.0321689918637,0.0133647825569,-0.02346935682,,0.00683465478526,-0.0118302022012,0.0246688033145,-0.999602369517
125580000000,,770,,125,580000000,"""map""",,,-0.032246183604,0.0125405732542,-0.0137150324881,,0.00270096629884,-0.00824158573573,0.0246246755641,-0.999659225616
125616000000,,771,,125,616000000,"""map""",,,-0.0329177379608,0.0109512479976,0.0122909871861,,-0.0184263713491,0.0116876520107,0.0246869264594,-0.999457131477
125648000000,,772,,125,648000000,"""map""",,,-0.0344053544104,0.00830069184303,0.0408292524517,,-0.0404671452971,0.0353807868984,0.0252101795836,-0.998236010835
125680000000,,773,,125,680000000,"""map""",,,-0.0368704386055,0.0046972525306,0.0708656013012,,-0.0480639170132,0.0440179907778,0.0256536065768,-0.997544086023
125716000000,,774,,125,716000000,"""map""",,,-0.040216602385,0.00036053173244,0.0993671938777,,-0.059168522034,0.0548680795414,0.026698806273,-0.996381380913
125748000000,,775,,125,748000000,"""map""",,,-0.0445408932865,-0.00482259597629,0.125450327992,,-0.067530263825,0.0607134081807,0.0280899894487,-0.99547202051
125780000000,,776,,125,780000000,"""map""",,,-0.0500935912132,-0.0110428333282,0.150137469172,,-0.0708960205972,0.0630674845136,0.028920113777,-0.995067832232
125816000000,,777,,125,816000000,"""map""",,,-0.0590264424682,-0.0207119435072,0.18178537488,,-0.075308631988,0.0662314118821,0.030691798701,-0.994484857024
125848000000,,778,,125,848000000,"""map""",,,-0.0676418244839,-0.0304472353309,0.20891597867,,-0.0774397175772,0.0665582462043,0.0323479169664,-0.994246811623
