rosbagTimestamp,header,seq,stamp,secs,nsecs,frame_id,pose,position,x,y,z,orientation,x,y,z,w
390672000000,,228,,390,667998363,"""map""",,,-0.0286613665521,-0.0120985005051,0.0115274209529,,0.00677888923632,-0.0160399519198,0.0452821104248,-0.998822442085
390704000000,,229,,390,699998363,"""map""",,,-0.0283660236746,-0.0118026630953,0.0116809206083,,0.00679580658619,-0.0160710661722,0.0452958924442,-0.998821219827
390736000000,,230,,390,731998363,"""map""",,,-0.0281651969999,-0.0115087023005,0.0117859821767,,0.00678890273484,-0.0160298672985,0.0453233300426,-0.998820671918
390772000000,,231,,390,763998337,"""map""",,,-0.0280936416239,-0.0111909564584,0.0118926325813,,0.00681855040859,-0.0160725673244,0.0453667834434,-0.998817848079
390804000000,,232,,390,795998337,"""map""",,,-0.028116138652,-0.0108342412859,0.0120084779337,,0.00685348125565,-0.0160550668333,0.0453705766598,-0.998817679491
390836000000,,233,,390,827998337,"""map""",,,-0.0282154902816,-0.0104897245765,0.0120225567371,,0.00683477957944,-0.0160051534402,0.045388320483,-0.998817890226
390872000000,,234,,390,867998310,"""map""",,,-0.0277670677751,-0.0100542083383,0.0120591856539,,0.0068076073745,-0.0159952416868,0.0453430547677,-0.998820250449
390904000000,,235,,390,899998310,"""map""",,,-0.0275295693427,-0.00971120409667,0.0121207935736,,0.00680240454362,-0.0159805512052,0.0453455414318,-0.99882037689
390936000000,,236,,390,931998310,"""map""",,,-0.0274076461792,-0.00936043076217,0.0121445916593,,0.00684844964634,-0.0159636743558,0.0453201268821,-0.998821514855
390972000000,,237,,390,963998283,"""map""",,,-0.0273505412042,-0.00898435804993,0.0121142361313,,0.00684646512247,-0.0159366302378,0.0452856929069,-0.998823495756
391004000000,,238,,390,995998283,"""map""",,,-0.0273776296526,-0.00860263593495,0.0119594456628,,0.00686403344358,-0.0158764461844,0.0452934900739,-0.998823959372
391036000000,,239,,391,27998283,"""map""",,,-0.0274538565427,-0.00821724906564,0.0118567198515,,0.00680297681879,-0.0158800487522,0.0452953023884,-0.9988242544
391072000000,,240,,391,67998257,"""map""",,,-0.0270022135228,-0.00754105253145,0.0119755351916,,0.00680404859998,-0.0158520556715,0.045291509172,-0.998824928749
391104000000,,241,,391,99998257,"""map""",,,-0.0267500467598,-0.00701465783641,0.0116803823039,,0.00706017335202,-0.0158766921508,0.0453045325482,-0.99882210491
391136000000,,242,,391,131998257,"""map""",,,-0.0266283489764,-0.00650785584003,0.0114345736802,,0.00705895175196,-0.0158649088139,0.0453046589887,-0.998822315645
391172000000,,243,,391,163998231,"""map""",,,-0.0266078077257,-0.00601509260014,0.0111927427351,,0.00706765079564,-0.0158372937378,0.0453117396593,-0.998822399938
391204000000,,244,,391,195998231,"""map""",,,-0.0266809333116,-0.00553005747497,0.0108763035387,,0.00706147858723,-0.0158453625544,0.0453138470017,-0.998822231351
391236000000,,245,,391,227998231,"""map""",,,-0.0268310755491,-0.00505372602493,0.0104718953371,,0.00706437486598,-0.0158812756206,0.0453000228354,-0.998822231351
391272000000,,246,,391,267998205,"""map""",,,-0.0268543250859,-0.00469385785982,0.0103164846078,,0.00703649571351,-0.015860651653,0.0453332766989,-0.998821261973
391304000000,,247,,391,299998205,"""map""",,,-0.0269747674465,-0.00441864086315,0.0100820641965,,0.00702471896207,-0.0158639226435,0.045315701463,-0.998822062764
391336000000,,248,,391,331998205,"""map""",,,-0.0271582696587,-0.00411334261298,0.00985764432698,,0.0070107341109,-0.0159002637637,0.0453687221985,-0.998819196778
391372000000,,249,,391,363998178,"""map""",,,-0.0273940768093,-0.00376195786521,0.00966130569577,,0.00698005285154,-0.0158935660367,0.0453687643453,-0.998819491806
391404000000,,250,,391,395998178,"""map""",,,-0.0277227573097,-0.00338798062876,0.00946784578264,,0.00697993102081,-0.015920032282,0.0453844008261,-0.998818353841
391436000000,,251,,391,427998178,"""map""",,,-0.0281451586634,-0.00299383536913,0.00922046415508,,0.00696212792858,-0.015927475152,0.0454269691431,-0.998816415086
391472000000,,252,,391,467998152,"""map""",,,-0.0284168403596,-0.002514769556,0.00907883513719,,0.00687633571353,-0.0159009802601,0.0454068229495,-0.998818353841
391504000000,,253,,391,499998152,"""map""",,,-0.0287130642682,-0.00207967497408,0.00896303355694,,0.00692959319571,-0.0159670800187,0.0454425213302,-0.998815361415
391536000000,,254,,391,531998152,"""map""",,,-0.0290914755315,-0.00159959984012,0.00877725146711,,0.00693882203844,-0.0159804471551,0.0454716869494,-0.998813759834
391572000000,,255,,391,563998127,"""map""",,,-0.0295561403036,-0.00109707971569,0.00852714665234,,0.00694682072004,-0.0160012005268,0.0454351034849,-0.99881502424
391604000000,,256,,391,603998127,"""map""",,,-0.0302200801671,-0.000440523494035,0.00815989635885,,0.00695207985648,-0.016014475467,0.0454592536291,-0.998813633394
391636000000,,257,,391,627998127,"""map""",,,-0.0306485835463,-2.24027498916e-05,0.00799288414419,,0.00701261326765,-0.0160674540555,0.0455106727842,-0.998810008765
391672000000,,258,,391,667998101,"""map""",,,-0.0306601114571,0.000864302914124,0.00827460549772,,0.00704787700897,-0.0160794026871,0.0455145924412,-0.998809460856
391704000000,,259,,391,699998101,"""map""",,,-0.0307712946087,0.00161262683105,0.00843240506947,,0.00705339824612,-0.0161041244479,0.0455125693924,-0.998809039387
391736000000,,260,,391,731998101,"""map""",,,-0.0309764817357,0.00239072926342,0.00848646927625,,0.0070471776347,-0.0161187243797,0.0454743843477,-0.998810640968
391772000000,,261,,391,763998075,"""map""",,,-0.0312265269458,0.00318775488995,0.00856418535113,,0.00706799587296,-0.0161546226286,0.0454822658083,-0.998809503003
391804000000,,262,,391,795998075,"""map""",,,-0.0315403975546,0.00402243062854,0.00870949588716,,0.00706831757195,-0.0161218662955,0.0454927603736,-0.998809629443
391836000000,,263,,391,827998075,"""map""",,,-0.0318924374878,0.00486177345738,0.00885409209877,,0.00705182234911,-0.0161256963904,0.0455067531273,-0.998809039387
391872000000,,264,,391,867998049,"""map""",,,-0.0314371027052,0.00554411998019,0.00924314558506,,0.00701391027106,-0.0162166845216,0.0455033392326,-0.998807985716
391904000000,,265,,391,899998049,"""map""",,,-0.0312014427036,0.0061629107222,0.00936475675553,,0.00702359614368,-0.0162495248191,0.0454755223126,-0.998808660066
391936000000,,266,,391,931998049,"""map""",,,-0.0310916155577,0.0068742679432,0.00937227252871,,0.0071662655308,-0.0162273954187,0.0454815071651,-0.998807732835
391972000000,,267,,391,963998024,"""map""",,,-0.0310551859438,0.00761152198538,0.00937971100211,,0.00716511044373,-0.0162811550411,0.0454830244516,-0.998806805604
392004000000,,268,,391,995998024,"""map""",,,-0.0310737006366,0.00839540828019,0.0091736484319,,0.00718283582771,-0.0162854724589,0.0455078489454,-0.998805414758
392036000000,,269,,392,27998024,"""map""",,,-0.0311430525035,0.00920608174056,0.00913115683943,,0.00713657966147,-0.0162942073932,0.0455376889141,-0.998804234647
392072000000,,270,,392,67997998,"""map""",,,-0.0306464061141,0.0100264782086,0.00958966370672,,0.00714031558446,-0.0163697707657,0.0455095769662,-0.998804276793
392104000000,,271,,392,99997998,"""map""",,,-0.0303414743394,0.010759903118,0.00991277489811,,0.00714650721993,-0.0163771214395,0.0454990824009,-0.998804571821
392136000000,,272,,392,131997998,"""map""",,,-0.0301197879016,0.011592018418,0.0101989097893,,0.00708258888998,-0.0163482034331,0.0455142552664,-0.998804824703
392172000000,,273,,392,163997973,"""map""",,,-0.0299787614495,0.0124869896099,0.0105574186891,,0.00705332745259,-0.016356417788,0.0454699589286,-0.998806889898
392204000000,,274,,392,195997973,"""map""",,,-0.0299187414348,0.0134098250419,0.0108862435445,,0.0070539040083,-0.0163228086398,0.0454863961995,-0.998806721311
392236000000,,275,,392,227997973,"""map""",,,-0.0299260821193,0.0143618965521,0.0111204329878,,0.0071007706453,-0.0162363002576,0.0454802006128,-0.998808112157
392272000000,,276,,392,267997948,"""map""",,,-0.0288847573102,0.0150398416445,0.0115647055209,,0.00705106140093,-0.0162822241881,0.0454532687766,-0.998808912947
392304000000,,277,,392,299997948,"""map""",,,-0.0282118394971,0.0156929008663,0.0118587482721,,0.00699895110329,-0.0162193236387,0.0454793576758,-0.998809123681
392336000000,,278,,392,331997948,"""map""",,,-0.0276425257325,0.016426064074,0.0121754687279,,0.00696989974159,-0.0162611428613,0.0455005996875,-0.998807690688
392372000000,,279,,392,363997923,"""map""",,,-0.0271512214094,0.0172476451844,0.0125050861388,,0.00693751680323,-0.016240204768,0.0454600122723,-0.998810093059
392404000000,,280,,392,395997923,"""map""",,,-0.0267554018646,0.0181209370494,0.0129088973626,,0.00692533142493,-0.0162648761501,0.0455086918824,-0.998807522101
392436000000,,281,,392,427997923,"""map""",,,-0.0264538861811,0.0190305262804,0.0132859302685,,0.00694353754639,-0.0163143842092,0.0455429994171,-0.998805077584
392472000000,,282,,392,467997897,"""map""",,,-0.0257317535579,0.019351458177,0.0140714952722,,0.00691820531481,-0.0162597138197,0.0455451910532,-0.998806004814
392504000000,,283,,392,499997897,"""map""",,,-0.0252281166613,0.0197215657681,0.0146608399227,,0.00690247433287,-0.0162540579102,0.0455176691611,-0.998807479954
392536000000,,284,,392,531997897,"""map""",,,-0.0248175691813,0.0201661866158,0.0152846444398,,0.0068412810601,-0.0162494757575,0.0455653793936,-0.99880579408
392572000000,,285,,392,571997872,"""map""",,,-0.024381486699,0.0208331849426,0.0159838236868,,0.00680675916917,-0.0162598475043,0.0455753681967,-0.998805414758
392604000000,,286,,392,595997872,"""map""",,,-0.0241762027144,0.0213364586234,0.0163873713464,,0.00679275225676,-0.0163152768662,0.0456398950218,-0.998801663689
392636000000,,287,,392,627997872,"""map""",,,-0.02393784374,0.0220597088337,0.0168589018285,,0.00684849343955,-0.0163279215793,0.0456898811841,-0.998798797703
392672000000,,288,,392,667997848,"""map""",,,-0.0234969202429,0.0223224963993,0.0176291465759,,0.0067819264436,-0.0163138616541,0.0456497995312,-0.998801284367
392704000000,,289,,392,699997848,"""map""",,,-0.0232114512473,0.0226682964712,0.0181218218058,,0.0067949271,-0.0162774615942,0.0456614742082,-0.99880124222
392736000000,,290,,392,731997848,"""map""",,,-0.0230021551251,0.0231426134706,0.0185020118952,,0.00680804366024,-0.0162610549456,0.0456750033466,-0.998800778605
392772000000,,291,,392,763997823,"""map""",,,-0.022850651294,0.0237383544445,0.0188284199685,,0.00702840977477,-0.0162362133297,0.0456928314635,-0.998798881997
392804000000,,292,,392,795997823,"""map""",,,-0.0227672886103,0.0244397204369,0.0191702768207,,0.00699401004385,-0.0162769877715,0.0457036210567,-0.998797954766
392828000000,,293,,392,827997823,"""map""",,,-0.0227203294635,0.0252680927515,0.0194512493908,,0.00701050559595,-0.01633036906,0.0456993220782,-0.998797196123
392828000000,,294,,392,867997823,"""map""",,,-0.0223525427282,0.0255977269262,0.0199281200767,,0.00696294617013,-0.0162385725654,0.0457410053114,-0.998797069682
392904000000,,295,,392,900003798,"""map""",,,-0.0221223700792,0.026032935828,0.0202960148454,,0.00691508677729,-0.0162502041078,0.0457292041938,-0.998797828326
392936000000,,296,,392,932003798,"""map""",,,-0.0219386760145,0.0265963599086,0.0205688569695,,0.00688641111523,-0.0162926249108,0.0456985634349,-0.998798713409
392972000000,,297,,392,964003773,"""map""",,,-0.0218049474061,0.0272618420422,0.0209068246186,,0.00689824976985,-0.0163002739053,0.0456495045032,-0.998800736458
393004000000,,298,,392,996003773,"""map""",,,-0.0217227451503,0.0280302725732,0.0212162844837,,0.00688728039398,-0.0163231787418,0.0456069783331,-0.998802380185
393036000000,,299,,393,28003773,"""map""",,,-0.0217032749206,0.0288706813008,0.0216148588806,,0.00684270845532,-0.0163470802854,0.0456159556118,-0.998801832276
393072000000,,300,,393,68003749,"""map""",,,-0.0213773585856,0.0291037932038,0.0212697461247,,0.00679263174312,-0.0164001704973,0.0456327300575,-0.998800567871
393104000000,,301,,393,100003749,"""map""",,,-0.0211809109896,0.0294511020184,0.0211013779044,,0.00681536074827,-0.0163742488684,0.0456204231778,-0.998801410808
393136000000,,302,,393,132003749,"""map""",,,-0.021036894992,0.0299273580313,0.0209381040186,,0.00684795475014,-0.0163679281582,0.0456056717808,-0.99880191657
393172000000,,303,,393,164003724,"""map""",,,-0.0209442842752,0.0305436719209,0.0208085272461,,0.00687421849294,-0.0163871408649,0.0456158713181,-0.998800989339
393204000000,,304,,393,196003724,"""map""",,,-0.0209174212068,0.0312728285789,0.0207825042307,,0.0068653077272,-0.0163977006261,0.0456586503694,-0.998798924144
393236000000,,305,,393,228003724,"""map""",,,-0.0209155324847,0.0321139656007,0.0207731835544,,0.00677862779415,-0.0163880908154,0.0456943487501,-0.99879803906
393272000000,,306,,393,268003700,"""map""",,,-0.0205726567656,0.0322099886835,0.0209038890898,,0.00680053493576,-0.0163288995179,0.0458027504444,-0.998793908669
393304000000,,307,,393,300003700,"""map""",,,-0.0203755944967,0.0324596874416,0.0209449585527,,0.0067883324353,-0.0163121076208,0.045770887427,-0.99879576313
393336000000,,308,,393,332003700,"""map""",,,-0.0201958175749,0.0328811481595,0.0210344642401,,0.00673907956227,-0.0163066486161,0.0457976085289,-0.998794920193
393372000000,,309,,393,364003675,"""map""",,,-0.0200182758272,0.0334201641381,0.0211123842746,,0.00674280922909,-0.0163399660291,0.0458163217296,-0.9987934872
393404000000,,310,,393,396003675,"""map""",,,-0.0198514033109,0.034079156816,0.0210884176195,,0.00673059619192,-0.0162579255421,0.0458091146186,-0.998795215221
393436000000,,311,,393,428003675,"""map""",,,-0.0197110176086,0.0348515547812,0.0210575070232,,0.0067547120918,-0.0162625854031,0.04581176987,-0.998794835899
393472000000,,312,,393,468003651,"""map""",,,-0.0191204361618,0.0346899479628,0.0212764926255,,0.00672455338752,-0.0162447967988,0.0458226859038,-0.998794878046
393504000000,,313,,393,496003651,"""map""",,,-0.0187780577689,0.0347247235477,0.0213910657912,,0.00671920007921,-0.0162490358498,0.0458366365106,-0.998794245844
393536000000,,314,,393,528003651,"""map""",,,-0.018334031105,0.0349016003311,0.0215949658304,,0.00669941476801,-0.0162337576172,0.0458586793124,-0.998793613641
393572000000,,315,,393,568003626,"""map""",,,-0.017834469676,0.0353622548282,0.0218005292118,,0.00663122939893,-0.0162152021379,0.0458494491526,-0.998794751606
393604000000,,316,,393,600003626,"""map""",,,-0.0174440070987,0.0358955450356,0.0218528099358,,0.00662543815852,-0.0162152561385,0.0458392917621,-0.998795299515
393636000000,,317,,393,632003626,"""map""",,,-0.0170791074634,0.0365419499576,0.0218811072409,,0.00661027978104,-0.0161839054687,0.0458594801025,-0.998794920193
393672000000,,318,,393,664003602,"""map""",,,-0.0163812413812,0.0362872332335,0.0218400564045,,0.00682744734489,-0.0161916967088,0.0458616295918,-0.998793276466
393704000000,,319,,393,696003602,"""map""",,,-0.015735976398,0.0362001769245,0.0219525750726,,0.00681913618393,-0.0161905538048,0.0458930289939,-0.99879188562
393736000000,,320,,393,728003602,"""map""",,,-0.0151302339509,0.0362654849887,0.0221364628524,,0.00679850167959,-0.0162354596255,0.0458572463196,-0.998792939291
393772000000,,321,,393,768003578,"""map""",,,-0.014403459616,0.0365691259503,0.022284142673,,0.00678493434564,-0.01626229268,0.0458827873097,-0.998791422005
393804000000,,322,,393,800003578,"""map""",,,-0.0138390455395,0.0369492582977,0.0224234461784,,0.00678557017036,-0.0163112610618,0.0459109835514,-0.998789356809
393836000000,,323,,393,832003578,"""map""",,,-0.0132975792512,0.0374615192413,0.0225478149951,,0.00681923529488,-0.0163495432419,0.0460193430989,-0.998783498397
393872000000,,324,,393,872003553,"""map""",,,-0.0125704267994,0.0370430126786,0.0227550379932,,0.00683908777762,-0.0163612613829,0.0460363282789,-0.998782360432
393904000000,,325,,393,896003553,"""map""",,,-0.0121458154172,0.0369528569281,0.0228750780225,,0.00682752735805,-0.0164059018102,0.046000967073,-0.99878332981
393936000000,,326,,393,936003553,"""map""",,,-0.0114518096671,0.0370297431946,0.0231525432318,,0.00681905057314,-0.0164309712825,0.0460331672652,-0.998781559642
393972000000,,327,,393,968003529,"""map""",,,-0.0109062027186,0.0372875593603,0.0234067905694,,0.00678819512877,-0.0164545379562,0.0460308070417,-0.998781475348
394004000000,,328,,394,3529,"""map""",,,-0.0103459088132,0.0376957096159,0.0236706044525,,0.00675773777454,-0.0164578422033,0.0459904725077,-0.99878345625
394036000000,,329,,394,32003529,"""map""",,,-0.00976367667317,0.0382282137871,0.0240729283541,,0.00675507396201,-0.0164473667358,0.0460408801385,-0.998781348908
394072000000,,330,,394,64003505,"""map""",,,-0.00917440839112,0.0388888716698,0.0245820358396,,0.00671700086983,-0.0164048471511,0.0460912877693,-0.998779915915
394104000000,,331,,394,96003505,"""map""",,,-0.00855840928853,0.0397055111825,0.0250549726188,,0.00671561199946,-0.0164302913353,0.0460548307454,-0.998781222467
394136000000,,332,,394,128003505,"""map""",,,-0.0079472148791,0.0406449772418,0.0254572574049,,0.00675718064589,-0.0164291388824,0.0460507003542,-0.998781138174
394172000000,,333,,394,168003481,"""map""",,,-0.00724572967738,0.0404702350497,0.0258502680808,,0.00682516351254,-0.016497314044,0.0460570223815,-0.998779283712
394204000000,,334,,394,200003481,"""map""",,,-0.00666349614039,0.0404929853976,0.0261812005192,,0.00678079177141,-0.0165007954396,0.0460150441204,-0.998781475348
394236000000,,335,,394,232003481,"""map""",,,-0.00606140401214,0.0406867228448,0.0264599528164,,0.00666032949292,-0.0164759643604,0.0459958673043,-0.998783540544
394272000000,,336,,394,264003457,"""map""",,,-0.00544543284923,0.0410664156079,0.0266865324229,,0.00664669926797,-0.0164224546556,0.0459953615421,-0.998784552068
394304000000,,337,,394,296003457,"""map""",,,-0.00481882086024,0.0415715537965,0.0268994495273,,0.00661301438711,-0.016450805326,0.045988154431,-0.998784678509
394336000000,,338,,394,328003457,"""map""",,,-0.00419969158247,0.0422161445022,0.0270286742598,,0.00657846944713,-0.0163476986587,0.0459897981581,-0.998786490823
394372000000,,339,,394,368003432,"""map""",,,-0.00384039594792,0.0419412367046,0.0272850375623,,0.00659598179195,-0.016312374002,0.0459952772484,-0.998786743704
394404000000,,340,,394,400003432,"""map""",,,-0.00351475155912,0.0419309213758,0.0274479426444,,0.00660895380167,-0.0162491181679,0.0460266766506,-0.998786195795
394436000000,,341,,394,432003432,"""map""",,,-0.00311329006217,0.0421050786972,0.0277428999543,,0.00664389650254,-0.0161594188083,0.0460309756291,-0.99878720732
394472000000,,342,,394,464003408,"""map""",,,-0.00269190175459,0.0424575321376,0.0280139576644,,0.00662898968906,-0.0161823466938,0.0460195116863,-0.998787460201
394504000000,,343,,394,496003408,"""map""",,,-0.00224153208546,0.0429852679372,0.0283576119691,,0.00660999463127,-0.0162366634449,0.0460373819501,-0.998785942914
394536000000,,344,,394,528003408,"""map""",,,-0.00174080696888,0.0436517745256,0.0288319010288,,0.00661708485071,-0.0162486894554,0.0460302591327,-0.998785985061
394572000000,,345,,394,568003384,"""map""",,,-0.00134861853439,0.0430066995323,0.0295637790114,,0.00657705555207,-0.0162419094104,0.0460214504413,-0.998786785851
394604000000,,346,,394,600003384,"""map""",,,-0.000979547505267,0.0427053160965,0.0300907082856,,0.0065193120647,-0.016251465879,0.0460255808325,-0.998786785851
394636000000,,347,,394,632003384,"""map""",,,-0.000589795410633,0.0425896309316,0.0305482279509,,0.00652709606079,-0.0163013071616,0.0459834761308,-0.998787839523
394672000000,,348,,394,664003360,"""map""",,,-0.000165832665516,0.0426430180669,0.0309011861682,,0.00649219056769,-0.0162960625131,0.045948662834,-0.998789778278
394704000000,,349,,394,696003360,"""map""",,,0.000267861149041,0.0428766645491,0.0312153007835,,0.0064709679831,-0.0162848741712,0.0459554906234,-0.998789778278
394736000000,,350,,394,728003360,"""map""",,,0.000725076999515,0.043273370713,0.031662043184,,0.00643993045117,-0.0163110015953,0.0459877751094,-0.998788092404
394772000000,,351,,394,768003336,"""map""",,,0.00103827298153,0.0427076928318,0.0322750732303,,0.00642162686511,-0.0162677997585,0.046017362197,-0.998787502348
394804000000,,352,,394,800003336,"""map""",,,0.00133042945527,0.0424920916557,0.0328102149069,,0.00642161237713,-0.0162730509924,0.0460350638734,-0.998786659411
394836000000,,353,,394,832003336,"""map""",,,0.00170561019331,0.0424801968038,0.033286601305,,0.00643062521727,-0.0163153519403,0.0460724059812,-0.9987841306
394872000000,,354,,394,864003313,"""map""",,,0.00214821589179,0.0426292568445,0.0337064824998,,0.00641422614193,-0.0163384312911,0.0461275762059,-0.998781391055
394904000000,,355,,394,896003313,"""map""",,,0.00260857120156,0.0429145917296,0.0340489931405,,0.00643245761736,-0.016336997969,0.0461114761098,-0.998781981111
394936000000,,356,,394,928003313,"""map""",,,0.00311031984165,0.043346311897,0.0343464463949,,0.00645242238194,-0.0163290661297,0.0461094109142,-0.998782107551
394972000000,,357,,394,968003289,"""map""",,,0.00296227959916,0.042806558311,0.0342455580831,,0.00643280170687,-0.0162859196106,0.046145910085,-0.998781264614
395004000000,,358,,395,3289,"""map""",,,0.00295264483429,0.0425940677524,0.0340748168528,,0.00644700815826,-0.0162699956751,0.04613006287,-0.998782191845
395036000000,,359,,395,32003289,"""map""",,,0.0030276873149,0.0425587669015,0.0340722091496,,0.00645132228334,-0.0162805172407,0.0461173345217,-0.99878252902
395072000000,,360,,395,64003265,"""map""",,,0.00316727301106,0.0426600389183,0.0340599156916,,0.00648791167474,-0.016222364468,0.0460915827973,-0.998784425628
395104000000,,361,,395,96003265,"""map""",,,0.00342319044285,0.0428872033954,0.0339636877179,,0.00645940690499,-0.0162281705256,0.0461021195094,-0.998784088453
395136000000,,362,,395,128003265,"""map""",,,0.0037368289195,0.0432504676282,0.034075114876,,0.00642459953502,-0.0162161026975,0.0461678685931,-0.998781475348
395172000000,,363,,395,168003241,"""map""",,,0.00404383055866,0.0426456779242,0.0346473120153,,0.00645032985676,-0.016165474125,0.0461971606528,-0.998780758852
395204000000,,364,,395,200003241,"""map""",,,0.00433548400179,0.0424007438123,0.0351567044854,,0.00645599333953,-0.0161564441627,0.0462019232467,-0.998780632411
395236000000,,365,,395,232003241,"""map""",,,0.00468029035255,0.0423529781401,0.0358239971101,,0.00642899268543,-0.0161626216395,0.0461793746827,-0.998781770376
395272000000,,366,,395,272003218,"""map""",,,0.00519401952624,0.0425653345883,0.03673466295,,0.0064676499066,-0.016114505085,0.0462065172532,-0.998781011733
395304000000,,367,,395,296003218,"""map""",,,0.00554058421403,0.0428113937378,0.0371799878776,,0.00645107203642,-0.0161218238194,0.0462127128399,-0.998780716705
395336000000,,368,,395,328003218,"""map""",,,0.0060429694131,0.0432762131095,0.0377926416695,,0.006419172799,-0.0160713760174,0.0462624461211,-0.9987794523
395372000000,,369,,395,368003194,"""map""",,,0.00630771042779,0.0427962206304,0.0384939014912,,0.00633003287295,-0.0161658764957,0.0462462617313,-0.998779199419
395404000000,,370,,395,400003194,"""map""",,,0.00660039158538,0.0426072143018,0.0388258099556,,0.00631104143715,-0.0161407612545,0.0462549018353,-0.998779325859
395436000000,,371,,395,432003194,"""map""",,,0.0069739758037,0.0426042154431,0.0392251908779,,0.00627800127137,-0.0161769387263,0.0463249920443,-0.998775743377
395472000000,,372,,395,464003170,"""map""",,,0.00739455968142,0.0427579544485,0.0395592339337,,0.00631385803201,-0.0162141224542,0.0463666752775,-0.998773003832
395504000000,,373,,395,496003170,"""map""",,,0.00784179754555,0.0430184789002,0.0398099459708,,0.00626383433264,-0.0162240276221,0.0464115616712,-0.99877102293
395536000000,,374,,395,528003170,"""map""",,,0.00833481177688,0.0433987379074,0.0400571674109,,0.00628024592033,-0.0162479769102,0.0464430875139,-0.998769084175
395572000000,,375,,395,568003147,"""map""",,,0.00857033766806,0.0429739579558,0.0400607846677,,0.00625882906511,-0.0162880174041,0.0464487351916,-0.998768241238
395604000000,,376,,395,600003147,"""map""",,,0.00881353765726,0.0428150221705,0.0399931408465,,0.00624040331905,-0.0163003766382,0.0464076841611,-0.998770095699
395636000000,,377,,395,632003147,"""map""",,,0.00912935566157,0.0427648946643,0.0400635488331,,0.00646453433253,-0.0163413124234,0.0463770434022,-0.998769463497
395672000000,,378,,395,672003123,"""map""",,,0.00957812275738,0.0429477393627,0.0402299575508,,0.00645317180559,-0.0163789719496,0.0464361754307,-0.998766133896
395704000000,,379,,395,696003123,"""map""",,,0.00987750384957,0.0431310199201,0.0402066893876,,0.00642815534609,-0.016383715775,0.0464215504743,-0.998766934686
395736000000,,380,,395,728003123,"""map""",,,0.0103183332831,0.0434747599065,0.0400782749057,,0.00641642996113,-0.0164061043126,0.046417167202,-0.998766850392
395772000000,,381,,395,768003100,"""map""",,,0.0105286603794,0.0428368858993,0.0401343181729,,0.00642510990701,-0.0164168250879,0.0464199910409,-0.99876647107
395804000000,,382,,395,800003100,"""map""",,,0.0107880448923,0.0425361990929,0.0400521084666,,0.00636551031195,-0.0164097378319,0.046407726308,-0.998767524742
395836000000,,383,,395,832003100,"""map""",,,0.0111395427957,0.0424022935331,0.0399624444544,,0.0063444879249,-0.0164091230806,0.0464415280805,-0.998766091749
395872000000,,384,,395,864003076,"""map""",,,0.0115531124175,0.0424370802939,0.039867632091,,0.00633703649379,-0.0164581813537,0.0463974846238,-0.998767398301
395904000000,,385,,395,896003076,"""map""",,,0.0120628969744,0.0426206663251,0.0397408083081,,0.00634308028601,-0.0164370885024,0.0463997605536,-0.998767566888
395936000000,,386,,395,928003076,"""map""",,,0.0126736341044,0.0429411008954,0.0398214273155,,0.00636977241201,-0.0164440427324,0.0463710585497,-0.99876862056
395972000000,,387,,395,968003053,"""map""",,,0.0129374284297,0.0424143560231,0.0396171361208,,0.006323922897,-0.0164323907752,0.0463841240728,-0.998768536266
396004000000,,388,,396,3053,"""map""",,,0.0132696637884,0.0421796962619,0.0393476448953,,0.00630185375345,-0.016447347638,0.0464078106016,-0.998767356154
396036000000,,389,,396,32003053,"""map""",,,0.0137177202851,0.0420841313899,0.0390285663307,,0.00628550011768,-0.0164090868607,0.0464058718466,-0.998768114797
396072000000,,390,,396,64003029,"""map""",,,0.0142567213625,0.0421619564295,0.038665316999,,0.00624556367381,-0.0163030872074,0.0464465435554,-0.998768241238
396104000000,,391,,396,96003029,"""map""",,,0.0148944910616,0.04236170277,0.0384345725179,,0.00625022155912,-0.0162940197081,0.0464156499155,-0.998769800671
396136000000,,392,,396,128003029,"""map""",,,0.0156035181135,0.0426458343863,0.0382296405733,,0.00618875729528,-0.0163478606607,0.046425512278,-0.998768789147
396172000000,,393,,396,168003006,"""map""",,,0.0158185120672,0.0421833880246,0.0378328599036,,0.00611753965801,-0.0163379772247,0.0464740233007,-0.99876714542
396204000000,,394,,396,200003006,"""map""",,,0.0161204319447,0.0419820398092,0.0375276431441,,0.00611716066565,-0.0163054685043,0.0465259903649,-0.998765333105
396236000000,,395,,396,232003006,"""map""",,,0.0165118947625,0.0419152826071,0.0372870713472,,0.00618207866615,-0.0163393901319,0.046548201754,-0.99876326791
396272000000,,396,,396,264002983,"""map""",,,0.0169895775616,0.0419638678432,0.0371097177267,,0.00617598680018,-0.0163148649466,0.0465483703414,-0.998763689378
396304000000,,397,,396,296002983,"""map""",,,0.0175617169589,0.0421448685229,0.0370384678245,,0.0061594731381,-0.0163240529596,0.0465461787053,-0.998763773672
396336000000,,398,,396,328002983,"""map""",,,0.0181957688183,0.042482059449,0.0369828417897,,0.00617035887882,-0.0162878606705,0.0465172238204,-0.99876567028
396372000000,,399,,396,368002959,"""map""",,,0.01830624789,0.041974849999,0.0364309735596,,0.00640570194182,-0.0163087520072,0.046531511602,-0.998763183616
396404000000,,400,,396,400002959,"""map""",,,0.0185253508389,0.0417069010437,0.036073807627,,0.00640641514552,-0.0163289936898,0.0465524585857,-0.998761877064
396436000000,,401,,396,432002959,"""map""",,,0.0188637282699,0.0415631532669,0.0357615724206,,0.0064136545253,-0.0163637378395,0.046537074986,-0.998762003504
396472000000,,402,,396,464002936,"""map""",,,0.019314372912,0.0415254198015,0.0354380011559,,0.00637573454471,-0.0163335116344,0.0465519949704,-0.998762003504
396504000000,,403,,396,496002936,"""map""",,,0.0198356490582,0.0416256003082,0.0350771322846,,0.00633342602352,-0.0163466018528,0.0464688813851,-0.998765965308
396536000000,,404,,396,528002936,"""map""",,,0.0204465370625,0.0418259873986,0.0346419624984,,0.00634232954527,-0.0163682547963,0.0464435089823,-0.998766723951
396572000000,,405,,396,568002913,"""map""",,,0.0206341315061,0.0412979088724,0.0342822037637,,0.00627757651016,-0.0163320845684,0.0464832113136,-0.998765881014
396604000000,,406,,396,600002913,"""map""",,,0.0209133774042,0.0410303622484,0.0339289084077,,0.0062942841136,-0.0163219387025,0.0464941694942,-0.998765375252
396636000000,,407,,396,632002913,"""map""",,,0.0212955567986,0.0409146621823,0.033534411341,,0.00625010203329,-0.0163250381422,0.0465188675475,-0.998764448022
396672000000,,408,,396,664002890,"""map""",,,0.0217866171151,0.0409203991294,0.0332337804139,,0.00623922386583,-0.0163558860133,0.0465713825207,-0.998761582036
396704000000,,409,,396,696002890,"""map""",,,0.0224022772163,0.0409856662154,0.0329741723835,,0.00619114781185,-0.0163422906912,0.0465549873966,-0.998762888588
396736000000,,410,,396,728002890,"""map""",,,0.0231171455234,0.0411501340568,0.0327613316476,,0.00616645107571,-0.0162553035472,0.0465517842362,-0.998764574462
396772000000,,411,,396,768002867,"""map""",,,0.0235078018159,0.040525957942,0.0325409546494,,0.00614232167566,-0.0162710931396,0.0466101997682,-0.99876179277
396804000000,,412,,396,800002867,"""map""",,,0.0239528547972,0.0402127616107,0.0323541499674,,0.00611886432029,-0.0162625715736,0.046578252457,-0.998763562938
396836000000,,413,,396,832002867,"""map""",,,0.0245128218085,0.0400133579969,0.0321323424578,,0.00611153208574,-0.0162271510987,0.0465830150509,-0.998763942259
396872000000,,414,,396,864002844,"""map""",,,0.0252037476748,0.0399142727256,0.031911842525,,0.00610709020303,-0.0162596943927,0.0466265527454,-0.998761371302
396904000000,,415,,396,896002844,"""map""",,,0.0259719025344,0.0399310104549,0.0317578539252,,0.00610628612019,-0.0162914895801,0.046605521468,-0.998761919211
396936000000,,416,,396,928002844,"""map""",,,0.0268007088453,0.0400565005839,0.0316081047058,,0.00611206715315,-0.0162710124679,0.0466210315083,-0.998761413449
396972000000,,417,,396,968002821,"""map""",,,0.0270056314766,0.0395035073161,0.0315242595971,,0.00606507308779,-0.0162589693352,0.0466917960669,-0.998758673903
397004000000,,418,,397,2821,"""map""",,,0.0273119118065,0.0392251163721,0.0314806774259,,0.00605138919146,-0.0162118537683,0.0467357552299,-0.998757451645
397032000000,,419,,397,32002821,"""map""",,,0.0277163758874,0.0390604436398,0.0315153039992,,0.00601466842042,-0.0161614807111,0.0466963057797,-0.99876031763
397072000000,,420,,397,64002798,"""map""",,,0.028233282268,0.0390109345317,0.03152712062,,0.00598157919307,-0.0161886614771,0.0466681516849,-0.998761413449
397104000000,,421,,397,96002798,"""map""",,,0.0288759227842,0.0390647985041,0.0315044000745,,0.0059638620409,-0.016212263383,0.0466297559059,-0.998762888588
397136000000,,422,,397,128002798,"""map""",,,0.0296063311398,0.0392308719456,0.0315203070641,,0.00593018374549,-0.0162423802697,0.0466171118514,-0.998763225763
397172000000,,423,,397,168002775,"""map""",,,0.029568195343,0.0386457443237,0.0317148827016,,0.0058853368645,-0.0162157197539,0.0466436222191,-0.998762677854
397204000000,,424,,397,200002775,"""map""",,,0.0296909082681,0.0383229032159,0.0316363461316,,0.00584572343671,-0.0161769492631,0.0466257098084,-0.998764321581
397236000000,,425,,397,232002775,"""map""",,,0.0299771092832,0.038146968931,0.0314489752054,,0.00607728283224,-0.0161637408359,0.0466502392743,-0.998762045651
397272000000,,426,,397,264002752,"""map""",,,0.0304179769009,0.0380847454071,0.0314115136862,,0.00606589923187,-0.0162127931821,0.0465775781075,-0.99876474305
397304000000,,427,,397,296002752,"""map""",,,0.0309684723616,0.0381063334644,0.0314451605082,,0.00609541157473,-0.016183720747,0.046552374292,-0.998766176042
397336000000,,428,,397,328002752,"""map""",,,0.0316458307207,0.038210876286,0.0313451290131,,0.00608466775035,-0.0161388254629,0.0465814134707,-0.998765628133
397372000000,,429,,397,368002729,"""map""",,,0.0315939858556,0.0377296693623,0.0314190872014,,0.00603554724477,-0.016135101723,0.0465967549235,-0.998765206665
397404000000,,430,,397,400002729,"""map""",,,0.0317398533225,0.0374696291983,0.0315115861595,,0.00601339545388,-0.0161250559558,0.046597724301,-0.998765501693
397436000000,,431,,397,432002729,"""map""",,,0.0320281237364,0.0373256653547,0.0316201224923,,0.00602166150455,-0.0161291995179,0.0465634589132,-0.998766976833
397472000000,,432,,397,464002707,"""map""",,,0.0324595496058,0.0372503958642,0.0317445546389,,0.00598787191512,-0.0161678860443,0.0465214385052,-0.998768536266
397504000000,,433,,397,496002707,"""map""",,,0.0330122001469,0.0372342392802,0.0318112708628,,0.00596248864633,-0.016136850488,0.0465519949704,-0.998767735476
397536000000,,434,,397,528002707,"""map""",,,0.0337053500116,0.037312746048,0.0318712927401,,0.00592975799646,-0.0161284168377,0.0465332817697,-0.998768915588
397572000000,,435,,397,568002684,"""map""",,,0.0337702482939,0.0364533513784,0.0321707203984,,0.00589476755112,-0.0161298465379,0.0465687694161,-0.998767482595
397604000000,,436,,397,600002684,"""map""",,,0.034004855901,0.0359102748334,0.0324203781784,,0.00586648174742,-0.0160970325821,0.0466038777409,-0.998766513217
397636000000,,437,,397,632002684,"""map""",,,0.0344267301261,0.0355176888406,0.0324981585145,,0.00590770992634,-0.0160758228391,0.0465713825207,-0.998768156944
397672000000,,438,,397,664002661,"""map""",,,0.0350268930197,0.0352783165872,0.0324536263943,,0.00588080673683,-0.0160966160527,0.0466002109651,-0.998766639658
397704000000,,439,,397,696002661,"""map""",,,0.0357657186687,0.0351361110806,0.0322848707438,,0.0058704290632,-0.016036899566,0.0465667885142,-0.998769210616
397736000000,,440,,397,728002661,"""map""",,,0.036644756794,0.0351008474827,0.032141558826,,0.00589146001133,-0.0160935821382,0.0465272969172,-0.998770011406
397772000000,,441,,397,768002639,"""map""",,,0.0367997922003,0.0345461219549,0.0322198942304,,0.00586485810593,-0.0160909143744,0.0465020509549,-0.998771402252
397804000000,,442,,397,800002639,"""map""",,,0.0371404178441,0.0342189930379,0.0323774442077,,0.00586862893178,-0.0160501359813,0.0465377493356,-0.99877034858
397836000000,,443,,397,832002639,"""map""",,,0.037671610713,0.0339979827404,0.0325639843941,,0.00587056505264,-0.0160566871821,0.0465338296787,-0.998770390727
397872000000,,444,,397,872002616,"""map""",,,0.0385185964406,0.0338604599237,0.0325808413327,,0.00587849820905,-0.0159727342819,0.0465471902297,-0.998771107224
397904000000,,445,,397,896002616,"""map""",,,0.039111237973,0.0338411442935,0.0325721651316,,0.00585865955575,-0.0159235271777,0.0465596656968,-0.998771444398
397936000000,,446,,397,928002616,"""map""",,,0.0399947091937,0.0339132323861,0.0325536131859,,0.00584096314773,-0.0158871992284,0.0465749650028,-0.998771402252
397972000000,,447,,397,968002593,"""map""",,,0.0399554371834,0.0333278700709,0.0322624742985,,0.00584988016964,-0.0158976262929,0.0465923716513,-0.99877034858
398004000000,,448,,398,2593,"""map""",,,0.0401290766895,0.03295693174,0.0320796482265,,0.00589128846049,-0.0158803536583,0.0466029926571,-0.998769927112
398036000000,,449,,398,32002593,"""map""",,,0.0404622964561,0.0326860807836,0.0319331325591,,0.00590507969957,-0.0158201640073,0.0466093146844,-0.998770517168
398072000000,,450,,398,64002571,"""map""",,,0.0409294590354,0.0325337462127,0.0316124148667,,0.00589797367506,-0.0155866958206,0.046612770726,-0.998774057503
398104000000,,451,,398,96002571,"""map""",,,0.0415181294084,0.0324721857905,0.0312478076667,,0.00592247712838,-0.0155741317792,0.046601643958,-0.998774563265
398136000000,,452,,398,128002571,"""map""",,,0.0422442816198,0.0324854515493,0.0309821330011,,0.00589083571114,-0.0155398976722,0.0465973028326,-0.998775532643
398172000000,,453,,398,168002548,"""map""",,,0.0419458001852,0.0318747982383,0.0306991282851,,0.00583162432806,-0.01557655654,0.0465717618424,-0.998776459873
398204000000,,454,,398,200002548,"""map""",,,0.0418977811933,0.0315328910947,0.0305079501122,,0.00578706391393,-0.0155737280914,0.0465717196955,-0.998776839195
398236000000,,455,,398,232002548,"""map""",,,0.0420360341668,0.0312727615237,0.0302705224603,,0.00580880115105,-0.0155550451837,0.0466260469832,-0.998774436825
398272000000,,456,,398,264002526,"""map""",,,0.0423575229943,0.0311112254858,0.0299488604069,,0.00583711527217,-0.0154804287982,0.0465330288886,-0.998779789474
398304000000,,457,,398,296002526,"""map""",,,0.0428223051131,0.031026519835,0.0295938774943,,0.00582375373338,-0.0154917396294,0.0465541866065,-0.998778693656
398336000000,,458,,398,328002526,"""map""",,,0.0434362739325,0.0310190934688,0.0292016547173,,0.00583809057659,-0.0154840158901,0.046530120756,-0.998779831621
398372000000,,459,,398,368002504,"""map""",,,0.0431958846748,0.0305571779609,0.0286362990737,,0.00578711725604,-0.0155309352107,0.0465083729822,-0.998780421677
398404000000,,460,,398,400002504,"""map""",,,0.0432043597102,0.0302935726941,0.0283613558859,,0.00581420780146,-0.0155486401798,0.0465363584896,-0.99877865151
398436000000,,461,,398,432002504,"""map""",,,0.0433862358332,0.0301240161061,0.0281708277762,,0.00577688643783,-0.0155404245078,0.0465286456163,-0.998779368006
398472000000,,462,,398,464002481,"""map""",,,0.0436758138239,0.0300331003964,0.0279352720827,,0.00577127991916,-0.0155270175294,0.0465451671809,-0.998778862244
398504000000,,463,,398,496002481,"""map""",,,0.0440853759646,0.0299870278686,0.0276906061918,,0.00575345772914,-0.0155082707429,0.0465313430146,-0.998779873768
398536000000,,464,,398,528002481,"""map""",,,0.0446295849979,0.0299799796194,0.0274594668299,,0.00576922690666,-0.015513698796,0.0464644138192,-0.998782824048
398572000000,,465,,398,568002459,"""map""",,,0.0441073104739,0.0293378718197,0.0273444391787,,0.00571651700424,-0.0154606951828,0.0464602412812,-0.9987841306
398604000000,,466,,398,600002459,"""map""",,,0.0438999310136,0.028944965452,0.0272919181734,,0.00566957265899,-0.0154438660779,0.0464373555425,-0.998785774327
398636000000,,467,,398,632002459,"""map""",,,0.0438991487026,0.0286200866103,0.0272271856666,,0.00566216074055,-0.0155059108487,0.0464756670278,-0.998783034782
398672000000,,468,,398,664002437,"""map""",,,0.0440272130072,0.0283305086195,0.0271420292556,,0.00568034776423,-0.0154936072616,0.0464886904039,-0.998782571166
398704000000,,469,,398,696002437,"""map""",,,0.0442900657654,0.0281161684543,0.0271150618792,,0.00567867473191,-0.0154258815566,0.0464695135879,-0.998784467775
398736000000,,470,,398,728002437,"""map""",,,0.0446967929602,0.0280122403055,0.0270894244313,,0.00571092727846,-0.0154514149735,0.0464817361739,-0.998783371957
398772000000,,471,,398,768002415,"""map""",,,0.0439163669944,0.0273661613464,0.0271264370531,,0.00566372708866,-0.0153693323397,0.0464396736191,-0.998786827998
398804000000,,472,,398,800002415,"""map""",,,0.0435278639197,0.0269714761525,0.0270854700357,,0.00560263062194,-0.0153779823218,0.0464035959168,-0.99878868246
398836000000,,473,,398,832002415,"""map""",,,0.0433452501893,0.0266596414149,0.0270429514349,,0.00559766058653,-0.0154457722349,0.0464902919842,-0.998783666985
398872000000,,474,,398,864002393,"""map""",,,0.0433391779661,0.0264137256891,0.0271641947329,,0.00563342877294,-0.0154123616379,0.0464579653514,-0.998785479299
398904000000,,475,,398,896002393,"""map""",,,0.0434942729771,0.0261909756809,0.0274591427296,,0.00562918346577,-0.0154190409255,0.0464609156308,-0.998785226418
398936000000,,476,,398,928002393,"""map""",,,0.0438154526055,0.026028431952,0.0278369206935,,0.00565957990462,-0.0155015387717,0.0464524441142,-0.99878425704
398972000000,,477,,398,968002370,"""map""",,,0.044404193759,0.0259032472968,0.0281826686114,,0.00563008237902,-0.0154419707868,0.0464549729251,-0.998785184271
399004000000,,478,,399,2370,"""map""",,,0.0450069159269,0.0258029866964,0.0284488946199,,0.00566857957387,-0.0154485891591,0.0464495781285,-0.998785099977
399036000000,,479,,399,32002370,"""map""",,,0.0457132458687,0.02572250925,0.0287614651024,,0.00567164970837,-0.0154583553741,0.0464919357113,-0.998782950488
399072000000,,480,,399,72002348,"""map""",,,0.0456281602383,0.0247662290931,0.028995886445,,0.00585609024435,-0.0154207215311,0.0464991849692,-0.998782191845
399104000000,,481,,399,96002348,"""map""",,,0.0457078069448,0.0242727249861,0.0291711073369,,0.00584966219141,-0.0154379062501,0.0465647233187,-0.998778862244
399136000000,,482,,399,128002348,"""map""",,,0.0459236130118,0.0236940160394,0.0292461458594,,0.00584346956813,-0.0154405809286,0.0465301629029,-0.998780463824
399172000000,,483,,399,168002326,"""map""",,,0.0463713482022,0.0230747275054,0.0293607134372,,0.00583423479849,-0.0154828614616,0.0465694437657,-0.998778019307
399204000000,,484,,399,200002326,"""map""",,,0.046886395663,0.0226908437908,0.029537152499,,0.00580804283705,-0.0155127768337,0.0465717196955,-0.998777597838
399236000000,,485,,399,232002326,"""map""",,,0.0475170128047,0.0223645400256,0.0297942720354,,0.00578821373264,-0.0155207639908,0.0465769459047,-0.998777344957
399272000000,,486,,399,264002304,"""map""",,,0.0470759049058,0.0217800382525,0.0299781635404,,0.00565508402127,-0.0155218094302,0.0465476116982,-0.998779536593
399304000000,,487,,399,296002304,"""map""",,,0.046862192452,0.0212970562279,0.0299990363419,,0.00565444095256,-0.0155899928236,0.046548201754,-0.998778356482
399336000000,,488,,399,328002304,"""map""",,,0.0468110851943,0.0209073424339,0.0299327708781,,0.00559539255925,-0.0156631353865,0.0465197526313,-0.998778904391
399372000000,,489,,399,368002282,"""map""",,,0.0470033548772,0.0205104853958,0.0298571810126,,0.00555855720147,-0.0156389974254,0.0465255267495,-0.998779199419
399404000000,,490,,399,400002282,"""map""",,,0.0473390817642,0.0202841088176,0.0296342354268,,0.00558939914568,-0.0156391966351,0.0465419218736,-0.998778314335
399436000000,,491,,399,432002282,"""map""",,,0.0478115454316,0.0201118960977,0.0293677635491,,0.00558176068793,-0.0156637820772,0.0465575162076,-0.998777218517
399472000000,,492,,399,464002261,"""map""",,,0.0473725348711,0.0194946359843,0.0294398684055,,0.00556433724661,-0.015682809733,0.0466042570626,-0.99877490044
399504000000,,493,,399,496002261,"""map""",,,0.0471187829971,0.0189704913646,0.0294187050313,,0.00558446170823,-0.0156600379224,0.0466185869911,-0.998774394678
399536000000,,494,,399,528002261,"""map""",,,0.047016620636,0.0185254253447,0.0293797515333,,0.00553030202008,-0.0156589035795,0.0466200199839,-0.998774647559
399572000000,,495,,399,568002239,"""map""",,,0.0471108742058,0.0180345829576,0.0292375907302,,0.00544378046699,-0.0156195114227,0.046571593255,-0.998778061454
399604000000,,496,,399,600002239,"""map""",,,0.0473748780787,0.0177222304046,0.0291055012494,,0.00544142715819,-0.0156005357919,0.0465987779723,-0.998777092076
399636000000,,497,,399,632002239,"""map""",,,0.0477733649313,0.0174398887902,0.0288767553866,,0.00543809064244,-0.015570718543,0.0466384381567,-0.99877570123
399672000000,,498,,399,664002217,"""map""",,,0.0472515597939,0.0168798156083,0.0285660549998,,0.00548250551823,-0.0155715443578,0.0465975135668,-0.998777344957
399704000000,,499,,399,696002217,"""map""",,,0.0469247289002,0.0163300503045,0.028328217566,,0.005515682332,-0.0155728963497,0.0466239396408,-0.998775954111
399736000000,,500,,399,728002217,"""map""",,,0.0467806980014,0.0158212147653,0.0281383711845,,0.0055481752473,-0.0155521821614,0.0466465303516,-0.998775026881
399772000000,,501,,399,768002195,"""map""",,,0.0468536354601,0.0152057725936,0.0278531983495,,0.00549849069835,-0.015504191389,0.0466528945257,-0.998775743377
399804000000,,502,,399,800002195,"""map""",,,0.047115277499,0.0147110428661,0.0276918336749,,0.00549557696817,-0.0154366777353,0.0466350664088,-0.998777639985
399836000000,,503,,399,832002195,"""map""",,,0.0475077033043,0.0142308091745,0.0276666805148,,0.00547285685338,-0.0154178515942,0.0466220851795,-0.99877865151
399872000000,,504,,399,864002174,"""map""",,,0.0469096712768,0.0135833118111,0.0275790449232,,0.00549052922452,-0.0153529181178,0.046657277798,-0.998777935013
399904000000,,505,,399,896002174,"""map""",,,0.0464802421629,0.0130200302228,0.0272756442428,,0.00546063624294,-0.0153025305726,0.0466969801293,-0.998777007782
399936000000,,506,,399,928002174,"""map""",,,0.0462055876851,0.0124677792192,0.0271265171468,,0.00568039814288,-0.0153374107118,0.0467024170727,-0.998774942587
399972000000,,507,,399,968002152,"""map""",,,0.046053186059,0.0118125742301,0.0269866082817,,0.00564644358805,-0.0153615634902,0.0467397591805,-0.998773003832
400004000000,,508,,400,2152,"""map""",,,0.0460991896689,0.0113191986457,0.0267730653286,,0.00561349858195,-0.0152988720286,0.0467385790688,-0.998774268237
400036000000,,509,,400,32002152,"""map""",,,0.0462710000575,0.0108817685395,0.0264576114714,,0.00561132439726,-0.0152289948587,0.046721551742,-0.998776122699
400072000000,,510,,400,72002130,"""map""",,,0.0453239306808,0.0102123199031,0.0261309389025,,0.00562205998983,-0.0151967472512,0.0467329313911,-0.998776038405
400104000000,,511,,400,96002130,"""map""",,,0.0448656491935,0.0098002590239,0.0258841738105,,0.00561059933975,-0.0151652958241,0.0467473456133,-0.998775869818
400136000000,,512,,400,128002130,"""map""",,,0.0443662889302,0.00928176566958,0.0255219824612,,0.00556566026253,-0.0151538648085,0.0467741510089,-0.998775111174
400172000000,,513,,400,168002109,"""map""",,,0.0439471155405,0.00868761911988,0.0249969623983,,0.00551988450451,-0.0150877248787,0.0467992705306,-0.998775111174
400204000000,,514,,400,200002109,"""map""",,,0.0437623746693,0.00821890775114,0.0245921574533,,0.00554118051681,-0.0150926323523,0.0467943814962,-0.998775195468
400236000000,,515,,400,232002109,"""map""",,,0.043689545244,0.00776167260483,0.0241518635303,,0.00553403958943,-0.015108936268,0.0468042438587,-0.998774521118
400272000000,,516,,400,264002087,"""map""",,,0.0425784364343,0.00740395672619,0.0233722813427,,0.00552330663104,-0.0150676494786,0.046835896142,-0.998773720328
400304000000,,517,,400,296002087,"""map""",,,0.0416369661689,0.0070532374084,0.022583141923,,0.0055243550339,-0.0150525371992,0.0468274667723,-0.998774310384
400336000000,,518,,400,328002087,"""map""",,,0.0408578328788,0.00675961514935,0.0218533668667,,0.00550378671328,-0.0150382751008,0.0468604677547,-0.998773088126
400372000000,,519,,400,368002066,"""map""",,,0.0400860980153,0.00639912392944,0.0211118087173,,0.00548778375247,-0.0150540712787,0.0468781272842,-0.998772118748
400404000000,,520,,400,400002066,"""map""",,,0.0396198406816,0.00607835967094,0.0206329412758,,0.00544717328829,-0.0150526165539,0.046883184906,-0.998772118748
400436000000,,521,,400,432002066,"""map""",,,0.0392452925444,0.00573704764247,0.0201850757003,,0.00542892798343,-0.0150441275859,0.0468928365343,-0.998771908014
400472000000,,522,,400,472002044,"""map""",,,0.0377363078296,0.00529577350244,0.0198542606086,,0.00541525528235,-0.0149855921987,0.0468799817455,-0.998773467447
400504000000,,523,,400,496002044,"""map""",,,0.0369629561901,0.00503242574632,0.0196829643101,,0.0054174442843,-0.0150190330889,0.0468670848099,-0.998773551741
400536000000,,524,,400,528002044,"""map""",,,0.0360772497952,0.00467630196363,0.0194181818515,,0.00545847127787,-0.0149887759322,0.046833662359,-0.998775364055
400572000000,,525,,400,568002023,"""map""",,,0.0351449549198,0.00424408586696,0.0190643593669,,0.00545151342587,-0.0149674730051,0.046824474346,-0.998776122699
400604000000,,526,,400,600002023,"""map""",,,0.0345370545983,0.00391803868115,0.0186765938997,,0.00549119567156,-0.0149311888491,0.0468081635157,-0.998777260664
400636000000,,527,,400,632002023,"""map""",,,0.034062538296,0.00361559446901,0.0184142403305,,0.00550271196865,-0.0149311602024,0.0468234628217,-0.998776459873
400672000000,,528,,400,664002002,"""map""",,,0.0327793061733,0.00334729929455,0.0187482014298,,0.00551438796277,-0.014885760144,0.0467973739224,-0.998778272188
400704000000,,529,,400,696002002,"""map""",,,0.0316678807139,0.00312363915145,0.0189191494137,,0.00573408927662,-0.014902881972,0.0468082899562,-0.998776291286
400736000000,,530,,400,728002002,"""map""",,,0.0307160560042,0.00289454241283,0.0192159023136,,0.00577032404181,-0.014878043978,0.0468167614727,-0.998776080552
400772000000,,531,,400,768001980,"""map""",,,0.0297290384769,0.00259114755318,0.0194311216474,,0.00570846893181,-0.0148691477003,0.046862322216,-0.998774436825
400804000000,,532,,400,800001980,"""map""",,,0.0290832109749,0.00231139431708,0.0194819420576,,0.0056628532001,-0.0148737216212,0.0468777901094,-0.998773888916
400836000000,,533,,400,832001980,"""map""",,,0.0285782013088,0.00201165955514,0.0194772165269,,0.00570273663114,-0.0149004236253,0.0468342945617,-0.998775321909
400872000000,,534,,400,872001959,"""map""",,,0.0276334229857,0.00163109274581,0.0201889146119,,0.00559920223923,-0.014866365679,0.0468505210984,-0.998775616936
400904000000,,535,,400,896001959,"""map""",,,0.0271575860679,0.00138607015833,0.0205324590206,,0.00561208172344,-0.0148724048614,0.0468626172439,-0.99877490044
400936000000,,536,,400,928001959,"""map""",,,0.0266166795045,0.00104225706309,0.0207978915423,,0.00556650517513,-0.0149096679439,0.0468801503329,-0.998773720328
400972000000,,537,,400,968001938,"""map""",,,0.0261174868792,0.00058874633396,0.0211227051914,,0.00552356840249,-0.0148520107258,0.0468751348579,-0.998775111174
401004000000,,538,,401,1938,"""map""",,,0.0258014239371,0.000216907923459,0.021368952468,,0.00552121443514,-0.014812902731,0.0468712573479,-0.998775869818
401036000000,,539,,401,32001938,"""map""",,,0.0255557335913,-0.000160741779837,0.021625969559,,0.00551887594359,-0.0148763080547,0.0468406587359,-0.99877637558
401072000000,,540,,401,64001917,"""map""",,,0.0249933507293,-0.000458440976217,0.0219553560019,,0.00550847950145,-0.0148693742396,0.0468557473076,-0.998775869818
401104000000,,541,,401,96001917,"""map""",,,0.0245218276978,-0.000801716174465,0.0221920199692,,0.00548492830348,-0.0148714516183,0.0468881582341,-0.998774394678
401136000000,,542,,401,128001917,"""map""",,,0.0241188649088,-0.00114823610056,0.022409979254,,0.00553567804817,-0.0149485293138,0.0468475286722,-0.99877490044
401172000000,,543,,401,168001896,"""map""",,,0.0237186960876,-0.00157751655206,0.0227078702301,,0.00552723353194,-0.014924835541,0.0468117459978,-0.998776965636
401204000000,,544,,401,200001896,"""map""",,,0.0234808661044,-0.0019182797987,0.0229572877288,,0.00552096188332,-0.0149719264124,0.046801377873,-0.998776797048
401236000000,,545,,401,232001896,"""map""",,,0.0232921950519,-0.0023015094921,0.0231259725988,,0.00551982424769,-0.0150185576197,0.0468448734207,-0.998774015356
401272000000,,546,,401,264001875,"""map""",,,0.022716190666,-0.00252993637696,0.0234064757824,,0.00555517129488,-0.0149718704361,0.0467898717834,-0.99877717637
401304000000,,547,,401,296001875,"""map""",,,0.0222025811672,-0.00276187318377,0.0236422084272,,0.00561519960242,-0.0149914865014,0.0467557328361,-0.998778103601
401336000000,,548,,401,328001875,"""map""",,,0.0217845477164,-0.00303241726942,0.0238456930965,,0.00563244721235,-0.014980446332,0.0467907990141,-0.99877650202
401372000000,,549,,401,368001854,"""map""",,,0.0213833842427,-0.00341627351008,0.0240286178887,,0.00566932702189,-0.0150370363786,0.0468040752713,-0.998774858293
401404000000,,550,,401,400001854,"""map""",,,0.0211575459689,-0.00374624924734,0.0241085626185,,0.00564459110235,-0.0150396373001,0.0467951822863,-0.998775321909
401436000000,,551,,401,432001854,"""map""",,,0.020995028317,-0.00413193693385,0.0241413768381,,0.00563071589884,-0.0150280070749,0.0468042438587,-0.998775195468
401472000000,,552,,401,464001833,"""map""",,,0.020556954667,-0.00437233690172,0.024400588125,,0.00565278537166,-0.0150306527774,0.0467945922304,-0.998775490496
401504000000,,553,,401,496001833,"""map""",,,0.0202114228159,-0.00464139692485,0.0246685482562,,0.00562569350915,-0.0150170913704,0.0467897874897,-0.998776080552
401536000000,,554,,401,528001833,"""map""",,,0.0199470277876,-0.00494913663715,0.0249114446342,,0.00567458484124,-0.0149661282573,0.0467737716873,-0.998777260664
401572000000,,555,,401,568001812,"""map""",,,0.0197287257761,-0.00539882993326,0.0249935779721,,0.00583336914174,-0.0150073202162,0.0467968681603,-0.998774647559
401604000000,,556,,401,600001812,"""map""",,,0.019635502249,-0.00582382129505,0.0249678809196,,0.00585041852978,-0.0150398223512,0.0467923584475,-0.998774268237
401636000000,,557,,401,632001812,"""map""",,,0.0196258779615,-0.00627729762346,0.0249537918717,,0.005816043165,-0.0150228773424,0.0467011948141,-0.998779030831
401672000000,,558,,401,672001791,"""map""",,,0.0191499684006,-0.00660142535344,0.0253700502217,,0.00580572640674,-0.0150720284703,0.0466906159552,-0.998778820097
401704000000,,559,,401,696001791,"""map""",,,0.018909484148,-0.00684631476179,0.0256311446428,,0.00578791508271,-0.0151080274766,0.0466518408545,-0.998780168796
401736000000,,560,,401,728001791,"""map""",,,0.0186660550535,-0.00721885729581,0.0258891899139,,0.00575944784999,-0.0151302056092,0.0466459402957,-0.998780337384
401772000000,,561,,401,768001770,"""map""",,,0.0184597447515,-0.00771104963496,0.0260535739362,,0.00576385845183,-0.0151594716564,0.0466486798409,-0.998779705181
401804000000,,562,,401,800001770,"""map""",,,0.0183504894376,-0.00815785955638,0.0262292847037,,0.00577292825607,-0.0151725671433,0.046651714414,-0.998779368006
401836000000,,563,,401,832001770,"""map""",,,0.0182634927332,-0.00863407552242,0.0263347253203,,0.00571746695469,-0.0151522273376,0.046675358796,-0.998778820097
401872000000,,564,,401,864001749,"""map""",,,0.0177692715079,-0.00883630290627,0.0265362523496,,0.00572371522499,-0.015203560882,0.0466708490832,-0.998778187894
401904000000,,565,,401,896001749,"""map""",,,0.0173269044608,-0.00904782861471,0.0266919285059,,0.00571381400831,-0.0152063840623,0.0466904895146,-0.998777344957
401936000000,,566,,401,928001749,"""map""",,,0.0169493574649,-0.00931376963854,0.0267717801034,,0.00568365892601,-0.0152006998354,0.0467006469051,-0.998777134223
401972000000,,567,,401,968001729,"""map""",,,0.0165772158653,-0.00972947850823,0.0267624668777,,0.00565897832422,-0.0152206520876,0.0467217624762,-0.998775996258
402004000000,,568,,402,1729,"""map""",,,0.0163590088487,-0.010124980472,0.026655415073,,0.0056246474112,-0.0152310567616,0.0467201187491,-0.998776122699
402036000000,,569,,402,32001729,"""map""",,,0.0162152349949,-0.0105506880209,0.0265757404268,,0.00561810905205,-0.0151596445244,0.0467190229311,-0.998777218517
402072000000,,570,,402,64001708,"""map""",,,0.0157422758639,-0.0105721326545,0.0265959054232,,0.00563833986861,-0.0151535434388,0.0467616755417,-0.998775195468
402104000000,,571,,402,96001708,"""map""",,,0.0153592266142,-0.0106371454895,0.0264931097627,,0.00564671820111,-0.0151181331713,0.0467445639213,-0.998776544167
402136000000,,572,,402,128001708,"""map""",,,0.0150231188163,-0.0107447197661,0.0262773763388,,0.00559342219408,-0.0151412810108,0.0466773818447,-0.99877957874
402172000000,,573,,402,168001687,"""map""",,,0.0146683892235,-0.0109057035297,0.0260066296905,,0.00557514001072,-0.0151754156775,0.0466917117732,-0.998778567216
402204000000,,574,,402,200001687,"""map""",,,0.0144073460251,-0.0110913468525,0.0257060248405,,0.00560745017992,-0.014914367976,0.0466922175354,-0.998782276139
402236000000,,575,,402,232001687,"""map""",,,0.0141969975084,-0.011348198168,0.0255811735988,,0.00560498129656,-0.0149650752446,0.046669795412,-0.99878252902
402272000000,,576,,402,264001667,"""map""",,,0.013666331768,-0.0113354604691,0.0253425762057,,0.00561292729459,-0.0148943357106,0.0466214108299,-0.998785816474
402304000000,,577,,402,296001667,"""map""",,,0.0131957056001,-0.0113669158891,0.025100607425,,0.00560049331574,-0.0149144917824,0.0466026133355,-0.998786490823
402336000000,,578,,402,328001667,"""map""",,,0.0127676902339,-0.0114752780646,0.0247469097376,,0.00555311037984,-0.0149168394936,0.0466362886674,-0.998785184271
402372000000,,579,,402,368001646,"""map""",,,0.0123077845201,-0.0117057450116,0.0244158469141,,0.00556149727342,-0.0149543966161,0.04658048624,-0.998787123026
402404000000,,580,,402,400001646,"""map""",,,0.0119893290102,-0.011925525032,0.0241416897625,,0.00554412157658,-0.0149527179862,0.0465739113316,-0.998787628788
402436000000,,581,,402,432001646,"""map""",,,0.0116934506223,-0.012189399451,0.0239096377045,,0.00553539059349,-0.0149440778822,0.0465834365194,-0.998787291614
402472000000,,582,,402,464001626,"""map""",,,0.0112846828997,-0.0124704511836,0.0236576851457,,0.00555627435693,-0.0149677235813,0.0466005481399,-0.998786027208
402504000000,,583,,402,496001626,"""map""",,,0.0109371487051,-0.0128126256168,0.0233777854592,,0.00553263030419,-0.0149508315854,0.0466119699358,-0.998785900768
402536000000,,584,,402,528001626,"""map""",,,0.0106294061989,-0.0131917344406,0.0230611320585,,0.00552027370431,-0.0149256695876,0.0465963756019,-0.998787080879
402572000000,,585,,402,568001605,"""map""",,,0.010260338895,-0.0136995101348,0.0226971358061,,0.00546367970638,-0.0149182504252,0.0466655807271,-0.998784214894
402604000000,,586,,402,600001605,"""map""",,,0.0100303627551,-0.0141296759248,0.0223058536649,,0.00546270275561,-0.0149213136449,0.0466583314692,-0.998784552068
402636000000,,587,,402,632001605,"""map""",,,0.00982724502683,-0.0145953204483,0.0218398366123,,0.00547173798626,-0.0149229995189,0.0466695003841,-0.998784004159
402672000000,,588,,402,664001585,"""map""",,,0.0093946699053,-0.0148283299059,0.0219336971641,,0.00544787858946,-0.0149696985563,0.0467400120616,-0.998780084502
402704000000,,589,,402,696001585,"""map""",,,0.00901603512466,-0.0151218194515,0.0219844728708,,0.00546110413881,-0.0149906685891,0.0467570815353,-0.998778946538
402736000000,,590,,402,728001585,"""map""",,,0.00866311602294,-0.0154549777508,0.022054059431,,0.0054939342289,-0.0150157403663,0.0466977387726,-0.998781138174
402772000000,,591,,402,768001564,"""map""",,,0.00831421557814,-0.0158861856908,0.0220791120082,,0.00550276498148,-0.0150094753031,0.0466096518592,-0.998785268565
402804000000,,592,,402,800001564,"""map""",,,0.00809940043837,-0.016240991652,0.0219671372324,,0.00552868002496,-0.0150155207417,0.0466428635758,-0.998783498397
402836000000,,593,,402,832001564,"""map""",,,0.00788044556975,-0.0166055392474,0.0218150671571,,0.0055536069224,-0.0149795184427,0.0466826080539,-0.998782023257
402872000000,,594,,402,864001544,"""map""",,,0.00762643991038,-0.0165960285813,0.0223382543772,,0.00553772085323,-0.0149912201201,0.0466547911339,-0.998783287663
402904000000,,595,,402,896001544,"""map""",,,0.00740300258622,-0.0166208166629,0.0229372065514,,0.00557876068843,-0.0150379642678,0.0466649063776,-0.99878185467
402936000000,,596,,402,928001544,"""map""",,,0.00715567404404,-0.0167068988085,0.0232928022742,,0.00563555883515,-0.0148524035476,0.0466126021386,-0.998786785851
402972000000,,597,,402,968001524,"""map""",,,0.00688339862972,-0.0168788060546,0.0236436482519,,0.0056475644308,-0.0148331500111,0.0465663248989,-0.998789146075
403004000000,,598,,403,1524,"""map""",,,0.00670031318441,-0.0170769020915,0.0238434243947,,0.00564004451107,-0.0148439231407,0.0465531329353,-0.99878960969
