rosbagTimestamp,header,seq,stamp,secs,nsecs,frame_id,pose,position,x,y,z,orientation,x,y,z,w
98692000000,,131,,98,640000000,"""map""",,,0.0419738776982,0.0107520166785,0.0323254838586,,0.00983162729154,-0.0175725512724,0.0529860907172,-0.998392249202
98708000000,,132,,98,708000000,"""map""",,,0.0430818274617,0.0108195906505,0.0326740965247,,0.00978202407284,-0.017498413978,0.0529862593046,-0.99839401937
98740000000,,133,,98,740000000,"""map""",,,0.0433684960008,0.0107782846317,0.0323498286307,,0.0097235670525,-0.0174081821852,0.0529079083132,-0.99840029925
98772000000,,134,,98,772000000,"""map""",,,0.0428077504039,0.010585134849,0.0312329791486,,0.00970796053548,-0.0173318111078,0.052882114442,-0.998403165236
98808000000,,135,,98,808000000,"""map""",,,0.0426398962736,0.0104782246053,0.0304612088948,,0.00979512120602,-0.017161684366,0.0527773373766,-0.998410835963
98840000000,,136,,98,840000000,"""map""",,,0.0427035428584,0.0104326438159,0.0298450663686,,0.00972738891555,-0.0169481233212,0.0526711273183,-0.998420782619
98872000000,,137,,98,872000000,"""map""",,,0.0430061221123,0.010443626903,0.0293184258044,,0.00970386142519,-0.0169058095316,0.0525892359917,-0.998425966681
98908000000,,138,,98,908000000,"""map""",,,0.0435406267643,0.0105129899457,0.0289294738322,,0.0097067023862,-0.0167429264501,0.0524728685429,-0.998434859666
98940000000,,139,,98,940000000,"""map""",,,0.0432882085443,0.0104371691123,0.0283334776759,,0.00969135039663,-0.0166069844244,0.0524195527795,-0.998440043729
98972000000,,140,,98,972000000,"""map""",,,0.0422711782157,0.0102151846513,0.0275224819779,,0.0096471577796,-0.0164438224493,0.0523848237764,-0.998445017057
99008000000,,141,,99,8000000,"""map""",,,0.0413487255573,0.0100242588669,0.0265903677791,,0.00966169910088,-0.0162937737417,0.0523630760025,-0.998448473098
99040000000,,142,,99,40000000,"""map""",,,0.0408819317818,0.00991768110543,0.0259879082441,,0.00958167573572,-0.0161297747565,0.0523135534555,-0.998454500098
99072000000,,143,,99,72000000,"""map""",,,0.040655631572,0.00983838457614,0.0256394278258,,0.00958677122385,-0.016072177466,0.0522916792412,-0.998456481
99108000000,,144,,99,108000000,"""map""",,,0.0406309664249,0.00979741197079,0.0254164803773,,0.00947220884561,-0.0158746239918,0.0522401336454,-0.99846343523
99140000000,,145,,99,140000000,"""map""",,,0.0399585627019,0.00943811517209,0.0252318251878,,0.00940916868477,-0.0157715765935,0.052191833357,-0.99846823997
99172000000,,146,,99,172000000,"""map""",,,0.0387103818357,0.00875507667661,0.0251307431608,,0.00938508472429,-0.0156692595212,0.0521703806111,-0.998471232397
99208000000,,147,,99,208000000,"""map""",,,0.0375385098159,0.00803170632571,0.0251414366066,,0.00929601822595,-0.0155125914534,0.0520029733289,-0.998483202102
99240000000,,148,,99,240000000,"""map""",,,0.0368448793888,0.00753088667989,0.0252239666879,,0.00919794646073,-0.0153816820249,0.0519574547325,-0.998488512604
99272000000,,149,,99,272000000,"""map""",,,0.0363809838891,0.00710172951221,0.0254300273955,,0.00922146110948,-0.0153064005094,0.0519410174616,-0.998490282772
99308000000,,150,,99,308000000,"""map""",,,0.0361274592578,0.0067477542907,0.0256557967514,,0.00935033234279,-0.0151754430071,0.0518404972279,-0.998496309771
99340000000,,151,,99,340000000,"""map""",,,0.0352634079754,0.00641793524846,0.0260552912951,,0.0092843056826,-0.0151095263239,0.051752536755,-0.998502505358
99372000000,,152,,99,372000000,"""map""",,,0.0338398069143,0.00614496227354,0.0261312276125,,0.00927049863845,-0.0150315480687,0.0516940369293,-0.998506804337
99408000000,,153,,99,408000000,"""map""",,,0.0323886834085,0.00580987939611,0.0262338332832,,0.0091679247337,-0.0148477973581,0.0515734547957,-0.99851679314
99440000000,,154,,99,440000000,"""map""",,,0.0314810238779,0.00559206493199,0.0264686979353,,0.00912660501709,-0.0147820324693,0.0514715015691,-0.998523410195
99472000000,,155,,99,472000000,"""map""",,,0.0307939983904,0.00538961077109,0.0269998349249,,0.00906344039134,-0.014716306764,0.0514207989104,-0.998527498439
99508000000,,156,,99,508000000,"""map""",,,0.0303343944252,0.00522231357172,0.0276629962027,,0.00906282037168,-0.0146000298651,0.051371107776,-0.998531839565
99540000000,,157,,99,540000000,"""map""",,,0.0294430032372,0.00499461125582,0.028276912868,,0.00902516940653,-0.0144957723913,0.0512321074696,-0.998540774697
99572000000,,158,,99,572000000,"""map""",,,0.0281907822937,0.00470878602937,0.0289502199739,,0.0090241616688,-0.0144470863605,0.051179128881,-0.998544188591
99608000000,,159,,99,608000000,"""map""",,,0.0269859153777,0.00445974525064,0.0299437362701,,0.00895511574668,-0.0143039676814,0.0511169622795,-0.998550131297
99640000000,,160,,99,640000000,"""map""",,,0.0262768771499,0.0043311137706,0.0308789275587,,0.00885760028693,-0.0142103050363,0.0509583636885,-0.998560372981
99672000000,,161,,99,672000000,"""map""",,,0.0257998723537,0.00425364589319,0.0318856872618,,0.00884904776941,-0.0141815654954,0.0509039521071,-0.998563702582
99708000000,,162,,99,708000000,"""map""",,,0.0255175381899,0.00420858850703,0.0327861234546,,0.00876715792448,-0.0141196160489,0.050741771034,-0.998573480651
99748000000,,163,,99,748000000,"""map""",,,0.0247669331729,0.00399943720549,0.0335855782032,,0.00876722443747,-0.0139892788955,0.0506764434188,-0.99857870686
99772000000,,164,,99,772000000,"""map""",,,0.0235926322639,0.0036183882039,0.0341130718589,,0.00872727235317,-0.0139210400197,0.0506294496827,-0.998582373636
99808000000,,165,,99,808000000,"""map""",,,0.0224756393582,0.00316320220008,0.0347901433706,,0.00872147567977,-0.0138033042801,0.0505504664886,-0.998588021314
99840000000,,166,,99,840000000,"""map""",,,0.021847018972,0.00281597673893,0.035368155688,,0.00865766716213,-0.0136862975493,0.0504687016025,-0.998594343341
99872000000,,167,,99,872000000,"""map""",,,0.0214343909174,0.00251417350955,0.036049913615,,0.00863529525274,-0.0136578377252,0.0504008873233,-0.998598347292
99908000000,,168,,99,908000000,"""map""",,,0.0212066844106,0.00221514329314,0.036782220006,,0.00853955473508,-0.0135731897312,0.0503046660681,-0.998605217228
99940000000,,169,,99,940000000,"""map""",,,0.0205040220171,0.0017690215027,0.0373344309628,,0.00854328209699,-0.0136018548566,0.0502020806388,-0.998609937675
99972000000,,170,,99,972000000,"""map""",,,0.0193670801818,0.00116215890739,0.037672162056,,0.00849863689525,-0.0135332541105,0.0501501557215,-0.998613899479
100008000000,,171,,100,8000000,"""map""",,,0.0182813480496,0.000464749580715,0.0380586758256,,0.00849460396869,-0.0134447786559,0.0500284777698,-0.998621190884
100040000000,,172,,100,40000000,"""map""",,,0.0176622997969,-4.11652508774e-05,0.0384622253478,,0.00854226464573,-0.0133599365559,0.0499140490761,-0.998627639351
100072000000,,173,,100,72000000,"""map""",,,0.0172949191183,-0.000546091934666,0.0391075834632,,0.00862801356148,-0.0133347408077,0.0498506180691,-0.998630378897
100108000000,,174,,100,108000000,"""map""",,,0.017127012834,-0.00105821515899,0.0399632006884,,0.00856754732184,-0.0132919617564,0.049713219343,-0.998638386798
100140000000,,175,,100,140000000,"""map""",,,0.0165094062686,-0.00165707233828,0.0402214974165,,0.00853748756387,-0.0132326794152,0.0495594254927,-0.998647026902
100172000000,,176,,100,172000000,"""map""",,,0.0154810566455,-0.00234172516502,0.0404562093318,,0.00853111071276,-0.0132100671371,0.0494918219477,-0.998650735824
100208000000,,177,,100,208000000,"""map""",,,0.0145243424922,-0.00313425040804,0.0409100949764,,0.00844908454911,-0.0131495566103,0.0493768031981,-0.998657942935
100240000000,,178,,100,240000000,"""map""",,,0.0140178846195,-0.0037428534124,0.0412392392755,,0.00843111007068,-0.0131096252702,0.0492721104264,-0.998663759201
100272000000,,179,,100,272000000,"""map""",,,0.013724221848,-0.00434128800407,0.0413901992142,,0.00833414844686,-0.0130754443407,0.0492314387176,-0.998667088802
100308000000,,180,,100,308000000,"""map""",,,0.0136023964733,-0.00490496214479,0.0416150651872,,0.00836714942925,-0.0129860693142,0.0490718707492,-0.998675771052
100340000000,,181,,100,340000000,"""map""",,,0.0131231229752,-0.00536726415157,0.0416689515114,,0.00831142602716,-0.012925061751,0.0489395296448,-0.998683526072
100372000000,,182,,100,372000000,"""map""",,,0.0123086143285,-0.00575783895329,0.0415170751512,,0.00830208967703,-0.0129090454547,0.0488860031472,-0.998686476352
100408000000,,183,,100,408000000,"""map""",,,0.0115645593032,-0.00626175198704,0.0413315333426,,0.00830011042152,-0.0127296971141,0.0487303548357,-0.998696380861
100440000000,,184,,100,440000000,"""map""",,,0.0111835999414,-0.00669815251604,0.0412615463138,,0.00837884995416,-0.0127610411985,0.0486041250244,-0.99870148063
100472000000,,185,,100,472000000,"""map""",,,0.0109782144427,-0.00712862424552,0.0412230454385,,0.00831281819025,-0.0127670031665,0.0485108961955,-0.998706453958
100508000000,,186,,100,508000000,"""map""",,,0.0109218815342,-0.00751508912072,0.0411096699536,,0.00834934024548,-0.0126896763765,0.0482715442428,-0.998718718691
100540000000,,187,,100,540000000,"""map""",,,0.0102823041379,-0.0078111551702,0.0408274754882,,0.00826600720026,-0.0126544398002,0.0482016226211,-0.998723312697
100572000000,,188,,100,572000000,"""map""",,,0.00912881176919,-0.00802239961922,0.040413249284,,0.00825069143064,-0.0126502060175,0.0481244095946,-0.998727190208
100608000000,,189,,100,608000000,"""map""",,,0.00795311946422,-0.00833015143871,0.0402460992336,,0.00820982331093,-0.0125507685956,0.048046690806,-0.99873250071
100640000000,,190,,100,640000000,"""map""",,,0.00720319896936,-0.00860757473856,0.0403806455433,,0.00825028099277,-0.0125386362302,0.0478734251118,-0.998740635052
100672000000,,191,,100,672000000,"""map""",,,0.00661179469898,-0.0089042596519,0.04040171206,,0.00826906959686,-0.0125630744876,0.0478219216629,-0.998742658101
100708000000,,192,,100,708000000,"""map""",,,0.00620531570166,-0.00918000005186,0.0406494364142,,0.00827825826838,-0.0122106590039,0.0477595443271,-0.998749991653
100740000000,,193,,100,740000000,"""map""",,,0.00555203249678,-0.00938006211072,0.0406476520002,,0.00827279827586,-0.0121862724423,0.0476535871499,-0.998755302156
100772000000,,194,,100,772000000,"""map""",,,0.00467874761671,-0.00949290022254,0.0404354073107,,0.00826359989081,-0.0121704303309,0.0475661745861,-0.998759769721
100808000000,,195,,100,808000000,"""map""",,,0.00387117872015,-0.0096603166312,0.0404063723981,,0.00826105099429,-0.0121391879917,0.0474014647021,-0.998768030504
100840000000,,196,,100,840000000,"""map""",,,0.00341955106705,-0.00980657339096,0.0405615270138,,0.00822160895271,-0.0121144061387,0.0472689550104,-0.998774942587
100872000000,,197,,100,872000000,"""map""",,,0.00310818781145,-0.00999373476952,0.0407272875309,,0.00819549124216,-0.0121060516784,0.0472009299969,-0.998778482922
100908000000,,198,,100,908000000,"""map""",,,0.00294812815264,-0.0102300141007,0.0408647656441,,0.00816141024679,-0.0120967345907,0.0470942141765,-0.998783877719
100940000000,,199,,100,940000000,"""map""",,,0.00228477851488,-0.0103949690238,0.041037119925,,0.00822156483023,-0.0120664963672,0.0470039777738,-0.998787965963
100972000000,,200,,100,972000000,"""map""",,,0.0011497749947,-0.0104803536087,0.0409673526883,,0.00821965439261,-0.0119500795276,0.0469288299429,-0.998792981438
101008000000,,201,,101,8000000,"""map""",,,1.40012125485e-05,-0.0106252487749,0.0407740026712,,0.00826433103985,-0.0118674430578,0.046788860259,-0.998800104255
101040000000,,202,,101,40000000,"""map""",,,-0.000698098912835,-0.0107493782416,0.0406639128923,,0.00821085936607,-0.0118392855056,0.0466532738474,-0.998807227073
101072000000,,203,,101,72000000,"""map""",,,-0.00122693635058,-0.0108996992931,0.0404767394066,,0.00821965455725,-0.0118436559363,0.0465595814031,-0.998811483905
101108000000,,204,,101,108000000,"""map""",,,-0.00163537764456,-0.0110737839714,0.0404130965471,,0.00821134257311,-0.0117647634567,0.0464353324937,-0.998818311694
101140000000,,205,,101,140000000,"""map""",,,-0.00240189558826,-0.0111944442615,0.0400836728513,,0.00823889179478,-0.0117448414975,0.0463260878624,-0.998823369316
101172000000,,206,,101,172000000,"""map""",,,-0.00348015059717,-0.0113119306043,0.0394740365446,,0.00823385409393,-0.0117139806201,0.0462829716364,-0.998825771686
101208000000,,207,,101,208000000,"""map""",,,-0.00460546649992,-0.0115013131872,0.0385014712811,,0.00817483582903,-0.011625022617,0.0461070085438,-0.998835423315
101240000000,,208,,101,240000000,"""map""",,,-0.00534296967089,-0.011669376865,0.0379852354527,,0.00812975368302,-0.0116209918307,0.0460528498435,-0.998838415741
101272000000,,209,,101,272000000,"""map""",,,-0.00594918476418,-0.0118961054832,0.0375847816467,,0.00813359003405,-0.0115883296694,0.045992621997,-0.998841492461
101308000000,,210,,101,308000000,"""map""",,,-0.00642949203029,-0.0121794538572,0.0372756756842,,0.00815130422277,-0.0116202289069,0.0458848525053,-0.99884591788
101340000000,,211,,101,340000000,"""map""",,,-0.00700753740966,-0.0122246397659,0.0368917100132,,0.00812660929763,-0.0115796357295,0.0457266753829,-0.998853883634
101372000000,,212,,101,372000000,"""map""",,,-0.00767625588924,-0.0120385037735,0.0365094318986,,0.00815846161375,-0.0115936378675,0.0456407379588,-0.998857381823
101408000000,,213,,101,408000000,"""map""",,,-0.00834438484162,-0.0118450680748,0.036207139492,,0.00814563728264,-0.0115511260206,0.0454471153367,-0.998866822717
101440000000,,214,,101,440000000,"""map""",,,-0.00875851511955,-0.0117287011817,0.0359150506556,,0.00822738718686,-0.0115720260831,0.0453072720933,-0.998872217513
101472000000,,215,,101,472000000,"""map""",,,-0.00905148778111,-0.0116560794413,0.035469841212,,0.00823380750191,-0.0115357065303,0.0452482665054,-0.998875252086
101508000000,,216,,101,508000000,"""map""",,,-0.0092548020184,-0.0116133736446,0.0350935831666,,0.00827124131201,-0.0114882694291,0.0450837673557,-0.99888296496
101540000000,,217,,101,540000000,"""map""",,,-0.00949525926262,-0.0115406336263,0.0346066281199,,0.00848090278556,-0.0114517616972,0.0449407630987,-0.998888064728
101572000000,,218,,101,572000000,"""map""",,,-0.00971733313054,-0.0114707387984,0.03429787606,,0.0084332798102,-0.0114667050599,0.0448482507662,-0.998892405854
101608000000,,219,,101,608000000,"""map""",,,-0.00982262939215,-0.0114370267838,0.0342641919851,,0.00848288220572,-0.0114003400725,0.0446612873462,-0.998901172398
101640000000,,220,,101,640000000,"""map""",,,-0.00982283242047,-0.0114582963288,0.0344150587916,,0.00845458471285,-0.0113717445882,0.0445275553959,-0.99890770516
101672000000,,221,,101,672000000,"""map""",,,-0.00972631853074,-0.0115169677883,0.0346034280956,,0.00851087890838,-0.0113957546271,0.0444746189542,-0.99890930674
101708000000,,222,,101,708000000,"""map""",,,-0.00956832896918,-0.011606621556,0.0347428098321,,0.00848924852011,-0.0113730425794,0.0443310246413,-0.998916092383
101740000000,,223,,101,740000000,"""map""",,,-0.00954191666096,-0.0115825617686,0.0346899926662,,0.00848419040438,-0.0113819281558,0.0442457194199,-0.998919885599
101772000000,,224,,101,772000000,"""map""",,,-0.00959902536124,-0.0114636300132,0.0342183858156,,0.00841706825541,-0.0113540631621,0.0441699815331,-0.998924058137
101808000000,,225,,101,808000000,"""map""",,,-0.00952182430774,-0.0113814491779,0.0334981828928,,0.00844894312668,-0.0113877793238,0.0440601889927,-0.998928230675
101840000000,,226,,101,840000000,"""map""",,,-0.00936133880168,-0.0113516524434,0.0328959040344,,0.00843969386907,-0.011355016076,0.04391431875,-0.998935100611
101872000000,,227,,101,872000000,"""map""",,,-0.00911118835211,-0.0113857230172,0.0325162000954,,0.00845091168085,-0.0113849204175,0.0438487382538,-0.998937629422
101908000000,,228,,101,908000000,"""map""",,,-0.00878575444221,-0.0114635424688,0.0322730094194,,0.00838300388828,-0.0114073030282,0.0437085578356,-0.998944035743
101940000000,,229,,101,940000000,"""map""",,,-0.00863164942712,-0.0114034358412,0.0318248793483,,0.00841025413075,-0.0114118420462,0.0435567448873,-0.99895035777
101972000000,,230,,101,972000000,"""map""",,,-0.00863658171147,-0.0111816581339,0.0310446377844,,0.00844811023251,-0.0114183125753,0.0434791525392,-0.998953350197
102008000000,,231,,102,8000000,"""map""",,,-0.00849438365549,-0.0109481289983,0.0302596595138,,0.00842349729617,-0.0113229624099,0.0432644986397,-0.998964013349
102040000000,,232,,102,40000000,"""map""",,,-0.00827412307262,-0.0107874572277,0.0298176538199,,0.00833212325787,-0.0112664984745,0.0431545375119,-0.998970208936
102072000000,,233,,102,72000000,"""map""",,,-0.00797031354159,-0.0106784887612,0.029429404065,,0.00835733793926,-0.0112058764891,0.04309999949,-0.998972990628
102108000000,,234,,102,108000000,"""map""",,,-0.00758536485955,-0.0106047783047,0.0291163437068,,0.00835815321736,-0.0111745719173,0.0429698500218,-0.998978975481
102140000000,,235,,102,140000000,"""map""",,,-0.00714855920523,-0.0105776293203,0.0287016555667,,0.00831365766986,-0.011218996342,0.0428439152384,-0.99898420169
102172000000,,236,,102,172000000,"""map""",,,-0.00668114190921,-0.0105777969584,0.0282024685293,,0.00833986486015,-0.0110173436752,0.0427494220041,-0.998990270836
102208000000,,237,,102,208000000,"""map""",,,-0.0060021574609,-0.010593932122,0.0277545507997,,0.00835290527618,-0.0110446417445,0.0425918770843,-0.998996592863
102240000000,,238,,102,240000000,"""map""",,,-0.0057244412601,-0.0105770407245,0.0270519237965,,0.00838950314634,-0.0110951456051,0.0424104349015,-0.9990034628
102272000000,,239,,102,272000000,"""map""",,,-0.00567753659561,-0.01053206902,0.0262175574899,,0.00836463082578,-0.0111335602349,0.0423177539816,-0.999007213869
102308000000,,240,,102,308000000,"""map""",,,-0.00558355916291,-0.0105124274269,0.0254634078592,,0.00834869141451,-0.0111341595104,0.0421428867071,-0.999014673861
102340000000,,241,,102,340000000,"""map""",,,-0.00544181745499,-0.0105126257986,0.0248195063323,,0.00840537324581,-0.0111526334126,0.0420230632168,-0.999019014987
102372000000,,242,,102,372000000,"""map""",,,-0.00523967761546,-0.0105360727757,0.0243497304618,,0.00843322350464,-0.0111800113303,0.0420016526178,-0.999019436455
102408000000,,243,,102,408000000,"""map""",,,-0.00481279799715,-0.0106222750619,0.0236246008426,,0.00847986137974,-0.0112391594108,0.0418505983127,-0.999024662664
102440000000,,244,,102,440000000,"""map""",,,-0.00473748566583,-0.0106704467908,0.0227592457086,,0.00842212093814,-0.0112213397727,0.041730058326,-0.999030478929
102472000000,,245,,102,472000000,"""map""",,,-0.00491778133437,-0.0106766875833,0.0217064023018,,0.00842035793218,-0.0111771758846,0.0416602631448,-0.999033850677
102508000000,,246,,102,508000000,"""map""",,,-0.00501705892384,-0.0107083050534,0.0208549499512,,0.00844004800138,-0.0111671492976,0.04147603927,-0.999041479257
102540000000,,247,,102,540000000,"""map""",,,-0.00503235217184,-0.0107476748526,0.0202487073839,,0.0084046126269,-0.0111160585091,0.0413758140642,-0.999046536879
102572000000,,248,,102,572000000,"""map""",,,-0.00497859111056,-0.0108002647758,0.0196784902364,,0.00842853540861,-0.0110646612506,0.0413553728427,-0.999047674844
102608000000,,249,,102,608000000,"""map""",,,-0.00484362756833,-0.0108577432111,0.0190073531121,,0.00839286262883,-0.0110119204789,0.0413056395615,-0.999050625123
102640000000,,250,,102,640000000,"""map""",,,-0.00504294596612,-0.0106407981366,0.0182663593441,,0.0083824790283,-0.0109747018482,0.0412285951224,-0.999054334046
102672000000,,251,,102,672000000,"""map""",,,-0.00545373512432,-0.0102244829759,0.0172611176968,,0.00838302068116,-0.01095737653,0.041178903988,-0.999056567829
102708000000,,252,,102,708000000,"""map""",,,-0.00577628565952,-0.00984282046556,0.0162883419544,,0.00842514686784,-0.0110004185874,0.0411342283286,-0.999057579353
102740000000,,253,,102,740000000,"""map""",,,-0.00601354055107,-0.0094887111336,0.0154507420957,,0.00845347004395,-0.0109951418349,0.041089594816,-0.99905922308
102772000000,,254,,102,772000000,"""map""",,,-0.00615639518946,-0.00919141806662,0.0147024374455,,0.00846227157361,-0.0109904140616,0.0410404937375,-0.999061288276
102808000000,,255,,102,808000000,"""map""",,,-0.00623488798738,-0.00882261339575,0.0137572688982,,0.00845952223261,-0.0109986069315,0.0409545141665,-0.999064660024
102840000000,,256,,102,840000000,"""map""",,,-0.00645102094859,-0.00855562463403,0.0134574174881,,0.00848092040163,-0.0110011573921,0.0408461967658,-0.999068959002
102872000000,,257,,102,872000000,"""map""",,,-0.00680905487388,-0.00832464080304,0.0135832997039,,0.00846137529454,-0.0109738878872,0.040803038393,-0.999071150638
102908000000,,258,,102,908000000,"""map""",,,-0.00711689889431,-0.00814111996442,0.0136989951134,,0.00844041077708,-0.0109252021033,0.0407567611533,-0.999073763743
102940000000,,259,,102,940000000,"""map""",,,-0.00733725028113,-0.00799124222249,0.0137814423069,,0.00842369716442,-0.0109333625399,0.0406877246154,-0.999076629729
102972000000,,260,,102,972000000,"""map""",,,-0.00753310089931,-0.00788357295096,0.0138365449384,,0.00846812949165,-0.010900017468,0.040611902435,-0.999079706448
103008000000,,261,,103,8000000,"""map""",,,-0.00770924100652,-0.00775846093893,0.0138664329425,,0.00848777996586,-0.0108727081211,0.0405557206859,-0.999082108819
103040000000,,262,,103,40000000,"""map""",,,-0.00796987395734,-0.00751673569903,0.0139496251941,,0.00851154255661,-0.0108383706227,0.0404581928785,-0.99908623921
103072000000,,263,,103,72000000,"""map""",,,-0.00831512082368,-0.00713987508789,0.0140651995316,,0.00847489496633,-0.0107453060183,0.0403902943055,-0.999090243161
103108000000,,264,,103,108000000,"""map""",,,-0.00860044453293,-0.00679702823982,0.014242336154,,0.00851017220781,-0.0106671008945,0.0403460822614,-0.999092645531
103140000000,,265,,103,140000000,"""map""",,,-0.008853090927,-0.00647121435031,0.0144749181345,,0.00871005256674,-0.0106729011076,0.0402800381498,-0.999093446321
103172000000,,266,,103,172000000,"""map""",,,-0.00905799027532,-0.00624986132607,0.0148992426693,,0.00869604170306,-0.0106443159954,0.040234898875,-0.999095680104
103208000000,,267,,103,208000000,"""map""",,,-0.00924253743142,-0.00603721290827,0.0152713898569,,0.00867777277291,-0.0106469444935,0.0401672531832,-0.999098588237
103240000000,,268,,103,240000000,"""map""",,,-0.00943927466869,-0.00597089855,0.0153747629374,,0.00862433575503,-0.0106491006505,0.0400661850405,-0.999103055803
103272000000,,269,,103,272000000,"""map""",,,-0.00967025756836,-0.00604081200436,0.015219273977,,0.00859234901351,-0.0106427601017,0.0400185169548,-0.999105289586
103308000000,,270,,103,308000000,"""map""",,,-0.00979952514172,-0.00611933274195,0.0150317717344,,0.00856602526085,-0.0105731787006,0.0399333803208,-0.999109757151
103340000000,,271,,103,340000000,"""map""",,,-0.00989468023181,-0.00620464142412,0.0148732028902,,0.00850002971689,-0.01054000271,0.0399303036009,-0.999110726529
103372000000,,272,,103,372000000,"""map""",,,-0.00995680969208,-0.00626643048599,0.0147509956732,,0.00848466060516,-0.0105766586144,0.0399021916529,-0.999111611613
103408000000,,273,,103,408000000,"""map""",,,-0.00999558903277,-0.0063183051534,0.0145837785676,,0.00848980688354,-0.0105804237603,0.0398513204067,-0.999113592515
103440000000,,274,,103,440000000,"""map""",,,-0.0100720347837,-0.00631990144029,0.0143664255738,,0.00842077635489,-0.0106159580811,0.0397387461744,-0.999118270815
103472000000,,275,,103,472000000,"""map""",,,-0.0102002555504,-0.00628658477217,0.0141329010949,,0.00843632500232,-0.0106071529294,0.0396960514168,-0.999119914542
103508000000,,276,,103,508000000,"""map""",,,-0.0103013096377,-0.0062550609,0.0138712171465,,0.00841328014276,-0.010659730876,0.0395800211429,-0.999124171374
103540000000,,277,,103,540000000,"""map""",,,-0.0103290360421,-0.00624210573733,0.0136884525418,,0.00840512727943,-0.0106598415938,0.0394679948195,-0.99912863894
103572000000,,278,,103,572000000,"""map""",,,-0.0103299273178,-0.00621168175712,0.0134304547682,,0.00839645186104,-0.010688074467,0.0394253422088,-0.999130071932
103608000000,,279,,103,608000000,"""map""",,,-0.0102602206171,-0.00613125646487,0.0131702674553,,0.00841664308261,-0.0107282362154,0.0393010511526,-0.999134413058
103640000000,,280,,103,640000000,"""map""",,,-0.0102310720831,-0.00610549608245,0.0129515575245,,0.00840003895297,-0.0107061969533,0.0392444900819,-0.999137026162
103672000000,,281,,103,672000000,"""map""",,,-0.010213742964,-0.00611320557073,0.01258352492,,0.00840276615042,-0.0107002297169,0.0392586092761,-0.999136478253
103708000000,,282,,103,708000000,"""map""",,,-0.0101667512208,-0.00616015912965,0.0118549996987,,0.0083699495605,-0.0105015283996,0.0390869030153,-0.999145581973
103740000000,,283,,103,740000000,"""map""",,,-0.010041856207,-0.00625646905974,0.0113289225847,,0.00836979109822,-0.0105955544789,0.0389814094535,-0.999148742986
103772000000,,284,,103,772000000,"""map""",,,-0.00988577865064,-0.00638575106859,0.0109430216253,,0.00839577808769,-0.0106388832502,0.0389692711611,-0.999148490105
103808000000,,285,,103,808000000,"""map""",,,-0.00968991778791,-0.00652089668438,0.0106719601899,,0.00847233273429,-0.0106285096925,0.0389158289572,-0.999150091686
103840000000,,286,,103,840000000,"""map""",,,-0.00952112209052,-0.00652521336451,0.0100879371166,,0.00850652140169,-0.0106436749847,0.0388238223869,-0.999153168405
103872000000,,287,,103,872000000,"""map""",,,-0.00941394455731,-0.00649059191346,0.00966451037675,,0.008530246867,-0.0106610045011,0.0387629623377,-0.999155191454
103908000000,,288,,103,908000000,"""map""",,,-0.00914388895035,-0.00647012935951,0.00900986697525,,0.00849815714558,-0.010674487706,0.0385974095167,-0.999161766363
103940000000,,289,,103,940000000,"""map""",,,-0.00889442209154,-0.00648488849401,0.00853181630373,,0.00850176588717,-0.0107043725381,0.0384778389075,-0.999165938901
103972000000,,290,,103,972000000,"""map""",,,-0.00864770356566,-0.00657145539299,0.00803507398814,,0.0085070450269,-0.0107038744315,0.0384141550194,-0.999168341271
104008000000,,291,,104,8000000,"""map""",,,-0.00839834008366,-0.00670858100057,0.00761991972104,,0.00849184120984,-0.0107646600652,0.0383081556954,-0.999171923753
104040000000,,292,,104,40000000,"""map""",,,-0.00822503399104,-0.00675216270611,0.00727685727179,,0.00849958552862,-0.0107203586237,0.038222007537,-0.999175632676
104072000000,,293,,104,72000000,"""map""",,,-0.00809001922607,-0.00672058342025,0.00685875210911,,0.00850129692116,-0.0107628105429,0.0381834010238,-0.9991766442
104108000000,,294,,104,108000000,"""map""",,,-0.00790243502706,-0.00670938473195,0.00627271551639,,0.0085072769992,-0.010753532474,0.0381569749498,-0.999177697871
104140000000,,295,,104,140000000,"""map""",,,-0.00773693295196,-0.00674792518839,0.00581516325474,,0.0084346077652,-0.0107522247692,0.0380661063444,-0.999181828262
104172000000,,296,,104,172000000,"""map""",,,-0.00754129095003,-0.00681545166299,0.00536722317338,,0.00846628918902,-0.0107612137371,0.0380561596881,-0.999181828262
104208000000,,297,,104,208000000,"""map""",,,-0.00735445227474,-0.00690249167383,0.00497513869777,,0.00838402710181,-0.0107189753509,0.0380118633503,-0.999184652101
104240000000,,298,,104,240000000,"""map""",,,-0.00730068515986,-0.00690883491188,0.004925055895,,0.00837075734765,-0.0107267949907,0.0379330487436,-0.999187686674
104272000000,,299,,104,272000000,"""map""",,,-0.00734416302294,-0.00683530466631,0.00516995042562,,0.00836332468506,-0.0107225859035,0.0378804073298,-0.99918975187
104308000000,,300,,104,308000000,"""map""",,,-0.007323554717,-0.00679148454219,0.00527967792004,,0.00840784929084,-0.0107072743321,0.0378281452377,-0.999191522038
104340000000,,301,,104,340000000,"""map""",,,-0.00725042028353,-0.00677770888433,0.00537169445306,,0.00844170679267,-0.0106483974073,0.0377926997381,-0.999193250058
104372000000,,302,,104,372000000,"""map""",,,-0.0071391183883,-0.00676534464583,0.00551837030798,,0.00846457861966,-0.010631942438,0.0377803085646,-0.999193671527
104408000000,,303,,104,408000000,"""map""",,,-0.00699883932248,-0.00678844284266,0.0056436364539,,0.008401884277,-0.0106111583618,0.0377190270469,-0.999196790394
104440000000,,304,,104,440000000,"""map""",,,-0.00677422434092,-0.00673592463136,0.00580125581473,,0.00841169412063,-0.0106477403445,0.0376924745323,-0.999197296156
104472000000,,305,,104,472000000,"""map""",,,-0.00648229802027,-0.00663574226201,0.00604849494994,,0.00838290082606,-0.0105988003625,0.0376480096071,-0.999199698526
104508000000,,306,,104,508000000,"""map""",,,-0.00611132476479,-0.00661045778543,0.00624087871984,,0.00843125206934,-0.0106003127923,0.0376005101089,-0.999201089372
104540000000,,307,,104,540000000,"""map""",,,-0.00580207491294,-0.00665435288101,0.00638178363442,,0.00840928763436,-0.0105577741098,0.0375631680011,-0.999203112421
104572000000,,308,,104,572000000,"""map""",,,-0.00547445844859,-0.00671713007614,0.00648938724771,,0.00844457714123,-0.0105852847243,0.037537036955,-0.999203533889
104608000000,,309,,104,608000000,"""map""",,,-0.00513498904184,-0.00677437940612,0.00645773438737,,0.00852818735137,-0.0105782026543,0.0374212595622,-0.999207200665
104640000000,,310,,104,640000000,"""map""",,,-0.00500560179353,-0.00684292055666,0.00648929784074,,0.00866251158016,-0.0106272317045,0.0373535295766,-0.999208085749
104676000000,,311,,104,672000000,"""map""",,,-0.0050411010161,-0.00690881861374,0.00660704122856,,0.00869515703083,-0.0105840324196,0.0373807564407,-0.999207242812
104708000000,,312,,104,708000000,"""map""",,,-0.00500933406875,-0.00707738986239,0.00688740005717,,0.0086767409983,-0.0105714902748,0.0372645154325,-0.999211878965
104740000000,,313,,104,740000000,"""map""",,,-0.00494286045432,-0.00725323008373,0.00700828339905,,0.0087165732275,-0.0105959635997,0.0371973755029,-0.999213775574
104772000000,,314,,104,772000000,"""map""",,,-0.0048254057765,-0.0074536409229,0.00714400596917,,0.00870096934466,-0.0105843603747,0.037166734744,-0.99921516642
104808000000,,315,,104,808000000,"""map""",,,-0.0046610860154,-0.00765038281679,0.00729730259627,,0.00866509241609,-0.0106487496463,0.0371258523009,-0.999216346531
104840000000,,316,,104,840000000,"""map""",,,-0.0044463663362,-0.00783725455403,0.00739748310298,,0.00866429022656,-0.0106557065928,0.0370675632095,-0.999218411727
104872000000,,317,,104,872000000,"""map""",,,-0.00416981196031,-0.00801365077496,0.00730723701417,,0.00864226718112,-0.0106753760002,0.0370739273836,-0.999218116699
104908000000,,318,,104,908000000,"""map""",,,-0.00378113938496,-0.0082227839157,0.00712163140997,,0.00853096031766,-0.010647915682,0.0370143317398,-0.999221657034
104940000000,,319,,104,940000000,"""map""",,,-0.00343648437411,-0.00840388424695,0.00696538900957,,0.00854061309842,-0.0106710136367,0.0369077423599,-0.999225239516
104972000000,,320,,104,972000000,"""map""",,,-0.00306296907365,-0.00859922263771,0.00685288244858,,0.00852329024977,-0.0107059854782,0.0368778602443,-0.9992261246
105008000000,,321,,105,8000000,"""map""",,,-0.00269730528817,-0.00879915058613,0.00675549684092,,0.00850860059134,-0.0106745282888,0.036854005128,-0.999227473299
105040000000,,322,,105,40000000,"""map""",,,-0.00245436979458,-0.00887708924711,0.00671563530341,,0.00852275320673,-0.0106388333654,0.0368036817909,-0.999229580642
105072000000,,323,,105,72000000,"""map""",,,-0.00232293247245,-0.00884819496423,0.00676955888048,,0.00854020224896,-0.0106549872153,0.0367306413025,-0.999231898718
105108000000,,324,,105,108000000,"""map""",,,-0.00212925300002,-0.00882526859641,0.00671780575067,,0.00858711037427,-0.0106688153328,0.0366746281408,-0.999233458152
105140000000,,325,,105,140000000,"""map""",,,-0.00191974174231,-0.00882688444108,0.00664419960231,,0.00855081757484,-0.0106644667165,0.036589702241,-0.999236872047
105172000000,,326,,105,172000000,"""map""",,,-0.00170996109955,-0.00881179235876,0.00664529157802,,0.00856782745021,-0.010638296487,0.036547976861,-0.999238557921
105208000000,,327,,105,208000000,"""map""",,,-0.00146567600314,-0.00881059188396,0.00658032903448,,0.00862375491878,-0.0106528517201,0.0365205814095,-0.999238979389
105240000000,,328,,105,240000000,"""map""",,,-0.00144603685476,-0.00862621609122,0.0063695977442,,0.0085863964297,-0.0106424986595,0.0365148494381,-0.999239569445
105272000000,,329,,105,272000000,"""map""",,,-0.00158603233285,-0.00825235247612,0.00593263236806,,0.00866983352496,-0.0106158109787,0.036529052926,-0.999238600067
105308000000,,330,,105,308000000,"""map""",,,-0.00171849608887,-0.00788047537208,0.00541153224185,,0.00876276790215,-0.0106421508657,0.0365342369884,-0.999237377809
105340000000,,331,,105,340000000,"""map""",,,-0.00175648892764,-0.00761120859534,0.00506865605712,,0.00876282305525,-0.0106192481695,0.0365361757434,-0.999237546396
105372000000,,332,,105,372000000,"""map""",,,-0.0017047135625,-0.00733965309337,0.00471219979227,,0.00874286553466,-0.0106019136316,0.0365320032054,-0.999238010012
105408000000,,333,,105,408000000,"""map""",,,-0.00162560772151,-0.00709076505154,0.00436252355576,,0.00872348473443,-0.0106358983149,0.0364920058462,-0.999239316564
105440000000,,334,,105,440000000,"""map""",,,-0.00163255177904,-0.0069737280719,0.00418089237064,,0.00869552087667,-0.0106075750565,0.0364723232679,-0.999240538822
105472000000,,335,,105,472000000,"""map""",,,-0.00173104938585,-0.00697085913271,0.00400120113045,,0.00869910163011,-0.0106185586734,0.0364643575136,-0.999240665263
105508000000,,336,,105,508000000,"""map""",,,-0.00175080168992,-0.0069863665849,0.00385360792279,,0.00858225871224,-0.0105785731679,0.0364227164272,-0.999243699836
105540000000,,337,,105,540000000,"""map""",,,-0.0017087329179,-0.00702273705974,0.00365246739239,,0.00864238744781,-0.0105669040885,0.0363720980622,-0.999245090682
105572000000,,338,,105,572000000,"""map""",,,-0.001616331283,-0.00707713980228,0.00354000506923,,0.00867388061023,-0.0105610322587,0.0363391813735,-0.99924606006
105608000000,,339,,105,608000000,"""map""",,,-0.00150882347953,-0.00713546015322,0.00345052918419,,0.00866766115126,-0.0104065826628,0.0362669416751,-0.999250359038
105640000000,,340,,105,640000000,"""map""",,,-0.00139232701622,-0.0070293340832,0.00347290933132,,0.008669040802,-0.0104411516397,0.0362473433906,-0.99925073836
105672000000,,341,,105,672000000,"""map""",,,-0.0012822591234,-0.00670464616269,0.00360070122406,,0.00863112493732,-0.0104292538807,0.0362227717779,-0.999252044912
105708000000,,342,,105,708000000,"""map""",,,-0.00117883773055,-0.00650817062706,0.00356848468073,,0.00851204774257,-0.0103451793143,0.0361605208826,-0.99925621745
105740000000,,343,,105,740000000,"""map""",,,-0.00100318854675,-0.00632289983332,0.00328587274998,,0.00864081986493,-0.0103594931085,0.0360643417743,-0.999258409086
105772000000,,344,,105,772000000,"""map""",,,-0.000781366718002,-0.00617375411093,0.00301502691582,,0.0086558674423,-0.0103338864285,0.0360387164905,-0.999259504904
105808000000,,345,,105,808000000,"""map""",,,-0.000503445568029,-0.00605295598507,0.00269491691142,,0.00866467440496,-0.0103770215053,0.0359996885087,-0.999260347841
105840000000,,346,,105,840000000,"""map""",,,-0.000546792172827,-0.00585444318131,0.00192810117733,,0.00847530367552,-0.0101320781805,0.0359824925945,-0.999265152582
105872000000,,347,,105,872000000,"""map""",,,-0.000800795154646,-0.00553273642436,0.000872277305461,,0.00847329824286,-0.0101231096275,0.0359478900319,-0.999266459134
105908000000,,348,,105,908000000,"""map""",,,-0.000967651605606,-0.00511311739683,-0.000192718027392,,0.00842145193924,-0.0101360609754,0.035879148522,-0.999269282973
105940000000,,349,,105,940000000,"""map""",,,-0.00104758213274,-0.00478648161516,-0.000931852322537,,0.00847992295365,-0.0101909900081,0.0358461053928,-0.99926945156
105972000000,,350,,105,972000000,"""map""",,,-0.00128783239052,-0.00435596937314,-0.00148621189874,,0.00840591786211,-0.0101843036411,0.0356529042392,-0.999277037993
106008000000,,351,,106,8000000,"""map""",,,-0.00175609486178,-0.00381715619005,-0.00134052045178,,0.00734472286066,-0.00968703857646,0.0346781740737,-0.999324621785
106040000000,,352,,106,40000000,"""map""",,,-0.00260222540237,-0.00319362292066,-4.81133429275e-06,,0.00462136539,-0.00766159340447,0.0331099741343,-0.999411697174
106072000000,,353,,106,72000000,"""map""",,,-0.00380151974969,-0.00250647845678,0.00263354019262,,0.00254968726547,-0.00592528137554,0.032061444837,-0.999465139378
106108000000,,354,,106,108000000,"""map""",,,-0.00557658867911,-0.00167452637106,0.00750097259879,,-0.00323908655928,-0.000448081091857,0.0294880847075,-0.999559843347
106140000000,,355,,106,140000000,"""map""",,,-0.00718366773799,-0.00110814999789,0.0123077174649,,-0.0090457015072,0.00559490589486,0.0270443261371,-0.999577629317
106172000000,,356,,106,172000000,"""map""",,,-0.00894427020103,-0.000626911350992,0.0176326856017,,-0.0127014175665,0.00959713918395,0.0256028196244,-0.999545513418
106208000000,,357,,106,208000000,"""map""",,,-0.0108473934233,-0.000287777482299,0.0235222484916,,-0.0202606687916,0.0180131029779,0.0226387582091,-0.99937604094
106240000000,,358,,106,240000000,"""map""",,,-0.0129843009636,-2.63429174083e-05,0.0300144087523,,-0.029633612754,0.0284236552647,0.019302708709,-0.998970124642
106272000000,,359,,106,272000000,"""map""",,,-0.0159868020564,0.000158712849952,0.0388776548207,,-0.0332806286172,0.0324724274003,0.0180533918254,-0.998755260009
106308000000,,360,,106,308000000,"""map""",,,-0.0185576938093,-1.87242185348e-05,0.0465955771506,,-0.0443439070786,0.0445317951157,0.0146693370648,-0.997915526199
106340000000,,361,,106,340000000,"""map""",,,-0.0213016979396,-0.000523878610693,0.05478220433,,-0.0544334672899,0.0553408551057,0.0119788929901,-0.996910703184
106372000000,,362,,106,372000000,"""map""",,,-0.0244580041617,-0.00163477950264,0.063391469419,,-0.060374108928,0.0617658459396,0.0105322024149,-0.996207398722
106408000000,,363,,106,408000000,"""map""",,,-0.0287478659302,-0.00400579255074,0.0723337158561,,-0.0723642329008,0.0747631870662,0.00759675870985,-0.994543188262
106440000000,,364,,106,440000000,"""map""",,,-0.0346087887883,-0.00771780358627,0.0820276588202,,-0.0817734652997,0.0858159651281,0.00486058530452,-0.992937646215
106472000000,,365,,106,472000000,"""map""",,,-0.0422788746655,-0.0129933804274,0.092795163393,,-0.0853088708751,0.0899336369889,0.00354522430934,-0.992281124756
106508000000,,366,,106,508000000,"""map""",,,-0.0543949790299,-0.0222461577505,0.107944078743,,-0.0904136681908,0.0943300669533,0.00118424214946,-0.991426218081
106540000000,,367,,106,540000000,"""map""",,,-0.0660997405648,-0.0318191349506,0.121587082744,,-0.0936953603571,0.0955773908342,-0.0007104272785,-0.991002389372
106572000000,,368,,106,572000000,"""map""",,,-0.0795167386532,-0.0432867221534,0.136569514871,,-0.0947279009757,0.0955086432739,-0.00151526349766,-0.990909919186
106608000000,,369,,106,608000000,"""map""",,,-0.0945620536804,-0.0565702654421,0.152818977833,,-0.0959126655568,0.0947800129609,-0.00312388226478,-0.990862166807
106640000000,,370,,106,640000000,"""map""",,,-0.111331574619,-0.0716733708978,0.170252874494,,-0.0966041512019,0.094298650429,-0.00455548426815,-0.990835403558
106672000000,,371,,106,672000000,"""map""",,,-0.129702195525,-0.0885302945971,0.188930004835,,-0.0968184540972,0.0942388789538,-0.00520977194443,-0.990816858945
106708000000,,372,,106,708000000,"""map""",,,-0.154538631439,-0.111882932484,0.213979795575,,-0.097443237827,0.0941366318518,-0.00636484847472,-0.990758612
106740000000,,373,,106,740000000,"""map""",,,-0.175796762109,-0.132287546992,0.235389351845,,-0.0976639590617,0.0938931934658,-0.00711215424567,-0.990754945224
106772000000,,374,,106,772000000,"""map""",,,-0.198225930333,-0.154175743461,0.258091390133,,-0.0977480421891,0.0937819045477,-0.00747878968086,-0.990754481609
106808000000,,375,,106,808000000,"""map""",,,-0.221821665764,-0.177446782589,0.282037347555,,-0.097921032941,0.0936623981465,-0.00806850838523,-0.990744029191
106840000000,,376,,106,840000000,"""map""",,,-0.247095689178,-0.20240239799,0.307121962309,,-0.098099555796,0.0938419970633,-0.00835312605322,-0.990707066404
106872000000,,377,,106,872000000,"""map""",,,-0.273977994919,-0.228965818882,0.333491593599,,-0.0980027477777,0.0937775933861,-0.00841685208817,-0.990722154976
106908000000,,378,,106,908000000,"""map""",,,-0.308942347765,-0.26383626461,0.368259251118,,-0.0974291146815,0.0931080630386,-0.00850704634398,-0.990841177676
106940000000,,379,,106,940000000,"""map""",,,-0.337880939245,-0.293036133051,0.397627025843,,-0.0967585958587,0.0922427928485,-0.00866821589269,-0.990986415716
106972000000,,380,,106,972000000,"""map""",,,-0.367629736662,-0.323327839375,0.428410112858,,-0.0964483091137,0.0918777395665,-0.00872612566254,-0.991049973164
107008000000,,381,,107,8000000,"""map""",,,-0.398173034191,-0.354650944471,0.460654735565,,-0.0956540799062,0.0918046287784,-0.00878226526476,-0.991133255337
107040000000,,382,,107,40000000,"""map""",,,-0.429960370064,-0.387196183205,0.494460582733,,-0.0945359437716,0.0914807947849,-0.00886879274475,-0.991269684685
107072000000,,383,,107,72000000,"""map""",,,-0.471139967442,-0.429376244545,0.53877145052,,-0.0939806374751,0.090985232634,-0.00895152700838,-0.991367423227
107108000000,,384,,107,108000000,"""map""",,,-0.504632890224,-0.463936328888,0.575496852398,,-0.092731205017,0.090268261728,-0.00908483749022,-0.991549286878
107140000000,,385,,107,140000000,"""map""",,,-0.538191020489,-0.49868991971,0.608945727348,,-0.091307020859,0.0878778610679,-0.00925300341578,-0.991894638155
107172000000,,386,,107,172000000,"""map""",,,-0.571537196636,-0.533322513103,0.634581327438,,-0.0904174444496,0.0842120796496,-0.00934315552474,-0.992293136608
107208000000,,387,,107,208000000,"""map""",,,-0.604707241058,-0.567854881287,0.651566743851,,-0.0882414698325,0.0709074219783,-0.0094562355193,-0.993527154185
107240000000,,388,,107,240000000,"""map""",,,-0.637676119804,-0.602285861969,0.659951806068,,-0.0848060986496,0.0526034908461,-0.00962124043122,-0.994961453587
107272000000,,389,,107,272000000,"""map""",,,-0.678372085094,-0.645221412182,0.66011941433,,-0.0803654316165,0.0435643945403,-0.00998707507629,-0.995762918058
107308000000,,390,,107,308000000,"""map""",,,-0.710173547268,-0.679483532906,0.655145823956,,-0.0536023066184,0.015852480762,-0.0116171044425,-0.998368984142
107340000000,,391,,107,340000000,"""map""",,,-0.740612626076,-0.7130163908,0.651618123055,,-0.0252619839874,-0.00449376481832,-0.0131040452579,-0.999584920722
107372000000,,392,,107,372000000,"""map""",,,-0.769009709358,-0.745296537876,0.654232263565,,-0.0159192943829,-0.00952429708201,-0.0137370909225,-0.999733614803
107408000000,,393,,107,408000000,"""map""",,,-0.79510819912,-0.77626979351,0.666670084,,-0.0125448339572,-0.0068367157003,-0.0140629703552,-0.999799111006
107440000000,,394,,107,440000000,"""map""",,,-0.81903475523,-0.805926561356,0.69275534153,,-0.0114002332236,-0.00240177701652,-0.0135320465045,-0.999840625652
107472000000,,395,,107,472000000,"""map""",,,-0.846451759338,-0.841210782528,0.745575666428,,-0.0108678210623,9.18386414498e-05,-0.0130428901807,-0.999855967104
107508000000,,396,,107,508000000,"""map""",,,-0.866723120213,-0.868091881275,0.802984654903,,-0.0114700372951,0.00533053814121,-0.0119102779207,-0.999849097168
107540000000,,397,,107,540000000,"""map""",,,-0.886650621891,-0.894006609917,0.867587387562,,-0.0197427542407,0.0172433733549,-0.0113456365912,-0.999592043539
107572000000,,398,,107,572000000,"""map""",,,-0.906693398952,-0.919358253479,0.933674991131,,-0.0276877473351,0.0280676758205,-0.0112312921912,-0.999159406139
107608000000,,399,,107,608000000,"""map""",,,-0.926519274712,-0.944423437119,0.99807626009,,-0.0433808229538,0.0515832022422,-0.0111180014624,-0.997664120248
107640000000,,400,,107,640000000,"""map""",,,-0.946386694908,-0.969425082207,1.05966901779,,-0.0549646033978,0.0700980141431,-0.0108718638671,-0.995965349371
107672000000,,401,,107,672000000,"""map""",,,-0.966629505157,-0.994575500488,1.11940336227,,-0.0589446857192,0.0762836041686,-0.0106700647564,-0.99528518353
107708000000,,402,,107,708000000,"""map""",,,-0.993008077145,-1.02651882172,1.19417476654,,-0.0639283016257,0.0845252162461,-0.0101498462052,-0.994316691098
107740000000,,403,,107,740000000,"""map""",,,-1.0164026022,-1.05328989029,1.25285124779,,-0.0665496749183,0.0889787288485,-0.00968808533296,-0.993760605579
107772000000,,404,,107,772000000,"""map""",,,-1.04188323021,-1.08122336864,1.31090116501,,-0.0674755687401,0.089786914425,-0.00947810973368,-0.993627505831
107808000000,,405,,107,808000000,"""map""",,,-1.0682066679,-1.10966622829,1.37121510506,,-0.0687431174284,0.0900310994358,-0.00921869588109,-0.993520916452
107840000000,,406,,107,840000000,"""map""",,,-1.09528040886,-1.13860440254,1.43350827694,,-0.0695369605641,0.0901964342785,-0.009067093667,-0.993452090648
107872000000,,407,,107,872000000,"""map""",,,-1.12299847603,-1.16799628735,1.49741256237,,-0.0698283164595,0.0901517006672,-0.00900994254042,-0.993436243433
107908000000,,408,,107,908000000,"""map""",,,-1.15850710869,-1.20532524586,1.57928085327,,-0.0699582433397,0.089237758111,-0.00892661822091,-0.993510379739
107940000000,,409,,107,940000000,"""map""",,,-1.18736755848,-1.2348805666,1.64577126503,,-0.0687422843696,0.0873658598351,-0.00884856225747,-0.9937623336
107972000000,,410,,107,972000000,"""map""",,,-1.21655321121,-1.26414108276,1.71325278282,,-0.0675011834873,0.08580695591,-0.00879503575986,-0.993983604554
108008000000,,411,,108,8000000,"""map""",,,-1.24607563019,-1.29374504089,1.78155517578,,-0.0637036747282,0.0808169099748,-0.00867542300379,-0.994653317977
108040000000,,412,,108,40000000,"""map""",,,-1.27573168278,-1.32349395752,1.84936225414,,-0.060556504354,0.076615050278,-0.00852672892224,-0.995183609625
108072000000,,413,,108,72000000,"""map""",,,-1.30537724495,-1.35325491428,1.91567051411,,-0.0591001595164,0.0747108477598,-0.0084217411226,-0.995416808138
108108000000,,414,,108,108000000,"""map""",,,-1.34221231937,-1.39040589333,1.99538803101,,-0.0568025517287,0.0719219525982,-0.00746741003177,-0.995763550261
108144000000,,415,,108,144000000,"""map""",,,-1.37187886238,-1.41951692104,2.05620265007,,-0.0547350808804,0.069612388935,-0.00718131722407,-0.996045512677
108172000000,,416,,108,172000000,"""map""",,,-1.40173637867,-1.44811367989,2.11460447311,,-0.0538507965347,0.0688002626281,-0.00705643611194,-0.996151006239
108208000000,,417,,108,208000000,"""map""",,,-1.43140816689,-1.47669363022,2.17117929459,,-0.0511444624396,0.0665309189121,-0.00685948388884,-0.996449110899
108240000000,,418,,108,240000000,"""map""",,,-1.46087872982,-1.50522863865,2.2262070179,,-0.0477223846361,0.0632744071005,-0.0067191348833,-0.996831888577
108272000000,,419,,108,272000000,"""map""",,,-1.49014103413,-1.53364992142,2.27977705002,,-0.0458500899164,0.0613604607577,-0.00664685303811,-0.997039883274
108308000000,,420,,108,308000000,"""map""",,,-1.52630507946,-1.56895971298,2.34485912323,,-0.0417091152935,0.0568352109265,-0.00638853500358,-0.99749157105
108340000000,,421,,108,340000000,"""map""",,,-1.55611681938,-1.59667551517,2.39719605446,,-0.0384075300616,0.0529274723535,-0.00616132134326,-0.997840504809
108372000000,,422,,108,372000000,"""map""",,,-1.58672165871,-1.62389194965,2.44973468781,,-0.0366406169511,0.0507795227565,-0.00603732531494,-0.99801929174
108408000000,,423,,108,408000000,"""map""",,,-1.61674952507,-1.65087246895,2.50068616867,,-0.0330321539298,0.0464025962462,-0.00588184559079,-0.998359206073
108440000000,,424,,108,440000000,"""map""",,,-1.64617073536,-1.67754840851,2.54978895187,,-0.0303542722501,0.0432085157711,-0.00577091508551,-0.998588232048
108472000000,,425,,108,472000000,"""map""",,,-1.67497813702,-1.70391333103,2.59717774391,,-0.0289891542661,0.0414500675917,-0.00568678997588,-0.998703714413
108508000000,,426,,108,508000000,"""map""",,,-1.71013593674,-1.73639011383,2.65402436256,,-0.0265907028993,0.0382750882,-0.00552368167214,-0.998898095678
108540000000,,427,,108,540000000,"""map""",,,-1.73858356476,-1.76194500923,2.69918060303,,-0.0246144305872,0.0356448522155,-0.00542653318632,-0.999046579026
108572000000,,428,,108,572000000,"""map""",,,-1.76729643345,-1.78710842133,2.74392914772,,-0.0237079164131,0.0344450038783,-0.00531450686298,-0.999111232291
108608000000,,429,,108,608000000,"""map""",,,-1.79527771473,-1.81193888187,2.78700661659,,-0.0220620111852,0.0320913944534,-0.00516105018755,-0.999228105502
108640000000,,430,,108,640000000,"""map""",,,-1.82251906395,-1.83644640446,2.82858800888,,-0.0204679192514,0.0300016410932,-0.00501273542764,-0.999327698505
108672000000,,431,,108,672000000,"""map""",,,-1.84900438786,-1.86061000824,2.86851263046,,-0.0197081373548,0.0289980936785,-0.00491685134728,-0.999373090661
108708000000,,432,,108,708000000,"""map""",,,-1.88108217716,-1.89031434059,2.91634464264,,-0.0179719473212,0.0269216903325,-0.0047933189343,-0.999464507175
108740000000,,433,,108,740000000,"""map""",,,-1.90700697899,-1.91366922855,2.95424437523,,-0.0165458062982,0.0253917198896,-0.00470371473436,-0.999529581909
108772000000,,434,,108,772000000,"""map""",,,-1.93319880962,-1.93662440777,2.99198913574,,-0.0157313826588,0.0246160114233,-0.00465044111784,-0.999562372158
108808000000,,435,,108,808000000,"""map""",,,-1.95861673355,-1.95917797089,3.02820754051,,-0.0142127793526,0.0232616748007,-0.00457040425252,-0.999617963851
108840000000,,436,,108,840000000,"""map""",,,-1.98324918747,-1.98135519028,3.06312084198,,-0.0128316511638,0.0218775746005,-0.0044902830935,-0.999668245041
108872000000,,437,,108,872000000,"""map""",,,-2.00712251663,-2.00312161446,3.09648942947,,-0.0122260295974,0.0211844146883,-0.00436759361749,-0.999691299367
108908000000,,438,,108,908000000,"""map""",,,-2.03595232964,-2.02975869179,3.13615465164,,-0.0111348707385,0.0197766342154,-0.0041549206199,-0.999733867684
108940000000,,439,,108,940000000,"""map""",,,-2.05921697617,-2.05047225952,3.16714596748,,-0.0100905199062,0.0183791994767,-0.00397259335324,-0.99977230561
108972000000,,440,,108,972000000,"""map""",,,-2.08271431923,-2.07062554359,3.19769597054,,-0.00958669088142,0.0176997715346,-0.00387510769264,-0.99978996514
109008000000,,441,,109,8000000,"""map""",,,-2.10540509224,-2.09042000771,3.22662711143,,-0.00854726991326,0.0165387872015,-0.00367288711348,-0.999819973696
109040000000,,442,,109,36000000,"""map""",,,-2.12733840942,-2.10983490944,3.25397133827,,-0.00753783148873,0.0153552987562,-0.00342278771442,-0.999847874909
109072000000,,443,,109,72000000,"""map""",,,-2.14851546288,-2.12887692451,3.27996301651,,-0.00708347101035,0.014728691352,-0.00333975842285,-0.999860940432
109108000000,,444,,109,108000000,"""map""",,,-2.17394351959,-2.15218615532,3.31064629555,,-0.0062362538301,0.0133678404071,-0.00306845915899,-0.99988652357
109140000000,,445,,109,140000000,"""map""",,,-2.19457912445,-2.17018032074,3.33479237556,,-0.00555248772601,0.0124062264726,-0.00288925075912,-0.999903466603
109172000000,,446,,109,172000000,"""map""",,,-2.21550035477,-2.1875834465,3.35861110687,,-0.00507113614243,0.0119195215807,-0.00281507230574,-0.999912148853
109208000000,,447,,109,208000000,"""map""",,,-2.23564910889,-2.20464515686,3.38141822815,,-0.00437497721851,0.0111789352686,-0.00270232948597,-0.999924329293
109240000000,,448,,109,240000000,"""map""",,,-2.25505256653,-2.22136473656,3.4032099247,,-0.00380630164535,0.0103687029358,-0.00260235716131,-0.999935624648
109272000000,,449,,109,272000000,"""map""",,,-2.27373600006,-2.23775434494,3.42406010628,,-0.00356042779713,0.00992670992324,-0.00254444739145,-0.999941188032
109308000000,,450,,109,308000000,"""map""",,,-2.29612612724,-2.2577855587,3.44875240326,,-0.0031403195357,0.00898722407198,-0.00242951293556,-0.999951766891
109340000000,,451,,109,340000000,"""map""",,,-2.31413769722,-2.27303409576,3.46641349792,,-0.00284049986165,0.00534409345673,-0.00230711848749,-0.999979078049
109372000000,,452,,109,372000000,"""map""",,,-2.33239340782,-2.28768730164,3.4796397686,,-0.00253909233389,-0.00275133287353,-0.00216196474121,-0.999990710579
109408000000,,453,,109,408000000,"""map""",,,-2.34994983673,-2.30224108696,3.48810529709,,0.00727784272679,-0.0328715191192,-0.00275130412394,-0.999429356704
109440000000,,454,,109,440000000,"""map""",,,-2.36635923386,-2.31649637222,3.49241161346,,0.038462133938,-0.0678247580142,-0.00530586675904,-0.996941554677
109472000000,,455,,109,472000000,"""map""",,,-2.38430261612,-2.33310651779,3.49429535866,,0.0548799395987,-0.0812984877684,-0.00686053756006,-0.995154148978
109508000000,,456,,109,508000000,"""map""",,,-2.39604949951,-2.34470057487,3.49451947212,,0.0795274923405,-0.0958752473048,-0.00990366646309,-0.992161933468
109540000000,,457,,109,540000000,"""map""",,,-2.405782938,-2.35349225998,3.49790072441,,0.0801545040911,-0.0885100924422,-0.0119691992149,-0.992772894184
109572000000,,458,,109,572000000,"""map""",,,-2.4128279686,-2.35889816284,3.50919008255,,0.0696557089805,-0.0750413129671,-0.0129431285903,-0.994660482942
109608000000,,459,,109,608000000,"""map""",,,-2.41798377037,-2.3627281189,3.53463125229,,0.038943956381,-0.038873772,-0.0146245771116,-0.998377877127
109640000000,,460,,109,640000000,"""map""",,,-2.42025923729,-2.36440587044,3.55343937874,,0.0130134901197,-0.00571335829551,-0.0153407363615,-0.999781367183
109672000000,,461,,109,672000000,"""map""",,,-2.42311453819,-2.36658215523,3.57888436317,,0.00252266438549,0.00835329826261,-0.0154570195166,-0.99984252226
109708000000,,462,,109,708000000,"""map""",,,-2.42685341835,-2.36969423294,3.60678362846,,-0.0258734471728,0.0455318331364,-0.0155769273006,-0.998506340721
109740000000,,463,,109,740000000,"""map""",,,-2.43225884438,-2.37291264534,3.62298583984,,-0.0446595079589,0.0674809911956,-0.0153624841354,-0.996602146106
109772000000,,464,,109,772000000,"""map""",,,-2.44029641151,-2.37706685066,3.63442635536,,-0.051648726433,0.0762386361154,-0.0151467765647,-0.995635887457
109808000000,,465,,109,808000000,"""map""",,,-2.44933843613,-2.38227558136,3.64418387413,,-0.0568095895939,0.0837252940861,-0.0145110335018,-0.994762436168
109840000000,,466,,109,840000000,"""map""",,,-2.45943164825,-2.38860535622,3.65285134315,,-0.0525801362236,0.076151111599,-0.0138621406221,-0.995612453809
109872000000,,467,,109,872000000,"""map""",,,-2.47355890274,-2.39804196358,3.66334295273,,-0.0484888329788,0.0690968493425,-0.0135019536547,-0.996339402652
109908000000,,468,,109,908000000,"""map""",,,-2.48575210571,-2.40658545494,3.67207050323,,-0.0384961477619,0.0541476618135,-0.0126899524713,-0.997709933872
109940000000,,469,,109,940000000,"""map""",,,-2.49830341339,-2.41467404366,3.68224573135,,-0.0281971148838,0.0382470598872,-0.0118540540248,-0.998800062109
109972000000,,470,,109,972000000,"""map""",,,-2.51096820831,-2.42216444016,3.693400383,,-0.0234098621322,0.0299145887532,-0.0114233975267,-0.99921301693
110008000000,,471,,110,8000000,"""map""",,,-2.52356505394,-2.43003773689,3.70424079895,,-0.0151727229714,0.0157429097395,-0.010562801027,-0.99970516568
110040000000,,472,,110,40000000,"""map""",,,-2.53582143784,-2.43814229965,3.7146859169,,-0.00914470379581,0.00693370514762,-0.00960792202709,-0.999887998709
110072000000,,473,,110,72000000,"""map""",,,-2.5475769043,-2.44634985924,3.72458672523,,-0.00684488873155,0.00343229759102,-0.00918232315083,-0.999928543978
110108000000,,474,,110,108000000,"""map""",,,-2.56162834167,-2.4566617012,3.7358148098,,-0.00340737188719,-0.00268088921127,-0.00823861306582,-0.999956740219
110140000000,,475,,110,140000000,"""map""",,,-2.57283902168,-2.46403765678,3.74462890625,,-0.00192093489943,-0.00397104766696,-0.00732659741089,-0.999963441568
110172000000,,476,,110,172000000,"""map""",,,-2.5839471817,-2.47053956985,3.75352883339,,-0.00156460017048,-0.00377433375467,-0.00704417137902,-0.999966855463
110208000000,,477,,110,208000000,"""map""",,,-2.59450149536,-2.47711753845,3.76188015938,,-0.00105026801939,-0.00417678347439,-0.00636387909721,-0.999970522239
110240000000,,478,,110,240000000,"""map""",,,-2.60464930534,-2.48379087448,3.76976251602,,-0.00109742655624,-0.00471393633294,-0.0056083546908,-0.999972545287
110272000000,,479,,110,272000000,"""map""",,,-2.61437821388,-2.49051237106,3.77743554115,,-0.00134372393091,-0.00402037791897,-0.00524209857724,-0.999977350028
110308000000,,480,,110,308000000,"""map""",,,-2.62584400177,-2.49897003174,3.78660583496,,-0.00162958019765,-0.00251593541886,-0.00461908386255,-0.999984852167
110340000000,,481,,110,340000000,"""map""",,,-2.63493919373,-2.50511956215,3.79382276535,,-0.00172063266043,-0.00350965590888,-0.00412031805727,-0.999983924936
110372000000,,482,,110,372000000,"""map""",,,-2.64406466484,-2.51068806648,3.80089402199,,-0.00186564753613,-0.00369340917135,-0.00377661050767,-0.999984304258
110408000000,,483,,110,408000000,"""map""",,,-2.65279531479,-2.5163602829,3.80774259567,,-0.00195709706009,-0.00226215973624,-0.00340647688404,-0.999989783348
110440000000,,484,,110,440000000,"""map""",,,-2.66108489037,-2.52213191986,3.81426119804,,-0.00179217516594,-0.00228656206183,-0.00309787765925,-0.99999096346
110472000000,,485,,110,472000000,"""map""",,,-2.66908836365,-2.52805685997,3.82019352913,,-0.00173930108014,-0.00337499442298,-0.0028855839833,-0.999988645383
110508000000,,486,,110,508000000,"""map""",,,-2.67879414558,-2.53563094139,3.82735061646,,-0.00201738170608,-0.00363088934298,-0.0025304124909,-0.999988181768
110540000000,,487,,110,540000000,"""map""",,,-2.68635821342,-2.54093670845,3.83292341232,,-0.00199725131756,-0.00256948484205,-0.00226623604443,-0.999992143572
110572000000,,488,,110,572000000,"""map""",,,-2.69372797012,-2.54552435875,3.83796238899,,-0.00180169895429,-0.00315501310424,-0.0021652521954,-0.999991047754
110608000000,,489,,110,608000000,"""map""",,,-2.70085811615,-2.55027484894,3.84261250496,,-0.00156701620564,-0.00558001916698,-0.0018453576152,-0.999981522566
110640000000,,490,,110,640000000,"""map""",,,-2.70772504807,-2.55513525009,3.84730100632,,-0.00175094974467,-0.00429585795264,-0.00162880710755,-0.999987928887
110672000000,,491,,110,672000000,"""map""",,,-2.71421289444,-2.56007671356,3.85189938545,,-0.00176839286001,-0.00350038862361,-0.00152070044112,-0.999991174194
110708000000,,492,,110,708000000,"""map""",,,-2.7219247818,-2.56647491455,3.85704541206,,-0.00169752359278,-0.00510490597552,-0.00131582461051,-0.999984725727
110740000000,,493,,110,740000000,"""map""",,,-2.72783398628,-2.57096242905,3.86085987091,,-0.00204266495842,-0.00602468504702,-0.00107714700739,-0.999979204489
110772000000,,494,,110,772000000,"""map""",,,-2.73338675499,-2.57478237152,3.86476016045,,-0.0022415493511,-0.0048758949826,-0.0010443989061,-0.999985062901
110808000000,,495,,110,808000000,"""map""",,,-2.73858308792,-2.57874536514,3.8684232235,,-0.0018693163699,-0.00421705536436,-0.000980715018,-0.999988898265
110840000000,,496,,110,840000000,"""map""",,,-2.74357366562,-2.58290982246,3.87170171738,,-0.00159935683252,-0.00685363025135,-0.000915724577596,-0.999974821217
110872000000,,497,,110,872000000,"""map""",,,-2.74850940704,-2.58726668358,3.87490534782,,-0.0017614381361,-0.00690392560033,-0.000812717679835,-0.999974315455
110908000000,,498,,110,908000000,"""map""",,,-2.75435090065,-2.59290242195,3.87917327881,,-0.00208825105562,-0.00411386580282,-0.000751309721555,-0.999989108999
110940000000,,499,,110,940000000,"""map""",,,-2.7588455677,-2.59685945511,3.88235974312,,-0.00185810275634,-0.00539503072197,-0.00079758696122,-0.999983377027
110972000000,,500,,110,972000000,"""map""",,,-2.76339435577,-2.60033082962,3.88531756401,,-0.00173603906224,-0.00705854691172,-0.000753037742344,-0.999973303931
111008000000,,501,,111,8000000,"""map""",,,-2.76786351204,-2.60399508476,3.88851475716,,-0.00186673479311,-0.00592734426621,-0.000649314348159,-0.999980511042
