rosbagTimestamp,header,seq,stamp,secs,nsecs,frame_id,pose,position,x,y,z,orientation,x,y,z,w
100216000000,,235,,100,96000000,"""map""",,,0.0168625656515,0.00612736912444,0.0158485509455,,0.00891206916173,-0.0131748761649,0.0495655789326,-0.99864424521
100216000000,,236,,100,96000000,"""map""",,,0.0162778869271,0.00550131453201,0.0164317972958,,0.00889066514813,-0.0131159535536,0.0494253563676,-0.99865212667
100216000000,,237,,100,96000000,"""map""",,,0.0152808278799,0.00471581285819,0.0169334262609,,0.00888620877745,-0.0130935544793,0.0493652549617,-0.998655498418
100216000000,,238,,100,184000000,"""map""",,,0.0143614327535,0.00381571962498,0.0176984108984,,0.00880714194819,-0.0130334655856,0.0492635546162,-0.998661946886
100244000000,,239,,100,244000000,"""map""",,,0.0138834016398,0.00313441734761,0.0183670148253,,0.00879097352806,-0.0129939145549,0.0491676705358,-0.99866738383
100276000000,,240,,100,276000000,"""map""",,,0.0136165982112,0.00247291615233,0.0191374085844,,0.00869445576325,-0.0129599232863,0.0491314242461,-0.998670418403
100312000000,,241,,100,312000000,"""map""",,,0.0135204317048,0.00185459235217,0.0200587585568,,0.00873234149952,-0.0128799657755,0.0489944048416,-0.998677878395
100344000000,,242,,100,344000000,"""map""",,,0.0131250843406,0.00130308431108,0.0207438301295,,0.00867061036052,-0.0128117107654,0.0488536343676,-0.998686139177
100376000000,,243,,100,376000000,"""map""",,,0.0124522866681,0.000793021870777,0.0211799349636,,0.00866042267698,-0.0127986755354,0.0488031424431,-0.998688836575
100412000000,,244,,100,412000000,"""map""",,,0.0118838585913,0.000156717229402,0.0217323396355,,0.00867128767355,-0.0126379916633,0.0486805794076,-0.998696844477
100444000000,,245,,100,444000000,"""map""",,,0.0116423424333,-0.000373609742383,0.0225210040808,,0.00873228321833,-0.0126656348922,0.0485323489414,-0.998703124357
100476000000,,246,,100,476000000,"""map""",,,0.0115761803463,-0.000888545706403,0.0233659278601,,0.00866494967657,-0.0126753523749,0.0484405952522,-0.998708139832
100512000000,,247,,100,512000000,"""map""",,,0.0116591490805,-0.00135109166149,0.0241950489581,,0.00869988546272,-0.0126101274927,0.0482377424703,-0.99871846581
100544000000,,248,,100,544000000,"""map""",,,0.0111305164173,-0.00175048783422,0.024725953117,,0.00861291577009,-0.0125774712583,0.0481435442639,-0.998724155634
100576000000,,249,,100,576000000,"""map""",,,0.0100616682321,-0.00208875979297,0.0250158384442,,0.00859596450518,-0.0125758752757,0.0480698715727,-0.998727864557
100612000000,,250,,100,612000000,"""map""",,,0.00899554323405,-0.00253940210678,0.0255070254207,,0.00855203151932,-0.0124810608363,0.0479975897275,-0.998732880032
100644000000,,251,,100,644000000,"""map""",,,0.00833570305258,-0.00291986740194,0.0260112844408,,0.00858970915553,-0.0124727911636,0.0478306882074,-0.998740635052
100676000000,,252,,100,676000000,"""map""",,,0.00783561356366,-0.00331080658361,0.0265541840345,,0.0086072257809,-0.0124988293549,0.0477812078072,-0.998742573807
100712000000,,253,,100,712000000,"""map""",,,0.00752209685743,-0.00367259373888,0.0270091593266,,0.00860804945544,-0.0121642579579,0.0477369114694,-0.998748853688
100744000000,,254,,100,744000000,"""map""",,,0.00693700369447,-0.00376837514341,0.0270180609077,,0.00860793322234,-0.0121263577337,0.0476217241325,-0.998754796393
100776000000,,255,,100,776000000,"""map""",,,0.00610932148993,-0.00359809515066,0.026651468128,,0.00860443437537,-0.0121104097613,0.0475357445615,-0.998759095372
100812000000,,256,,100,812000000,"""map""",,,0.00536363013089,-0.00342072919011,0.0264105442911,,0.00859984662505,-0.0120868987346,0.0473951426749,-0.998766091749
100844000000,,257,,100,844000000,"""map""",,,0.00496660638601,-0.00329582160339,0.0262004118413,,0.00858624866878,-0.012052856264,0.0472375977551,-0.99877409965
100876000000,,258,,100,876000000,"""map""",,,0.00471352785826,-0.00321464962326,0.026012185961,,0.00856631600825,-0.0120439156992,0.0471674232524,-0.998777682132
100912000000,,259,,100,912000000,"""map""",,,0.00461410172284,-0.00318502518348,0.0258163902909,,0.00853861416888,-0.0120479942299,0.0470803900102,-0.998781938964
100944000000,,260,,100,944000000,"""map""",,,0.0042015472427,-0.00317454966716,0.025098759681,,0.00861707875919,-0.0120028770164,0.0469606508136,-0.998787460201
100976000000,,261,,100,976000000,"""map""",,,0.00349395023659,-0.00316643924452,0.0240094643086,,0.00861956048417,-0.0118919646211,0.0468827634375,-0.998792433529
101012000000,,262,,101,12000000,"""map""",,,0.00287377671339,-0.00318329082802,0.0227908696979,,0.00865298984976,-0.0118333459281,0.0467359659642,-0.998799724934
101044000000,,263,,101,44000000,"""map""",,,0.00256181904115,-0.00319787254557,0.0219882223755,,0.00862483213296,-0.0118037018763,0.0465955326649,-0.998806889898
101076000000,,264,,101,76000000,"""map""",,,0.0024239665363,-0.00323373265564,0.0213394351304,,0.00863622314195,-0.0118138874196,0.0465010815774,-0.998811062436
101112000000,,265,,101,112000000,"""map""",,,0.00239928718656,-0.00328950537369,0.0208571236581,,0.00863201174982,-0.0117467810757,0.0463739666823,-0.998817805932
101144000000,,266,,101,144000000,"""map""",,,0.00191999634262,-0.00336542865261,0.0201061125845,,0.00866204434283,-0.0117380879589,0.04626526996,-0.998822652819
101176000000,,267,,101,176000000,"""map""",,,0.00104080932215,-0.0035041924566,0.0191562920809,,0.008656614808,-0.0117107074893,0.046222406615,-0.99882505519
101212000000,,268,,101,212000000,"""map""",,,0.000169269740582,-0.00370364543051,0.0180820301175,,0.0086078742826,-0.0116214223542,0.046060225542,-0.998833990322
101244000000,,269,,101,244000000,"""map""",,,-0.000362043501809,-0.00386833166704,0.0174153465778,,0.00854893224423,-0.011628526403,0.0459975953251,-0.998837277776
101276000000,,270,,101,276000000,"""map""",,,-0.000760385533795,-0.00408297451213,0.0169334188104,,0.00855151044598,-0.0115977466913,0.0459368195695,-0.998840480936
101312000000,,271,,101,312000000,"""map""",,,-0.0010316951666,-0.0043467883952,0.0165799260139,,0.00856637659434,-0.0116324452368,0.0458310309798,-0.998844779915
101344000000,,272,,101,344000000,"""map""",,,-0.0011645546183,-0.00453685084358,0.0161585919559,,0.00853793488022,-0.0115950245976,0.045672390242,-0.998852703522
101376000000,,273,,101,376000000,"""map""",,,-0.00116816163063,-0.00464538671076,0.0154343629256,,0.00856478291663,-0.0116167560724,0.0455866214053,-0.998856201711
101412000000,,274,,101,412000000,"""map""",,,-0.00103112065699,-0.00478742644191,0.0148035073653,,0.00854608469778,-0.0115891164655,0.0454187505076,-0.998864251759
101444000000,,275,,101,444000000,"""map""",,,-0.000819016015157,-0.00491651147604,0.0144752301276,,0.00861425179226,-0.0116249295976,0.0452507953163,-0.998870953108
101476000000,,276,,101,476000000,"""map""",,,-0.000499098794535,-0.00507162651047,0.014180582948,,0.00861597652032,-0.0115958621015,0.0451920426095,-0.998873903387
101512000000,,277,,101,512000000,"""map""",,,-0.000100369812571,-0.00524107227102,0.0139102814719,,0.00865778833431,-0.0115561668496,0.0450533794779,-0.998880225414
101544000000,,278,,101,544000000,"""map""",,,-1.5674639144e-05,-0.00539237679914,0.0133991092443,,0.00884804225426,-0.0115526326882,0.0448664582048,-0.998887011057
101576000000,,279,,101,576000000,"""map""",,,-0.000165319230291,-0.00555584253743,0.013070887886,,0.00879326855567,-0.0115544594083,0.0447929962478,-0.998890762127
101612000000,,280,,101,612000000,"""map""",,,-0.000152863882249,-0.00579068483785,0.0128613132983,,0.00883492849284,-0.0114879170255,0.0446094045757,-0.998899360084
101644000000,,281,,101,644000000,"""map""",,,-4.11286964663e-05,-0.00600977893919,0.0128722069785,,0.00879981794544,-0.0114575181994,0.0444792972543,-0.998905892845
101676000000,,282,,101,676000000,"""map""",,,0.000180053990334,-0.00625233678147,0.0129526983947,,0.0088531177391,-0.0114800089761,0.044428763183,-0.998907367985
101712000000,,283,,101,712000000,"""map""",,,0.00047307863133,-0.00651295669377,0.0130315553397,,0.0088262660807,-0.0114531128659,0.0442904372262,-0.998914111481
101744000000,,284,,101,744000000,"""map""",,,0.000529345823452,-0.0066692349501,0.0127726513892,,0.00881693936179,-0.0114563361943,0.0442110747104,-0.998917609669
101776000000,,285,,101,776000000,"""map""",,,0.000407634041039,-0.00673806527629,0.0121974246576,,0.00874780206661,-0.0114238087054,0.0441375284598,-0.998921866501
101812000000,,286,,101,812000000,"""map""",,,0.00043460651068,-0.0068710995838,0.0116121070459,,0.00878508976216,-0.0114424446095,0.0440500316023,-0.998925238249
101844000000,,287,,101,844000000,"""map""",,,0.00057699898025,-0.00699915643781,0.0112356496975,,0.0087644355838,-0.0114066970849,0.0438918966266,-0.998932740388
101876000000,,288,,101,876000000,"""map""",,,0.000826900592074,-0.00717931846157,0.0109877269715,,0.00877460886167,-0.0114323525796,0.0438274540953,-0.998935227052
101912000000,,289,,101,912000000,"""map""",,,0.00116820097901,-0.00739235524088,0.0108781103045,,0.00870877079217,-0.0114380418279,0.0437132361358,-0.998940706142
101944000000,,290,,101,944000000,"""map""",,,0.00104317581281,-0.00747461616993,0.0107835298404,,0.00873093641249,-0.0114428251659,0.0435433000426,-0.998947871106
101976000000,,291,,101,976000000,"""map""",,,0.00049089564709,-0.00740077486262,0.0106298243627,,0.00876788726252,-0.0114395127694,0.0434669299531,-0.998950905679
102012000000,,292,,102,12000000,"""map""",,,1.36236049002e-05,-0.00733602512628,0.0106616355479,,0.00874174263396,-0.011325450638,0.0432518545852,-0.99896173742
102044000000,,293,,102,44000000,"""map""",,,-0.000215622596443,-0.00729853939265,0.0107813365757,,0.00864911662023,-0.0112513160601,0.043140334024,-0.998968228034
102076000000,,294,,102,76000000,"""map""",,,-0.000324968976201,-0.00730316154659,0.0108847133815,,0.00867378742618,-0.0111822514518,0.0430845315966,-0.998971262607
102112000000,,295,,102,112000000,"""map""",,,-0.000320586084854,-0.0073342169635,0.0109971435741,,0.00867363447922,-0.0111347718745,0.0429510525273,-0.998977542488
102144000000,,296,,102,144000000,"""map""",,,-0.000234519218793,-0.00740372901782,0.011111959815,,0.00862831501022,-0.0111643942766,0.0428217881429,-0.998983148019
102176000000,,297,,102,176000000,"""map""",,,-8.92947573448e-05,-0.0074931550771,0.0112096332014,,0.00865416205898,-0.0109561936194,0.0427264098248,-0.998989259312
102212000000,,298,,102,212000000,"""map""",,,0.000225024821702,-0.00761113967746,0.0115316528827,,0.00866623696644,-0.0109715141635,0.0425741754079,-0.998995497045
102240000000,,299,,102,240000000,"""map""",,,0.000198406021809,-0.00768298655748,0.0115686058998,,0.0087027377013,-0.0110132946143,0.0423835030653,-0.999002830597
102276000000,,300,,102,276000000,"""map""",,,-7.15107962606e-05,-0.00773330964148,0.0113088451326,,0.00867758615786,-0.0110471810921,0.0422893470057,-0.999006708107
102312000000,,301,,102,312000000,"""map""",,,-0.000265981652774,-0.00780134927481,0.010998018086,,0.008663791873,-0.0110447712308,0.0421284724849,-0.999013578043
102344000000,,302,,102,344000000,"""map""",,,-0.000386225816328,-0.00788231194019,0.0107371779159,,0.00871744859779,-0.0110527160764,0.0419852574937,-0.999019057133
102376000000,,303,,102,376000000,"""map""",,,-0.000421212636866,-0.00798024237156,0.0105454744771,,0.00874512137888,-0.0110776873432,0.0419606015873,-0.999019605043
102412000000,,304,,102,412000000,"""map""",,,-0.000258653308265,-0.00815168023109,0.0103257363662,,0.00879144982038,-0.011133042125,0.0418024666117,-0.99902525272
102444000000,,305,,102,444000000,"""map""",,,-0.000407963147154,-0.00816186331213,0.0101682245731,,0.00873341393925,-0.0111125623787,0.0416762368004,-0.999031195426
102476000000,,306,,102,476000000,"""map""",,,-0.000826215022244,-0.00803344324231,0.0101227788255,,0.00873376626056,-0.0110666308749,0.0416019319065,-0.999034862202
102512000000,,307,,102,512000000,"""map""",,,-0.00113955966663,-0.00793627090752,0.0101258549839,,0.00875769529844,-0.0110537377258,0.0414099951584,-0.999042701516
102544000000,,308,,102,544000000,"""map""",,,-0.00134667672683,-0.00785183813423,0.0102501902729,,0.00872652918569,-0.0110004705301,0.0413027314289,-0.999048054165
102576000000,,309,,102,576000000,"""map""",,,-0.00146412977483,-0.00778485368937,0.0104105938226,,0.00875259676454,-0.0109481757577,0.0412790027532,-0.999049360718
102612000000,,310,,102,612000000,"""map""",,,-0.00151635194197,-0.007697744295,0.0106157958508,,0.00872186611435,-0.0108817645075,0.0412300281152,-0.999052395291
102644000000,,311,,102,644000000,"""map""",,,-0.00187697471119,-0.00751489819959,0.0105320569128,,0.00871513974074,-0.0108556453153,0.0411336804195,-0.999056694269
102676000000,,312,,102,676000000,"""map""",,,-0.0024609840475,-0.00726779922843,0.0103397676721,,0.0087150479561,-0.0108375375639,0.0410795638661,-0.999059138786
102712000000,,313,,102,712000000,"""map""",,,-0.00293709360994,-0.00704135373235,0.0100459465757,,0.00875556186119,-0.0108792350381,0.0410248572567,-0.999060571779
102744000000,,314,,102,744000000,"""map""",,,-0.00330979004502,-0.0068305269815,0.00983127765357,,0.00878173274921,-0.0108729100474,0.0409715414933,-0.999062636975
102776000000,,315,,102,776000000,"""map""",,,-0.00357126235031,-0.00666641350836,0.00962321646512,,0.00878926123002,-0.0108677510097,0.0409183100237,-0.999064786464
102812000000,,316,,102,812000000,"""map""",,,-0.00377610023133,-0.00645230012015,0.00909241102636,,0.00878354926192,-0.0108752357796,0.040825291929,-0.999068537534
102844000000,,317,,102,844000000,"""map""",,,-0.00410415045917,-0.00630415091291,0.00901392567903,,0.00880161478413,-0.0108772664016,0.0407105682073,-0.9990730051
102876000000,,318,,102,876000000,"""map""",,,-0.0045848833397,-0.00618781615049,0.00926322769374,,0.00877579802842,-0.0108434914648,0.0406710766103,-0.999075238883
102912000000,,319,,102,912000000,"""map""",,,-0.00499956076965,-0.00611191941425,0.0093831634149,,0.00875355280653,-0.0107841930715,0.0405983311498,-0.999079032099
102944000000,,320,,102,944000000,"""map""",,,-0.00531241996214,-0.00606322707608,0.00961274653673,,0.00872798489833,-0.0108070174833,0.040523141172,-0.999082066672
102976000000,,321,,102,976000000,"""map""",,,-0.00558749446645,-0.0060508614406,0.00985028687865,,0.00878032404019,-0.0107734297377,0.0404626604444,-0.999084469042
103012000000,,322,,103,12000000,"""map""",,,-0.0058456058614,-0.0060373628512,0.0101341661066,,0.00879773628625,-0.0107454676087,0.040404076325,-0.99908691356
103044000000,,323,,103,44000000,"""map""",,,-0.00618304312229,-0.00588101148605,0.0103642577305,,0.00881963124478,-0.0107105901037,0.0403044411751,-0.999091128244
103076000000,,324,,103,76000000,"""map""",,,-0.00661588134244,-0.00558614265174,0.0105236610398,,0.00877048892491,-0.0106345404784,0.0402476272233,-0.99909466858
103112000000,,325,,103,112000000,"""map""",,,-0.00697615835816,-0.00532066030428,0.0108056664467,,0.00881632008299,-0.0105379302704,0.0401900546282,-0.999097618859
103144000000,,326,,103,144000000,"""map""",,,-0.00729207322001,-0.00506804324687,0.0111034810543,,0.00901529955303,-0.0105429296934,0.0401232940202,-0.999098461796
103176000000,,327,,103,176000000,"""map""",,,-0.00754943676293,-0.00491594197229,0.0114706065506,,0.00900092953564,-0.0105140122632,0.0400780704517,-0.999100695579
103212000000,,328,,103,212000000,"""map""",,,-0.00778587860987,-0.00478495843709,0.0117917014286,,0.00897527206539,-0.0105050882442,0.0400129535708,-0.999103688005
103244000000,,329,,103,244000000,"""map""",,,-0.00797916855663,-0.00467874342576,0.0120183927938,,0.00892837143103,-0.0105176813439,0.0399048890512,-0.999108239865
103276000000,,330,,103,276000000,"""map""",,,-0.00816486682743,-0.00461346656084,0.0121702849865,,0.00889831068523,-0.0105122623458,0.0398541020988,-0.999110642235
103312000000,,331,,103,312000000,"""map""",,,-0.00824281200767,-0.00456530274823,0.0123427435756,,0.00887928895639,-0.0104475277499,0.039786709288,-0.999114140424
103344000000,,332,,103,344000000,"""map""",,,-0.00828076060861,-0.00453128945082,0.0124707808718,,0.00881389375807,-0.0104134129218,0.0397520645785,-0.999116500647
103376000000,,333,,103,376000000,"""map""",,,-0.00828015059233,-0.00448011932895,0.0126205999404,,0.00880055946656,-0.0104511146772,0.0397202437079,-0.999117470025
103412000000,,334,,103,412000000,"""map""",,,-0.0082331225276,-0.00439841859043,0.012789465487,,0.00880980510218,-0.0104570353216,0.0396611116794,-0.999119703808
103444000000,,335,,103,444000000,"""map""",,,-0.00827232468873,-0.00432224059477,0.0128305302933,,0.00874479622253,-0.0104947909953,0.0395406559864,-0.999124592842
103476000000,,336,,103,476000000,"""map""",,,-0.00839176028967,-0.00423650350422,0.0127732921392,,0.00876196464249,-0.0104865669269,0.0394945473341,-0.99912636301
103512000000,,337,,103,512000000,"""map""",,,-0.00845931563526,-0.00416077300906,0.0127136781812,,0.00874182569289,-0.0105401849622,0.0393719000049,-0.999130830576
103544000000,,338,,103,544000000,"""map""",,,-0.00847790483385,-0.0040902546607,0.0126235559583,,0.00872305445791,-0.0105307797118,0.0392590728915,-0.999135508876
103576000000,,339,,103,576000000,"""map""",,,-0.0084468787536,-0.00401087617502,0.0125583680347,,0.0087284145163,-0.0105696856982,0.039209676785,-0.999137026162
103612000000,,340,,103,612000000,"""map""",,,-0.00832870416343,-0.00387135148048,0.0123722851276,,0.00875922978946,-0.0106237462754,0.0390875773649,-0.999140945819
103644000000,,341,,103,644000000,"""map""",,,-0.00828557927161,-0.00380337447859,0.0120974490419,,0.00875472007667,-0.0106049079512,0.0390120080655,-0.999144191127
103676000000,,342,,103,676000000,"""map""",,,-0.00827088486403,-0.00379103375599,0.0115867080167,,0.00875860441913,-0.0106020061571,0.0390269701967,-0.999143558924
103712000000,,343,,103,712000000,"""map""",,,-0.00822781212628,-0.00380260660313,0.0108754774556,,0.00873233656043,-0.0104144709559,0.0388659270886,-0.999152030441
103744000000,,344,,103,744000000,"""map""",,,-0.00809230934829,-0.00386549090035,0.0102654183283,,0.00872644941949,-0.0104977871259,0.0387437855216,-0.999155992244
103776000000,,345,,103,776000000,"""map""",,,-0.00791805703193,-0.00396302016452,0.00968400575221,,0.00875239409747,-0.0105407525452,0.038729750621,-0.99915578151
103812000000,,346,,103,812000000,"""map""",,,-0.00763867236674,-0.0040976065211,0.00910745374858,,0.00883250776554,-0.0105305855235,0.0386635800689,-0.999157804559
103844000000,,347,,103,844000000,"""map""",,,-0.00749341817573,-0.00411573797464,0.00850830692798,,0.00886175348019,-0.0105429150408,0.038576462533,-0.999160796985
103876000000,,348,,103,876000000,"""map""",,,-0.00737383170053,-0.00406815577298,0.00784056261182,,0.00888487045037,-0.0105586416598,0.0385146752531,-0.99916273574
103912000000,,349,,103,912000000,"""map""",,,-0.00717078335583,-0.00405100127682,0.00717218359932,,0.00885150628069,-0.0105689554547,0.0383459614185,-0.999169437089
103944000000,,350,,103,944000000,"""map""",,,-0.00692810863256,-0.00405454169959,0.00639412924647,,0.00885382114695,-0.010595753524,0.038223946292,-0.999173778214
103976000000,,351,,103,976000000,"""map""",,,-0.00667912513018,-0.0041263801977,0.00554612185806,,0.00885845639479,-0.0105937550884,0.0381589558516,-0.999176307025
104012000000,,352,,104,12000000,"""map""",,,-0.00635422021151,-0.00428069196641,0.00461854832247,,0.00884200200172,-0.0106516556386,0.0380503855699,-0.999179931654
104044000000,,353,,104,40000000,"""map""",,,-0.00648543657735,-0.00433376990259,0.00393510656431,,0.00884840099638,-0.0106050314283,0.0379623408033,-0.999183767017
104076000000,,354,,104,76000000,"""map""",,,-0.00694262934849,-0.00432568602264,0.00333900307305,,0.00884911370618,-0.0106411116002,0.0379238185838,-0.999184862836
104112000000,,355,,104,112000000,"""map""",,,-0.00734311435372,-0.0043381312862,0.00268434407189,,0.00885318984973,-0.010619403586,0.0378968024539,-0.999186085094
104144000000,,356,,104,144000000,"""map""",,,-0.00769283343107,-0.00438743829727,0.00203352747485,,0.00877877629596,-0.010606066084,0.0378049223242,-0.999190299779
104176000000,,357,,104,176000000,"""map""",,,-0.00797454454005,-0.00446366006508,0.0013919880148,,0.00880964021909,-0.0106091395936,0.0377944699057,-0.999190384073
104212000000,,358,,104,212000000,"""map""",,,-0.00829741172493,-0.00458707660437,0.000508047000039,,0.00872582767115,-0.0105553584862,0.0377489934562,-0.999193460793
104244000000,,359,,104,244000000,"""map""",,,-0.00861974991858,-0.0046229781583,-4.35790207121e-06,,0.00871096308684,-0.0105525371992,0.0376693359125,-0.999196579659
104276000000,,360,,104,276000000,"""map""",,,-0.00896771904081,-0.00460098590702,-0.000371417874703,,0.00870278857386,-0.0105438766804,0.0376163994708,-0.999198771296
104312000000,,361,,104,312000000,"""map""",,,-0.00924903620034,-0.0045865806751,-0.000680940051097,,0.00873342620464,-0.0105232015109,0.0375688578256,-0.999200457169
104344000000,,362,,104,344000000,"""map""",,,-0.00946194119751,-0.00459981197491,-0.000971340050455,,0.00878541137883,-0.0104616371483,0.0375227913202,-0.999202438071
104376000000,,363,,104,376000000,"""map""",,,-0.00961561035365,-0.0046127922833,-0.00121180666611,,0.00880102884415,-0.0104362179065,0.0375146148316,-0.99920285954
104412000000,,364,,104,412000000,"""map""",,,-0.00974599830806,-0.00466597825289,-0.00153599621262,,0.00873742389908,-0.0104110852962,0.0374536704887,-0.999205978407
104444000000,,365,,104,444000000,"""map""",,,-0.00971532613039,-0.00465044984594,-0.00176025682595,,0.00874627811231,-0.0104443463214,0.0374263593308,-0.999206568463
104476000000,,366,,104,476000000,"""map""",,,-0.0095752151683,-0.00460150651634,-0.00201817112975,,0.00871705108386,-0.010394534838,0.0373813464966,-0.99920901298
104508000000,,367,,104,508000000,"""map""",,,-0.00942567829043,-0.00462187360972,-0.00221791770309,,0.00877706819614,-0.0103935509725,0.0373349006696,-0.999210193091
104544000000,,368,,104,544000000,"""map""",,,-0.00925541017205,-0.00469598639756,-0.00237081083469,,0.00874237376655,-0.0103521545355,0.0372937231986,-0.999212511168
104576000000,,369,,104,576000000,"""map""",,,-0.00906246900558,-0.00478792050853,-0.00251606968231,,0.00877714524585,-0.0103797182451,0.0372662013065,-0.999212974783
104612000000,,370,,104,612000000,"""map""",,,-0.00879033189267,-0.00489648990333,-0.002748984145,,0.00877804210115,-0.0103902668934,0.0371725931559,-0.999216304385
104644000000,,371,,104,644000000,"""map""",,,-0.00855999905616,-0.0049064126797,-0.00280657573603,,0.00900185610777,-0.0104233945632,0.037070471342,-0.999217779524
104676000000,,372,,104,676000000,"""map""",,,-0.00829050596803,-0.00484080612659,-0.00274751335382,,0.00902998789438,-0.0103996118046,0.0370821881659,-0.999217358056
104712000000,,373,,104,712000000,"""map""",,,-0.00798620935529,-0.00484322104603,-0.00264970376156,,0.00902084194593,-0.0103784199246,0.0369682230875,-0.999221825622
104744000000,,374,,104,744000000,"""map""",,,-0.00766793312505,-0.00488446932286,-0.00261945556849,,0.0090637940709,-0.0104100097696,0.0368928223755,-0.999223975111
104776000000,,375,,104,776000000,"""map""",,,-0.00731390994042,-0.00496387202293,-0.00262788357213,,0.00904964289608,-0.0104022999009,0.0368577140507,-0.999225450251
104812000000,,376,,104,812000000,"""map""",,,-0.00682175066322,-0.00506332144141,-0.00261444668286,,0.00901697209145,-0.010473506096,0.0368085286785,-0.999226841097
104844000000,,377,,104,844000000,"""map""",,,-0.00639780517668,-0.00507813459262,-0.00254495535046,,0.00901970233466,-0.0104873896136,0.0367414308957,-0.999229117026
104876000000,,378,,104,876000000,"""map""",,,-0.00593601353467,-0.00502437073737,-0.00257704756223,,0.00900025115248,-0.0105097541967,0.0367436646786,-0.999228990586
104912000000,,379,,104,912000000,"""map""",,,-0.00545004522428,-0.00497647933662,-0.0026179952547,,0.008907679551,-0.010486869775,0.036672352211,-0.999232615215
104948000000,,380,,104,948000000,"""map""",,,-0.00494655454531,-0.00494091911241,-0.00266670272686,,0.00890912480924,-0.0105142977422,0.0365599044191,-0.999236492725
104976000000,,381,,104,976000000,"""map""",,,-0.00441274559125,-0.00493820616975,-0.00269192107953,,0.00887536460735,-0.0105311201794,0.0365262290872,-0.999237799277
105012000000,,382,,105,12000000,"""map""",,,-0.00377034465782,-0.00494505418465,-0.00268153776415,,0.00888298783626,-0.010523460072,0.0364958412094,-0.999238937242
105044000000,,383,,105,44000000,"""map""",,,-0.00340248132125,-0.00488761207089,-0.00258535752073,,0.00888545087504,-0.0105031452087,0.0364406709847,-0.999241171025
105076000000,,384,,105,76000000,"""map""",,,-0.00316120730713,-0.00476841116324,-0.00237865000963,,0.00891805179163,-0.0105077099099,0.0363652702727,-0.999243573396
105112000000,,385,,105,112000000,"""map""",,,-0.00290541606955,-0.00465568993241,-0.00229189079255,,0.00898914010723,-0.0105104694584,0.0363048738388,-0.999245048535
105144000000,,386,,105,144000000,"""map""",,,-0.00259744352661,-0.00456509320065,-0.00224978197366,,0.00893039620843,-0.0105169604846,0.0362191050021,-0.999248631017
105176000000,,387,,105,176000000,"""map""",,,-0.00229039462283,-0.00445413263515,-0.00214304425754,,0.0089617077772,-0.0104783614623,0.0361764102445,-0.999250359038
105212000000,,388,,105,212000000,"""map""",,,-0.00187530508265,-0.00433860253543,-0.00208135927096,,0.00900513615332,-0.0105016265227,0.0361600151205,-0.999250232598
105248000000,,389,,105,244000000,"""map""",,,-0.00167778576724,-0.0041962354444,-0.00256990944035,,0.00898442097728,-0.0105151240509,0.0361480032686,-0.999250780507
105276000000,,390,,105,276000000,"""map""",,,-0.00158067978919,-0.00401009665802,-0.00350875779986,,0.00895099054156,-0.0104718445882,0.0361659156793,-0.999250906947
105312000000,,391,,105,312000000,"""map""",,,-0.00146422861144,-0.00385643052869,-0.00441615050659,,0.00896638327857,-0.0104680422345,0.0361794448176,-0.999250274744
105344000000,,392,,105,344000000,"""map""",,,-0.00130007148255,-0.00369291985407,-0.00530636170879,,0.00917454429962,-0.0104574037361,0.0361793605239,-0.999248504577
105376000000,,393,,105,376000000,"""map""",,,-0.0010541966185,-0.00353850331157,-0.00606235396117,,0.00916164765209,-0.010441911847,0.0361775482094,-0.999248883898
105412000000,,394,,105,412000000,"""map""",,,-0.000711685686838,-0.00335714872926,-0.00690069235861,,0.00909222174979,-0.0104384869216,0.0361425241783,-0.999250780507
105444000000,,395,,105,444000000,"""map""",,,-0.000552801939193,-0.0033594716806,-0.00740611366928,,0.00909849154625,-0.0104526451758,0.0361279413688,-0.999251117681
105476000000,,396,,105,476000000,"""map""",,,-0.000500637688674,-0.00348504493013,-0.00774046871811,,0.00910870598316,-0.0104647633003,0.0361222093974,-0.999251117681
105512000000,,397,,105,512000000,"""map""",,,-0.000395832001232,-0.00360903819092,-0.00808218214661,,0.00900583906727,-0.0104536269422,0.0360841086463,-0.999253477905
105548000000,,398,,105,544000000,"""map""",,,-0.000189532962395,-0.00378858833574,-0.00853533577174,,0.00906276497163,-0.010443074425,0.0360356397705,-0.999254910898
105576000000,,399,,105,576000000,"""map""",,,-2.98690320051e-05,-0.00390109908767,-0.0088125038892,,0.00906177563198,-0.0103829995666,0.0359960217329,-0.999256933946
105612000000,,400,,105,612000000,"""map""",,,0.000269306998234,-0.00408116402104,-0.00929996557534,,0.00904236375668,-0.0103753347259,0.0359366789702,-0.999259378464
105644000000,,401,,105,644000000,"""map""",,,0.000386407453334,-0.00415483489633,-0.00955045595765,,0.00901995188187,-0.0103688075209,0.0359178393289,-0.999260263548
105676000000,,402,,105,676000000,"""map""",,,0.000364208128303,-0.00415740488097,-0.00972103700042,,0.00898844077412,-0.0103557509705,0.0358952064713,-0.999261485806
105712000000,,403,,105,712000000,"""map""",,,0.000381249352358,-0.00420062243938,-0.00988574512303,,0.00896919690998,-0.0103392121602,0.0358446723999,-0.999263635295
105744000000,,404,,105,744000000,"""map""",,,0.000462211930426,-0.00423683365807,-0.0101398946717,,0.00900832544322,-0.0103266585321,0.0357420869706,-0.999267175631
105776000000,,405,,105,776000000,"""map""",,,0.000599981634878,-0.00429333094507,-0.0104588642716,,0.0089834823044,-0.0102587061643,0.0357174310643,-0.999268903651
105812000000,,406,,105,812000000,"""map""",,,0.000869076466188,-0.00437825731933,-0.0109446663409,,0.00899842484393,-0.0102678136702,0.0356801311033,-0.999270041616
105844000000,,407,,105,844000000,"""map""",,,0.000873573939316,-0.00442240433767,-0.011215897277,,0.00898989385257,-0.0101634148151,0.0356626401612,-0.999271769637
105876000000,,408,,105,876000000,"""map""",,,0.000721203221474,-0.00441903062165,-0.0113912681118,,0.00899900374571,-0.0101621099915,0.0356255930813,-0.999273076189
105912000000,,409,,105,912000000,"""map""",,,0.000654501549434,-0.00437691342086,-0.0116346403956,,0.00897003680118,-0.00994766966625,0.0355528476208,-0.999278049518
105944000000,,410,,105,944000000,"""map""",,,0.000688209896907,-0.00434442982078,-0.0117695853114,,0.00897065064698,-0.0100179046728,0.0355487593765,-0.999277501609
105976000000,,411,,105,976000000,"""map""",,,0.000741113908589,-0.00435820221901,-0.0118994573131,,0.00896234479554,-0.0100287261643,0.0355260422252,-0.999278218105
106012000000,,412,,106,12000000,"""map""",,,0.000846080598421,-0.00441285828128,-0.0120798470452,,0.0089257304206,-0.0100261742631,0.03545376038,-0.999281210531
106044000000,,413,,106,44000000,"""map""",,,0.000802205759101,-0.00442486116663,-0.0121728451923,,0.00895442769114,-0.0100089870335,0.035445415304,-0.999281379119
106076000000,,414,,106,76000000,"""map""",,,0.000654229253996,-0.00437511084601,-0.0121677620336,,0.0089551395366,-0.010023278149,0.0353644090611,-0.999284076517
106112000000,,415,,106,112000000,"""map""",,,0.000564033689443,-0.00433214427903,-0.0120785301551,,0.00900675213923,-0.0100762516339,0.035339963889,-0.999283992223
106144000000,,416,,106,144000000,"""map""",,,0.000544812821317,-0.00433699321002,-0.0119681339711,,0.00894219819036,-0.0101067456608,0.0352469879412,-0.999287532559
106176000000,,417,,106,176000000,"""map""",,,0.000561958528124,-0.00435616727918,-0.0119129940867,,0.00896369345353,-0.0101913787964,0.0351970439257,-0.999288249055
106212000000,,418,,106,212000000,"""map""",,,0.000640785438009,-0.00440587708727,-0.01199933514,,0.00890869552054,-0.010168025738,0.035125183549,-0.999291494362
106252000000,,419,,106,252000000,"""map""",,,0.00058445421746,-0.0045525492169,-0.011640499346,,0.00889213283805,-0.0101916308954,0.035097071601,-0.999292379446
106276000000,,420,,106,276000000,"""map""",,,0.000398003088776,-0.00473703863099,-0.0110325487331,,0.00890341913846,-0.0101959718562,0.0350349049995,-0.999294444642
106312000000,,421,,106,312000000,"""map""",,,0.000276550039416,-0.00490605318919,-0.01055746153,,0.0088810929156,-0.010219895708,0.0349689030347,-0.999296720571
106340000000,,422,,106,340000000,"""map""",,,0.000219394103624,-0.00507009588182,-0.0102322539315,,0.0088561486902,-0.0102027523539,0.0349598414623,-0.999297437068
106376000000,,423,,106,376000000,"""map""",,,0.000215591280721,-0.00526010151953,-0.00989828258753,,0.00887727364556,-0.010175360689,0.0349745507124,-0.999296973453
106412000000,,424,,106,412000000,"""map""",,,0.000256512576016,-0.00539485225454,-0.00959662348032,,0.0088333665899,-0.010091834114,0.0349357756118,-0.999299586557
106444000000,,425,,106,444000000,"""map""",,,0.000177703928784,-0.00544159766287,-0.00929332431406,,0.00884059819062,-0.0100631023522,0.0349141121316,-0.999300598082
106476000000,,426,,106,476000000,"""map""",,,2.27784039453e-06,-0.00541869318113,-0.00898029096425,,0.00876529152702,-0.0100135226353,0.0348851993936,-0.999302705424
106512000000,,427,,106,512000000,"""map""",,,-8.75531404745e-05,-0.00538267567754,-0.00866244267672,,0.00878187026153,-0.0100206317468,0.0347950894314,-0.999305655703
106544000000,,428,,106,544000000,"""map""",,,-0.000111175497295,-0.00535219721496,-0.00840040296316,,0.00873103659358,-0.00996562545849,0.0347452297097,-0.999308395249
106576000000,,429,,106,576000000,"""map""",,,-6.66411870043e-05,-0.00534907681867,-0.00810769852251,,0.00876081622318,-0.00996869402894,0.0347579159111,-0.999307678752
106612000000,,430,,106,612000000,"""map""",,,4.06802828365e-05,-0.00538773881271,-0.0077304453589,,0.00874137413715,-0.00990865769539,0.0347056116721,-0.99931024971
106644000000,,431,,106,644000000,"""map""",,,5.11531688971e-05,-0.00547738000751,-0.00743582006544,,0.00866739958561,-0.00993067967069,0.0347206159501,-0.999310165416
106676000000,,432,,106,676000000,"""map""",,,-5.49821561435e-06,-0.0056146774441,-0.00713465176523,,0.00870448872998,-0.00995071004277,0.0346997532601,-0.99931037615
106712000000,,433,,106,712000000,"""map""",,,8.71210067999e-06,-0.00577979022637,-0.00692092161626,,0.00866569576634,-0.0098560818891,0.0347116386714,-0.999311219087
106744000000,,434,,106,744000000,"""map""",,,9.91272027022e-05,-0.00595159875229,-0.00678276689723,,0.00868143967221,-0.009774847049,0.0347021556305,-0.999312188465
106776000000,,435,,106,776000000,"""map""",,,0.000289371819235,-0.00614764960483,-0.00661631021649,,0.0086633422929,-0.00974964644399,0.0346707983752,-0.999313705751
106812000000,,436,,106,812000000,"""map""",,,0.00056675914675,-0.00636326009408,-0.00646072858945,,0.00864586674425,-0.00967744140155,0.0346754766754,-0.999314422248
106844000000,,437,,106,844000000,"""map""",,,0.000653856201097,-0.00630134204403,-0.00642683636397,,0.00883517787541,-0.00967810850714,0.0346353528756,-0.999314169367
106876000000,,438,,106,876000000,"""map""",,,0.000571466865949,-0.00610329816118,-0.00614772411063,,0.00885761094712,-0.00967597046007,0.0346223294994,-0.999314380101
106912000000,,439,,106,912000000,"""map""",,,0.000477682391647,-0.00592993060127,-0.00596019765362,,0.00880680530847,-0.00969389892271,0.0346280614708,-0.999314464395
106944000000,,440,,106,944000000,"""map""",,,0.000422978831921,-0.00578962359577,-0.00573189929128,,0.00882415643337,-0.00965449709351,0.0345808991473,-0.999316276709
106976000000,,441,,106,976000000,"""map""",,,0.000430448737461,-0.00566223496571,-0.00547564821318,,0.00880964133039,-0.00964927693467,0.0345649254917,-0.999317077499
107012000000,,442,,107,12000000,"""map""",,,0.000466151192086,-0.00558452261612,-0.00528574828058,,0.00876166829746,-0.009649538418,0.0345659370161,-0.999317414674
107044000000,,443,,107,40000000,"""map""",,,0.000300343206618,-0.0053872349672,-0.0050169788301,,0.0087237812441,-0.00960993453911,0.0345503005353,-0.999318721226
107076000000,,444,,107,76000000,"""map""",,,1.37438473757e-05,-0.00507691595703,-0.00467483652756,,0.00870421670994,-0.00961962880817,0.0345253917478,-0.999319690604
107112000000,,445,,107,112000000,"""map""",,,-0.000172170781298,-0.00478437589481,-0.0043282462284,,0.00868814896481,-0.00963985460333,0.0344950881637,-0.999320659981
107144000000,,446,,107,144000000,"""map""",,,-0.000295330857625,-0.00448683043942,-0.00398315489292,,0.00868045271978,-0.00959012971853,0.0344831606056,-0.999321629359
107176000000,,447,,107,176000000,"""map""",,,-0.000357564800652,-0.00420687021688,-0.00369225745089,,0.00875045888211,-0.00955880250933,0.034504191883,-0.999320575688
107212000000,,448,,107,212000000,"""map""",,,-0.000400083430577,-0.00391193106771,-0.00352823454887,,0.00875805325854,-0.00952314755142,0.0345423769278,-0.99931947987
107244000000,,449,,107,244000000,"""map""",,,-0.000415457587224,-0.00370551226661,-0.00348560907878,,0.00880572694183,-0.00951363388818,0.0345293114047,-0.999319648457
107276000000,,450,,107,276000000,"""map""",,,-0.000393126159906,-0.00353348325007,-0.0036068262998,,0.00877659830405,-0.00944771084586,0.0344714437817,-0.999322472296
107312000000,,451,,107,312000000,"""map""",,,-0.000326933164615,-0.00339414272457,-0.00386783760041,,0.0088002636566,-0.00940210279031,0.0344656696635,-0.999322935911
107344000000,,452,,107,344000000,"""map""",,,-0.000666471838485,-0.00327528407797,-0.0044056638144,,0.00883512823762,-0.00912900183099,0.0344559337415,-0.999325506869
107376000000,,453,,107,376000000,"""map""",,,-0.00129357818514,-0.00316805532202,-0.00484628649428,,0.00887619764558,-0.00914878325266,0.034423522815,-0.999326054778
107412000000,,454,,107,412000000,"""map""",,,-0.00196228269488,-0.00307046435773,-0.00536066899076,,0.00888325824081,-0.00917384777562,0.034373157331,-0.999327529918
107452000000,,455,,107,444000000,"""map""",,,-0.00239954725839,-0.00302744028158,-0.00581552507356,,0.00890096495916,-0.00918379729242,0.0343721879535,-0.999327319183
107476000000,,456,,107,476000000,"""map""",,,-0.00276262429543,-0.00298355286941,-0.00626897579059,,0.00891023239878,-0.00920207545248,0.0343722301003,-0.999327024156
107512000000,,457,,107,512000000,"""map""",,,-0.00306861405261,-0.0029635806568,-0.0066801677458,,0.00895711521128,-0.00921377017397,0.0342829209283,-0.999329595113
107544000000,,458,,107,544000000,"""map""",,,-0.0033809505403,-0.00280983303674,-0.00690835528076,,0.00899380407378,-0.00927134273816,0.0342309538641,-0.999330480197
107576000000,,459,,107,576000000,"""map""",,,-0.00369955948554,-0.00254643568769,-0.00690902257338,,0.00896875140462,-0.00928088009871,0.0342281300253,-0.999330690931
107612000000,,460,,107,612000000,"""map""",,,-0.00403270963579,-0.00221848068759,-0.00695649627596,,0.00897186388147,-0.00924721774213,0.0342166239356,-0.999331407428
107644000000,,461,,107,644000000,"""map""",,,-0.00426330603659,-0.00195871619508,-0.00709614157677,,0.00891187739151,-0.00923285455714,0.0342073937758,-0.999332376805
107676000000,,462,,107,676000000,"""map""",,,-0.00445516267791,-0.00170171132777,-0.007266826462,,0.00888662880537,-0.00922589636558,0.0341987958187,-0.999332966861
107712000000,,463,,107,712000000,"""map""",,,-0.00459767319262,-0.00142960867379,-0.00762293068692,,0.00887475775859,-0.00922565019341,0.0341789867999,-0.999333725504
107744000000,,464,,107,744000000,"""map""",,,-0.00471164938062,-0.00125328800641,-0.00792260188609,,0.00895462795041,-0.00917367462986,0.0341355755459,-0.99933498991
107776000000,,465,,107,776000000,"""map""",,,-0.00479622976854,-0.00118797575124,-0.00815510563552,,0.00889652482572,-0.00915472936421,0.034151422761,-0.999335158497
107812000000,,466,,107,812000000,"""map""",,,-0.00484939245507,-0.00110500003211,-0.00868944171816,,0.00892933455237,-0.00917751001365,0.0341077586259,-0.999336170022
107844000000,,467,,107,844000000,"""map""",,,-0.00485670845956,-0.00106289773248,-0.00919811241329,,0.00885744814257,-0.00920988243588,0.0340413773395,-0.999338740979
107876000000,,468,,107,876000000,"""map""",,,-0.00482298713177,-0.00102355179843,-0.00980879087001,,0.00886792807581,-0.00920598794772,0.0340185337476,-0.999339499623
107912000000,,469,,107,908000000,"""map""",,,-0.00477179465815,-0.000986109953374,-0.0104441242293,,0.00884793757655,-0.00919285102405,0.0339559878244,-0.99934194414
107944000000,,470,,107,944000000,"""map""",,,-0.00474954769015,-0.000921985309105,-0.011267580092,,0.00894791135208,-0.00927332898043,0.0339078982703,-0.999341901993
107976000000,,471,,107,976000000,"""map""",,,-0.00476947426796,-0.000854851445183,-0.0120846116915,,0.00889905454213,-0.00923320720773,0.033878774798,-0.999343714308
108012000000,,472,,108,12000000,"""map""",,,-0.00472875824198,-0.000780829112045,-0.0131404576823,,0.00895302605119,-0.0092477717427,0.0337945653946,-0.999345990237
108044000000,,473,,108,44000000,"""map""",,,-0.00466496124864,-0.000698891934007,-0.0140708917752,,0.00898899452773,-0.00922033405171,0.0337294485137,-0.999348055433
108076000000,,474,,108,76000000,"""map""",,,-0.00458825193346,-0.000604343891609,-0.0150547837839,,0.00900606115111,-0.00923422955692,0.0337153293194,-0.999348266167
108112000000,,475,,108,112000000,"""map""",,,-0.00447096396238,-0.000528289936483,-0.0159750431776,,0.00900284260744,-0.00919094695579,0.0336986391674,-0.999349277692
108144000000,,476,,108,144000000,"""map""",,,-0.00456919101998,-0.000457398797153,-0.0168303512037,,0.00907914182109,-0.00921630330658,0.0336714123033,-0.999349277692
108176000000,,477,,108,176000000,"""map""",,,-0.00485942466184,-0.000422881770646,-0.0176590457559,,0.00910813893004,-0.00923323309161,0.0336943401889,-0.99934809758
108212000000,,478,,108,212000000,"""map""",,,-0.00516405887902,-0.000375844363589,-0.0186641514301,,0.0091040208763,-0.00914481905653,0.0336806424631,-0.999349404132
108244000000,,479,,108,244000000,"""map""",,,-0.00536442780867,-0.000338688667398,-0.0193391814828,,0.00910200650699,-0.00915922196513,0.0336380741461,-0.999350668538
108276000000,,480,,108,276000000,"""map""",,,-0.00553457811475,-0.000264495349256,-0.0199861377478,,0.00910746045941,-0.00916158493601,0.0335956744165,-0.999352017237
108312000000,,481,,108,312000000,"""map""",,,-0.00563412252814,-0.000185870187124,-0.0206280779094,,0.00912010463358,-0.0091218587775,0.0335707234822,-0.999353113055
108344000000,,482,,108,344000000,"""map""",,,-0.00598961813375,6.23631567578e-05,-0.0211445856839,,0.0091004886172,-0.00914040268342,0.0335442552613,-0.999354040285
108376000000,,483,,108,376000000,"""map""",,,-0.006638887804,0.000434953806689,-0.0215427894145,,0.00913489675228,-0.00910220923451,0.0335502401138,-0.999353871698
108412000000,,484,,108,412000000,"""map""",,,-0.00733605865389,0.000907487643417,-0.0221311729401,,0.00906052208029,-0.00906612623617,0.0335092733771,-0.999356231922
108444000000,,485,,108,444000000,"""map""",,,-0.00779958441854,0.00129306153394,-0.022545710206,,0.00926978330477,-0.00907592984228,0.0334371601193,-0.999356611243
108476000000,,486,,108,476000000,"""map""",,,-0.0081928819418,0.00167911837343,-0.0229384060949,,0.00927060612012,-0.00912193744398,0.0334136421778,-0.999357032712
108512000000,,487,,108,512000000,"""map""",,,-0.00853809062392,0.00207809102722,-0.0232514496893,,0.00924322629873,-0.00915887933163,0.0333839286496,-0.999357917796
108544000000,,488,,108,544000000,"""map""",,,-0.00882810167968,0.00233966624364,-0.0233337208629,,0.00926356672693,-0.0091468879307,0.0332955045614,-0.999360783781
108576000000,,489,,108,576000000,"""map""",,,-0.00905716884881,0.00247513619252,-0.0232352130115,,0.00926060579249,-0.0090947787392,0.0333089915529,-0.999360868075
108612000000,,490,,108,612000000,"""map""",,,-0.00932754762471,0.00263402657583,-0.0232004784048,,0.00930084014029,-0.00914188188114,0.0332750633399,-0.999361163103
108644000000,,491,,108,644000000,"""map""",,,-0.00950995273888,0.00272889621556,-0.0232399441302,,0.00929062087748,-0.00913170602054,0.0332436639378,-0.999362385361
108676000000,,492,,108,676000000,"""map""",,,-0.00963006075472,0.00281460117549,-0.0233249925077,,0.00927150192072,-0.00916051216701,0.0332544113841,-0.99936200604
108712000000,,493,,108,712000000,"""map""",,,-0.00970629788935,0.00288534141146,-0.0234310701489,,0.0092144870614,-0.00915194126169,0.0331980189008,-0.999364450557
108744000000,,494,,108,744000000,"""map""",,,-0.00974764861166,0.0028978260234,-0.0232098251581,,0.00914409734352,-0.00913960988683,0.0331344193064,-0.999367274396
108776000000,,495,,108,776000000,"""map""",,,-0.009770703502,0.00287069613114,-0.0225889869034,,0.00914114170155,-0.00915273872436,0.0331140202317,-0.999367864452
108812000000,,496,,108,812000000,"""map""",,,-0.00981628056616,0.00287283817306,-0.0218845829368,,0.00907633218468,-0.0091390602726,0.0330363014431,-0.999371151906
108844000000,,497,,108,844000000,"""map""",,,-0.00982217025012,0.00286044878885,-0.0213929172605,,0.00902073270472,-0.00918209867461,0.0329225892458,-0.999375029416
108876000000,,498,,108,876000000,"""map""",,,-0.00980364903808,0.00287629966624,-0.0209242887795,,0.0090377075486,-0.00915360193601,0.0329249916162,-0.999375071563
108912000000,,499,,108,912000000,"""map""",,,-0.00976805854589,0.00289875874296,-0.0204281378537,,0.0089779695563,-0.00913189377775,0.0328984812485,-0.99937671529
108944000000,,500,,108,944000000,"""map""",,,-0.00962792336941,0.0029466364067,-0.0198792256415,,0.00897968710726,-0.00910789239773,0.0328498016384,-0.999378527604
108976000000,,501,,108,976000000,"""map""",,,-0.00944920163602,0.00304274144582,-0.0193653274328,,0.00898024459091,-0.00914416467423,0.0328335329549,-0.999378696192
109012000000,,502,,109,12000000,"""map""",,,-0.00920463260263,0.00314982095733,-0.018870247528,,0.00899968913619,-0.00888759142251,0.0328061375034,-0.999381730765
109040000000,,503,,109,40000000,"""map""",,,-0.00900843646377,0.00325316004455,-0.0186260268092,,0.00900516234076,-0.00889075568771,0.0328349659477,-0.999380719241
109076000000,,504,,109,76000000,"""map""",,,-0.00879487767816,0.00336207658984,-0.0184605419636,,0.00901248164623,-0.00890115122951,0.0328141032577,-0.99938126715
109112000000,,505,,109,112000000,"""map""",,,-0.00854643806815,0.00345841795206,-0.0183652285486,,0.00895983234277,-0.00891132572929,0.0328675876085,-0.999379876304
109144000000,,506,,109,144000000,"""map""",,,-0.00835151225328,0.00360682280734,-0.0182520020753,,0.00894420677554,-0.00892316993395,0.0328932550392,-0.999379075513
109176000000,,507,,109,176000000,"""map""",,,-0.00819363538176,0.00381167186424,-0.018082851544,,0.00897055389496,-0.00893200621342,0.0328795573135,-0.999379201954
109212000000,,508,,109,212000000,"""map""",,,-0.00799032580107,0.00408238219097,-0.0178257077932,,0.00898259049108,-0.00889498180449,0.0328745839853,-0.999379539129
109244000000,,509,,109,244000000,"""map""",,,-0.00781453773379,0.00431793369353,-0.0177602134645,,0.00903790729853,-0.00895000149517,0.0328514032187,-0.999379370541
109276000000,,510,,109,276000000,"""map""",,,-0.00761830573902,0.00455724587664,-0.017745802179,,0.00902942853799,-0.0089422576703,0.0328516560998,-0.999379454835
109312000000,,511,,109,312000000,"""map""",,,-0.00739979511127,0.00481468206272,-0.0177629552782,,0.00910167814023,-0.00900627673183,0.0328426366742,-0.999378527604
109344000000,,512,,109,344000000,"""map""",,,-0.00720396731049,0.0050195613876,-0.017950059846,,0.00903175999392,-0.00899704177955,0.0328467670653,-0.99937911766
109376000000,,513,,109,376000000,"""map""",,,-0.0070084775798,0.00519603351131,-0.0181343536824,,0.00902887684956,-0.00902481527213,0.0328249771446,-0.999379665569
109412000000,,514,,109,412000000,"""map""",,,-0.00674102921039,0.00543566560373,-0.0183050967753,,0.00900604718791,-0.00895935255451,0.0327775197932,-0.999381941499
109444000000,,515,,109,444000000,"""map""",,,-0.00649803876877,0.0056786169298,-0.0184931959957,,0.00910078930065,-0.00895858079179,0.032774232339,-0.999381182856
109476000000,,516,,109,476000000,"""map""",,,-0.00622593518347,0.00595891010016,-0.0186033416539,,0.00909957691507,-0.00896719126638,0.0327681631929,-0.999381351443
109512000000,,517,,109,512000000,"""map""",,,-0.00592324137688,0.00629970757291,-0.018748184666,,0.00904391846708,-0.00891633540856,0.0327730943741,-0.999382152233
109540000000,,518,,109,540000000,"""map""",,,-0.00568409124389,0.00658871699125,-0.0186575762928,,0.00898975448295,-0.00888194227852,0.0327177134152,-0.999384765338
109576000000,,519,,109,576000000,"""map""",,,-0.00547941727564,0.00681255152449,-0.0183917805552,,0.00896667619197,-0.00885386088085,0.0326804556011,-0.999386451212
109612000000,,520,,109,612000000,"""map""",,,-0.00518921809271,0.00709888478741,-0.0182107165456,,0.00899964336735,-0.00889358121408,0.0326248639079,-0.999387589177
109644000000,,521,,109,644000000,"""map""",,,-0.00495063886046,0.00732498476282,-0.0183325726539,,0.00891895917111,-0.00891146528896,0.0326068250568,-0.999388769289
109676000000,,522,,109,676000000,"""map""",,,-0.00472304411232,0.00756841339171,-0.0184412542731,,0.00898055303669,-0.00893293495925,0.0325978056312,-0.99938834782
109712000000,,523,,109,712000000,"""map""",,,-0.00448444997892,0.00783774908632,-0.0185590684414,,0.00895293281054,-0.00890515315303,0.0325434361966,-0.999390539456
109744000000,,524,,109,744000000,"""map""",,,-0.00435807742178,0.00816205982119,-0.0187985338271,,0.00903045395867,-0.00893094973567,0.0325677127813,-0.999388853582
109776000000,,525,,109,776000000,"""map""",,,-0.00431188195944,0.00853787269443,-0.0191199705005,,0.00902700415269,-0.00890084011353,0.0325515283915,-0.999389696519
109812000000,,526,,109,812000000,"""map""",,,-0.00420042127371,0.00905863568187,-0.0195459239185,,0.00907812625285,-0.00884991952799,0.0325347960927,-0.999390244428
109844000000,,527,,109,844000000,"""map""",,,-0.00405622413382,0.00951825454831,-0.0199406724423,,0.00909930566161,-0.0088145945832,0.0324841355807,-0.999392014596
109876000000,,528,,109,876000000,"""map""",,,-0.0038755654823,0.0100032659248,-0.0203241854906,,0.00908158505208,-0.00881351901538,0.0324644108556,-0.999392773239
109912000000,,529,,109,912000000,"""map""",,,-0.00369504885748,0.0105044227093,-0.0207372475415,,0.00912375115273,-0.00859434932187,0.0324416937043,-0.999395091316
109944000000,,530,,109,944000000,"""map""",,,-0.00343062845059,0.010804628022,-0.0209343619645,,0.00914115498177,-0.00858277492882,0.0324405978862,-0.999395091316
109976000000,,531,,109,976000000,"""map""",,,-0.00314711243846,0.0109662078321,-0.0209532566369,,0.00915035083554,-0.00858272757535,0.0324500387803,-0.999394669847
110012000000,,532,,110,12000000,"""map""",,,-0.0027957635466,0.0112341102213,-0.0209840368479,,0.00915975678559,-0.00862169698777,0.0323904009897,-0.999396144987
110044000000,,533,,110,44000000,"""map""",,,-0.00247669476084,0.0114817321301,-0.0210136529058,,0.00916254098829,-0.00863312022428,0.032393646297,-0.999395934253
110076000000,,534,,110,76000000,"""map""",,,-0.00213387398981,0.0117833539844,-0.0210358705372,,0.00916923708943,-0.0086869601685,0.0323541968468,-0.999396692896
110112000000,,535,,110,112000000,"""map""",,,-0.00180188345257,0.0121461618692,-0.0211408175528,,0.00915599913063,-0.00873239305121,0.0322756351212,-0.999398968826
110144000000,,536,,110,144000000,"""map""",,,-0.00156626466196,0.0125253293663,-0.0211960412562,,0.00917218354104,-0.00872981548742,0.0322708303804,-0.999398968826
110176000000,,537,,110,176000000,"""map""",,,-0.00143329356797,0.0129416398704,-0.0211272090673,,0.009202709672,-0.0087436634025,0.0322221929172,-0.999400148938
110212000000,,538,,110,212000000,"""map""",,,-0.001284103957,0.0135010704398,-0.0210404582322,,0.00913306272512,-0.00872598339635,0.0321400065626,-0.999403604979
110244000000,,539,,110,244000000,"""map""",,,-0.00119488406926,0.0139589365572,-0.0210169777274,,0.00911136347779,-0.00873577879316,0.0321272782144,-0.999404110741
110276000000,,540,,110,276000000,"""map""",,,-0.00109114299994,0.0144523642957,-0.0210024788976,,0.00908740736755,-0.00875817546999,0.0321354968499,-0.999403900007
110312000000,,541,,110,312000000,"""map""",,,-0.000962032354437,0.0149656850845,-0.0210502985865,,0.00916226569611,-0.00875751930242,0.0320969324835,-0.999404447916
110344000000,,542,,110,344000000,"""map""",,,-0.000925644533709,0.0152554539964,-0.0208648163825,,0.00911142763443,-0.00877318713611,0.0320964267213,-0.999404785091
110376000000,,543,,110,376000000,"""map""",,,-0.000957645068411,0.0153680723161,-0.0205814912915,,0.00911585460727,-0.00873311051487,0.0321162778869,-0.999404490063
110412000000,,544,,110,412000000,"""map""",,,-0.000959594151936,0.0155928684399,-0.0202178750187,,0.00914769867101,-0.00869876134782,0.0320546170476,-0.999406470965
110444000000,,545,,110,444000000,"""map""",,,-0.000929705740418,0.0158310867846,-0.0199383366853,,0.00920871498053,-0.00864718066402,0.0319706183785,-0.999409041923
110476000000,,546,,110,476000000,"""map""",,,-0.000906760746147,0.0160806495696,-0.0196913462132,,0.00917091872399,-0.00863304541774,0.0319603766943,-0.999409758419
110512000000,,547,,110,512000000,"""map""",,,-0.000888698676135,0.0163660217077,-0.0194055717438,,0.00919714410657,-0.00858370644002,0.0318700559979,-0.999412919433
110544000000,,548,,110,544000000,"""map""",,,-0.000849507574458,0.0164917968214,-0.0191333405674,,0.00921096590624,-0.00857947963384,0.0318231465555,-0.999414225985
110576000000,,549,,110,576000000,"""map""",,,-0.000749168044422,0.0165129937232,-0.0188064426184,,0.00922608571771,-0.0085461655547,0.0317694514705,-0.999416080446
110612000000,,550,,110,612000000,"""map""",,,-0.000599777325988,0.0166577938944,-0.0185224991292,,0.00919143687175,-0.00848931227545,0.0317087600087,-0.999418862138
110644000000,,551,,110,644000000,"""map""",,,-0.000415673101088,0.0168790593743,-0.0182329770178,,0.00916630829505,-0.00841513497453,0.031659701077,-0.999421306656
110676000000,,552,,110,676000000,"""map""",,,-0.000224627394346,0.0171684343368,-0.0180607102811,,0.00918175741993,-0.00844790711269,0.0316655173421,-0.9994207166
110712000000,,553,,110,712000000,"""map""",,,-2.40774334088e-05,0.0174778141081,-0.0179145634174,,0.00918565065275,-0.00849448209679,0.031661386951,-0.999420379425
110744000000,,554,,110,744000000,"""map""",,,0.000128918531118,0.017662813887,-0.0177267901599,,0.00916089075808,-0.00850465523061,0.0316594481959,-0.999420632306
110776000000,,555,,110,776000000,"""map""",,,0.000219697700231,0.0177862923592,-0.0175259262323,,0.00912675390989,-0.0085227604713,0.0316077761597,-0.99942231818
110812000000,,556,,110,812000000,"""map""",,,0.000371326110326,0.0180557388812,-0.0174307879061,,0.00918366215703,-0.00852484990954,0.0315858597984,-0.999422486767
110844000000,,557,,110,844000000,"""map""",,,0.000539460976142,0.0183208491653,-0.0173256285489,,0.00918987762357,-0.00855029726294,0.0315131986316,-0.999424509816
110876000000,,558,,110,876000000,"""map""",,,0.00069856463233,0.018620185554,-0.0173329617828,,0.00921736977825,-0.00856046726868,0.0315448509148,-0.999423203264
110912000000,,559,,110,912000000,"""map""",,,0.000864349829499,0.0190414488316,-0.0175068564713,,0.00923687666917,-0.00854824783127,0.0315228924068,-0.999423835467
110944000000,,560,,110,944000000,"""map""",,,0.00086203974206,0.0190804749727,-0.0176522862166,,0.00923923962977,-0.00859561420066,0.0314526336103,-0.999425563487
110976000000,,561,,110,976000000,"""map""",,,0.000820506247692,0.0190319884568,-0.0178753621876,,0.00920507639864,-0.00857528287375,0.0314461429956,-0.999426322131
111012000000,,562,,111,12000000,"""map""",,,0.00079434044892,0.0190877988935,-0.0181291308254,,0.00925303233,-0.00858935129833,0.0314311387175,-0.999426237837
111044000000,,563,,111,44000000,"""map""",,,0.000808368320577,0.0191928073764,-0.0182957854122,,0.00921925539697,-0.00854977822697,0.0314245638092,-0.999427080774
111076000000,,564,,111,76000000,"""map""",,,0.000873265729751,0.0193765386939,-0.0184275452048,,0.00926839767567,-0.00855413215283,0.0314124676637,-0.999426954333
111112000000,,565,,111,112000000,"""map""",,,0.000949231965933,0.0196032337844,-0.0185608752072,,0.00919135630294,-0.00851741127889,0.0313851565058,-0.999428808795
111144000000,,566,,111,144000000,"""map""",,,0.000918905774597,0.0195788554847,-0.0184465162456,,0.00923946678646,-0.00856856716033,0.0313874324356,-0.999427881564
111176000000,,567,,111,176000000,"""map""",,,0.000803481787443,0.0193296968937,-0.0182668473572,,0.00923800426201,-0.00856310311365,0.031372596745,-0.999428387326
111212000000,,568,,111,212000000,"""map""",,,0.000744268414564,0.0191704705358,-0.017956988886,,0.00919064030043,-0.00851356620215,0.0314002872244,-0.999428429473
111244000000,,569,,111,244000000,"""map""",,,0.000759528717026,0.0191407091916,-0.0176987461746,,0.00922529359156,-0.0084834226238,0.0313762635208,-0.999429103823
111276000000,,570,,111,276000000,"""map""",,,0.000812031794339,0.0191768966615,-0.0174630023539,,0.00922801967771,-0.00848896653959,0.0313442319159,-0.999430031053
111312000000,,571,,111,312000000,"""map""",,,0.000864641042426,0.0192983206362,-0.0172159727663,,0.00921063854788,-0.0084629548547,0.0313385420914,-0.999430578962
111344000000,,572,,111,344000000,"""map""",,,0.00086282362463,0.0192590225488,-0.0168925970793,,0.00909019118954,-0.00841259157274,0.0313258980368,-0.999432517717
111376000000,,573,,111,376000000,"""map""",,,0.000816089217551,0.0190944634378,-0.0165993049741,,0.00912618799378,-0.00839795136688,0.0313253922746,-0.99943234913
111412000000,,574,,111,412000000,"""map""",,,0.00078791420674,0.0189902614802,-0.0163206830621,,0.00906027213371,-0.0083231362656,0.0313428832168,-0.999432981333
111444000000,,575,,111,444000000,"""map""",,,0.000794470775872,0.018968494609,-0.0161472856998,,0.00903963415143,-0.00839729020878,0.0313112309335,-0.999433529242
111476000000,,576,,111,476000000,"""map""",,,0.000808861572295,0.0190001875162,-0.016016189009,,0.00906416153873,-0.0083330697098,0.0312908318589,-0.999434540766
111512000000,,577,,111,512000000,"""map""",,,0.000846180191729,0.0191124659032,-0.0159509927034,,0.00897950239067,-0.00832305254813,0.0312695055535,-0.999436058053
111544000000,,578,,111,544000000,"""map""",,,0.000748364487663,0.0191530548036,-0.0157159026712,,0.00894002038367,-0.00824224349821,0.0312851841812,-0.999436563815
111576000000,,579,,111,576000000,"""map""",,,0.000590126554016,0.0191323384643,-0.015514398925,,0.00915851549093,-0.00826823040536,0.0312518038771,-0.999435383703
111612000000,,580,,111,612000000,"""map""",,,0.000433943409007,0.0192052945495,-0.0151135921478,,0.0091911101102,-0.00826280206414,0.0312420258083,-0.999435467997
111644000000,,581,,111,644000000,"""map""",,,0.000299524515867,0.0193110182881,-0.0147084509954,,0.00906493466999,-0.00824486689258,0.031215389,-0.999437575339
111676000000,,582,,111,676000000,"""map""",,,0.000203457806492,0.0194656550884,-0.0144063020125,,0.00909617544522,-0.00828430901648,0.0312088983853,-0.999437153871
111712000000,,583,,111,712000000,"""map""",,,0.000108505293611,0.0196674279869,-0.0141226043925,,0.00912018577218,-0.00832979884271,0.0311764031651,-0.999437617486
111744000000,,584,,111,744000000,"""map""",,,-0.000106415398477,0.0196312442422,-0.013722917065,,0.00911153208576,-0.00835920458367,0.031176445312,-0.999437406752
111776000000,,585,,111,776000000,"""map""",,,-0.000466253724881,0.0193748734891,-0.0133142974228,,0.00908001328127,-0.00837159793856,0.0311857597655,-0.999437364605
111812000000,,586,,111,812000000,"""map""",,,-0.000874179066159,0.0191726144403,-0.0128650246188,,0.00899895279083,-0.00834958304261,0.0312027027986,-0.99943770178
111844000000,,587,,111,844000000,"""map""",,,-0.00117981876247,0.0191065594554,-0.0125553384423,,0.00899889780236,-0.0083664467211,0.0311761502841,-0.999438376129
111876000000,,588,,111,876000000,"""map""",,,-0.00149449706078,0.0191149450839,-0.0124470125884,,0.00903594305062,-0.00837325263453,0.0311941048415,-0.999437448899
111908000000,,589,,111,912000000,"""map""",,,-0.00181216641795,0.0192170143127,-0.0124471727759,,0.00906368775712,-0.00840416975572,0.0311391874979,-0.999438671157
111944000000,,590,,111,944000000,"""map""",,,-0.00214505149052,0.0191649515182,-0.0124657992274,,0.00897419281384,-0.00845586292716,0.0311173132835,-0.999439724828
111976000000,,591,,111,976000000,"""map""",,,-0.00249906699173,0.0189612600952,-0.0125729348511,,0.00902033902372,-0.0084631444332,0.0311012974811,-0.999439724828
112012000000,,592,,112,12000000,"""map""",,,-0.00293398881331,0.0188191849738,-0.0126644652337,,0.00896505721689,-0.00843995144229,0.0310455793474,-0.999442169346
112044000000,,593,,112,44000000,"""map""",,,-0.00324776466005,0.0187860485166,-0.0126584684476,,0.0089917131641,-0.00845091550864,0.0310167930498,-0.999442717255
112076000000,,594,,112,76000000,"""map""",,,-0.00357237528078,0.0188055299222,-0.0126398168504,,0.00894596496205,-0.00840520373233,0.0310163715813,-0.999443560192
112112000000,,595,,112,112000000,"""map""",,,-0.00385880703107,0.0188607312739,-0.0125061813742,,0.00897727799196,-0.00835373528921,0.0309794509421,-0.999444824597
112144000000,,596,,112,144000000,"""map""",,,-0.00416824407876,0.018806533888,-0.0126536525786,,0.00903954325171,-0.00813309666073,0.03089321849,-0.999448786401
