rosbagTimestamp,header,seq,stamp,secs,nsecs,frame_id,pose,position,x,y,z,orientation,x,y,z,w
125016000000,,437,,125,16000000,"""map""",,,-0.0165677722543,0.0208262484521,-0.0234513729811,,0.00983203365467,-0.0105857976893,0.0305001148339,-0.999430368228
125048000000,,438,,125,48000000,"""map""",,,-0.016294516623,0.0208405852318,-0.0227162446827,,0.00985668330487,-0.010598610002,0.0304913482894,-0.999430283934
125080000000,,439,,125,80000000,"""map""",,,-0.0160176474601,0.0208466071635,-0.0218231324106,,0.00979531798735,-0.0105733912047,0.0304520674266,-0.999432306983
125116000000,,440,,125,116000000,"""map""",,,-0.015799112618,0.0210191179067,-0.0207748692483,,0.00979642483603,-0.0105974605125,0.0304675774669,-0.99943154834
125148000000,,441,,125,148000000,"""map""",,,-0.0157473161817,0.0212777890265,-0.0199890322983,,0.00978140220103,-0.0105378845427,0.0304993140438,-0.999431421899
125180000000,,442,,125,180000000,"""map""",,,-0.0157591868192,0.0216570291668,-0.019251447171,,0.00979825966451,-0.0105455196666,0.0305599633588,-0.99942927241
125216000000,,443,,125,216000000,"""map""",,,-0.0158542376012,0.0221267584711,-0.0186897795647,,0.00976380716771,-0.0105233728971,0.0306017308857,-0.999428640207
125248000000,,444,,125,248000000,"""map""",,,-0.0156792532653,0.022148296237,-0.0181368365884,,0.00973734203377,-0.0104927132463,0.0305917842295,-0.999429483144
125280000000,,445,,125,280000000,"""map""",,,-0.015510186553,0.0221061129123,-0.0176662914455,,0.00971451568751,-0.0104580973893,0.0306139956186,-0.999429440997
125316000000,,446,,125,316000000,"""map""",,,-0.0154323754832,0.0222201608121,-0.017205035314,,0.009744980615,-0.0104567559341,0.0306827792754,-0.99942699648
125348000000,,447,,125,348000000,"""map""",,,-0.0154754789546,0.0224208328873,-0.016930019483,,0.00975837512218,-0.0104737875003,0.0307282978718,-0.999425310606
125380000000,,448,,125,380000000,"""map""",,,-0.0155904591084,0.0227394215763,-0.0167388971895,,0.00969625017356,-0.0104482601749,0.0307436814715,-0.999425689928
125416000000,,449,,125,416000000,"""map""",,,-0.0157611109316,0.0231579467654,-0.0165588967502,,0.00965116950927,-0.0104756786755,0.0307598658613,-0.999425352753
125448000000,,450,,125,448000000,"""map""",,,-0.0155964531004,0.023124601692,-0.0161156598479,,0.00969802474522,-0.0104628952153,0.0307438500589,-0.999425521341
125480000000,,451,,125,480000000,"""map""",,,-0.0154053317383,0.0230502560735,-0.0155667755753,,0.00963772561125,-0.0105700339859,0.0307770617755,-0.99942391976
125516000000,,452,,125,516000000,"""map""",,,-0.0153653584421,0.0231435783207,-0.015011404641,,0.00965138296001,-0.0103521330093,0.0307869662849,-0.999425816368
125548000000,,453,,125,548000000,"""map""",,,-0.0153811909258,0.0233299471438,-0.0145319281146,,0.00966381716524,-0.0103348874779,0.0308374160626,-0.999424256935
125580000000,,454,,125,580000000,"""map""",,,-0.0154951764271,0.0235967617482,-0.0141174402088,,0.00965900297851,-0.0103794421915,0.0308367838598,-0.999423877613
125616000000,,455,,125,616000000,"""map""",,,-0.0156811736524,0.0239686835557,-0.0136582255363,,0.00962516663242,-0.0104702400033,0.0308675510593,-0.999422360327
125648000000,,456,,125,648000000,"""map""",,,-0.0156684089452,0.0239201691002,-0.0130844349042,,0.0096084479572,-0.0105026280866,0.0308873179312,-0.999421559537
125680000000,,457,,125,680000000,"""map""",,,-0.0156766865402,0.0238447263837,-0.0124789960682,,0.00957904201044,-0.0104568559094,0.0309172843405,-0.999421348803
125716000000,,458,,125,716000000,"""map""",,,-0.0158251915127,0.0239463374019,-0.0117969084531,,0.00962245721567,-0.0104274400433,0.0308806587291,-0.999422402474
125748000000,,459,,125,748000000,"""map""",,,-0.0160438455641,0.0241385903209,-0.011203317903,,0.00962202516932,-0.0104577015217,0.030888498043,-0.999421812418
125780000000,,460,,125,780000000,"""map""",,,-0.0163459498435,0.024435274303,-0.0105493366718,,0.00957619166517,-0.0104762462585,0.0309502010292,-0.999420210838
125816000000,,461,,125,816000000,"""map""",,,-0.0167249776423,0.024814253673,-0.0100642489269,,0.00961826306918,-0.0104728050754,0.0309454384353,-0.999420000103
125848000000,,462,,125,848000000,"""map""",,,-0.0168210119009,0.0246629212052,-0.00956742186099,,0.00959087436773,-0.0104625619094,0.0309758684599,-0.999419325754
125880000000,,463,,125,880000000,"""map""",,,-0.0168585442007,0.0244373399764,-0.00915230810642,,0.00957442248535,-0.0104918211654,0.0309456491695,-0.999420210838
125916000000,,464,,125,916000000,"""map""",,,-0.0170679613948,0.0243203490973,-0.00864685606211,,0.00958738860933,-0.0104441484288,0.0309755312851,-0.999419662929
125948000000,,465,,125,948000000,"""map""",,,-0.0173325296491,0.0243434812874,-0.00826653558761,,0.00960933839169,-0.0104738851707,0.0309623814684,-0.999419494341
125980000000,,466,,125,980000000,"""map""",,,-0.017668094486,0.0244391243905,-0.0079402839765,,0.00959123673184,-0.0104447428475,0.031000060751,-0.999418819992
126016000000,,467,,126,16000000,"""map""",,,-0.0180703718215,0.024601995945,-0.00758157297969,,0.00965557969952,-0.0104447186048,0.0310022945339,-0.999418103495
126048000000,,468,,126,48000000,"""map""",,,-0.0181677509099,0.024264620617,-0.00749521143734,,0.0096529551527,-0.0104717527624,0.0310064249251,-0.99941776632
126080000000,,469,,126,80000000,"""map""",,,-0.0182233788073,0.0238754190505,-0.00746635068208,,0.00955684794923,-0.0104472304171,0.0310772316306,-0.999416754796
126116000000,,470,,126,112000000,"""map""",,,-0.0184213276953,0.0235836934298,-0.00753020402044,,0.00956863729533,-0.010420571136,0.0311042477605,-0.9994160383
126148000000,,471,,126,148000000,"""map""",,,-0.0186819825321,0.0234958361834,-0.00745696621016,,0.00956973377193,-0.0104318315885,0.0311021404181,-0.9994160383
126180000000,,472,,126,180000000,"""map""",,,-0.0190304554999,0.023537715897,-0.00745471240953,,0.00950886347409,-0.0103824681212,0.0311012131874,-0.999417134118
126216000000,,473,,126,216000000,"""map""",,,-0.0194476507604,0.0237030237913,-0.00743525428697,,0.00950468303355,-0.0104292221471,0.0311264591497,-0.999415911859
126248000000,,474,,126,248000000,"""map""",,,-0.0194909311831,0.0235292706639,-0.0071036904119,,0.00947931235942,-0.0103633988948,0.03114972421,-0.999416080446
126280000000,,475,,126,280000000,"""map""",,,-0.0195067897439,0.0233230683953,-0.0066811949946,,0.00949618307611,-0.0103585505667,0.0311224973459,-0.99941683909
126316000000,,476,,126,316000000,"""map""",,,-0.0197059437633,0.0232110507786,-0.00622703880072,,0.00943762591584,-0.0103507369772,0.031111623459,-0.99941776632
126348000000,,477,,126,348000000,"""map""",,,-0.0200064666569,0.0232293810695,-0.00587577279657,,0.00946433936222,-0.0103539491104,0.0311094739697,-0.999417555586
126380000000,,478,,126,380000000,"""map""",,,-0.0204221438617,0.0233590137213,-0.005578271579,,0.0094616236893,-0.0102836493195,0.0310798868821,-0.99941924146
126416000000,,479,,126,416000000,"""map""",,,-0.0209180153906,0.0235660672188,-0.00530169578269,,0.00944265834834,-0.0103787898208,0.0310851552381,-0.999418272083
126448000000,,480,,126,448000000,"""map""",,,-0.0211858674884,0.0233849678189,-0.00477391434833,,0.00949149946641,-0.0103578933804,0.0311018032433,-0.999417471292
126480000000,,481,,126,480000000,"""map""",,,-0.0214045681059,0.0231680050492,-0.00426617311314,,0.0096391560934,-0.0102978442464,0.0310733541205,-0.999417597733
126516000000,,482,,126,516000000,"""map""",,,-0.0217925570905,0.0230344180018,-0.00342049519531,,0.00965310089683,-0.0103566488548,0.0310834693642,-0.999416586209
126548000000,,483,,126,548000000,"""map""",,,-0.0222199074924,0.0230269655585,-0.00268255453557,,0.00959897788138,-0.0103436885754,0.0311041634668,-0.999416544062
126580000000,,484,,126,580000000,"""map""",,,-0.0227162670344,0.0231150407344,-0.00211555487476,,0.00955088799795,-0.0103770718428,0.0311568470274,-0.999415026775
126616000000,,485,,126,616000000,"""map""",,,-0.0232788473368,0.0233108066022,-0.00155266863294,,0.00950038850018,-0.0103899895226,0.0311711348091,-0.999414900335
126648000000,,486,,126,648000000,"""map""",,,-0.0233409740031,0.0229005161673,-0.000766265497077,,0.00950552099028,-0.0104180568954,0.0311619046493,-0.999414858188
126680000000,,487,,126,680000000,"""map""",,,-0.0233283210546,0.0223738476634,-3.91128705814e-05,,0.00945697963343,-0.0104270882159,0.0312096148818,-0.99941376237
126716000000,,488,,126,716000000,"""map""",,,-0.0235014650971,0.0218910574913,0.000646753818728,,0.00946564838406,-0.0104163279279,0.0312215002931,-0.999413425195
126748000000,,489,,126,748000000,"""map""",,,-0.0237979181111,0.0216303374618,0.00111826730426,,0.0094561418825,-0.0104604014307,0.0312408035497,-0.999412413671
126780000000,,490,,126,780000000,"""map""",,,-0.0241951327771,0.021474942565,0.00148961949162,,0.0094251377717,-0.0104579488463,0.0313128746606,-0.999410474916
126816000000,,491,,126,816000000,"""map""",,,-0.0246732607484,0.0214299466461,0.00192080601119,,0.00932845763451,-0.0105151149959,0.0313460442304,-0.999409758419
126848000000,,492,,126,848000000,"""map""",,,-0.0246312674135,0.0210984162986,0.00224070483819,,0.00930902555012,-0.0105008783338,0.0313910992115,-0.999408704748
126880000000,,493,,126,880000000,"""map""",,,-0.0245079509914,0.0207636617124,0.00252725020982,,0.00929536634921,-0.0105375457628,0.0313558644461,-0.999409547685
126916000000,,494,,126,916000000,"""map""",,,-0.0244867932051,0.0204875711352,0.00291717215441,,0.0092791791194,-0.0104847188452,0.0313433468321,-0.99941068565
126948000000,,495,,126,948000000,"""map""",,,-0.0245835501701,0.0203845184296,0.00319482502528,,0.00929376003567,-0.0105152311056,0.031359784103,-0.999409674125
126980000000,,496,,126,980000000,"""map""",,,-0.0248309392482,0.0203664302826,0.00332499132492,,0.00925299526629,-0.010502345571,0.0313421667203,-0.99941068565
127016000000,,497,,127,16000000,"""map""",,,-0.0251723546535,0.020460113883,0.00351407681592,,0.00930709597355,-0.0104637325135,0.0313935015818,-0.999408999776
127048000000,,498,,127,48000000,"""map""",,,-0.0251206811517,0.0202709399164,0.00384221272543,,0.00926666689723,-0.0104349617329,0.031448545366,-0.999407988252
127080000000,,499,,127,80000000,"""map""",,,-0.025033371523,0.0200664103031,0.0039797918871,,0.00929296303218,-0.0104667900533,0.0314800712087,-0.999406386671
127116000000,,500,,127,116000000,"""map""",,,-0.0250861495733,0.0199980996549,0.00407416885719,,0.00936387695696,-0.0104199907113,0.0314404953179,-0.999407524636
127148000000,,501,,127,148000000,"""map""",,,-0.0252345539629,0.020081140101,0.00426364317536,,0.00949191422597,-0.0104139896422,0.0314376714791,-0.999406386671
127180000000,,502,,127,180000000,"""map""",,,-0.0254804566503,0.0202664285898,0.00453329924494,,0.00954597826053,-0.0104206908264,0.0314339625564,-0.999405965203
127216000000,,503,,127,216000000,"""map""",,,-0.0258754827082,0.0205307677388,0.00489073013887,,0.00949658178365,-0.0103986141508,0.0313989385253,-0.999407777517
127248000000,,504,,127,248000000,"""map""",,,-0.0260983146727,0.0204691868275,0.00551560381427,,0.00952901320735,-0.0104348478458,0.0314000764902,-0.999406976727
127280000000,,505,,127,280000000,"""map""",,,-0.0263615846634,0.0203753057867,0.00616606930271,,0.00954285836477,-0.0103855479692,0.031349500272,-0.999408999776
127316000000,,506,,127,316000000,"""map""",,,-0.0268556792289,0.020359184593,0.00683931587264,,0.00956023793056,-0.0103809270447,0.031307479864,-0.999410222035
127348000000,,507,,127,348000000,"""map""",,,-0.0273917783052,0.0204227212816,0.0072640334256,,0.00953636614489,-0.0103294850463,0.031291632649,-0.99941148644
127380000000,,508,,127,380000000,"""map""",,,-0.0280291289091,0.0205875914544,0.00775016378611,,0.00951645908528,-0.0103783825522,0.0312963109492,-0.999411022825
127416000000,,509,,127,416000000,"""map""",,,-0.0287500750273,0.0208196267486,0.00825876183808,,0.00947033598619,-0.0103563555143,0.0313086599758,-0.999411233559
127448000000,,510,,127,448000000,"""map""",,,-0.0295413862914,0.0211030784994,0.00878164172173,,0.00944987303269,-0.0103632366459,0.0312964795366,-0.999411781468
127480000000,,511,,127,480000000,"""map""",,,-0.0303981211036,0.021461950615,0.00930501427501,,0.00943889719486,-0.0103440340231,0.0313215990583,-0.999411275706
127516000000,,512,,127,516000000,"""map""",,,-0.0315737985075,0.021971412003,0.00976814329624,,0.00950330638741,-0.0103451381553,0.0313275417639,-0.999410474916
127548000000,,513,,127,548000000,"""map""",,,-0.0321739241481,0.0219523869455,0.0100717460737,,0.00945115814114,-0.0103097948124,0.0313437683006,-0.999410854237
127580000000,,514,,127,580000000,"""map""",,,-0.0327367410064,0.0218657441437,0.0104741277173,,0.00950665862591,-0.0103358300403,0.0313413237834,-0.999410095594
127612000000,,515,,127,612000000,"""map""",,,-0.0334038510919,0.0218812953681,0.0110040102154,,0.00944316690933,-0.0103426856121,0.0313508489711,-0.999410348475
127648000000,,516,,127,648000000,"""map""",,,-0.034169703722,0.0219747237861,0.0115706846118,,0.00944187657369,-0.0103613733765,0.0313628186761,-0.999409842713
127680000000,,517,,127,680000000,"""map""",,,-0.0350104831159,0.0221516899765,0.0123646650463,,0.00943319156524,-0.0103421769276,0.0313622707671,-0.999410053447
127716000000,,518,,127,716000000,"""map""",,,-0.0361815243959,0.0224645920098,0.0134478798136,,0.00942640065427,-0.0103708776144,0.0313444426502,-0.999410432769
127748000000,,519,,127,748000000,"""map""",,,-0.0365073718131,0.0222674533725,0.0146489487961,,0.00941003701686,-0.0103391293071,0.031350891118,-0.999410643503
127780000000,,520,,127,780000000,"""map""",,,-0.0367287918925,0.0219645854086,0.016016472131,,0.0095968871672,-0.0103566031271,0.0313068898081,-0.999410137741
127816000000,,521,,127,816000000,"""map""",,,-0.0370933227241,0.0217389054596,0.0172369461507,,0.00959081509872,-0.0103546370013,0.0312909582994,-0.999410727797
127848000000,,522,,127,848000000,"""map""",,,-0.0375990793109,0.0216136407107,0.018299145624,,0.00958625192035,-0.0103822466033,0.0312859849713,-0.999410559209
127880000000,,523,,127,880000000,"""map""",,,-0.0382569096982,0.0215728785843,0.0193046182394,,0.00959657345306,-0.0103564808848,0.0312927706139,-0.999410601356
127916000000,,524,,127,916000000,"""map""",,,-0.0392330400646,0.0216255281121,0.0204750411212,,0.00961943009237,-0.0103848550569,0.031372301717,-0.999407524636
127948000000,,525,,127,948000000,"""map""",,,-0.0393836982548,0.0212238915265,0.0213786195964,,0.00961009526512,-0.0104411296196,0.031393459435,-0.999406428818
127980000000,,526,,127,980000000,"""map""",,,-0.0394529104233,0.0207636132836,0.0221976172179,,0.00953787367675,-0.0104747763049,0.0313635351725,-0.999407693224
128016000000,,527,,128,16000000,"""map""",,,-0.0398459546268,0.0205121859908,0.0229812469333,,0.00957159136135,-0.0104935301296,0.0313954403369,-0.99940613379
128048000000,,528,,128,48000000,"""map""",,,-0.0402321889997,0.0202648285776,0.0236358232796,,0.00951124728173,-0.0104618808098,0.0314097702653,-0.999406639552
128080000000,,529,,128,80000000,"""map""",,,-0.0407895334065,0.0201310981065,0.0242706667632,,0.00955360103669,-0.0104814434095,0.0314271769138,-0.999405417294
128116000000,,530,,128,116000000,"""map""",,,-0.0414253771305,0.0200631506741,0.0249097906053,,0.00949256136943,-0.0104515367631,0.031442139045,-0.999405880909
128148000000,,531,,128,148000000,"""map""",,,-0.0416458696127,0.0197247695178,0.0255634170026,,0.00951778588783,-0.0104398150413,0.0314257439209,-0.999406260231
128180000000,,532,,128,180000000,"""map""",,,-0.041520703584,0.0191627107561,0.0261029023677,,0.00951364286085,-0.0104608800279,0.0314264182705,-0.999406091643
128216000000,,533,,128,216000000,"""map""",,,-0.0415946170688,0.0185974910855,0.0267528928816,,0.00955465396704,-0.0104630799782,0.0313911413583,-0.999406723846
128248000000,,534,,128,248000000,"""map""",,,-0.0418214388192,0.0182712711394,0.0271897166967,,0.0095572060328,-0.0104802104907,0.0314145328592,-0.999405838762
128280000000,,535,,128,280000000,"""map""",,,-0.0421954356134,0.0180326327682,0.0276416316628,,0.00945607388778,-0.01050103445,0.0314390623251,-0.999405838762
128316000000,,536,,128,316000000,"""map""",,,-0.0427234917879,0.0178911034018,0.0281097646803,,0.00946755878052,-0.0104919190004,0.0314382193881,-0.999405838762
128348000000,,537,,128,348000000,"""map""",,,-0.042616777122,0.0174835529178,0.0284698866308,,0.00945319962912,-0.0104785178666,0.031438514416,-0.999406049497
128380000000,,538,,128,380000000,"""map""",,,-0.0424339026213,0.0171029437333,0.0287639312446,,0.00945177569125,-0.0105162038993,0.0314411696675,-0.999405585881
128416000000,,539,,128,416000000,"""map""",,,-0.0423810780048,0.0167395509779,0.0291692595929,,0.00939826302308,-0.0104627649881,0.0314610208331,-0.999406049497
128448000000,,540,,128,448000000,"""map""",,,-0.0425043925643,0.0165296029299,0.0298977289349,,0.00939999153778,-0.0104869739074,0.0315017768356,-0.999404490063
128480000000,,541,,128,480000000,"""map""",,,-0.042775079608,0.016378633678,0.0307481624186,,0.00940617354203,-0.0104020141749,0.0315142523028,-0.999404911532
128516000000,,542,,128,516000000,"""map""",,,-0.0431755036116,0.0163060426712,0.0314641147852,,0.00954581691713,-0.0104195601055,0.0315302681052,-0.999402888483
128548000000,,543,,128,548000000,"""map""",,,-0.0431333221495,0.0160661097616,0.0320485979319,,0.00952465829368,-0.010449433907,0.0315760395827,-0.999401371196
128580000000,,544,,128,580000000,"""map""",,,-0.0427217036486,0.0157329346985,0.0324882045388,,0.00950563059678,-0.0104302291439,0.0316048258803,-0.999400823287
128616000000,,545,,128,616000000,"""map""",,,-0.0424737632275,0.0154649848118,0.0329105071723,,0.00939250084095,-0.0104810935165,0.0316085348029,-0.999401244756
128648000000,,546,,128,648000000,"""map""",,,-0.0424829050899,0.0153199397027,0.0331437066197,,0.00936885888732,-0.0105031233532,0.0316260678919,-0.999400738994
128680000000,,547,,128,680000000,"""map""",,,-0.0426593385637,0.0152483861893,0.0333780199289,,0.0093097293284,-0.0105025532183,0.0316650958736,-0.99939998035
128716000000,,548,,128,716000000,"""map""",,,-0.0429589934647,0.0152515396476,0.033667460084,,0.00937748285693,-0.0105309590417,0.0316385012122,-0.999399938203
128748000000,,549,,128,748000000,"""map""",,,-0.0428445748985,0.0151441153139,0.0337718985975,,0.00934193795827,-0.010523086101,0.0316666974539,-0.999399474588
128780000000,,550,,128,780000000,"""map""",,,-0.0423891730607,0.0149020003155,0.0337703116238,,0.0093487761198,-0.0105432917282,0.0317429832497,-0.99939677719
128816000000,,551,,128,816000000,"""map""",,,-0.0421291664243,0.0147332521155,0.0337665863335,,0.00929754860107,-0.0105583519826,0.0317831070495,-0.999395765665
128848000000,,552,,128,848000000,"""map""",,,-0.042114071548,0.0147021785378,0.0337738618255,,0.00931785679661,-0.0105567859637,0.0317884596992,-0.999395470638
128880000000,,553,,128,880000000,"""map""",,,-0.0422288067639,0.0147535195574,0.0337560325861,,0.00931650842673,-0.010533860383,0.0317749305608,-0.999396187134
128916000000,,554,,128,916000000,"""map""",,,-0.0424568764865,0.0148523626849,0.0338012948632,,0.00926278049682,-0.0105195277381,0.031796046132,-0.999396144987
128948000000,,555,,128,948000000,"""map""",,,-0.0422983542085,0.014819807373,0.0338755659759,,0.00922359911538,-0.0105121078759,0.0317695779111,-0.999397409393
128980000000,,556,,128,980000000,"""map""",,,-0.0417957566679,0.0146580319852,0.0339416451752,,0.00920898658898,-0.0105624767349,0.031811893347,-0.999395639225
129016000000,,557,,129,16000000,"""map""",,,-0.0414603315294,0.0145472837612,0.0340511128306,,0.00917142465081,-0.0105757844789,0.0318250853106,-0.999395428491
129048000000,,558,,129,48000000,"""map""",,,-0.041408367455,0.0145025113598,0.0342180803418,,0.00916458998779,-0.0105438387729,0.0318218400032,-0.9993959764
129080000000,,559,,129,80000000,"""map""",,,-0.0414977446198,0.0145082585514,0.0343888811767,,0.00917841872276,-0.0105768984069,0.0318348633794,-0.999395091316
129116000000,,560,,129,116000000,"""map""",,,-0.0417029187083,0.0145974112675,0.0342907682061,,0.00932553130967,-0.0106175684694,0.0318824050246,-0.999391719568
129148000000,,561,,129,148000000,"""map""",,,-0.0415627211332,0.0143685033545,0.0343453362584,,0.0093152555458,-0.0106452074177,0.0319014132532,-0.999390918778
129180000000,,562,,129,180000000,"""map""",,,-0.0411138795316,0.013898476027,0.0345480851829,,0.00927786614629,-0.0106123511917,0.0319144787763,-0.999391255953
129216000000,,563,,129,216000000,"""map""",,,-0.0408037081361,0.0134083256125,0.0347386486828,,0.00924403724998,-0.0106833707305,0.0319334448581,-0.999390160135
129248000000,,564,,129,248000000,"""map""",,,-0.0407358594239,0.0131048643962,0.0348683074117,,0.00925057058773,-0.0107018041322,0.0319470582902,-0.999389527932
129280000000,,565,,129,280000000,"""map""",,,-0.0408095233142,0.0128775751218,0.0349260643125,,0.00920977070969,-0.0106307633964,0.0319173026151,-0.999391550981
129316000000,,566,,129,316000000,"""map""",,,-0.0410097539425,0.0126977283508,0.0349878966808,,0.00921945584145,-0.0106173061217,0.0319524952336,-0.999390497309
129348000000,,567,,129,348000000,"""map""",,,-0.0410666354001,0.0124847861007,0.034797988832,,0.00918909636341,-0.0106686257543,0.031979384923,-0.999389401491
129380000000,,568,,129,380000000,"""map""",,,-0.0405734889209,0.0121112652123,0.0338944271207,,0.00914719589286,-0.0107131893789,0.0320264208059,-0.999387799911
129416000000,,569,,129,416000000,"""map""",,,-0.0401693582535,0.0117651373148,0.0329731851816,,0.00906396714463,-0.0106895929883,0.0320596325225,-0.999387715617
129448000000,,570,,129,448000000,"""map""",,,-0.0400599576533,0.0115969255567,0.0322726666927,,0.00906899891858,-0.0107110834359,0.0320724451645,-0.999387041268
129480000000,,571,,129,480000000,"""map""",,,-0.0401111356914,0.0114708170295,0.0315155498683,,0.00905309531566,-0.0107139162474,0.0321014000494,-0.999386240478
129516000000,,572,,129,516000000,"""map""",,,-0.0402982234955,0.0114106433466,0.030668400228,,0.00903147628728,-0.0106577901453,0.0321021165458,-0.999386956974
129548000000,,573,,129,548000000,"""map""",,,-0.0403774045408,0.0113426791504,0.0296761542559,,0.00904247645011,-0.0106951482228,0.0321332630669,-0.999385481834
129580000000,,574,,129,580000000,"""map""",,,-0.039966929704,0.0111281424761,0.0283929556608,,0.0090672727911,-0.010723221152,0.0321500375126,-0.999384386016
129616000000,,575,,129,616000000,"""map""",,,-0.0397246666253,0.0109886555001,0.0269332230091,,0.0090154361187,-0.0106730084504,0.0321074691956,-0.999386830534
129648000000,,576,,129,648000000,"""map""",,,-0.0397469066083,0.0109646506608,0.0258937627077,,0.00899525543385,-0.0106509421879,0.0320605597532,-0.999388727142
129680000000,,577,,129,680000000,"""map""",,,-0.0399054139853,0.0110072307289,0.0248561985791,,0.00901745595703,-0.0105878460508,0.0320847941911,-0.999388432114
129716000000,,578,,129,716000000,"""map""",,,-0.0402010753751,0.0111126620322,0.0237557087094,,0.00905927970714,-0.0104879413093,0.0320888402886,-0.999388937876
129748000000,,579,,129,748000000,"""map""",,,-0.040412273258,0.0112092299387,0.022532152012,,0.0090804921666,-0.0103412392426,0.0321295962911,-0.999388980023
129780000000,,580,,129,780000000,"""map""",,,-0.0400864370167,0.0111314756796,0.0212729722261,,0.00909486041415,-0.0104034070377,0.0321011050215,-0.99938914861
129816000000,,581,,129,816000000,"""map""",,,-0.0399233400822,0.0111541943625,0.0198784284294,,0.00918378289705,-0.0104580801848,0.0321465393242,-0.999386282625
129848000000,,582,,129,848000000,"""map""",,,-0.0399436987936,0.0112275965512,0.0187863763422,,0.00919300359029,-0.0104810530984,0.0321395008005,-0.999386156184
129880000000,,583,,129,880000000,"""map""",,,-0.0401090420783,0.0113579351455,0.0175611339509,,0.00919919703675,-0.0105138151937,0.0321210826277,-0.999386366918
129916000000,,584,,129,916000000,"""map""",,,-0.0404054373503,0.0115532614291,0.0162397045642,,0.00921054701019,-0.0105508392657,0.0321459492683,-0.999385102513
129948000000,,585,,129,948000000,"""map""",,,-0.0408244729042,0.0118157258257,0.0147848119959,,0.00922621580083,-0.0105661062618,0.0320966374555,-0.999386366918
129980000000,,586,,129,980000000,"""map""",,,-0.0403552763164,0.0117677692324,0.0128763141111,,0.00925229091178,-0.0105705099078,0.0321242014945,-0.999385186807
130016000000,,587,,130,16000000,"""map""",,,-0.0400280840695,0.0117911659181,0.0106471544132,,0.00919768835245,-0.0104926738982,0.032114044104,-0.999386830534
130048000000,,588,,130,48000000,"""map""",,,-0.0399519652128,0.01189505402,0.00897309556603,,0.00919920423958,-0.0104668089864,0.0321339374165,-0.999386493359
130080000000,,589,,130,80000000,"""map""",,,-0.0400120019913,0.0120670376346,0.00741780921817,,0.00915178113248,-0.0105111856667,0.032094277232,-0.999387715617
130116000000,,590,,130,116000000,"""map""",,,-0.0402201637626,0.0123057551682,0.00589037919417,,0.0091653494954,-0.0105638998085,0.0320971010709,-0.999386914827
130148000000,,591,,130,148000000,"""map""",,,-0.0405605882406,0.0126119814813,0.00445759948343,,0.00920576959906,-0.0105600355104,0.0321042238883,-0.999386366918
130180000000,,592,,130,180000000,"""map""",,,-0.0400201752782,0.0124994721264,0.00313543272205,,0.0091585433556,-0.0106123904985,0.0321171208239,-0.999385861156
130216000000,,593,,130,216000000,"""map""",,,-0.0396145395935,0.0124962227419,0.0015203487128,,0.00908865671909,-0.010585316993,0.0321671069862,-0.999385186807
130248000000,,594,,130,248000000,"""map""",,,-0.0395006015897,0.0126016596332,0.000215547974221,,0.00909711802821,-0.0106314463894,0.0321636509447,-0.999384681044
130280000000,,595,,130,280000000,"""map""",,,-0.0395209789276,0.0127649204805,-0.00108284084126,,0.00909254550673,-0.0105736731852,0.0321829963481,-0.999384723191
130316000000,,596,,130,316000000,"""map""",,,-0.0396273769438,0.0129489330575,-0.0022261175327,,0.00910459596573,-0.0106016003291,0.032188601879,-0.999384175282
130348000000,,597,,130,348000000,"""map""",,,-0.0398692078888,0.0131777292117,-0.00339867291041,,0.00908813243535,-0.0106780309224,0.0322053763247,-0.999382910877
130380000000,,598,,130,380000000,"""map""",,,-0.0392733439803,0.0131024383008,-0.00395310390741,,0.00911063288439,-0.0104618643873,0.0321805939778,-0.999385776862
130416000000,,599,,130,416000000,"""map""",,,-0.0388306193054,0.0131444651634,-0.00465611042455,,0.0091040708588,-0.0104912054675,0.032201667402,-0.999384933925
130448000000,,600,,130,448000000,"""map""",,,-0.0386834442616,0.013269495219,-0.00526922522113,,0.00908114544275,-0.0105368691083,0.0322316338113,-0.999383627373
130480000000,,601,,130,480000000,"""map""",,,-0.0386902801692,0.0134228449315,-0.00592966098338,,0.00909570973077,-0.0105660598344,0.0322107289745,-0.999383880254
130516000000,,602,,130,516000000,"""map""",,,-0.0388503111899,0.0136368079111,-0.00675515923649,,0.00914709834596,-0.01057336334,0.0322417069081,-0.999382320821
130548000000,,603,,130,548000000,"""map""",,,-0.0391873307526,0.013901094906,-0.00772793637589,,0.0091436524295,-0.0105748810381,0.0322142271629,-0.999383248051
130580000000,,604,,130,580000000,"""map""",,,-0.0389639511704,0.0138850966468,-0.00842946674675,,0.00909465227293,-0.0106556928457,0.0322351741466,-0.99938219438
130616000000,,605,,130,616000000,"""map""",,,-0.0386360213161,0.0138089964166,-0.00915396679193,,0.00902362816543,-0.010726107141,0.0322127098763,-0.999382742289
130648000000,,606,,130,648000000,"""map""",,,-0.0385373346508,0.0138389831409,-0.00983684137464,,0.0090114504427,-0.0107575446564,0.0322468488236,-0.999381477884
130680000000,,607,,130,680000000,"""map""",,,-0.0385675430298,0.0139101212844,-0.010634701699,,0.00898536072029,-0.0107396844354,0.0322449522154,-0.999381941499
130716000000,,608,,130,716000000,"""map""",,,-0.038698066026,0.0140374861658,-0.0115532111377,,0.00892280261403,-0.0106814799669,0.0322439406911,-0.999383121611
130748000000,,609,,130,748000000,"""map""",,,-0.0389404594898,0.0142028303817,-0.0125538632274,,0.0089319167877,-0.0106587997764,0.0322704932056,-0.999382447261
130780000000,,610,,130,780000000,"""map""",,,-0.0384552665055,0.0141078801826,-0.0132179129869,,0.00890390148115,-0.0107032470855,0.0322566268925,-0.999382657996
130816000000,,611,,130,816000000,"""map""",,,-0.0377733111382,0.013975485228,-0.0140497628599,,0.00893025132864,-0.0106731632906,0.0322096331564,-0.999384301723
130848000000,,612,,130,848000000,"""map""",,,-0.0374068245292,0.0139360772446,-0.0147752072662,,0.00885957723754,-0.0106588166516,0.0322359749367,-0.999384175282
130880000000,,613,,130,880000000,"""map""",,,-0.0372052714229,0.0139724239707,-0.0155195975676,,0.00886814844127,-0.0106640682971,0.0322619795422,-0.999383205905
130916000000,,614,,130,916000000,"""map""",,,-0.0371377766132,0.0140577508137,-0.0161470361054,,0.00882121562055,-0.0107209398715,0.032270661793,-0.999382784436
130948000000,,615,,130,948000000,"""map""",,,-0.0372196435928,0.0141991684213,-0.0168830174953,,0.0088647152018,-0.0107433764006,0.0322732748976,-0.999382025793
130980000000,,616,,130,980000000,"""map""",,,-0.036811567843,0.014105187729,-0.0172575917095,,0.00882044923938,-0.0107507744073,0.03232018434,-0.999380887828
131016000000,,617,,131,16000000,"""map""",,,-0.0362984389067,0.0139313209802,-0.0180104281753,,0.00883551467977,-0.0107822575269,0.0323516680359,-0.999379412688
131048000000,,618,,131,48000000,"""map""",,,-0.0361028313637,0.0138538535684,-0.0190844759345,,0.00882371282132,-0.0108459052773,0.0323515415953,-0.999378780486
131080000000,,619,,131,80000000,"""map""",,,-0.0360347516835,0.013832825236,-0.0200187582523,,0.00882170401362,-0.0106745693655,0.0323047164466,-0.99938219438
131116000000,,620,,131,116000000,"""map""",,,-0.036126434803,0.0138655649498,-0.0209097824991,,0.00882945055498,-0.0106645205525,0.0323436179878,-0.999380972122
131148000000,,621,,131,148000000,"""map""",,,-0.0363214276731,0.0139818210155,-0.021948300302,,0.00880968549403,-0.0107237179415,0.032364143503,-0.999379834157
131180000000,,622,,131,180000000,"""map""",,,-0.0360587760806,0.0140896709636,-0.022512678057,,0.00880216145839,-0.0107328830701,0.0324239077342,-0.999377811108
131212000000,,623,,131,212000000,"""map""",,,-0.0357042998075,0.0142354955897,-0.0231258999556,,0.00878137804067,-0.0107833365521,0.0324847256366,-0.999375493031
131248000000,,624,,131,248000000,"""map""",,,-0.0356239527464,0.0144059835002,-0.0237839687616,,0.0087845435818,-0.0107945483546,0.0325012050544,-0.999374776535
131280000000,,625,,131,280000000,"""map""",,,-0.0356900505722,0.0145968198776,-0.0244217067957,,0.00875482042239,-0.0108329023984,0.0325721803473,-0.999372332018
131316000000,,626,,131,316000000,"""map""",,,-0.0358974002302,0.0148099474609,-0.0251981392503,,0.00871822971389,-0.0108121878809,0.0326166031256,-0.999371489081
131348000000,,627,,131,348000000,"""map""",,,-0.0362192988396,0.0150641733781,-0.0259988624603,,0.00870997658717,-0.0107933484865,0.0326380558715,-0.999371025465
131380000000,,628,,131,380000000,"""map""",,,-0.0362183898687,0.0151793351397,-0.0265682879835,,0.00868117563702,-0.0108520697479,0.0327566992501,-0.999366768634
131416000000,,629,,131,416000000,"""map""",,,-0.0358921438456,0.0151570495218,-0.0271248370409,,0.0086314830209,-0.0108662180827,0.0327833360583,-0.999366178578
131448000000,,630,,131,448000000,"""map""",,,-0.035799883306,0.0152362855151,-0.0275738108903,,0.00862367951543,-0.0108982468064,0.0327868763936,-0.999365757109
131480000000,,631,,131,480000000,"""map""",,,-0.0358364880085,0.015377487056,-0.0281332805753,,0.00858881065387,-0.0108160396254,0.0327905853163,-0.999366852927
131516000000,,632,,131,516000000,"""map""",,,-0.0359769612551,0.015565816313,-0.0287749171257,,0.00856932094684,-0.0108174114559,0.032827674543,-0.999365757109
131548000000,,633,,131,548000000,"""map""",,,-0.0362648926675,0.0157609265298,-0.0294143613428,,0.00854899184251,-0.0107881943056,0.0328432267301,-0.999365799256
131580000000,,634,,131,580000000,"""map""",,,-0.0361903607845,0.015835409984,-0.0299484673887,,0.00857583238798,-0.0107907169427,0.0328333222207,-0.999365841403
131616000000,,635,,131,616000000,"""map""",,,-0.0357206277549,0.0157934036106,-0.0306234955788,,0.00854436416794,-0.0107610103292,0.0328508131628,-0.999365799256
131648000000,,636,,131,648000000,"""map""",,,-0.03551145643,0.0158224049956,-0.0312566012144,,0.00853305934596,-0.0107842255871,0.0328410350939,-0.999365967844
131680000000,,637,,131,680000000,"""map""",,,-0.0354605391622,0.0159036833793,-0.0320236049592,,0.00856668405231,-0.0107602143135,0.0328237127392,-0.999366515753
131716000000,,638,,131,716000000,"""map""",,,-0.035517539829,0.0160063542426,-0.0332463011146,,0.00848089298971,-0.010746692913,0.0328012906158,-0.999368117333
131748000000,,639,,131,748000000,"""map""",,,-0.0356474481523,0.0161058101803,-0.034452997148,,0.00851298789717,-0.0107616971088,0.0327955164975,-0.999367906599
131780000000,,640,,131,780000000,"""map""",,,-0.0354905240238,0.0161816738546,-0.0350543186069,,0.00850975082164,-0.0107910810355,0.032797328812,-0.999367611571
131816000000,,641,,131,816000000,"""map""",,,-0.0350293293595,0.0162972211838,-0.0352179445326,,0.00854031008563,-0.0107736017825,0.032843521758,-0.999365925697
131848000000,,642,,131,848000000,"""map""",,,-0.0348612107337,0.0164493173361,-0.0354686491191,,0.00850019871587,-0.0107828985376,0.0328420466183,-0.999366305018
131880000000,,643,,131,880000000,"""map""",,,-0.0348554253578,0.0166574586183,-0.0357731059194,,0.00849720489022,-0.0107849927915,0.0327964858751,-0.999367780158
131916000000,,644,,131,916000000,"""map""",,,-0.0350133776665,0.0168617833406,-0.0361548215151,,0.00843458183501,-0.0107023501479,0.0328382955488,-0.999367780158
131948000000,,645,,131,948000000,"""map""",,,-0.0353368148208,0.0170800853521,-0.0365891456604,,0.00846177618351,-0.010736450488,0.0328354717099,-0.999367316543
131980000000,,646,,131,980000000,"""map""",,,-0.035572707653,0.017282480374,-0.0369214564562,,0.00851303383065,-0.0107381398193,0.0328480314708,-0.999366473606
132016000000,,647,,132,16000000,"""map""",,,-0.0352072604001,0.0173647552729,-0.0366191789508,,0.00850058174182,-0.0108149053648,0.032844364695,-0.999365841403
132048000000,,648,,132,48000000,"""map""",,,-0.0351113192737,0.0174930486828,-0.0364958234131,,0.00850049555481,-0.0107976731483,0.0328725187898,-0.99936508276
132080000000,,649,,132,80000000,"""map""",,,-0.0351451523602,0.0176840666682,-0.0365579538047,,0.00850745299522,-0.0108074177137,0.0329302599722,-0.999363059711
132116000000,,650,,132,116000000,"""map""",,,-0.035337947309,0.0179273318499,-0.0367942377925,,0.00850822966615,-0.0105327866262,0.0328786300828,-0.999367653718
132148000000,,651,,132,148000000,"""map""",,,-0.0356435924768,0.0181892346591,-0.0371720343828,,0.00853807959538,-0.0105464678061,0.0328674190211,-0.999367569424
132180000000,,652,,132,180000000,"""map""",,,-0.0358226299286,0.0183981936425,-0.0374549105763,,0.00855676118598,-0.0106158046402,0.03293283093,-0.999364619144
132216000000,,653,,132,216000000,"""map""",,,-0.0353576987982,0.0184627976269,-0.0372898615897,,0.00854477205394,-0.0106591444421,0.0329418082087,-0.999363902648
132248000000,,654,,132,248000000,"""map""",,,-0.0352120511234,0.0185439940542,-0.0375070311129,,0.00854693158602,-0.0106933642257,0.0329443791665,-0.999363439033
132280000000,,655,,132,280000000,"""map""",,,-0.0352285765111,0.0186471175402,-0.0380267240107,,0.00848556816181,-0.01076024757,0.0329476244738,-0.999363144005
132316000000,,656,,132,316000000,"""map""",,,-0.0354059375823,0.0187721978873,-0.038629937917,,0.00844292748724,-0.0107979399412,0.033018515473,-0.999360783781
132348000000,,657,,132,348000000,"""map""",,,-0.0357014685869,0.0188965201378,-0.0393730066717,,0.00843258051825,-0.010838350784,0.033024921794,-0.999360193725
132380000000,,658,,132,380000000,"""map""",,,-0.0358937829733,0.0189595129341,-0.0399131551385,,0.00845443357688,-0.0108967637642,0.0330687123696,-0.999357959942
132416000000,,659,,132,416000000,"""map""",,,-0.0354721583426,0.0187251493335,-0.0399728827178,,0.00842435488575,-0.0108771012716,0.0330539609726,-0.999358887173
132448000000,,660,,132,448000000,"""map""",,,-0.0352948643267,0.0186061020941,-0.040231462568,,0.00843839546625,-0.0108780149197,0.0331021348205,-0.999357159152
132480000000,,661,,132,480000000,"""map""",,,-0.0352685377002,0.0185041241348,-0.0406296700239,,0.00835756060962,-0.0108762116602,0.0330348263034,-0.999360067285
132516000000,,662,,132,516000000,"""map""",,,-0.0353717915714,0.0184185989201,-0.0411483794451,,0.00840690230384,-0.0108297873182,0.0330409797433,-0.999359982991
132548000000,,663,,132,548000000,"""map""",,,-0.0356230773032,0.0183744691312,-0.0418159104884,,0.0083825359924,-0.0108043479085,0.0330400103658,-0.9993605309
132580000000,,664,,132,580000000,"""map""",,,-0.0359850749373,0.0183857511729,-0.0425887480378,,0.00843129224055,-0.0108129627408,0.0330044384256,-0.99936120525
132616000000,,665,,132,616000000,"""map""",,,-0.0352458842099,0.0181821379811,-0.0424428507686,,0.00838188650288,-0.0108775018313,0.0330234045074,-0.999360278019
132648000000,,666,,132,648000000,"""map""",,,-0.0349040515721,0.0180065724999,-0.0423809550703,,0.00841510315859,-0.010915757011,0.0330667736146,-0.99935812853
132680000000,,667,,132,680000000,"""map""",,,-0.0347478277981,0.0178425107151,-0.0424631647766,,0.00835589827865,-0.0109113227839,0.0331287294819,-0.999356611243
132716000000,,668,,132,716000000,"""map""",,,-0.0347565039992,0.0177047066391,-0.0427861884236,,0.00841840971057,-0.0108926625136,0.0331424693545,-0.9993558526
132748000000,,669,,132,748000000,"""map""",,,-0.0349266380072,0.0175793822855,-0.0432782135904,,0.00844976194446,-0.0109015842277,0.0331344614533,-0.999355768306
132780000000,,670,,132,780000000,"""map""",,,-0.0351947583258,0.0174729451537,-0.0439557395875,,0.00843999877517,-0.0109249120967,0.033109215491,-0.999356400509
132816000000,,671,,132,816000000,"""map""",,,-0.0346502177417,0.0169954206795,-0.0437414832413,,0.00844202034218,-0.0109611308922,0.0331420900328,-0.999354967516
132848000000,,672,,132,848000000,"""map""",,,-0.0344105735421,0.0166715309024,-0.0439283177257,,0.00845546880885,-0.0110039932493,0.0331249362655,-0.999354841076
132880000000,,673,,132,880000000,"""map""",,,-0.0343346223235,0.0163856446743,-0.0441957823932,,0.00845519230247,-0.0109415210008,0.0331672517014,-0.999354166726
132916000000,,674,,132,916000000,"""map""",,,-0.0344024226069,0.0161383226514,-0.044491995126,,0.00839892321394,-0.0108860640623,0.0331929191321,-0.99935437746
132948000000,,675,,132,948000000,"""map""",,,-0.0345794968307,0.0159230642021,-0.0448620244861,,0.00840057525516,-0.0109061769171,0.0331944785655,-0.999354082432
132980000000,,676,,132,980000000,"""map""",,,-0.0348734259605,0.0157375819981,-0.0453362092376,,0.00837057509546,-0.0109066993075,0.0331596652687,-0.999355515425
133016000000,,677,,133,16000000,"""map""",,,-0.0339244753122,0.0150848301128,-0.0450524203479,,0.00834301731271,-0.0109651586328,0.0331593280939,-0.999355093957
133048000000,,678,,133,48000000,"""map""",,,-0.0334018357098,0.0146140661091,-0.0452269650996,,0.0083530010944,-0.0107714975682,0.033148454207,-0.999357538474
133080000000,,679,,133,80000000,"""map""",,,-0.0329959429801,0.0141962924972,-0.0455586016178,,0.00841992065862,-0.0108441512441,0.0332047623966,-0.999354335313
133116000000,,680,,133,116000000,"""map""",,,-0.0327329821885,0.0137948459014,-0.0461690872908,,0.0084322348647,-0.0109425436381,0.0332410086863,-0.999351890796
133148000000,,681,,133,148000000,"""map""",,,-0.0326243713498,0.0134165324271,-0.0467970073223,,0.00845169312623,-0.0110079704466,0.0332220004576,-0.999351680062
133180000000,,682,,133,180000000,"""map""",,,-0.0326406955719,0.0130421835929,-0.0474327728152,,0.00844197597274,-0.0110914498533,0.0331911489645,-0.999351848649
133216000000,,683,,133,216000000,"""map""",,,-0.0318909920752,0.0124073857442,-0.0472552292049,,0.00839877800488,-0.0111687393533,0.0331848269372,-0.999351595768
133248000000,,684,,133,248000000,"""map""",,,-0.0314750783145,0.0119323031977,-0.0472326986492,,0.00839051442375,-0.0111982936783,0.0332062796831,-0.999350626391
133280000000,,685,,133,280000000,"""map""",,,-0.031168628484,0.0115102203563,-0.0473626367748,,0.00833037646856,-0.0112699864555,0.0332757798363,-0.999347971139
133316000000,,686,,133,316000000,"""map""",,,-0.0309977047145,0.0111203053966,-0.0475941747427,,0.00826487417444,-0.0112769138498,0.0333535829187,-0.999345863797
133348000000,,687,,133,348000000,"""map""",,,-0.0309386700392,0.0107400920242,-0.0478719398379,,0.00826133482698,-0.0113014805234,0.0333668170291,-0.999345189447
133380000000,,688,,133,380000000,"""map""",,,-0.0309879183769,0.010379858315,-0.0482519119978,,0.00820541863599,-0.0112984899081,0.0333232371877,-0.999347128202
133416000000,,689,,133,416000000,"""map""",,,-0.0304967556149,0.00976008083671,-0.0477170310915,,0.00821378001097,-0.0113162358716,0.033364330365,-0.999345484475
133448000000,,690,,133,448000000,"""map""",,,-0.0301407594234,0.00922449957579,-0.0473143234849,,0.00820817135203,-0.0112493532682,0.0333775644755,-0.99934582165
133480000000,,691,,133,480000000,"""map""",,,-0.0299171153456,0.00872719474137,-0.0470822267234,,0.00818532364423,-0.0112020251562,0.0334272556099,-0.999344852272
133516000000,,692,,133,516000000,"""map""",,,-0.0298552252352,0.0082471948117,-0.0468112826347,,0.00813107225376,-0.0112073848853,0.0334492984116,-0.999344557245
133548000000,,693,,133,548000000,"""map""",,,-0.0299476403743,0.00776753528044,-0.0467559620738,,0.00812244268652,-0.011222782973,0.0334255275891,-0.999345231594
133580000000,,694,,133,580000000,"""map""",,,-0.0301530659199,0.00729294540361,-0.0468834601343,,0.00806104575886,-0.0112497669988,0.0334894643583,-0.999343250692
133616000000,,695,,133,616000000,"""map""",,,-0.0296636950225,0.00678667472675,-0.0466436333954,,0.0080305093793,-0.0111631667496,0.0334836059463,-0.999344641538
133648000000,,696,,133,648000000,"""map""",,,-0.0292504020035,0.00638278340921,-0.0461743734777,,0.00800391373007,-0.0112004940402,0.0334985680775,-0.999344009336
133680000000,,697,,133,680000000,"""map""",,,-0.0289910752326,0.0059768888168,-0.0457770079374,,0.00794707491823,-0.0111547171297,0.0335809651664,-0.999342197021
133716000000,,698,,133,716000000,"""map""",,,-0.0288426317275,0.00558298826218,-0.0456021055579,,0.00793993958848,-0.0111566433724,0.0336188130364,-0.999340932616
133748000000,,699,,133,748000000,"""map""",,,-0.0288207475096,0.00519440369681,-0.0455828048289,,0.00789729356323,-0.0111663160741,0.0336423731247,-0.999340384707
133780000000,,700,,133,780000000,"""map""",,,-0.0288844164461,0.00480087380856,-0.0456726178527,,0.00795415377778,-0.0112103738542,0.033663994458,-0.999338740979
133816000000,,701,,133,816000000,"""map""",,,-0.0283533725888,0.00431357650086,-0.0452329441905,,0.0079199820679,-0.01118170593,0.0336644580733,-0.999339288888
133848000000,,702,,133,848000000,"""map""",,,-0.0279307514429,0.00390196405351,-0.0449745878577,,0.00791933570646,-0.0111627026404,0.033721567053,-0.999337560868
133880000000,,703,,133,880000000,"""map""",,,-0.0276689957827,0.00345856975764,-0.0449519380927,,0.00805544286219,-0.0111929477787,0.0337027274117,-0.999336760078
133916000000,,704,,133,916000000,"""map""",,,-0.0275483727455,0.00296648265794,-0.0449214875698,,0.00809360749206,-0.0111994298323,0.0336694735483,-0.999337560868
133948000000,,705,,133,948000000,"""map""",,,-0.0275472644717,0.00246091908775,-0.0451908521354,,0.00808273903814,-0.0112257609112,0.0336901676509,-0.99933659149
133980000000,,706,,133,980000000,"""map""",,,-0.0276353545487,0.00194801751059,-0.0456406474113,,0.00804079650306,-0.0112275756953,0.0337192489764,-0.999336001434
134016000000,,707,,134,16000000,"""map""",,,-0.0273680072278,0.00138044555206,-0.0457608513534,,0.00805661951659,-0.0112861352839,0.0337507326722,-0.999334104826
134048000000,,708,,134,48000000,"""map""",,,-0.0269900411367,0.000929770700168,-0.0456721223891,,0.0080322811933,-0.0112909530309,0.0337252759757,-0.99933511635
134080000000,,709,,134,80000000,"""map""",,,-0.0267593245953,0.000434813875472,-0.045563429594,,0.00802709136867,-0.0113798820581,0.0337370770933,-0.999333683358
134116000000,,710,,134,116000000,"""map""",,,-0.0266651883721,-5.83899891353e-05,-0.045545656234,,0.00800238096773,-0.0113643211452,0.0337909407657,-0.999332250365
134148000000,,711,,134,148000000,"""map""",,,-0.0266739036888,-0.000546591414604,-0.0455376766622,,0.00800539743085,-0.0113751156775,0.0337977685551,-0.99933191319
134180000000,,712,,134,180000000,"""map""",,,-0.026781629771,-0.00103737518657,-0.0455747321248,,0.00790691473386,-0.0113637860778,0.033815596672,-0.999332208218
134216000000,,713,,134,216000000,"""map""",,,-0.0265389829874,-0.00152057106607,-0.0456512607634,,0.00799845258511,-0.0113991919001,0.0338474175427,-0.999329974435
134248000000,,714,,134,248000000,"""map""",,,-0.0262269433588,-0.00184581102803,-0.0455899201334,,0.00796343843216,-0.011424720378,0.0338577013737,-0.99932963726
134280000000,,715,,134,280000000,"""map""",,,-0.0260213743895,-0.00218084361404,-0.0456401072443,,0.00790835250116,-0.0114301849803,0.03391325092,-0.999328204267
134316000000,,716,,134,316000000,"""map""",,,-0.0259251110256,-0.00257931486703,-0.0458364076912,,0.00786564128,-0.0114217378299,0.0339601182156,-0.999327024156
134348000000,,717,,134,348000000,"""map""",,,-0.0259258765727,-0.00305544887669,-0.04598165676,,0.00785647401118,-0.0114590447055,0.0339738159414,-0.999326139072
134380000000,,718,,134,380000000,"""map""",,,-0.0260178651661,-0.00353600992821,-0.0462841354311,,0.00785182188814,-0.0114487676246,0.0340127596294,-0.999325043254
134416000000,,719,,134,416000000,"""map""",,,-0.0258236341178,-0.00398535653949,-0.0460112057626,,0.00785669083696,-0.0114733514203,0.0340362775709,-0.999323863142
134448000000,,720,,134,448000000,"""map""",,,-0.0255536139011,-0.00428024632856,-0.0456440225244,,0.00783935119543,-0.011491403607,0.0340837349223,-0.999322177268
134480000000,,721,,134,480000000,"""map""",,,-0.0253714267164,-0.00461300089955,-0.0454682968557,,0.00784891721295,-0.0115256044575,0.0341158929677,-0.999320617835
134516000000,,722,,134,516000000,"""map""",,,-0.0252324808389,-0.00500768609345,-0.0456011630595,,0.00780608218543,-0.0115524091946,0.0340757691679,-0.999322050827
134548000000,,723,,134,548000000,"""map""",,,-0.0251725539565,-0.00542979920283,-0.0460030399263,,0.00798209252853,-0.0115460662586,0.034047362192,-0.999321713653
134580000000,,724,,134,580000000,"""map""",,,-0.025152778253,-0.00592810334638,-0.0463071987033,,0.0080251702297,-0.0115778268724,0.0341004672211,-0.999319184842
134616000000,,725,,134,616000000,"""map""",,,-0.024731548503,-0.00641505699605,-0.0461749844253,,0.00801299884547,-0.0115729327342,0.0341156822334,-0.99931880552
134648000000,,726,,134,648000000,"""map""",,,-0.0242703612894,-0.00675996625796,-0.0459025762975,,0.00799791192006,-0.0115817384621,0.0341397480839,-0.99931800473
134680000000,,727,,134,680000000,"""map""",,,-0.023923734203,-0.00713803526014,-0.0459003262222,,0.00794448749685,-0.0116191484,0.0341391580281,-0.99931800473
134716000000,,728,,134,716000000,"""map""",,,-0.0236558839679,-0.00754384091124,-0.0460112951696,,0.0079414904608,-0.0116010140599,0.0341556374458,-0.999317625408
134748000000,,729,,134,748000000,"""map""",,,-0.0234816800803,-0.00796439684927,-0.046382509172,,0.00793683389258,-0.011662634728,0.0341869947011,-0.999315939534
134780000000,,730,,134,780000000,"""map""",,,-0.0234025847167,-0.00844497606158,-0.0467739552259,,0.00788650446392,-0.0116111637124,0.034215696705,-0.999315897388
134816000000,,731,,134,816000000,"""map""",,,-0.0230697523803,-0.00896261259913,-0.0468522310257,,0.00791931331595,-0.0116304246576,0.0342456631143,-0.999314422248
134848000000,,732,,134,848000000,"""map""",,,-0.0227457471192,-0.00938375014812,-0.0467186421156,,0.00785499294458,-0.0116193074385,0.0342707404891,-0.999314211514
134880000000,,733,,134,880000000,"""map""",,,-0.022496605292,-0.00987097620964,-0.0466528497636,,0.00783376657336,-0.0116266609111,0.0343406199639,-0.99931185129
134916000000,,734,,134,916000000,"""map""",,,-0.0223242100328,-0.0104026403278,-0.046700168401,,0.00782477842865,-0.0116178367439,0.0343735787995,-0.999310924059
134948000000,,735,,134,948000000,"""map""",,,-0.0221986901015,-0.011007190682,-0.0468812249601,,0.00779624468293,-0.0116214221895,0.0343714293102,-0.999311134794
134980000000,,736,,134,980000000,"""map""",,,-0.0221654102206,-0.0116932466626,-0.0471563450992,,0.00777782157105,-0.0116277570584,0.034320853092,-0.999312989255
135016000000,,737,,135,16000000,"""map""",,,-0.0216005891562,-0.012468113564,-0.047002196312,,0.00779658778462,-0.0116307346674,0.0343501030049,-0.999311809143
135048000000,,738,,135,48000000,"""map""",,,-0.0209721215069,-0.0130733028054,-0.0467181690037,,0.00776206029607,-0.0116757698921,0.034332527769,-0.999312104171
135080000000,,739,,135,80000000,"""map""",,,-0.0204471703619,-0.0137387597933,-0.0465685129166,,0.00775453181525,-0.0116648156628,0.0344085185369,-0.999309701801
135116000000,,740,,135,116000000,"""map""",,,-0.0200322270393,-0.0144767295569,-0.0464915633202,,0.00775768690199,-0.0116462084877,0.0344306034855,-0.999309111745
135148000000,,741,,135,148000000,"""map""",,,-0.0197298433632,-0.0152711402625,-0.0466241128743,,0.00778503592613,-0.0116678591262,0.0344140819209,-0.999309280332
135180000000,,742,,135,180000000,"""map""",,,-0.0195198915899,-0.0160978082567,-0.0469272248447,,0.00774573843507,-0.0116870156921,0.0343410835793,-0.999311809143
135216000000,,743,,135,216000000,"""map""",,,-0.0190395247191,-0.0168058499694,-0.0469243451953,,0.00787388362306,-0.0116577443765,0.034317523491,-0.999312019877
135248000000,,744,,135,248000000,"""map""",,,-0.0185817871243,-0.0172606986016,-0.0465907305479,,0.0078738327505,-0.0116780296876,0.0343713871634,-0.999309912535
135280000000,,745,,135,280000000,"""map""",,,-0.0182167850435,-0.0178035479039,-0.0464260168374,,0.00776790652494,-0.0116853718003,0.0344196031581,-0.999308985304
135316000000,,746,,135,316000000,"""map""",,,-0.0179385468364,-0.0184199493378,-0.0463831722736,,0.00775811643764,-0.0116874872099,0.0344253772763,-0.999308858864
135348000000,,747,,135,348000000,"""map""",,,-0.0177324078977,-0.0191039517522,-0.0464665740728,,0.00773460557553,-0.0116975795691,0.0344284118494,-0.999308858864
135380000000,,748,,135,380000000,"""map""",,,-0.0176030620933,-0.019837655127,-0.0467102751136,,0.00773968427077,-0.0117535018517,0.0344815590254,-0.999306287906
135416000000,,749,,135,416000000,"""map""",,,-0.0172463804483,-0.0202879831195,-0.0465286970139,,0.00769609438661,-0.0117690179835,0.0344956782196,-0.999305908584
135448000000,,750,,135,448000000,"""map""",,,-0.016851823777,-0.0204852614552,-0.0462203286588,,0.00771653215078,-0.011760856806,0.0344609913633,-0.999307046549
135480000000,,751,,135,480000000,"""map""",,,-0.0165434163064,-0.0207712221891,-0.0460616983473,,0.00765203775903,-0.0117713742557,0.0345011994568,-0.999306035025
135516000000,,752,,135,516000000,"""map""",,,-0.0163049865514,-0.0211731102318,-0.0460594519973,,0.00758146467219,-0.0117284458795,0.0345085330084,-0.999306877962
135548000000,,753,,135,548000000,"""map""",,,-0.016122078523,-0.0216270424426,-0.0461713224649,,0.00758364116179,-0.0116695002191,0.0345223150279,-0.999307088696
135580000000,,754,,135,580000000,"""map""",,,-0.0159929022193,-0.0221441984177,-0.0465006008744,,0.00759150286613,-0.0117495397186,0.0345347483482,-0.999305613557
135616000000,,755,,135,616000000,"""map""",,,-0.015698928386,-0.0224718227983,-0.0463964864612,,0.00750061796176,-0.0117048935291,0.0345715846938,-0.999305529263
135648000000,,756,,135,648000000,"""map""",,,-0.0154050569981,-0.0226053278893,-0.0460686832666,,0.00757581765304,-0.0117272558896,0.0345744928263,-0.999304644179
135680000000,,757,,135,680000000,"""map""",,,-0.0151628367603,-0.0228361934423,-0.0458272993565,,0.00753668018829,-0.0117895780723,0.0345981372084,-0.99930342192
135716000000,,758,,135,716000000,"""map""",,,-0.0150248603895,-0.0231764968485,-0.0458835959435,,0.007487299393,-0.0116802312019,0.0345861675034,-0.999305444969
135748000000,,759,,135,748000000,"""map""",,,-0.014932140708,-0.0236105769873,-0.046016830951,,0.00747678474211,-0.0116807873427,0.0346165553811,-0.999304475592
135780000000,,760,,135,780000000,"""map""",,,-0.0148717910051,-0.0241655670106,-0.0462379343808,,0.0075112121319,-0.0116801287982,0.034663886292,-0.999302578983
135816000000,,761,,135,816000000,"""map""",,,-0.0148582477123,-0.0249390080571,-0.0466659329832,,0.0075528950358,-0.0116540994973,0.0346914924778,-0.999301609606
135848000000,,762,,135,848000000,"""map""",,,-0.0149123799056,-0.025618750602,-0.0469973534346,,0.00754236095785,-0.0116538795434,0.0346877414083,-0.99930182034
135880000000,,763,,135,880000000,"""map""",,,-0.0150545574725,-0.0264020450413,-0.0475149825215,,0.00747469172303,-0.0115658965154,0.0346921668274,-0.999303211186
135916000000,,764,,135,916000000,"""map""",,,-0.0148159982637,-0.0266181025654,-0.047742754221,,0.00732018433984,-0.0116577987064,0.034527288356,-0.999309027451
135948000000,,765,,135,948000000,"""map""",,,-0.0145753044635,-0.0267725288868,-0.0477025397122,,0.00732620047319,-0.011571956442,0.0345053719948,-0.999310713325
135980000000,,766,,135,980000000,"""map""",,,-0.0146007183939,-0.0269352439791,-0.0472057424486,,0.00685192001126,-0.0105616075797,0.0340998350184,-0.999339204595
136016000000,,767,,136,16000000,"""map""",,,-0.0150094246492,-0.0272444412112,-0.0451902635396,,0.0051562635568,-0.00826035063221,0.0333358812423,-0.99939677719
136048000000,,768,,136,48000000,"""map""",,,-0.0156516749412,-0.0276168398559,-0.0422786809504,,0.00353007893811,-0.00632915157576,0.0327255105822,-0.999438081101
136080000000,,769,,136,80000000,"""map""",,,-0.0165740028024,-0.0281093642116,-0.0382783710957,,-0.00163635048794,-0.000674968031785,0.0310901707131,-0.999515083394
136116000000,,770,,136,116000000,"""map""",,,-0.0175512563437,-0.0281756017357,-0.0328102707863,,-0.00715601018181,0.00526964993918,0.0294372556082,-0.999527137392
136148000000,,771,,136,148000000,"""map""",,,-0.0186681095511,-0.0282228700817,-0.0266214944422,,-0.0106269026792,0.00895399366915,0.0284533795766,-0.999498561829
136180000000,,772,,136,180000000,"""map""",,,-0.0200144182891,-0.0284833740443,-0.0200661253184,,-0.0190466577551,0.0180043733531,0.0262446318335,-0.999311935584
136216000000,,773,,136,216000000,"""map""",,,-0.0219648163766,-0.0292075462639,-0.0113495169207,,-0.026794447227,0.0262555433809,0.0243382877285,-0.998999753877
136248000000,,774,,136,248000000,"""map""",,,-0.0237290896475,-0.0301643013954,-0.00388581026345,,-0.0314642069126,0.0311461693456,0.0232976820388,-0.998747800016
136280000000,,775,,136,280000000,"""map""",,,-0.0256881117821,-0.0314985066652,0.00395385082811,,-0.0425969939751,0.0429929662511,0.0210038819554,-0.997945829783
136316000000,,776,,136,316000000,"""map""",,,-0.027255455032,-0.0327047929168,0.0122895948589,,-0.0527604566171,0.0536463431192,0.0192244420113,-0.996979908309
136348000000,,777,,136,348000000,"""map""",,,-0.0289858728647,-0.0342486277223,0.0211908761412,,-0.0586534606683,0.0600178191036,0.0183452587513,-0.996303788565
136380000000,,778,,136,380000000,"""map""",,,-0.0316157303751,-0.036745313555,0.0303254686296,,-0.0721691822249,0.0744811038068,0.017007138458,-0.994462182019
136416000000,,779,,136,416000000,"""map""",,,-0.0370892621577,-0.0420656241477,0.0421826653183,,-0.081909330605,0.0850635862595,0.0164796706489,-0.9928662916
136448000000,,780,,136,448000000,"""map""",,,-0.0435375496745,-0.0483094416559,0.0524521358311,,-0.0862216469843,0.0894282417807,0.0163927638472,-0.992118775095
136480000000,,781,,136,480000000,"""map""",,,-0.0520238801837,-0.0564722120762,0.0637003108859,,-0.0930903114775,0.0958552958757,0.016621789822,-0.990893397622
136516000000,,782,,136,516000000,"""map""",,,-0.0622499324381,-0.0658955201507,0.0763793289661,,-0.0965108861531,0.0979863251594,0.01711035609,-0.990349197514
136548000000,,783,,136,548000000,"""map""",,,-0.0743411183357,-0.0770782604814,0.0903925448656,,-0.0975836822598,0.0978441946881,0.0174638838553,-0.990252006881
136580000000,,784,,136,580000000,"""map""",,,-0.0883505344391,-0.0902124419808,0.105582363904,,-0.09844590485,0.0963288223865,0.0181659239109,-0.990302625246
136616000000,,785,,136,616000000,"""map""",,,-0.108400829136,-0.109227180481,0.12652823329,,-0.0987899894986,0.0955683900949,0.0186012587092,-0.990333940355
136648000000,,786,,136,648000000,"""map""",,,-0.126363322139,-0.126416161656,0.144693508744,,-0.0989510209176,0.0955825841986,0.0188718836235,-0.990311391791
136680000000,,787,,136,680000000,"""map""",,,-0.145829811692,-0.145213454962,0.16340637207,,-0.0994538478023,0.0951369716608,0.0194745835572,-0.990292257121
136716000000,,788,,136,716000000,"""map""",,,-0.164129540324,-0.162276178598,0.177717402577,,-0.0995769951313,0.0876720540553,0.019519975713,-0.990967744662
136748000000,,789,,136,748000000,"""map""",,,-0.182276755571,-0.17911888659,0.184866309166,,-0.0988579850423,0.0798766421019,0.0193135825959,-0.991702490673
136780000000,,790,,136,780000000,"""map""",,,-0.20090444386,-0.196664437652,0.185582384467,,-0.085336988256,0.0552919145062,0.0182285541278,-0.994649735495
136816000000,,791,,136,816000000,"""map""",,,-0.224760442972,-0.219766512513,0.180552065372,,-0.0595781028029,0.0314538532347,0.0173663981947,-0.997576834124
136848000000,,792,,136,848000000,"""map""",,,-0.243890196085,-0.238992124796,0.174876719713,,-0.0434206830065,0.0188628549783,0.0170277482669,-0.998733638675
136880000000,,793,,136,880000000,"""map""",,,-0.262509763241,-0.258363336325,0.169649511576,,-0.0119376341888,-0.00480419380903,0.0164411062825,-0.999782125826
136916000000,,794,,136,916000000,"""map""",,,-0.279647767544,-0.276277393103,0.170244306326,,0.00145904026029,-0.0138260372365,0.0163090602061,-0.999770366855
136948000000,,795,,136,948000000,"""map""",,,-0.295215547085,-0.293067783117,0.178624525666,,-1.72986471356e-05,-0.0114428548827,0.0165539755428,-0.999797551572
136980000000,,796,,136,980000000,"""map""",,,-0.309299439192,-0.309072703123,0.199346125126,,-0.0076530343015,-0.00152867113457,0.0177255736377,-0.999812471557
137016000000,,797,,137,16000000,"""map""",,,-0.325635403395,-0.328421920538,0.241723224521,,-0.0171138628395,0.0107405125552,0.0188341200472,-0.999618427466
137048000000,,798,,137,48000000,"""map""",,,-0.338370859623,-0.343849122524,0.284037232399,,-0.0276479714115,0.0226392353246,0.0192874936966,-0.99917516906
137080000000,,799,,137,80000000,"""map""",,,-0.351324915886,-0.359630733728,0.328898817301,,-0.0520728636697,0.0486902096332,0.0203082903676,-0.997248889496
137116000000,,800,,137,116000000,"""map""",,,-0.366158246994,-0.376157104969,0.370567083359,,-0.0652491190943,0.0647868371076,0.0210386531054,-0.995541394222
137148000000,,801,,137,148000000,"""map""",,,-0.382183939219,-0.393413633108,0.409658879042,,-0.0702632088805,0.0728941360075,0.0214724284703,-0.994629842183
137180000000,,802,,137,180000000,"""map""",,,-0.399039179087,-0.411564201117,0.44761505723,,-0.0776587692369,0.0839830770532,0.0225627252944,-0.993180201328
137216000000,,803,,137,216000000,"""map""",,,-0.421592921019,-0.43579185009,0.494870334864,,-0.0826719065413,0.0866512871835,0.023662083691,-0.992520603149
137248000000,,804,,137,248000000,"""map""",,,-0.441186279058,-0.456542283297,0.53442054987,,-0.0835462374807,0.0876074570953,0.0240594863256,-0.992353828069
137280000000,,805,,137,280000000,"""map""",,,-0.462179303169,-0.478568285704,0.576256096363,,-0.0847344898369,0.0903638125849,0.0247761513377,-0.991988246305
