rosbagTimestamp,header,seq,stamp,secs,nsecs,frame_id,pose,position,x,y,z,orientation,x,y,z,w
345572000000,,3908,,345,564163712,"""map""",,,-0.013853895478,0.0012381488923,0.0152108836919,,0.00836445631148,-0.0147942754703,0.0415994030956,-0.998989849367
345604000000,,3909,,345,596163712,"""map""",,,-0.0136066898704,0.00152766972315,0.0151040349156,,0.00833664465982,-0.0148533706202,0.0415980122496,-0.998989301458
345636000000,,3910,,345,628163712,"""map""",,,-0.0134086655453,0.00183693529107,0.0149057162926,,0.00834674245203,-0.0148579557364,0.0415940504458,-0.998989301458
345672000000,,3911,,345,668175283,"""map""",,,-0.0132172489539,0.00227055535652,0.01462437585,,0.00831509642498,-0.014854928078,0.0415893721456,-0.998989765074
345704000000,,3912,,345,700175283,"""map""",,,-0.0130934230983,0.00266371900216,0.0143912406638,,0.00834594725954,-0.0148581345312,0.0415919009566,-0.998989343605
345736000000,,3913,,345,732175283,"""map""",,,-0.0130469994619,0.0030654692091,0.0138987032697,,0.0083036512507,-0.0148528546506,0.0415957784666,-0.998989596486
345772000000,,3914,,345,764174854,"""map""",,,-0.0129284746945,0.00333764380775,0.0135007761419,,0.00826568978181,-0.0148515879403,0.0415803948669,-0.998990650158
345804000000,,3915,,345,796174854,"""map""",,,-0.0128191271797,0.00366533664055,0.0130843212828,,0.00834177373372,-0.014834728213,0.0416298752671,-0.99898820564
345836000000,,3916,,345,828174854,"""map""",,,-0.0127321826294,0.00398746179417,0.012465685606,,0.00834235983833,-0.0148339234716,0.0417024099933,-0.99898512892
345872000000,,3917,,345,868174425,"""map""",,,-0.0126764960587,0.00446447962895,0.0117836948484,,0.00835859855808,-0.0147886086948,0.0416778805275,-0.998986730501
345904000000,,3918,,345,900174425,"""map""",,,-0.0126315392554,0.00488476036116,0.0112137412652,,0.00836512835615,-0.014815137831,0.0417268551655,-0.99898420169
345936000000,,3919,,345,932174425,"""map""",,,-0.0126113472506,0.00532140955329,0.0106554878876,,0.00836026632205,-0.014793824038,0.0417382769614,-0.998984159543
345972000000,,3920,,345,964173995,"""map""",,,-0.0124939503148,0.00544619327411,0.0102922841907,,0.00837326039301,-0.014815082184,0.0417454840725,-0.998983358753
346004000000,,3921,,345,996173995,"""map""",,,-0.0124247008935,0.00560751184821,0.00978543609381,,0.00834475200126,-0.0148147226187,0.04177039286,-0.998982557963
346036000000,,3922,,346,28173995,"""map""",,,-0.0124090798199,0.00581869715825,0.00928606744856,,0.00837661337237,-0.014813849718,0.0418341610418,-0.99897964983
346072000000,,3923,,346,68173565,"""map""",,,-0.012463433668,0.00611596787348,0.00856781098992,,0.0083380595427,-0.0148295731266,0.0418627787519,-0.998978511865
346104000000,,3924,,346,100173565,"""map""",,,-0.0125535698608,0.00637167552486,0.00786363240331,,0.0083111965244,-0.014833813824,0.0418853694627,-0.998977753222
346136000000,,3925,,346,132173565,"""map""",,,-0.0126532837749,0.00663619302213,0.00719960732386,,0.00833707468939,-0.0148211539644,0.0419131020891,-0.99897657311
346172000000,,3926,,346,164173135,"""map""",,,-0.0124638630077,0.00656464323401,0.00694243889302,,0.00830153896919,-0.014798548107,0.0419127227674,-0.998977205313
346204000000,,3927,,346,196173135,"""map""",,,-0.0122754359618,0.00654421979561,0.00656744092703,,0.00834634567897,-0.0147857045135,0.0419580306296,-0.998975140117
346236000000,,3928,,346,228173135,"""map""",,,-0.0120938196778,0.0065848515369,0.00618955865502,,0.00831776846932,-0.0147651253269,0.0419316888492,-0.998976783844
346276000000,,3929,,346,268172704,"""map""",,,-0.0119015434757,0.00667532440275,0.00549480924383,,0.00830195253514,-0.014746006792,0.0419082552015,-0.998978132544
346304000000,,3930,,346,300172704,"""map""",,,-0.0117948371917,0.00676547084004,0.00493381917477,,0.00849886491629,-0.014773523745,0.0419054735095,-0.998976193789
346336000000,,3931,,346,332172704,"""map""",,,-0.0117192817852,0.00688979728147,0.0043984032236,,0.00847150963597,-0.0147804720481,0.0419058106843,-0.998976362376
346372000000,,3932,,346,372172273,"""map""",,,-0.0111695183441,0.00682899402454,0.00330685032532,,0.00845413459767,-0.0147769843964,0.0419408768622,-0.99897509797
346404000000,,3933,,346,396172273,"""map""",,,-0.0108888940886,0.0068274741061,0.0026422473602,,0.00840130055962,-0.0147803459368,0.0419600536783,-0.998974634355
346436000000,,3934,,346,428172273,"""map""",,,-0.010566634126,0.00683792633936,0.00172933319118,,0.00837687810726,-0.0147369277682,0.0419180754172,-0.99897724746
346472000000,,3935,,346,468171842,"""map""",,,-0.0102447746322,0.00688320025802,0.000574556237552,,0.00833986724737,-0.0147553940147,0.0419157573405,-0.9989773739
346504000000,,3936,,346,500171842,"""map""",,,-0.0100151132792,0.00693548657,-0.000405528320698,,0.00834338749704,-0.0147824960847,0.0418840207636,-0.998978258984
346536000000,,3937,,346,532171842,"""map""",,,-0.00978634692729,0.00698753586039,-0.00145914265886,,0.00834752183946,-0.0148278052639,0.041846636509,-0.998979144068
346572000000,,3938,,346,564171411,"""map""",,,-0.00929085630924,0.00670043099672,-0.00225966772996,,0.00830974838503,-0.0148443841219,0.0418506826064,-0.998979059774
346604000000,,3939,,346,596171411,"""map""",,,-0.00884664803743,0.00649159168825,-0.00316764670424,,0.00831425480509,-0.0148684690702,0.0419074544114,-0.998976320229
346636000000,,3940,,346,628171411,"""map""",,,-0.00843284185976,0.00635377224535,-0.00418950524181,,0.00831634765954,-0.0148641582378,0.0419271369896,-0.998975519439
346672000000,,3941,,346,668170979,"""map""",,,-0.00796526577324,0.00623960327357,-0.00572259165347,,0.00834125282502,-0.0148730732841,0.0419433635263,-0.998974465768
346704000000,,3942,,346,700170979,"""map""",,,-0.00762626482174,0.00618324382231,-0.0069627170451,,0.00834730386123,-0.0149327607949,0.0419842881162,-0.998971810516
346736000000,,3943,,346,732170979,"""map""",,,-0.00732527719811,0.00616187695414,-0.00826471205801,,0.00832905658073,-0.0149206333685,0.0420286266008,-0.99897029323
346772000000,,3944,,346,764170547,"""map""",,,-0.00676879612729,0.00601931847632,-0.00918038655072,,0.00830581621577,-0.014984305732,0.042001863352,-0.998970672551
346804000000,,3945,,346,796170547,"""map""",,,-0.00628107320517,0.00590987410396,-0.0102117862552,,0.00830699138844,-0.0150029000655,0.0420583822759,-0.9989680173
346836000000,,3946,,346,828170547,"""map""",,,-0.00584936188534,0.00581325870007,-0.0112182851881,,0.00828985079199,-0.0149590620747,0.0420910460835,-0.998967385097
346872000000,,3947,,346,868170115,"""map""",,,-0.00533211138099,0.00573924509808,-0.012548211962,,0.00828356564321,-0.0149933432676,0.0420656315338,-0.9989680173
346904000000,,3948,,346,900170115,"""map""",,,-0.00493390951306,0.00567205715925,-0.0136395068839,,0.00828126995705,-0.0150087887705,0.0420756624838,-0.998967427244
346936000000,,3949,,346,932170115,"""map""",,,-0.00456354068592,0.00562652526423,-0.0147531116381,,0.00826302366437,-0.0150177495856,0.0421120773609,-0.998965909958
346972000000,,3950,,346,964169683,"""map""",,,-0.00388540700078,0.00507434736937,-0.0152605595067,,0.00826596176069,-0.0150149958817,0.0421555307617,-0.998964097643
347004000000,,3951,,346,996169683,"""map""",,,-0.00327884568833,0.00460465950891,-0.0159882660955,,0.00848326564326,-0.014980287952,0.0422029459663,-0.998960768042
347036000000,,3952,,347,28169683,"""map""",,,-0.00270751770586,0.00416738446802,-0.0167086645961,,0.0084916149998,-0.0150567011762,0.0422062755673,-0.998959377196
347072000000,,3953,,347,68169250,"""map""",,,-0.0020287015941,0.00371987815015,-0.017731230706,,0.00848604832308,-0.015051868118,0.0422290770123,-0.998958576406
347104000000,,3954,,347,100169250,"""map""",,,-0.00153082446195,0.00340897124261,-0.0185690689832,,0.00846269271283,-0.0150550590954,0.042230552152,-0.998958618553
347136000000,,3955,,347,132169250,"""map""",,,-0.00104641204234,0.00310576963238,-0.0194326341152,,0.00847414677745,-0.0150139705279,0.0422608135893,-0.998957859909
347172000000,,3956,,347,164168818,"""map""",,,-0.000541870074812,0.00278458627872,-0.020221311599,,0.00846556791815,-0.0150237215965,0.042254491562,-0.998958028497
347204000000,,3957,,347,196168818,"""map""",,,-7.09369342076e-05,0.00248030596413,-0.020996933803,,0.00839754619738,-0.0150129076371,0.0422641853371,-0.998958365672
347236000000,,3958,,347,228168818,"""map""",,,0.000366787367966,0.00219983770512,-0.0217204522341,,0.00836401014758,-0.0149735059314,0.0422696222806,-0.998959082168
347272000000,,3959,,347,268168385,"""map""",,,0.000876311794855,0.00188193051144,-0.02285855636,,0.00836087185373,-0.0149928444201,0.042247242304,-0.998959714371
347304000000,,3960,,347,300168385,"""map""",,,0.00125523714814,0.00165581889451,-0.0238982569426,,0.00832865190513,-0.0150341312095,0.0422379278505,-0.998959756518
347336000000,,3961,,347,332168385,"""map""",,,0.00157223723363,0.00149352184962,-0.0249096304178,,0.00837215601387,-0.0151149207912,0.0422194675309,-0.998958997874
347372000000,,3962,,347,364167952,"""map""",,,0.00187394022942,0.00137357413769,-0.026021676138,,0.00830564466492,-0.015116312625,0.0422237665094,-0.998959335049
347404000000,,3963,,347,396167952,"""map""",,,0.0021640714258,0.00126836821437,-0.0269001275301,,0.0083106091027,-0.0150389688775,0.0421538027409,-0.998963381147
347436000000,,3964,,347,428167952,"""map""",,,0.00245510111563,0.00117999827489,-0.0278110783547,,0.00821877737597,-0.0150578312385,0.0422036203158,-0.998961779566
347472000000,,3965,,347,468167518,"""map""",,,0.00282438844442,0.00104295404162,-0.0284589268267,,0.00817209381434,-0.0150319879764,0.0422316058232,-0.998961358098
347504000000,,3966,,347,500167518,"""map""",,,0.00312587828375,0.000979704316705,-0.0289820153266,,0.00814931805253,-0.0150232853107,0.0422456828707,-0.998961020923
347536000000,,3967,,347,532167518,"""map""",,,0.00339503050782,0.000909063674044,-0.0295922253281,,0.00819742143612,-0.0149876363209,0.0423061635983,-0.998958618553
347572000000,,3968,,347,564167084,"""map""",,,0.00364866247401,0.000847140152473,-0.0303594972938,,0.00818107208089,-0.0149812975007,0.0423228958971,-0.998958154937
347604000000,,3969,,347,596167084,"""map""",,,0.00388558511622,0.000807070347946,-0.0312127545476,,0.00816062361537,-0.0150078756985,0.0423201984988,-0.998958070644
347636000000,,3970,,347,628167084,"""map""",,,0.00412510754541,0.000783360621426,-0.0321639105678,,0.008173087558,-0.0150019208098,0.0423026654098,-0.998958829287
347672000000,,3971,,347,668166651,"""map""",,,0.00441372813657,0.000863500696141,-0.0324463807046,,0.008153227502,-0.0150216517911,0.042305404955,-0.998958534259
347704000000,,3972,,347,700166651,"""map""",,,0.00460401177406,0.000942162820138,-0.0327880308032,,0.00817933088921,-0.0150009458347,0.0423051520739,-0.998958618553
347736000000,,3973,,347,732166651,"""map""",,,0.00479775667191,0.00104617059696,-0.0332329384983,,0.00815767860433,-0.014983527991,0.0423558968795,-0.998956932679
347772000000,,3974,,347,764166217,"""map""",,,0.00496838940307,0.00116943777539,-0.0337235927582,,0.00817722354678,-0.0150074074734,0.042331831029,-0.998957480588
347804000000,,3975,,347,796166217,"""map""",,,0.00512723485008,0.00127603719011,-0.0342447012663,,0.0081461557218,-0.0149685352374,0.0423487319153,-0.998957607028
347836000000,,3976,,347,828166217,"""map""",,,0.00525977741927,0.00139801646583,-0.0347271822393,,0.00811619984922,-0.0149477173284,0.0423517243415,-0.99895798635
347872000000,,3977,,347,868165782,"""map""",,,0.00520637165755,0.00150408269837,-0.0344126336277,,0.00809308296136,-0.0149606662891,0.0423136235905,-0.99895958793
347904000000,,3978,,347,900165782,"""map""",,,0.00516042299569,0.00160556193441,-0.0342612229288,,0.00796486632129,-0.0149421513103,0.0423658856826,-0.9989586607
347936000000,,3979,,347,932165782,"""map""",,,0.0051132380031,0.00170541682746,-0.0342162884772,,0.00796979453912,-0.0149614443594,0.0424194543271,-0.998956089742
347972000000,,3980,,347,964165348,"""map""",,,0.00507590826601,0.00182565639261,-0.0341573618352,,0.00795730260834,-0.0149864328308,0.0424568385817,-0.998954193134
348004000000,,3981,,347,996165348,"""map""",,,0.00505828671157,0.00196827901527,-0.0340886227787,,0.00800349456649,-0.0149586537771,0.0424424243595,-0.998954867483
348036000000,,3982,,348,28165348,"""map""",,,0.00503326533362,0.00207229028456,-0.0340663976967,,0.00801003127928,-0.0149863534762,0.0425069933314,-0.998951664323
348072000000,,3983,,348,68164913,"""map""",,,0.0049856742844,0.00193930941168,-0.0335348546505,,0.00798224168886,-0.0149912573279,0.0425042537863,-0.998951959351
348104000000,,3984,,348,100164913,"""map""",,,0.00496025010943,0.00183217274025,-0.0332401394844,,0.00796243925551,-0.01500574399,0.042554956445,-0.998949725568
348136000000,,3985,,348,132164913,"""map""",,,0.00495872274041,0.00173484999686,-0.0330807939172,,0.00798421435893,-0.0150069968709,0.0425661675067,-0.998949051218
348172000000,,3986,,348,164164479,"""map""",,,0.00497613707557,0.00165112409741,-0.0329718962312,,0.00798076951261,-0.0150066827451,0.0425545771234,-0.998949599127
348204000000,,3987,,348,196164479,"""map""",,,0.00499833934009,0.00156120059546,-0.0330467447639,,0.00801209976758,-0.0149762006955,0.0425692020798,-0.998949135512
348236000000,,3988,,348,228164479,"""map""",,,0.00501694018021,0.00143529125489,-0.03315609321,,0.00803545834128,-0.0149718714239,0.0425144533236,-0.998951369295
348272000000,,3989,,348,268164044,"""map""",,,0.00527022173628,0.0010135875782,-0.0323524773121,,0.00800644879716,-0.0149978490291,0.0425369175939,-0.99895023133
348304000000,,3990,,348,300164044,"""map""",,,0.00545784644783,0.00069009931758,-0.031906157732,,0.00796472703913,-0.0149874008912,0.0425292468674,-0.998951074267
348336000000,,3991,,348,332164044,"""map""",,,0.00563444010913,0.000339461257681,-0.0316952541471,,0.0079187425225,-0.0150112056288,0.042579443764,-0.998948924778
348372000000,,3992,,348,364163609,"""map""",,,0.00580849125981,-3.75870149583e-06,-0.0316604785621,,0.00791719099163,-0.0150355744098,0.0425765777783,-0.99894875619
348404000000,,3993,,348,396163609,"""map""",,,0.00596202071756,-0.000368692155462,-0.0317295156419,,0.00790614983441,-0.015058969862,0.0426476373649,-0.998945468736
348436000000,,3994,,348,428163609,"""map""",,,0.00610006367788,-0.00073733687168,-0.0319589041173,,0.00796632861937,-0.0150553837579,0.0426402616664,-0.998945342295
348472000000,,3995,,348,468163173,"""map""",,,0.00616187229753,-0.00114951992873,-0.0315509438515,,0.00801545768603,-0.0150908592212,0.0426468365748,-0.99894407789
348504000000,,3996,,348,500163173,"""map""",,,0.00619929842651,-0.0014912072802,-0.0315489955246,,0.00800747909004,-0.0149995793548,0.0426693851387,-0.998944625799
348536000000,,3997,,348,532163173,"""map""",,,0.00623461836949,-0.00184510042891,-0.0317187793553,,0.00799940829782,-0.0149959148839,0.0426658448035,-0.99894487868
348572000000,,3998,,348,564162738,"""map""",,,0.00626751407981,-0.00220997538418,-0.0319439657032,,0.00795972605213,-0.0150052408619,0.0426818606059,-0.998944372918
348604000000,,3999,,348,596162738,"""map""",,,0.00632164347917,-0.00260152504779,-0.032237034291,,0.00794176951903,-0.0150581318641,0.0426397137574,-0.998945468736
348636000000,,4000,,348,628162738,"""map""",,,0.00634939223528,-0.00297455023974,-0.0325928404927,,0.00795952717169,-0.0150690525077,0.0426270697028,-0.998945721617
348672000000,,4001,,348,668162302,"""map""",,,0.00613522995263,-0.00348298926838,-0.0331124477088,,0.00798471946257,-0.0150602553409,0.0426625573493,-0.998944120037
348704000000,,4002,,348,700162302,"""map""",,,0.00600992748514,-0.00395497912541,-0.0333185531199,,0.00815947511375,-0.0150603748667,0.0426438441485,-0.998943529981
348736000000,,4003,,348,732162302,"""map""",,,0.00590212782845,-0.00443028379232,-0.0335087366402,,0.00811915605552,-0.0150863455572,0.0426310315066,-0.998944035743
348772000000,,4004,,348,764161867,"""map""",,,0.00581810669973,-0.00491020921618,-0.0337271764874,,0.00806404312419,-0.0150858430877,0.0426559402941,-0.99894340354
348804000000,,4005,,348,796161867,"""map""",,,0.00576697150245,-0.00537760462612,-0.0339996367693,,0.0080301284113,-0.0151293699163,0.0426497868542,-0.998943234953
348836000000,,4006,,348,828161867,"""map""",,,0.0057341880165,-0.0058632325381,-0.0342646948993,,0.00801459894399,-0.0152501400643,0.0427042827293,-0.998939231002
348872000000,,4007,,348,868167431,"""map""",,,0.0057531427592,-0.00624801777303,-0.0343943946064,,0.00797799210115,-0.0152760179,0.0427140186513,-0.998938683093
348904000000,,4008,,348,900167431,"""map""",,,0.0057984679006,-0.00663575949147,-0.0345114581287,,0.0079947043144,-0.0153549421544,0.0427546903601,-0.998935606373
348936000000,,4009,,348,932167431,"""map""",,,0.00586411217228,-0.00707231555134,-0.0345974043012,,0.00802418965693,-0.015340624409,0.0427524144303,-0.998935690667
348972000000,,4010,,348,964166994,"""map""",,,0.00596456602216,-0.00754444627091,-0.0347071960568,,0.00801960421152,-0.0153092111774,0.0427117848683,-0.998937966597
349004000000,,4011,,348,996166994,"""map""",,,0.00611099926755,-0.00804820656776,-0.034877371043,,0.00803095488466,-0.0153693837062,0.0426947996884,-0.998937671569
349036000000,,4012,,349,28166994,"""map""",,,0.00626334222034,-0.00857717171311,-0.035094730556,,0.00803860815966,-0.0153694670121,0.0426701859289,-0.998938683093
349072000000,,4013,,349,68166558,"""map""",,,0.00645029265434,-0.00881005451083,-0.0349688157439,,0.00805562231557,-0.0154182546234,0.0426753699912,-0.998937545128
349104000000,,4014,,349,100166558,"""map""",,,0.00663088355213,-0.00903729815036,-0.0350420363247,,0.00806955678809,-0.0154350399351,0.0426476373649,-0.998938388065
349136000000,,4015,,349,132166558,"""map""",,,0.00687200017273,-0.00933879520744,-0.0352208763361,,0.00802181000635,-0.015454735355,0.0426485645956,-0.998938388065
349168000000,,4016,,349,164166122,"""map""",,,0.00711242808029,-0.00969515554607,-0.0353961735964,,0.00799970991121,-0.0154760636359,0.0426333917301,-0.998938893828
349204000000,,4017,,349,196166122,"""map""",,,0.0073367622681,-0.0100947655737,-0.0355026200414,,0.00798391603827,-0.0155046991268,0.0426435912674,-0.998938135184
349236000000,,4018,,349,228166122,"""map""",,,0.00757766328752,-0.0105603784323,-0.0356029644608,,0.00794265855412,-0.0155015338326,0.042683209305,-0.998936870779
349272000000,,4019,,349,268165685,"""map""",,,0.0077249025926,-0.0111192846671,-0.0352456495166,,0.00793300626727,-0.0155127165769,0.0427044091698,-0.998935817108
349304000000,,4020,,349,300165685,"""map""",,,0.00787541642785,-0.0116247646511,-0.0351785346866,,0.00797592624703,-0.0155269003085,0.0427206357065,-0.998934594849
349336000000,,4021,,349,332165685,"""map""",,,0.00804957002401,-0.0121319005266,-0.0352593883872,,0.00796318999624,-0.0154977636653,0.0427481575986,-0.998933962646
349372000000,,4022,,349,364165248,"""map""",,,0.00826271716505,-0.0126886731014,-0.0354544222355,,0.00796414620287,-0.015503145291,0.0427537209826,-0.998933625472
349404000000,,4023,,349,396165248,"""map""",,,0.00850474089384,-0.0132892653346,-0.0356897711754,,0.00795665657618,-0.0154700343317,0.0427421727461,-0.99893472129
349444000000,,4024,,349,428165248,"""map""",,,0.00880284048617,-0.0138937942684,-0.0360150188208,,0.0079804468258,-0.0155965292071,0.0427503913816,-0.998932150332
349472000000,,4025,,349,468164811,"""map""",,,0.00897948164493,-0.0136958658695,-0.0349790342152,,0.00796690188236,-0.0155942717166,0.0427688517012,-0.998931475982
349504000000,,4026,,349,500164811,"""map""",,,0.00918227434158,-0.0136236082762,-0.0345317497849,,0.00801480901969,-0.0155835828807,0.0427966264744,-0.99893016943
349536000000,,4027,,349,532164811,"""map""",,,0.00944051891565,-0.0136483469978,-0.0340812914073,,0.00812861012048,-0.0156057211714,0.0428893495411,-0.998924943221
349572000000,,4028,,349,564164374,"""map""",,,0.00971530843526,-0.0137467542663,-0.0337954983115,,0.0081348603664,-0.015586961214,0.0428942807224,-0.998924901074
349604000000,,4029,,349,596164374,"""map""",,,0.0100061921403,-0.0139222852886,-0.0335670672357,,0.00812548137552,-0.0155670349743,0.0429454048496,-0.998923088759
349636000000,,4030,,349,636164374,"""map""",,,0.0103560946882,-0.0141575383022,-0.0333877056837,,0.00810897857942,-0.0156516022965,0.0429916399424,-0.998919927746
349672000000,,4031,,349,668163937,"""map""",,,0.0105602936819,-0.0141485705972,-0.0329410359263,,0.00810064338158,-0.0156635305132,0.0429915977956,-0.998919801305
349704000000,,4032,,349,700163937,"""map""",,,0.0107849435881,-0.0142240021378,-0.0325644351542,,0.00809399800895,-0.0156153849828,0.0430597492496,-0.99891773611
349736000000,,4033,,349,732163937,"""map""",,,0.0110626854002,-0.0143749555573,-0.0322240442038,,0.00805077904998,-0.0156516049307,0.043130050193,-0.998914448655
349772000000,,4034,,349,764163499,"""map""",,,0.0113773327321,-0.0145959276706,-0.0319576747715,,0.00805104411415,-0.0156587129309,0.0431509971767,-0.998913394984
349804000000,,4035,,349,796163499,"""map""",,,0.011691134423,-0.0148522369564,-0.031733866781,,0.00803349225665,-0.0156408746065,0.043233267825,-0.998910276117
349836000000,,4036,,349,828163499,"""map""",,,0.0120603721589,-0.0151522913948,-0.0315893515944,,0.00814036250577,-0.0156378568263,0.043233815734,-0.998909475327
349872000000,,4037,,349,868163061,"""map""",,,0.0123394969851,-0.0151319270954,-0.0308958832175,,0.0081336048513,-0.0156450859986,0.0432421186631,-0.998909011712
349904000000,,4038,,349,900163061,"""map""",,,0.0126187754795,-0.0152381910011,-0.0303959678859,,0.00811377475907,-0.0156743253748,0.0432504215923,-0.998908379509
349936000000,,4039,,349,932163061,"""map""",,,0.0129447709769,-0.0154563458636,-0.0298900827765,,0.00813793840343,-0.015727198267,0.0432689662056,-0.998906609342
349972000000,,4040,,349,964162623,"""map""",,,0.0133028365672,-0.0157487988472,-0.0293751899153,,0.00811833485052,-0.0157480188101,0.0432828325188,-0.998905808552
350004000000,,4041,,349,996162623,"""map""",,,0.0137206800282,-0.0161212887615,-0.0289002414793,,0.00810324792511,-0.0157235166739,0.0432697248489,-0.998906862223
350036000000,,4042,,350,28162623,"""map""",,,0.0141726415604,-0.0165455453098,-0.0286614596844,,0.00813485542732,-0.0157526085361,0.0433100593829,-0.998904375559
350072000000,,4043,,350,68162185,"""map""",,,0.0145187405869,-0.0166364014149,-0.0283036734909,,0.00814098680596,-0.0157243711354,0.0433329872685,-0.998903785503
350104000000,,4044,,350,100162185,"""map""",,,0.0148878740147,-0.0168090555817,-0.0280611142516,,0.00820344448419,-0.0157011706124,0.0433615628318,-0.998902436804
350136000000,,4045,,350,132162185,"""map""",,,0.0153210526332,-0.0170426759869,-0.0277978833765,,0.00817213431483,-0.0156330932446,0.0434007594009,-0.998902015335
350172000000,,4046,,350,164161747,"""map""",,,0.0158075522631,-0.0173479840159,-0.0275173466653,,0.00822783730203,-0.015648760677,0.0433679691528,-0.998902773978
350204000000,,4047,,350,196161747,"""map""",,,0.0163492672145,-0.0177326295525,-0.0272038131952,,0.00823265093312,-0.0156672568873,0.0433452520015,-0.998903406181
350236000000,,4048,,350,228161747,"""map""",,,0.0169538296759,-0.0181753002107,-0.026985803619,,0.00820618304152,-0.0155981989467,0.0433871459689,-0.998902900419
350272000000,,4049,,350,268161309,"""map""",,,0.0173825807869,-0.0182027649134,-0.0262245796621,,0.00844218036849,-0.0156087659519,0.0434217906783,-0.99889927579
350304000000,,4050,,350,300161309,"""map""",,,0.0178185887635,-0.0183704365045,-0.0255704615265,,0.00843183265864,-0.0156274218593,0.0434644854359,-0.998897210594
350340000000,,4051,,350,332161309,"""map""",,,0.0183005295694,-0.0186389293522,-0.0249627064914,,0.00837182114399,-0.0156888769035,0.0435068008718,-0.998894850371
350372000000,,4052,,350,364160871,"""map""",,,0.0188621748239,-0.0189948696643,-0.0244096517563,,0.00839110003446,-0.0156844020936,0.043544311567,-0.998893164497
350404000000,,4053,,350,396160871,"""map""",,,0.0194766335189,-0.0194056630135,-0.0239765178412,,0.00839251623442,-0.0157098834855,0.0435463346157,-0.998892658735
350436000000,,4054,,350,428160871,"""map""",,,0.0201547853649,-0.0198578257114,-0.0236219596118,,0.0083419568091,-0.0156593326212,0.0435478940491,-0.9988937967
350472000000,,4055,,350,468160432,"""map""",,,0.0206301640719,-0.0202027205378,-0.0231041498482,,0.00836293342731,-0.0156613234013,0.0435328054773,-0.998894218168
350504000000,,4056,,350,500160432,"""map""",,,0.0210971496999,-0.0205882582814,-0.0226820055395,,0.00838035456372,-0.0156587932733,0.0435524037619,-0.998893333084
350536000000,,4057,,350,532160432,"""map""",,,0.0216202922165,-0.0210146587342,-0.0222326256335,,0.00837070260614,-0.015678167982,0.0435506335942,-0.998893164497
350572000000,,4058,,350,564159993,"""map""",,,0.0222035255283,-0.0215014927089,-0.0218288395554,,0.00840163213677,-0.0157404435727,0.0435894086949,-0.998890214218
350604000000,,4059,,350,596159993,"""map""",,,0.0228500459343,-0.0220526661724,-0.0213843546808,,0.00846889389719,-0.0157838884124,0.0436062674343,-0.998888275463
350636000000,,4060,,350,628159993,"""map""",,,0.0235427618027,-0.0226422790438,-0.0209917034954,,0.00848930416712,-0.0157945614432,0.0436373296616,-0.998886547442
350672000000,,4061,,350,668159555,"""map""",,,0.0237989984453,-0.0227360259742,-0.0200345590711,,0.00849075757485,-0.0158283269958,0.0436296167884,-0.998886336708
350704000000,,4062,,350,700159555,"""map""",,,0.0241068061441,-0.0229408368468,-0.0193729363382,,0.00846642139183,-0.0157910339496,0.0436203866285,-0.998887558966
350736000000,,4063,,350,732159555,"""map""",,,0.0244823228568,-0.0232138708234,-0.0187726859003,,0.00848834038724,-0.0158186559404,0.0436780435173,-0.998884355806
350772000000,,4064,,350,764159116,"""map""",,,0.0249525159597,-0.0235285013914,-0.0182394534349,,0.00848763343971,-0.0158333556417,0.0436950708441,-0.998883428575
350804000000,,4065,,350,796159116,"""map""",,,0.0255174003541,-0.0239283423871,-0.0176211260259,,0.0084841207633,-0.0158015835033,0.043761030662,-0.998881026205
350836000000,,4066,,350,828159116,"""map""",,,0.0261611696333,-0.0244067516178,-0.0170297510922,,0.0084868431863,-0.0158433602498,0.0438104267685,-0.998878244513
350872000000,,4067,,350,868158677,"""map""",,,0.0264561213553,-0.0243777111173,-0.0160629525781,,0.00848232359534,-0.0158335341072,0.0438266533051,-0.998877696604
350904000000,,4068,,350,900158677,"""map""",,,0.0268360283226,-0.0244775600731,-0.0154308294877,,0.00846229857394,-0.0158057198214,0.0439234224693,-0.998874071975
350936000000,,4069,,350,932158677,"""map""",,,0.0272993966937,-0.0246427524835,-0.0148676196113,,0.00850520340718,-0.0157873049413,0.0439518715921,-0.998872765422
350972000000,,4070,,350,964158237,"""map""",,,0.0278652459383,-0.0248324815184,-0.0143060833216,,0.00848482408883,-0.0157998897268,0.0439311774895,-0.998873650506
351004000000,,4071,,350,996158237,"""map""",,,0.0285313408822,-0.0250728279352,-0.013796325773,,0.00872821522427,-0.0158468297916,0.0439258248397,-0.998870995255
351036000000,,4072,,351,28158237,"""map""",,,0.0292740222067,-0.0253916941583,-0.0131617365405,,0.00869799132407,-0.0159052762752,0.0439386374816,-0.998869730849
351072000000,,4073,,351,68157798,"""map""",,,0.0294941160828,-0.0251136124134,-0.0117515390739,,0.00872005388218,-0.015931877522,0.0439276371542,-0.998869604409
351104000000,,4074,,351,100157798,"""map""",,,0.0298136081547,-0.0250055920333,-0.0107086030766,,0.00867196531585,-0.0159100418325,0.0439525880885,-0.998869267234
351136000000,,4075,,351,132157798,"""map""",,,0.0302435457706,-0.0250214543194,-0.00976176653057,,0.00867674404407,-0.0159278880594,0.044009486334,-0.998866485542
351172000000,,4076,,351,164157359,"""map""",,,0.0307554174215,-0.0251546353102,-0.008928633295,,0.00863061695255,-0.0159375370535,0.0439997925588,-0.998867159891
351204000000,,4077,,351,196157359,"""map""",,,0.0313668362796,-0.0253857001662,-0.00819732621312,,0.00860571409198,-0.0159386980675,0.0440034593346,-0.998867202038
351236000000,,4078,,351,228157359,"""map""",,,0.032080642879,-0.0256891157478,-0.00747528998181,,0.00861926397451,-0.0159447069569,0.0439777076102,-0.998868087122
351272000000,,4079,,351,268156919,"""map""",,,0.0319515354931,-0.025242632255,-0.0063372165896,,0.0086232906449,-0.0159183477251,0.0439798570995,-0.99886838215
351304000000,,4080,,351,300156919,"""map""",,,0.0320156551898,-0.0250276383013,-0.00550696952268,,0.00862188728655,-0.0159595403426,0.0440018577544,-0.99886678057
351336000000,,4081,,351,332156919,"""map""",,,0.0322203338146,-0.0249126777053,-0.00469309091568,,0.00854899925114,-0.0159449499598,0.0441088686028,-0.998862945207
351372000000,,4082,,351,364150480,"""map""",,,0.0325414501131,-0.024886187166,-0.00392486620694,,0.0085096189481,-0.0159368149595,0.0441440612213,-0.998861807242
351404000000,,4083,,351,396150480,"""map""",,,0.0329623818398,-0.0249718371779,-0.00314694829285,,0.00849827321405,-0.015964057958,0.0441706137358,-0.998860289955
351436000000,,4084,,351,428150480,"""map""",,,0.0334911569953,-0.0251579005271,-0.00233844225295,,0.00848450831674,-0.0159572341198,0.0441879360906,-0.998859742046
351472000000,,4085,,351,468150040,"""map""",,,0.0333939418197,-0.0251177363098,-0.00169256608933,,0.00846449910041,-0.0159208455844,0.0441804760984,-0.998860880011
351504000000,,4086,,351,500150040,"""map""",,,0.0334878712893,-0.0252029784024,-0.00121542031411,,0.0085054012998,-0.0158962884597,0.0441600348769,-0.998861849389
351536000000,,4087,,351,532150040,"""map""",,,0.0336999855936,-0.025366242975,-0.000778175599407,,0.00851706708649,-0.0157005120679,0.044141363823,-0.998865600458
351572000000,,4088,,351,564149601,"""map""",,,0.03405463323,-0.0255893617868,-0.000253279577009,,0.00853671015207,-0.0156848808554,0.0441285933279,-0.998866316954
351604000000,,4089,,351,596149601,"""map""",,,0.0345108509064,-0.0258345995098,0.000228136996157,,0.00853126333045,-0.0156681399955,0.0441125353786,-0.998867286332
351636000000,,4090,,351,628149601,"""map""",,,0.0350858010352,-0.026128243655,0.000744558812585,,0.00848262158673,-0.0157151222071,0.0441599084363,-0.998864926108
351672000000,,4091,,351,668149161,"""map""",,,0.0350152365863,-0.0259793624282,0.00116827164311,,0.00848707499396,-0.0157141827933,0.044173353281,-0.998864293906
351704000000,,4092,,351,700149161,"""map""",,,0.0351559370756,-0.0259445142001,0.00157344271429,,0.00843570654671,-0.0157700951977,0.0441722153161,-0.99886383029
351736000000,,4093,,351,732149161,"""map""",,,0.0354575663805,-0.0259932167828,0.00205772230402,,0.00833962325663,-0.0158223141552,0.0441525748847,-0.998864673227
351772000000,,4094,,351,764148721,"""map""",,,0.0358839072287,-0.0261162780225,0.00260012550279,,0.0083046018597,-0.0158954810842,0.0441713302323,-0.9988630295
351804000000,,4095,,351,796148721,"""map""",,,0.0364135764539,-0.0263153128326,0.00313916429877,,0.00828096538022,-0.015911444203,0.044178916665,-0.998862608032
351836000000,,4096,,351,828148721,"""map""",,,0.0370200127363,-0.0265804436058,0.00357472663745,,0.00822651132267,-0.0159576164049,0.044275727976,-0.998858014025
351872000000,,4097,,351,868148281,"""map""",,,0.0368678458035,-0.0265458486974,0.00376723124646,,0.00824127556126,-0.015987251237,0.0442871076251,-0.998856918207
351904000000,,4098,,351,900148281,"""map""",,,0.036916654557,-0.0266232416034,0.00396075798199,,0.00821274971808,-0.0159024468387,0.044256804041,-0.998859910634
351936000000,,4099,,351,932148281,"""map""",,,0.0371409393847,-0.0267861634493,0.00415265373886,,0.00817640102469,-0.0160021132695,0.044256256132,-0.998858604081
351972000000,,4100,,351,964147842,"""map""",,,0.0375009700656,-0.0270156618208,0.00452570058405,,0.00813692589125,-0.0159837681951,0.044256804041,-0.998859236284
352004000000,,4101,,351,996147842,"""map""",,,0.0379599258304,-0.0272989459336,0.00495109148324,,0.00819047049883,-0.0160044731637,0.0443445116328,-0.998854557984
352036000000,,4102,,352,28147842,"""map""",,,0.0384998805821,-0.0276851747185,0.00533504644409,,0.00817401939848,-0.0159834056663,0.0443802100135,-0.998853420019
352072000000,,4103,,352,68147402,"""map""",,,0.0383741259575,-0.0273654963821,0.00517112202942,,0.00812373293985,-0.0159482235845,0.0443837924956,-0.998854220809
352104000000,,4104,,352,100147402,"""map""",,,0.0384519696236,-0.0272116400301,0.0051552252844,,0.00818741452305,-0.0159309456816,0.0444084905488,-0.998852956404
352136000000,,4105,,352,132147402,"""map""",,,0.0386767275631,-0.0271803513169,0.00519939977676,,0.00817907142267,-0.0159192453213,0.0444090384579,-0.998853167138
352172000000,,4106,,352,164146962,"""map""",,,0.0390156246722,-0.0272215846926,0.00533917779103,,0.00821225218771,-0.0158935403535,0.0444188586736,-0.99885287211
352204000000,,4107,,352,196146962,"""map""",,,0.0394594557583,-0.0273435674608,0.0055704866536,,0.00820338192246,-0.0158586463849,0.0444417444123,-0.998852492788
352236000000,,4108,,352,228146962,"""map""",,,0.0399830378592,-0.027531452477,0.00563244940713,,0.00821824197928,-0.015791732336,0.0444749139821,-0.998851944879
352272000000,,4109,,352,268146523,"""map""",,,0.0407668724656,-0.0278218332678,0.0057482062839,,0.00825907634859,-0.0157765627633,0.0444782014363,-0.998851691998
352304000000,,4110,,352,300146523,"""map""",,,0.041494295001,-0.0281155779958,0.00584790995345,,0.00828208688151,-0.015771006294,0.0444865886591,-0.998851144089
352336000000,,4111,,352,332146523,"""map""",,,0.042312681675,-0.0284691993147,0.00587802147493,,0.00829476583893,-0.0157650471247,0.0444828797365,-0.998851312676
352372000000,,4112,,352,364146083,"""map""",,,0.0422403626144,-0.0280822049826,0.00585696473718,,0.00831464104145,-0.0158065140261,0.0444891596169,-0.998850259005
352404000000,,4113,,352,396146083,"""map""",,,0.0422929786146,-0.0277958903462,0.00588885275647,,0.00829925447829,-0.0157742799187,0.0445106545096,-0.99884992183
352436000000,,4114,,352,428146083,"""map""",,,0.0424627624452,-0.0276306848973,0.00599926244467,,0.00828170953551,-0.0157210787421,0.0445517055401,-0.998849078893
352472000000,,4115,,352,468145643,"""map""",,,0.0428717844188,-0.0275590158999,0.00608370034024,,0.00830173883745,-0.0156994399574,0.0445786373763,-0.998848025222
352504000000,,4116,,352,500145643,"""map""",,,0.0433200523257,-0.0276044365019,0.0063157081604,,0.00827093541809,-0.0156631851066,0.0446085616387,-0.99884751946
352536000000,,4117,,352,532145643,"""map""",,,0.0439077466726,-0.0277457907796,0.00668352236971,,0.00833443952354,-0.0156892404201,0.0446789047289,-0.998843431216
352572000000,,4118,,352,564145203,"""map""",,,0.0434715859592,-0.02755086869,0.00717927468941,,0.00833420672805,-0.0156928370609,0.0447079439075,-0.998842124663
352604000000,,4119,,352,596145203,"""map""",,,0.0431900955737,-0.0274606030434,0.00766060547903,,0.00830442043068,-0.0156918719639,0.0447178905638,-0.998841871782
352636000000,,4120,,352,628145203,"""map""",,,0.0430476330221,-0.0274457670748,0.00831058062613,,0.00830819092726,-0.0157205123938,0.0447105570121,-0.998841787489
352672000000,,4121,,352,668144764,"""map""",,,0.0430640801787,-0.0275722295046,0.00916286557913,,0.00828926699228,-0.0157623167992,0.0447564127833,-0.998839258678
352704000000,,4122,,352,700144764,"""map""",,,0.0432214811444,-0.0278222560883,0.00987540278584,,0.00824045303917,-0.0157396523314,0.0448379247883,-0.998836308398
352736000000,,4123,,352,732144764,"""map""",,,0.0435068048537,-0.0281438864768,0.0106754265726,,0.00828871315635,-0.0156891426262,0.0448772056511,-0.998834959699
352772000000,,4124,,352,764144324,"""map""",,,0.0427432954311,-0.0279344003648,0.0119509780779,,0.00825042406157,-0.0156742555691,0.0448903554679,-0.998834959699
352804000000,,4125,,352,796144324,"""map""",,,0.0421661436558,-0.02780565992,0.0131769189611,,0.00824816393682,-0.0156915252402,0.0449520584541,-0.998831840832
352836000000,,4126,,352,828144324,"""map""",,,0.0417921878397,-0.0277768764645,0.014515593648,,0.00833412638562,-0.0156375680545,0.0449567789011,-0.998831756539
352872000000,,4127,,352,868143884,"""map""",,,0.0415646210313,-0.0278446804732,0.0161954332143,,0.00858132423758,-0.0156245907765,0.0449826149193,-0.998828764112
352904000000,,4128,,352,900143884,"""map""",,,0.0415479913354,-0.0280238147825,0.0175419412553,,0.00856752838869,-0.0155515298731,0.0450478582407,-0.998827078239
352936000000,,4129,,352,932143884,"""map""",,,0.0416718199849,-0.02827466093,0.0190452039242,,0.00857133082468,-0.0155969470536,0.0450260261732,-0.99882733112
352972000000,,4130,,352,964143445,"""map""",,,0.041060090065,-0.0277236010879,0.01993666403,,0.00851640788344,-0.0156282019053,0.04503609927,-0.998826867504
353004000000,,4131,,352,996143445,"""map""",,,0.0406878478825,-0.0273290835321,0.020900413394,,0.0085681144933,-0.0156268634135,0.0450526629815,-0.998825645246
353036000000,,4132,,353,28143445,"""map""",,,0.0404941700399,-0.0270376428962,0.0218308325857,,0.0085764905209,-0.0156101633834,0.045027206285,-0.998826993945
353072000000,,4133,,353,68143005,"""map""",,,0.0404798313975,-0.0268384329975,0.0231890846044,,0.0085840298677,-0.0155811133388,0.0450438542901,-0.998826614623
353104000000,,4134,,353,100143005,"""map""",,,0.0406504757702,-0.0267922282219,0.0242679994553,,0.00855179246767,-0.0156252282475,0.045061429526,-0.998825476658
353136000000,,4135,,353,132143005,"""map""",,,0.0409567840397,-0.0268705449998,0.0252956878394,,0.00857012766386,-0.015578849592,0.0451011318573,-0.998824212253
353172000000,,4136,,353,164142565,"""map""",,,0.0405016541481,-0.0264744535089,0.0259484890848,,0.00855305983657,-0.015585762663,0.0451164733101,-0.998823537903
353204000000,,4137,,353,196142565,"""map""",,,0.0402221381664,-0.0261692628264,0.0266979187727,,0.00858425212647,-0.0155960007252,0.0451349336298,-0.998822273498
353236000000,,4138,,353,228142565,"""map""",,,0.0400856658816,-0.0259585976601,0.0274878330529,,0.00855747274332,-0.0155752806101,0.0451506544043,-0.998822147057
353272000000,,4139,,353,268142126,"""map""",,,0.0401516593993,-0.0258301850408,0.0285553913563,,0.00858591297572,-0.015594519,0.0452039280208,-0.998819196778
353304000000,,4140,,353,300142126,"""map""",,,0.0403420440853,-0.025795513764,0.0294284168631,,0.00850515204071,-0.0156450422054,0.0452308177101,-0.998817848079
353336000000,,4141,,353,332142126,"""map""",,,0.0406526625156,-0.0258297324181,0.0304811894894,,0.0084064523533,-0.0156410563648,0.0452538720363,-0.998817721638
353372000000,,4142,,353,364141686,"""map""",,,0.0404532700777,-0.0253618806601,0.0309922415763,,0.00844500519516,-0.015620911159,0.0452388256114,-0.998818353841
353404000000,,4143,,353,396141686,"""map""",,,0.0404026396573,-0.0249908752739,0.0315641462803,,0.00846003581501,-0.0156079931499,0.0452018206784,-0.998820124009
353436000000,,4144,,353,428141686,"""map""",,,0.040490668267,-0.0247162710875,0.0322592183948,,0.00841021824007,-0.0155936210746,0.0451572293126,-0.998822821407
353472000000,,4145,,353,468141247,"""map""",,,0.0407756343484,-0.0245207846165,0.0332126580179,,0.00839406117984,-0.0156540560334,0.0451404127201,-0.99882277926
353504000000,,4146,,353,500141247,"""map""",,,0.0411248803139,-0.0244439486414,0.034006267786,,0.00842772860926,-0.0155769720816,0.0451484206213,-0.998823285022
353536000000,,4147,,353,532141247,"""map""",,,0.0416005700827,-0.0244296398014,0.0349140204489,,0.00838223470829,-0.0155802664505,0.0452003455387,-0.998821261973
353572000000,,4148,,353,564140808,"""map""",,,0.0412703529,-0.0239681508392,0.0353801399469,,0.00838098248591,-0.0155870056657,0.0452124416842,-0.998820629771
353604000000,,4149,,353,596140808,"""map""",,,0.0410936400294,-0.0236036591232,0.0359348095953,,0.0084003311821,-0.0154629036118,0.0451666702067,-0.998824507281
353636000000,,4150,,353,628140808,"""map""",,,0.0410593003035,-0.0233325697482,0.0365838855505,,0.008332156679,-0.0154414712807,0.045211092985,-0.998823411463
353672000000,,4151,,353,668140368,"""map""",,,0.0412045307457,-0.0231067612767,0.0374451503158,,0.00829109873383,-0.0154648038419,0.0452265608784,-0.998822694966
353704000000,,4152,,353,700140368,"""map""",,,0.0414805784822,-0.0230065062642,0.0381603501737,,0.00855037462134,-0.0154915312001,0.0452330093463,-0.998819786834
353736000000,,4153,,353,732140368,"""map""",,,0.0418877154589,-0.0229836627841,0.0390231348574,,0.00853032358744,-0.015581509124,0.0452511324911,-0.998817679491
353772000000,,4154,,353,764139929,"""map""",,,0.0418290197849,-0.0226647201926,0.0392431803048,,0.00855828670433,-0.0156007346724,0.0452547149732,-0.998817047289
353804000000,,4155,,353,796139929,"""map""",,,0.0418767370284,-0.0224455930293,0.0396136902273,,0.00848220308169,-0.0155860550567,0.0452700985729,-0.998817173729
353836000000,,4156,,353,828139929,"""map""",,,0.0420165359974,-0.0223031640053,0.0401239879429,,0.00846921724254,-0.0155770323384,0.0453264910563,-0.998814897799
353872000000,,4157,,353,868139490,"""map""",,,0.0422818847001,-0.0222111996263,0.0409822613001,,0.0084881971538,-0.0155972700697,0.0453634116955,-0.998812706163
353904000000,,4158,,353,900139490,"""map""",,,0.0426220484078,-0.0221937187016,0.0417753309011,,0.00847211911891,-0.015587135399,0.0453894584479,-0.998811863226
353936000000,,4159,,353,932139490,"""map""",,,0.0430720709264,-0.0222082957625,0.0426892824471,,0.00839149088062,-0.0156095904496,0.0453903435317,-0.998812158254
353972000000,,4160,,353,964139050,"""map""",,,0.0427834317088,-0.0216533765197,0.0435374081135,,0.00837436279652,-0.015621897988,0.0453990257825,-0.998811736786
354004000000,,4161,,354,4139050,"""map""",,,0.0426484644413,-0.021067628637,0.0446389913559,,0.00836534962711,-0.0156175611431,0.0454048841945,-0.998811610345
354036000000,,4162,,354,28139050,"""map""",,,0.0426869131625,-0.0207913350314,0.0453909933567,,0.00839482245729,-0.0156253672004,0.0453607564441,-0.998813254072
354072000000,,4163,,354,68138611,"""map""",,,0.0428980849683,-0.0204573031515,0.046776548028,,0.0084014609152,-0.0155846740889,0.0454111640749,-0.998811483905
354104000000,,4164,,354,100138611,"""map""",,,0.0431905910373,-0.0202769171447,0.0479695126414,,0.00838966440743,-0.0156259733906,0.0454312259748,-0.998810050912
354136000000,,4165,,354,132138611,"""map""",,,0.0435659587383,-0.0201709829271,0.0491873323917,,0.00834892717344,-0.0156324399684,0.0454390231418,-0.998809924471
354172000000,,4166,,354,164138172,"""map""",,,0.0432176589966,-0.0201461259276,0.0501236245036,,0.00827298085733,-0.0156065779378,0.0454135664453,-0.998812116107
354204000000,,4167,,354,196138172,"""map""",,,0.0430097207427,-0.0202046576887,0.0512557439506,,0.0082707905383,-0.0156069585765,0.0453889105389,-0.998813254072
354236000000,,4168,,354,228138172,"""map""",,,0.0429466031492,-0.0203437395394,0.0524562299252,,0.008246709212,-0.0155121541799,0.045399447251,-0.998814434184
354272000000,,4169,,354,268137733,"""map""",,,0.0430871099234,-0.0206201579422,0.0541031844914,,0.0082206354593,-0.0155081956688,0.0454187926545,-0.998813886275
354304000000,,4170,,354,300137733,"""map""",,,0.0433180108666,-0.0208824407309,0.0553407967091,,0.00821787846271,-0.0155611969772,0.0455019483866,-0.998809292268
354336000000,,4171,,354,332137733,"""map""",,,0.043640140444,-0.0211758799851,0.0566577538848,,0.00816209974289,-0.0154914571138,0.0454646484257,-0.998812537576
354372000000,,4172,,354,364137294,"""map""",,,0.043219756335,-0.0213026981801,0.0577759891748,,0.00820302433279,-0.0154815789462,0.0455069217147,-0.998810388087
354404000000,,4173,,354,396137294,"""map""",,,0.0429586656392,-0.021461410448,0.0589801818132,,0.0081780944719,-0.0155594162729,0.04550350782,-0.998809587296
354436000000,,4174,,354,428137294,"""map""",,,0.0428382307291,-0.0216422267258,0.0601224005222,,0.00816354393099,-0.0153277080463,0.0454593800696,-0.998815277121
354472000000,,4175,,354,468136855,"""map""",,,0.042964078486,-0.021933702752,0.0617325156927,,0.00815701643783,-0.0153665806115,0.0454647327194,-0.998814476331
354504000000,,4176,,354,500136855,"""map""",,,0.0431986115873,-0.0222375113517,0.0630994141102,,0.00816303882735,-0.0153516652369,0.0455546740941,-0.998810598821
354536000000,,4177,,354,532136855,"""map""",,,0.0435174256563,-0.0225518010557,0.0644848644733,,0.008199339447,-0.0153418354723,0.0455969052363,-0.998808491478
354572000000,,4178,,354,564136417,"""map""",,,0.0431979820132,-0.0224504061043,0.0650328174233,,0.00819907998046,-0.015364601356,0.0456478186293,-0.99880579408
354604000000,,4179,,354,596136417,"""map""",,,0.0430403128266,-0.0223880689591,0.0658000186086,,0.00820310434595,-0.0154012328942,0.04567656278,-0.998803939619
354636000000,,4180,,354,628136417,"""map""",,,0.0430419668555,-0.0223800428212,0.0667050182819,,0.00823652877245,-0.0154268008847,0.0456608841523,-0.998803939619
354672000000,,4181,,354,668135978,"""map""",,,0.0432600229979,-0.0224720928818,0.0679537206888,,0.00823366509166,-0.0154362842549,0.0456838963316,-0.998802759507
354704000000,,4182,,354,700135978,"""map""",,,0.0435150638223,-0.0226316619664,0.0689178183675,,0.00821127194421,-0.0155052391333,0.0456498838249,-0.99880339171
354736000000,,4183,,354,732135978,"""map""",,,0.0438737310469,-0.0228565800935,0.0699014812708,,0.00819784784369,-0.0155391281629,0.0456010356275,-0.998805204024
354772000000,,4184,,354,764135539,"""map""",,,0.0435867495835,-0.0227078534663,0.0704481303692,,0.00819240233915,-0.0156039849188,0.0456189058912,-0.99880351815
354804000000,,4185,,354,804135539,"""map""",,,0.0434493981302,-0.0226443167776,0.0712645053864,,0.00814919984379,-0.0155983313142,0.0456334887008,-0.998803265269
354836000000,,4186,,354,828135539,"""map""",,,0.0434800423682,-0.022681966424,0.0718366727233,,0.0081615228579,-0.0156133695073,0.0456797659405,-0.998800820752
354872000000,,4187,,354,868135101,"""map""",,,0.0437053702772,-0.0228478312492,0.0729288607836,,0.0081627724461,-0.015633883498,0.0456724745357,-0.998800778605
354904000000,,4188,,354,900135101,"""map""",,,0.0440391674638,-0.0230494178832,0.0739228278399,,0.00814185476762,-0.0156098225866,0.0457090158533,-0.99879964064
354936000000,,4189,,354,932135101,"""map""",,,0.0445320941508,-0.023304194212,0.0749029889703,,0.00815995716833,-0.0156129411241,0.0457356948084,-0.998798249794
354972000000,,4190,,354,964134663,"""map""",,,0.0443404465914,-0.0231581926346,0.0751765221357,,0.00813565358326,-0.0156045492914,0.0457412160456,-0.998798291941
355004000000,,4191,,354,996134663,"""map""",,,0.0443252064288,-0.023063108325,0.0755238309503,,0.00811405167704,-0.0155654571016,0.0457784317128,-0.998797406857
355036000000,,4192,,355,28134663,"""map""",,,0.0444568395615,-0.0230445545167,0.0760206729174,,0.00814544317665,-0.0155680702062,0.0458150573242,-0.998795425955
355072000000,,4193,,355,68134224,"""map""",,,0.0447898134589,-0.0231430660933,0.0768831521273,,0.00811492589487,-0.0155579763653,0.0458147622963,-0.998795889571
355104000000,,4194,,355,100134224,"""map""",,,0.0452107675374,-0.0233126673847,0.0776929035783,,0.00814249783633,-0.0155426902302,0.0458527366068,-0.998794077256
355140000000,,4195,,355,132134224,"""map""",,,0.0457548424602,-0.0235644299537,0.0785608962178,,0.00808268520212,-0.0155777600301,0.0458150573242,-0.998795847424
355172000000,,4196,,355,164133786,"""map""",,,0.0460509061813,-0.0236847437918,0.0787112265825,,0.00801927921981,-0.0155844231835,0.0458338969655,-0.998795383808
355204000000,,4197,,355,196133786,"""map""",,,0.0464660190046,-0.0238587837666,0.0790450498462,,0.00803282449252,-0.0155613421863,0.0458673194163,-0.998793992962
355236000000,,4198,,355,228133786,"""map""",,,0.0470070429146,-0.024064142257,0.0796634852886,,0.00800942377197,-0.0156129338801,0.045843759328,-0.998794540871
355272000000,,4199,,355,268133348,"""map""",,,0.047859903425,-0.0243916064501,0.0807294845581,,0.00800777806925,-0.0155700066564,0.0458489855372,-0.99879496234
355304000000,,4200,,355,300133348,"""map""",,,0.0486672930419,-0.0247069075704,0.0817679911852,,0.00797918703016,-0.015546006331,0.0458722927445,-0.998794498725
355336000000,,4201,,355,332133348,"""map""",,,0.0495686084032,-0.025097720325,0.0829175561666,,0.00795311657018,-0.0155351350783,0.0458823236944,-0.998794414431
355372000000,,4202,,355,372132910,"""map""",,,0.0493568964303,-0.0248579196632,0.083494476974,,0.00795540270744,-0.0155670590111,0.0459047458178,-0.998792897144
355404000000,,4203,,355,396132910,"""map""",,,0.0493223555386,-0.0247779637575,0.0838998705149,,0.00794028483044,-0.0155459437693,0.0458882664001,-0.998794119403
355436000000,,4204,,355,428132910,"""map""",,,0.0494198054075,-0.0247498583049,0.0844866782427,,0.00796852420676,-0.0155078789089,0.0458982552032,-0.998793992962
355472000000,,4205,,355,468132472,"""map""",,,0.0497607700527,-0.0248131752014,0.0853216275573,,0.00796553606105,-0.0155485463372,0.0458843045963,-0.998794035109
355504000000,,4206,,355,500132472,"""map""",,,0.0501570627093,-0.0249324813485,0.086152471602,,0.00793946164981,-0.015535300373,0.0458765074293,-0.998794751606
355536000000,,4207,,355,532132472,"""map""",,,0.05065042153,-0.0251361597329,0.0869779214263,,0.0079364972117,-0.0155139118352,0.0458839252747,-0.998794835899
355572000000,,4208,,355,564132035,"""map""",,,0.0501492656767,-0.0249031223357,0.0869735181332,,0.00820434636089,-0.0155404557887,0.0458784883312,-0.998792433529
355604000000,,4209,,355,596132035,"""map""",,,0.0498469546437,-0.0248126015067,0.0872601047158,,0.00816999239881,-0.0156384699312,0.045908581181,-0.998789820424
355636000000,,4210,,355,628132035,"""map""",,,0.0497385449708,-0.0248133800924,0.0877109393477,,0.00818321202127,-0.0156021986168,0.0458594379557,-0.998792602116
355672000000,,4211,,355,668131597,"""map""",,,0.0497954376042,-0.0249371584505,0.088484749198,,0.00814581327866,-0.0155836816623,0.0458475103975,-0.998793655788
355704000000,,4212,,355,700131597,"""map""",,,0.0500116795301,-0.0251327715814,0.0893021374941,,0.00813164633993,-0.0156020106024,0.0458710704859,-0.998792433529
355736000000,,4213,,355,732131597,"""map""",,,0.0503441393375,-0.0254371333867,0.0902710482478,,0.00812058312147,-0.0155439977703,0.0458661393046,-0.998793655788
355772000000,,4214,,355,764131160,"""map""",,,0.049817956984,-0.0252999868244,0.0905289798975,,0.00814766477654,-0.0155629694497,0.0458578363754,-0.998793529347
355804000000,,4215,,355,796131160,"""map""",,,0.0494890362024,-0.0252700205892,0.0910410061479,,0.00814373194874,-0.0155557359969,0.0458759595203,-0.998792854998
355836000000,,4216,,355,828131160,"""map""",,,0.0493402257562,-0.0253327339888,0.0917154178023,,0.00803318438709,-0.0155680287179,0.0459351336956,-0.998790831949
355872000000,,4217,,355,868130722,"""map""",,,0.0493985451758,-0.0255458150059,0.092710621655,,0.00805807802804,-0.0155724850886,0.0459624448534,-0.998789314662
355904000000,,4218,,355,900130722,"""map""",,,0.0495995618403,-0.0258100628853,0.093646928668,,0.00810986695596,-0.0156521311078,0.0459938442556,-0.998786153649
355936000000,,4219,,355,932130722,"""map""",,,0.0499211065471,-0.0261761043221,0.0945595130324,,0.0080829216196,-0.0155936474164,0.0460064883101,-0.998786743704
355972000000,,4220,,355,964130285,"""map""",,,0.0494758561254,-0.026042079553,0.0947644263506,,0.00804336515591,-0.0155698492642,0.0460328300904,-0.998786195795
356004000000,,4221,,355,996130285,"""map""",,,0.049188785255,-0.0259951148182,0.0950875431299,,0.00804765557338,-0.015603367204,0.0460216190287,-0.998786195795
356036000000,,4222,,356,28130285,"""map""",,,0.0490276366472,-0.0260575134307,0.0955283641815,,0.00801056404179,-0.0155885838677,0.0459602110705,-0.998789525396
356072000000,,4223,,356,68129848,"""map""",,,0.0490038283169,-0.0262395050377,0.0962385460734,,0.00800100329262,-0.0155760675707,0.0459838554525,-0.998788724606
356104000000,,4224,,356,100129848,"""map""",,,0.0491565577686,-0.026456547901,0.0970802381635,,0.00794026704974,-0.0155764547949,0.0460216190287,-0.998787460201
356136000000,,4225,,356,132129848,"""map""",,,0.0494327396154,-0.0266994386911,0.0979591310024,,0.00793726276969,-0.0155334347164,0.0459827596344,-0.998789989012
356172000000,,4226,,356,164129411,"""map""",,,0.0489207357168,-0.0264283251017,0.0979528203607,,0.00795113171703,-0.0155352075182,0.0459943500178,-0.998789272515
356204000000,,4227,,356,196129411,"""map""",,,0.0485826805234,-0.0262548495084,0.0981808900833,,0.00797683240427,-0.0154907409467,0.0459894188365,-0.998789989012
356236000000,,4228,,356,228129411,"""map""",,,0.0484235920012,-0.0261402819306,0.0985458642244,,0.0079574040242,-0.0154948858258,0.0459764376071,-0.998790663361
356272000000,,4229,,356,268128975,"""map""",,,0.0484458580613,-0.0260555613786,0.0993214100599,,0.00796590715088,-0.0154834719324,0.0459684297059,-0.998791169124
356304000000,,4230,,356,300128975,"""map""",,,0.0486383512616,-0.0260374583304,0.100133508444,,0.00798702338053,-0.0154617208658,0.045966195923,-0.998791379858
356336000000,,4231,,356,332128975,"""map""",,,0.0489396266639,-0.0260896403342,0.101037368178,,0.00802424069413,-0.0154907794715,0.0459611383011,-0.998790958389
356372000000,,4232,,356,364128538,"""map""",,,0.0483664274216,-0.0254363790154,0.101064108312,,0.00805684161073,-0.0155241963248,0.0459476934565,-0.998790747655
356404000000,,4233,,356,396128538,"""map""",,,0.0479941815138,-0.0249069072306,0.101426377892,,0.0081050780203,-0.0152889148357,0.0459398119958,-0.998794330137
356436000000,,4234,,356,428128538,"""map""",,,0.0477933622897,-0.0244498960674,0.102003648877,,0.00819751462016,-0.0152896306735,0.0459610540074,-0.998792644263
356472000000,,4235,,356,468128102,"""map""",,,0.0477413535118,-0.0239617507905,0.102773010731,,0.00821259100886,-0.0152963178637,0.0459679660906,-0.998792054207
356504000000,,4236,,356,500128102,"""map""",,,0.0478365272284,-0.0236200522631,0.103250198066,,0.00816902170421,-0.0153506793958,0.0460096493238,-0.998789651837
356536000000,,4237,,356,532128102,"""map""",,,0.048024751246,-0.0233401171863,0.103802151978,,0.00816154096787,-0.0153704011574,0.0459159990264,-0.998793782228
356572000000,,4238,,356,564127665,"""map""",,,0.0474650487304,-0.0228301733732,0.103281527758,,0.00813269375497,-0.0153668374438,0.0459272943818,-0.998793529347
356604000000,,4239,,356,596127665,"""map""",,,0.0471085198224,-0.0224181823432,0.103030525148,,0.0081092186189,-0.015393465691,0.0458870019946,-0.998795130927
356636000000,,4240,,356,628127665,"""map""",,,0.0468884073198,-0.0220858305693,0.103012442589,,0.00810916297188,-0.0154352467181,0.0458445179713,-0.998796479627
356672000000,,4241,,356,668127229,"""map""",,,0.0467999428511,-0.0217514969409,0.103097468615,,0.00811578529546,-0.015440941811,0.04583958679,-0.998796521773
356704000000,,4242,,356,700127229,"""map""",,,0.0468734242022,-0.021580895409,0.103389412165,,0.00812235526474,-0.0154353965369,0.0458163217296,-0.998797617591
356736000000,,4243,,356,732127229,"""map""",,,0.0470925457776,-0.0214748177677,0.103950001299,,0.00815882578886,-0.0154402826079,0.045834318434,-0.998796395333
356772000000,,4244,,356,764126793,"""map""",,,0.0466073267162,-0.0210261158645,0.104090154171,,0.00813430554265,-0.0154201271947,0.04584266351,-0.99879656392
356804000000,,4245,,356,796126793,"""map""",,,0.0462982170284,-0.0206889417022,0.10433576256,,0.00812929829949,-0.0154659615632,0.0458098732618,-0.998797406857
356836000000,,4246,,356,828126793,"""map""",,,0.0461544468999,-0.0204561222345,0.104644156992,,0.00805448896047,-0.0153943237745,0.0458125706601,-0.998798924144
356872000000,,4247,,356,868126357,"""map""",,,0.0461849160492,-0.0202696397901,0.105180330575,,0.00807242409087,-0.0154047139605,0.0458018653606,-0.998799177025
356904000000,,4248,,356,900126357,"""map""",,,0.0463426411152,-0.0201733577996,0.105818845332,,0.00798913862549,-0.0154075173845,0.0458043098778,-0.998799682787
356936000000,,4249,,356,932126357,"""map""",,,0.0466126911342,-0.020105695352,0.106558032334,,0.00795036846395,-0.0153954373733,0.0458187662469,-0.998799556346
356972000000,,4250,,356,964125922,"""map""",,,0.0462417267263,-0.0196978431195,0.106524862349,,0.00797075634337,-0.0153746016836,0.0458133714503,-0.998799893521
357004000000,,4251,,356,996125922,"""map""",,,0.0460433736444,-0.0193602442741,0.106580115855,,0.0079809239413,-0.0153304689941,0.0458269427355,-0.998799893521
357036000000,,4252,,357,28125922,"""map""",,,0.0460009910166,-0.0190806686878,0.106875047088,,0.00791690814677,-0.0153776919037,0.0458083138284,-0.998800567871
357072000000,,4253,,357,68125486,"""map""",,,0.046113666147,-0.018857864663,0.107488296926,,0.00794897202032,-0.0153899138312,0.0457801175868,-0.998801368661
357104000000,,4254,,357,100125486,"""map""",,,0.0463835820556,-0.0187309272587,0.108122222126,,0.00798542443447,-0.0154353501095,0.0457940260468,-0.998799767081
357136000000,,4255,,357,132125486,"""map""",,,0.0467763878405,-0.0186317171901,0.108906514943,,0.00802616133919,-0.0154288469825,0.0458088617375,-0.99879883985
357172000000,,4256,,357,164125051,"""map""",,,0.0464371554554,-0.0182171333581,0.108523085713,,0.00802635034146,-0.0154265005884,0.0458370158323,-0.998797575445
357204000000,,4257,,357,196125051,"""map""",,,0.0462709888816,-0.0178935043514,0.108336098492,,0.00801691241084,-0.0154129763892,0.0458752851707,-0.998796142452
357236000000,,4258,,357,228125051,"""map""",,,0.0462494269013,-0.0176553837955,0.108347900212,,0.00801219262236,-0.0153631976683,0.0459139338308,-0.998795173074
357272000000,,4259,,357,268124616,"""map""",,,0.0464093051851,-0.0174538530409,0.108636006713,,0.00801159729812,-0.0153693985234,0.0459046615241,-0.998795510249
357304000000,,4260,,357,300124616,"""map""",,,0.0466862432659,-0.017328850925,0.109032429755,,0.00803522817997,-0.0153086125604,0.0458934926093,-0.998796732508
357336000000,,4261,,357,332124616,"""map""",,,0.0471029616892,-0.0172313563526,0.109483882785,,0.00801562693197,-0.015289101533,0.0459303711017,-0.998795510249
357372000000,,4262,,357,364130181,"""map""",,,0.0466937385499,-0.0168216899037,0.109125189483,,0.00824175366458,-0.0153109010026,0.0459613068885,-0.99879188562
357404000000,,4263,,357,396130181,"""map""",,,0.0464203953743,-0.0164948105812,0.109038516879,,0.00825123209568,-0.0153189899048,0.0459851620048,-0.998790621215
357436000000,,4264,,357,428130181,"""map""",,,0.0462898015976,-0.0162395015359,0.109177842736,,0.00821426799245,-0.0152412750674,0.0459757632576,-0.998792517823
357472000000,,4265,,357,468129746,"""map""",,,0.0463397726417,-0.0159935876727,0.109519608319,,0.00819615670139,-0.0152460600518,0.0459768590756,-0.998792517823
357504000000,,4266,,357,500129746,"""map""",,,0.0465328581631,-0.0158482361585,0.110007308424,,0.0082819090745,-0.0152876886258,0.0459868900256,-0.998790747655
357536000000,,4267,,357,532129746,"""map""",,,0.0468172356486,-0.0157307591289,0.110667094588,,0.00827468385343,-0.015311517071,0.0460443783269,-0.998787797376
357572000000,,4268,,357,572141312,"""map""",,,0.0472971610725,-0.0156059032306,0.111700169742,,0.00827229498322,-0.0152822773656,0.0460603519825,-0.998787586641
357604000000,,4269,,357,596141312,"""map""",,,0.0476541146636,-0.0155459679663,0.112363114953,,0.0082402403293,-0.0153217340598,0.0460748504984,-0.998786575117
357636000000,,4270,,357,628141312,"""map""",,,0.0481935814023,-0.0154973417521,0.113396972418,,0.00821235920119,-0.015306293496,0.0460945330767,-0.998786027208
357672000000,,4271,,357,668140877,"""map""",,,0.0476385317743,-0.0153085747734,0.113975942135,,0.00822017579523,-0.0153518874957,0.0460612792132,-0.998786827998
357704000000,,4272,,357,700140877,"""map""",,,0.047394733876,-0.015222651884,0.114618487656,,0.00823022287951,-0.0153415717252,0.0461059127258,-0.998784847096
357736000000,,4273,,357,732140877,"""map""",,,0.047297347337,-0.0151712503284,0.115352861583,,0.00817971877193,-0.0153499316185,0.0461679950336,-0.998782276139
357772000000,,4274,,357,764140442,"""map""",,,0.047304213047,-0.0151937445626,0.116088218987,,0.00810701084843,-0.015330785754,0.0462017968061,-0.998781601789
