rosbagTimestamp,header,seq,stamp,secs,nsecs,frame_id,pose,position,x,y,z,orientation,x,y,z,w
3146176000000,,25718,,3146,168319721,"""map""",,,-0.234885379672,0.0275082383305,0.0422145463526,,-0.000711261860186,-0.0015522255841,0.0515416760719,-0.998669449025
3146208000000,,25719,,3146,200319721,"""map""",,,-0.235384777188,0.0283024050295,0.0421742908657,,-0.000722725226755,-0.00155609445077,0.0514723023593,-0.99867298936
3146244000000,,25720,,3146,240318831,"""map""",,,-0.235830202699,0.0290352087468,0.0421201735735,,-0.000691051540827,-0.00148179564838,0.051479340883,-0.998672778626
3146276000000,,25721,,3146,272318831,"""map""",,,-0.2365539819,0.0299725141376,0.0420972332358,,-0.000674211528782,-0.00149843595681,0.0514406922229,-0.998674759528
3146308000000,,25722,,3146,304318831,"""map""",,,-0.23765103519,0.0312264468521,0.042082965374,,-0.00065507377263,-0.00147966772644,0.0514509339071,-0.998674211619
3146344000000,,25723,,3146,344317940,"""map""",,,-0.238765135407,0.0324869602919,0.0421404764056,,-0.000611596170305,-0.00151061437923,0.0514135496524,-0.998676108227
3146376000000,,25724,,3146,368317940,"""map""",,,-0.239280432463,0.0330912284553,0.0421813726425,,-0.000564189856081,-0.00152595583209,0.0514162470507,-0.998676023933
3146408000000,,25725,,3146,400317940,"""map""",,,-0.239815220237,0.0337323844433,0.0423713475466,,-0.000501694681977,-0.00152807251762,0.0513759125167,-0.998678089129
3146444000000,,25726,,3146,440317050,"""map""",,,-0.240294039249,0.0342931896448,0.0426940061152,,-0.000497362364613,-0.00151020134835,0.0513849740891,-0.998677709807
3146476000000,,25727,,3146,472317050,"""map""",,,-0.240963026881,0.0350795611739,0.0427202060819,,-0.000482972632046,-0.00149510244566,0.05134885424,-0.998679606416
3146508000000,,25728,,3146,504317050,"""map""",,,-0.241872161627,0.036136996001,0.0426195673645,,-0.000425258367593,-0.00150133384075,0.0512658249484,-0.9986838211
3146544000000,,25729,,3146,544316159,"""map""",,,-0.242756158113,0.0372173041105,0.0424287654459,,-0.00041182788742,-0.00153485404432,0.0512397360492,-0.998685127653
3146576000000,,25730,,3146,568316159,"""map""",,,-0.243155792356,0.0377623736858,0.0423289164901,,-0.000336252373027,-0.00155850200717,0.0512665414448,-0.998683778954
3146608000000,,25731,,3146,600316159,"""map""",,,-0.243549779058,0.0383032783866,0.042350910604,,-0.000192328252829,-0.00154642730551,0.0513162325792,-0.99868129229
3146644000000,,25732,,3146,640315268,"""map""",,,-0.243883550167,0.038763795048,0.0424073822796,,-0.000159424076487,-0.00154652147737,0.0512804499048,-0.998683104604
3146676000000,,25733,,3146,672315268,"""map""",,,-0.244483053684,0.0393805168569,0.0423067212105,,-0.000152443257748,-0.00158678595872,0.0512513264325,-0.998684579744
3146708000000,,25734,,3146,704315268,"""map""",,,-0.245379805565,0.0402428023517,0.0421292744577,,-0.000180339450061,-0.00161546894709,0.051284032387,-0.998682809576
3146744000000,,25735,,3146,744314377,"""map""",,,-0.24629150331,0.0410619340837,0.0420667342842,,-0.000167623531838,-0.00171184290225,0.0512264176451,-0.998685633415
3146776000000,,25736,,3146,768314377,"""map""",,,-0.246732935309,0.0414385385811,0.042112134397,,-0.00016159784959,-0.00174775135863,0.0512407897204,-0.998684832625
3146808000000,,25737,,3146,800314377,"""map""",,,-0.247225657105,0.0418409705162,0.0421771332622,,-0.000175404317518,-0.00169813439281,0.0512754765767,-0.998683104604
3146844000000,,25738,,3146,840313485,"""map""",,,-0.247686505318,0.0422163754702,0.0423416830599,,-0.000209392211165,-0.00176255066472,0.051271767654,-0.998683188898
3146876000000,,25739,,3146,872313485,"""map""",,,-0.248373046517,0.0428243875504,0.0423503145576,,-0.000242305524812,-0.00174914327477,0.0512585335436,-0.998683863247
3146908000000,,25740,,3146,904313485,"""map""",,,-0.249344855547,0.0437063798308,0.0421879217029,,-0.000283962745481,-0.00169657775823,0.0512775839191,-0.99868302031
3146944000000,,25741,,3146,936312594,"""map""",,,-0.250129729509,0.0444447360933,0.041974157095,,-0.000275705996758,-0.00166277573877,0.0512801548769,-0.99868289387
3146976000000,,25742,,3146,968312594,"""map""",,,-0.250765174627,0.0450294613838,0.0417704842985,,-0.000280705008118,-0.00163777738925,0.0512800284364,-0.998682936017
3147008000000,,25743,,3147,312594,"""map""",,,-0.251270353794,0.0455071553588,0.0416263565421,,-0.00022740208637,-0.00172864237264,0.0513038835526,-0.998681587317
3147044000000,,25744,,3147,40311702,"""map""",,,-0.251730233431,0.0459500215948,0.0415589474142,,-0.000229995434642,-0.00174570674257,0.0512576063129,-0.998683947541
3147076000000,,25745,,3147,72311702,"""map""",,,-0.252358585596,0.0465326607227,0.0416530668736,,-0.000239199417322,-0.00177563495628,0.0512270077009,-0.998685464828
3147108000000,,25746,,3147,104311702,"""map""",,,-0.253224819899,0.0473111048341,0.0416711941361,,-0.000290638658112,-0.00175438652382,0.0511901713553,-0.998687403583
3147144000000,,25747,,3147,144322811,"""map""",,,-0.254097640514,0.048105891794,0.0414631702006,,-0.00028975159866,-0.00176098398734,0.0511703201897,-0.99868837296
3147176000000,,25748,,3147,168322811,"""map""",,,-0.254519730806,0.0484904907644,0.0412454009056,,-0.000296796460852,-0.0017770947025,0.0511420396543,-0.998689763806
3147208000000,,25749,,3147,200322811,"""map""",,,-0.254997014999,0.0489077009261,0.0412016622722,,-0.000330404127364,-0.00182839334404,0.0511445263184,-0.998689553072
3147244000000,,25750,,3147,240321919,"""map""",,,-0.255449622869,0.0493042767048,0.0409910753369,,-0.00026238158341,-0.00180813750279,0.0511279626069,-0.998690438156
3147276000000,,25751,,3147,272321919,"""map""",,,-0.256022393703,0.049831867218,0.0407394841313,,-0.000213923244334,-0.00184300002586,0.0511569174919,-0.998688963016
3147308000000,,25752,,3147,304321919,"""map""",,,-0.256778299809,0.0505318492651,0.0405013523996,,-0.000190875009736,-0.00182728155627,0.0511564538765,-0.998689005163
3147344000000,,25753,,3147,344321026,"""map""",,,-0.25750887394,0.0512484684587,0.0403719879687,,-0.000137014712379,-0.00190690230378,0.0511184374192,-0.99869077533
3147376000000,,25754,,3147,368321026,"""map""",,,-0.257868975401,0.0516054481268,0.0402583144605,,-0.000114797313995,-0.00169231220082,0.0511070999169,-0.998691744708
3147408000000,,25755,,3147,400321026,"""map""",,,-0.258222311735,0.0520159676671,0.0401976816356,,-0.000111980636817,-0.00169885903873,0.051067861201,-0.99869372561
3147444000000,,25756,,3147,440320134,"""map""",,,-0.258488446474,0.0524144768715,0.0401290953159,,-9.47140937257e-05,-0.00170867316289,0.0510214575207,-0.99869612798
3147476000000,,25757,,3147,472320134,"""map""",,,-0.258862793446,0.0529675669968,0.0401817336679,,-0.000137488123562,-0.00173185137771,0.0510231855415,-0.998695917246
3147508000000,,25758,,3147,504320134,"""map""",,,-0.259410381317,0.0537416040897,0.0401735790074,,-0.000155491413322,-0.00177821669771,0.051087333045,-0.998692629792
3147544000000,,25759,,3147,544319241,"""map""",,,-0.259923040867,0.0545440390706,0.0401357039809,,-0.000133161239191,-0.00179240429827,0.0511029695258,-0.998691829002
3147576000000,,25760,,3147,568319241,"""map""",,,-0.260142564774,0.0549262426794,0.0401060469449,,-0.000126622880043,-0.00182227851133,0.0511020844419,-0.998691786855
3147608000000,,25761,,3147,600319241,"""map""",,,-0.260388374329,0.0553326867521,0.0400554761291,,-0.000105374282949,-0.0018536621084,0.0510810110177,-0.998692798379
3147644000000,,25762,,3147,640318349,"""map""",,,-0.26056060195,0.0557775981724,0.0401344671845,,-0.000118296243284,-0.00183121792375,0.0511328094945,-0.998690227421
3147676000000,,25763,,3147,672318349,"""map""",,,-0.26093223691,0.0561747960746,0.040476500988,,-8.13705825869e-05,-0.00182524220857,0.0511304914178,-0.998690353862
3147708000000,,25764,,3147,704318349,"""map""",,,-0.26150149107,0.0566448755562,0.0412650667131,,-8.74903543815e-05,-0.00182986049888,0.0511307864458,-0.998690311715
3147744000000,,25765,,3147,744317456,"""map""",,,-0.262055158615,0.0571388751268,0.042247030884,,-5.72285878785e-05,-0.00180771578735,0.0511056669241,-0.998691660414
3147776000000,,25766,,3147,768317456,"""map""",,,-0.262280315161,0.057373072952,0.0427021384239,,-6.51825707639e-05,-0.00183014606025,0.0510782714725,-0.998693009113
3147808000000,,25767,,3147,800317456,"""map""",,,-0.262483090162,0.0576394870877,0.043197542429,,-6.68099988793e-05,-0.00180407543563,0.051052266867,-0.998694399959
3147844000000,,25768,,3147,840316562,"""map""",,,-0.262634843588,0.0578791610897,0.0436872504652,,-4.51903942725e-05,-0.00180986264245,0.0510695470749,-0.998693472729
3147876000000,,25769,,3147,872316562,"""map""",,,-0.262951105833,0.0582189783454,0.0439833775163,,-6.00516035481e-05,-0.0018152717624,0.0510790301158,-0.998693009113
3147908000000,,25770,,3147,904316562,"""map""",,,-0.26340714097,0.0586948767304,0.0440489314497,,-3.63160131191e-05,-0.00182348776368,0.051076206277,-0.998693135554
3147944000000,,25771,,3147,936315669,"""map""",,,-0.263738453388,0.0591364614666,0.0442790649831,,-6.9345312917e-05,-0.00183297870713,0.0510723709137,-0.998693261994
3147976000000,,25772,,3147,968315669,"""map""",,,-0.26394072175,0.0595318488777,0.0445934012532,,-4.60907892511e-05,-0.00184834403223,0.051080926724,-0.998692798379
3148008000000,,25773,,3148,315669,"""map""",,,-0.264073848724,0.059833522886,0.0447633229196,,-1.27318056089e-05,-0.00179799921009,0.0510837927097,-0.998692798379
3148044000000,,25774,,3148,40314776,"""map""",,,-0.264106303453,0.0601232945919,0.0452035441995,,2.46924555991e-05,-0.00176046365486,0.0510941608344,-0.998692292617
3148076000000,,25775,,3148,72314776,"""map""",,,-0.264315783978,0.0605135001242,0.0454444885254,,3.51766488023e-05,-0.00177610540401,0.0511027587915,-0.998691871148
3148108000000,,25776,,3148,104314776,"""map""",,,-0.264708012342,0.0610253475606,0.0454869940877,,5.23533005679e-05,-0.0018185729637,0.0511345375153,-0.998690185275
3148144000000,,25777,,3148,144313882,"""map""",,,-0.265034258366,0.0615896582603,0.0457082986832,,5.25800868329e-05,-0.00188236740496,0.0511003564212,-0.998691744708
3148176000000,,25778,,3148,168313882,"""map""",,,-0.265138268471,0.0618746206164,0.0459231622517,,3.25837121202e-05,-0.00189459311911,0.0511154028461,-0.998691028212
3148208000000,,25779,,3148,200313882,"""map""",,,-0.26519343257,0.0622167810798,0.0463403090835,,6.87322902982e-05,-0.00190061904832,0.0511304071241,-0.998690185275
3148244000000,,25780,,3148,240312988,"""map""",,,-0.265136241913,0.0625784173608,0.0469872802496,,0.00011565877253,-0.00196046156398,0.0510922220794,-0.998692039736
3148276000000,,25781,,3148,272312988,"""map""",,,-0.265224337578,0.0630409568548,0.0474264025688,,0.000111947874228,-0.001994668506,0.051125728824,-0.998690311715
3148308000000,,25782,,3148,304312988,"""map""",,,-0.265431523323,0.0636752843857,0.0477024279535,,0.000127376748869,-0.0020134207255,0.0510897775622,-0.998692039736
3148344000000,,25783,,3148,344312094,"""map""",,,-0.265520960093,0.0643653050065,0.0478951558471,,9.34468071383e-05,-0.00198052157056,0.0510730874102,-0.998692966967
3148376000000,,25784,,3148,368312094,"""map""",,,-0.265487223864,0.0647397860885,0.0480376966298,,6.46750799026e-05,-0.00200130959809,0.0510931493101,-0.998691955442
3148408000000,,25785,,3148,400312094,"""map""",,,-0.26537540555,0.0651986375451,0.0481741093099,,7.85165330075e-05,-0.00189438222024,0.0511205026147,-0.998690733184
3148444000000,,25786,,3148,440323200,"""map""",,,-0.265101909637,0.0657032877207,0.0482826456428,,7.55124999163e-05,-0.00181727036266,0.0511231578662,-0.99869077533
3148476000000,,25787,,3148,472323200,"""map""",,,-0.265015989542,0.0661045759916,0.0481875389814,,6.54788334746e-05,-0.00182836313331,0.0510765434517,-0.998693135554
3148508000000,,25788,,3148,504323200,"""map""",,,-0.265074133873,0.0665296316147,0.0479608029127,,4.11224825288e-05,-0.00177427777837,0.0510624242575,-0.998693936344
3148544000000,,25789,,3148,536322306,"""map""",,,-0.265008747578,0.0669060125947,0.0477470420301,,3.13997314129e-05,-0.00176116944994,0.0510051888372,-0.998696886623
3148576000000,,25790,,3148,568322306,"""map""",,,-0.264841258526,0.0672668218613,0.0476876981556,,9.97736088631e-06,-0.00175515125863,0.0510214996676,-0.998696085833
3148608000000,,25791,,3148,600322306,"""map""",,,-0.264592289925,0.0676003172994,0.0475941896439,,-6.87639004345e-05,-0.00181368310609,0.051042530945,-0.998694863575
3148644000000,,25792,,3148,640321411,"""map""",,,-0.264174371958,0.067953504622,0.0475654825568,,-4.90721848748e-05,-0.00185256365616,0.0510855207305,-0.998692587645
3148676000000,,25793,,3148,672321411,"""map""",,,-0.263990998268,0.0682708099484,0.047654170543,,-9.04223591672e-05,-0.00183970014165,0.0510850149683,-0.998692587645
3148708000000,,25794,,3148,704321411,"""map""",,,-0.263941556215,0.0686473250389,0.0479564070702,,-7.40264942339e-05,-0.00183410308956,0.05109622603,-0.998692081883
3148744000000,,25795,,3148,744320517,"""map""",,,-0.263711124659,0.0690367519855,0.0485724955797,,-0.000104278464887,-0.00191987414887,0.0510939501002,-0.998692081883
3148776000000,,25796,,3148,768320517,"""map""",,,-0.263499349356,0.0692397803068,0.0489605739713,,-9.78038199211e-05,-0.00190172285123,0.0511019580014,-0.998691660414
3148808000000,,25797,,3148,800320517,"""map""",,,-0.263157993555,0.069483473897,0.0495509617031,,-0.000133560564117,-0.0019124397576,0.0510462820145,-0.998694484253
3148844000000,,25798,,3148,840319622,"""map""",,,-0.262625664473,0.0696970447898,0.0503846593201,,-0.0001190819692,-0.00194038855115,0.0510393699314,-0.998694737134
3148876000000,,25799,,3148,872319622,"""map""",,,-0.262312829494,0.0698898658156,0.0508118756115,,-0.000131981703659,-0.00198313204099,0.0510484736506,-0.998694231372
3148908000000,,25800,,3148,904319622,"""map""",,,-0.262103796005,0.0701345652342,0.0510032512248,,-0.000177382832174,-0.00199284927679,0.0510637308098,-0.998693388435
3148944000000,,25801,,3148,944318727,"""map""",,,-0.261683702469,0.0704184100032,0.0513850338757,,-0.000135293606308,-0.00197746962835,0.051069504928,-0.998693177701
3148976000000,,25802,,3148,968318727,"""map""",,,-0.261342585087,0.0705600753427,0.0516998805106,,-0.000193919131724,-0.00199483042563,0.0510696735154,-0.998693177701
3149008000000,,25803,,3149,318727,"""map""",,,-0.26078954339,0.0707260817289,0.0521499961615,,-0.000193768901258,-0.00207519763334,0.0511373192073,-0.998689510925
3149044000000,,25804,,3149,40317831,"""map""",,,-0.259962767363,0.0709226951003,0.0526329018176,,-0.000164612337075,-0.00204184910409,0.0511823320415,-0.998687234995
3149076000000,,25805,,3149,72317831,"""map""",,,-0.259647339582,0.0710417851806,0.0529734715819,,-0.000167507463368,-0.00204893833572,0.0511667798544,-0.998688035785
3149108000000,,25806,,3149,104317831,"""map""",,,-0.25964564085,0.0711197853088,0.0532352216542,,-0.000154285453691,-0.00187125718288,0.0511476451852,-0.998689384484
3149144000000,,25807,,3149,144316936,"""map""",,,-0.259384274483,0.0712179765105,0.0537636950612,,-0.000135033892817,-0.00189813403062,0.0511906349707,-0.998687108555
3149176000000,,25808,,3149,168316936,"""map""",,,-0.259134799242,0.071264706552,0.0540695264935,,-9.90679784222e-05,-0.00189690288166,0.051159109128,-0.998688710135
3149208000000,,25809,,3149,208316936,"""map""",,,-0.258559852839,0.0713591426611,0.0545508079231,,-9.80953081839e-05,-0.00190187406951,0.0511653890084,-0.998688415107
3149244000000,,25810,,3149,240316040,"""map""",,,-0.25798612833,0.0714423879981,0.0550757274032,,-0.000116408113862,-0.00183973035238,0.0511274989916,-0.998690480302
3149276000000,,25811,,3149,272316040,"""map""",,,-0.257761090994,0.0715163499117,0.0556171871722,,-0.000117808261804,-0.00184607880376,0.0510853099962,-0.998692629792
3149308000000,,25812,,3149,304316040,"""map""",,,-0.257817447186,0.0715833604336,0.056042201817,,-6.8061891989e-05,-0.00182189762565,0.0510986284004,-0.998691955442
3149344000000,,25813,,3149,344315145,"""map""",,,-0.257658332586,0.071606837213,0.0565032437444,,-3.9971758319e-05,-0.00180623323903,0.0510734667318,-0.998693346288
3149376000000,,25814,,3149,368315145,"""map""",,,-0.257452011108,0.071605168283,0.0567693151534,,-5.68636719025e-06,-0.00178428798416,0.0510770492139,-0.998693135554
3149408000000,,25815,,3149,400315145,"""map""",,,-0.257076531649,0.0715947449207,0.0570929646492,,-2.61267655374e-05,-0.00179963668101,0.0510714015362,-0.998693388435
3149444000000,,25816,,3149,440314249,"""map""",,,-0.256456106901,0.0715922638774,0.0575458295643,,-1.06610124035e-05,-0.00173639500555,0.0510679454946,-0.99869372561
3149476000000,,25817,,3149,472314249,"""map""",,,-0.255845755339,0.0716041401029,0.0580051504076,,-3.04983486175e-05,-0.00174846826665,0.0510909576739,-0.998692545498
3149508000000,,25818,,3149,504314249,"""map""",,,-0.255140691996,0.0715617388487,0.0584365613759,,-3.70162105672e-05,-0.0017505233371,0.0510804631087,-0.998693009113
3149544000000,,25819,,3149,544313353,"""map""",,,-0.254167944193,0.0714907497168,0.0589962750673,,7.95933355966e-06,-0.00178133539986,0.0510679033478,-0.998693599169
3149576000000,,25820,,3149,568313353,"""map""",,,-0.253757059574,0.0715373456478,0.0593620575964,,1.83015281033e-05,-0.00178043360547,0.051025292884,-0.998695832952
3149608000000,,25821,,3149,600313353,"""map""",,,-0.253778368235,0.0717659518123,0.0596287176013,,3.25190101223e-05,-0.00181779481105,0.0510114265708,-0.998696465155
3149644000000,,25822,,3149,640312456,"""map""",,,-0.253590464592,0.0719866454601,0.0599688142538,,-1.74818048269e-05,-0.00183963725065,0.0509925026358,-0.998697350239
3149676000000,,25823,,3149,672312456,"""map""",,,-0.25326564908,0.0720902979374,0.0602477602661,,1.28035869604e-05,-0.0018345102347,0.0509659922681,-0.998698741085
3149708000000,,25824,,3149,704312456,"""map""",,,-0.252816230059,0.0721281021833,0.0606696270406,,-8.69171737049e-06,-0.00181056349844,0.0509692797223,-0.998698572497
3149744000000,,25825,,3149,744323560,"""map""",,,-0.252090513706,0.0720968320966,0.0613161437213,,3.05543249008e-05,-0.00187083505585,0.0509606396183,-0.998698951819
3149776000000,,25826,,3149,768323560,"""map""",,,-0.251832842827,0.0720607340336,0.0616229884326,,8.56223105672e-06,-0.00189031200359,0.0509460146619,-0.998699668315
3149808000000,,25827,,3149,800323560,"""map""",,,-0.251978635788,0.0720487013459,0.0616136714816,,8.37884287481e-05,-0.00185348471297,0.0509673409673,-0.998698656791
3149844000000,,25828,,3149,840322664,"""map""",,,-0.251939475536,0.0720080062747,0.0617598332465,,0.000102379387163,-0.00184702216876,0.0509144466724,-0.998701312043
3149876000000,,25829,,3149,872322664,"""map""",,,-0.251734912395,0.0719656050205,0.0618834197521,,0.000112454130318,-0.00188449219881,0.0508927831922,-0.998702323567
3149908000000,,25830,,3149,904322664,"""map""",,,-0.251406937838,0.0719199180603,0.0620231181383,,0.000114165934448,-0.00185292412696,0.0508679586985,-0.998703714413
3149944000000,,25831,,3149,944321767,"""map""",,,-0.250853478909,0.0718293637037,0.06226586923,,0.000125483844999,-0.00181119463103,0.050873943551,-0.998703461532
3149976000000,,25832,,3149,968321767,"""map""",,,-0.250658690929,0.0718431249261,0.0623428002,,0.000155065746615,-0.00179939343113,0.0508726369987,-0.998703503679
3150008000000,,25833,,3150,321767,"""map""",,,-0.250859260559,0.0719614475965,0.06225040555,,0.000139207500955,-0.00180025925252,0.0509940199224,-0.998697350239
3150044000000,,25834,,3150,40320870,"""map""",,,-0.250908136368,0.0720797926188,0.0622674301267,,0.000140785373596,-0.00175505264159,0.0509352672155,-0.998700384812
3150076000000,,25835,,3150,72320870,"""map""",,,-0.25078946352,0.0721746534109,0.0623820535839,,0.000183559156478,-0.00171702367189,0.050941547096,-0.998700174078
3150108000000,,25836,,3150,104320870,"""map""",,,-0.250532656908,0.0722421035171,0.062547698617,,0.000153735486709,-0.0017501049967,0.0509235082448,-0.998701017015
3150144000000,,25837,,3150,136319973,"""map""",,,-0.250200808048,0.0722995772958,0.0627313628793,,0.000172743386115,-0.00172480355207,0.0508543452664,-0.998704599497
3150176000000,,25838,,3150,168319973,"""map""",,,-0.250001609325,0.072399161756,0.0628073215485,,0.000157314346838,-0.0017322054277,0.0508622267271,-0.998704220175
3150208000000,,25839,,3150,200319973,"""map""",,,-0.250342160463,0.0726028308272,0.0626434981823,,0.000159418478859,-0.00171166945809,0.0508180989767,-0.998706453958
3150244000000,,25840,,3150,240319075,"""map""",,,-0.25059184432,0.0728027001023,0.0625168755651,,0.000137197293844,-0.00177044891828,0.0507646989196,-0.99870910921
3150276000000,,25841,,3150,272319075,"""map""",,,-0.250638127327,0.0729084908962,0.0625415369868,,0.000125982198555,-0.001793316794,0.0507711052406,-0.998708772035
3150308000000,,25842,,3150,304319075,"""map""",,,-0.250556021929,0.0729867368937,0.0626781582832,,0.000138598100331,-0.0017862450138,0.0507112145689,-0.998711764461
3150344000000,,25843,,3150,344318178,"""map""",,,-0.250286102295,0.0730589255691,0.0628473013639,,0.000130096043778,-0.00181161535866,0.050643020968,-0.998715220503
3150376000000,,25844,,3150,368318178,"""map""",,,-0.250280052423,0.0731378272176,0.0628991350532,,0.000148175724701,-0.0018228817381,0.0506457183663,-0.998715051915
3150408000000,,25845,,3150,400318178,"""map""",,,-0.250723361969,0.0733842328191,0.062914557755,,0.000127105263895,-0.00176316492211,0.0505510565445,-0.99871994095
3150444000000,,25846,,3150,440317280,"""map""",,,-0.25102263689,0.0736393481493,0.0630314573646,,0.000195326688292,-0.00176560235997,0.0505456617479,-0.998720193831
3150476000000,,25847,,3150,472317280,"""map""",,,-0.251085162163,0.0738085731864,0.0632489100099,,0.000217172255983,-0.0018072748918,0.0505849847576,-0.998718128635
3150508000000,,25848,,3150,504317280,"""map""",,,-0.251008570194,0.0739716291428,0.063532628119,,1.27872056657e-05,-0.00178851114777,0.0505827509746,-0.998718339369
3150544000000,,25849,,3150,544316382,"""map""",,,-0.250738471746,0.0741805583239,0.0641817599535,,-6.37653829828e-05,-0.00183119429847,0.0505404776855,-0.998720404565
3150576000000,,25850,,3150,568316382,"""map""",,,-0.250697821379,0.0743064656854,0.0645319744945,,-6.96957409133e-05,-0.00181130641896,0.050563447718,-0.9987192666
3150608000000,,25851,,3150,600316382,"""map""",,,-0.25104868412,0.074519097805,0.0649650171399,,-1.99283799916e-06,-0.0018226146983,0.0505894944704,-0.998717917901
3150644000000,,25852,,3150,640315484,"""map""",,,-0.251293867826,0.0747995600104,0.0655760020018,,2.53600550941e-05,-0.00179016220117,0.0505552290825,-0.998719730215
3150676000000,,25853,,3150,672315484,"""map""",,,-0.251333117485,0.0750191733241,0.0661605000496,,1.85847022418e-05,-0.00176555017032,0.0505262741976,-0.998721205355
3150708000000,,25854,,3150,704315484,"""map""",,,-0.25125053525,0.0752133056521,0.0668312609196,,1.55999315774e-05,-0.00180157642386,0.0505022504939,-0.998722301173
3150744000000,,25855,,3150,744314586,"""map""",,,-0.250958383083,0.0754234418273,0.0676530897617,,7.69527367552e-05,-0.00182647895515,0.0504572376597,-0.998724577103
3150776000000,,25856,,3150,768314586,"""map""",,,-0.250930428505,0.075556717813,0.0680394843221,,6.98892706807e-05,-0.0018245906611,0.0504541187929,-0.99872474569
3150808000000,,25857,,3150,800314586,"""map""",,,-0.251438260078,0.0757507607341,0.068383090198,,0.000122611767763,-0.00180407214291,0.050450494164,-0.998724914278
3150844000000,,25858,,3150,840313688,"""map""",,,-0.251831680536,0.0759782120585,0.0688356906176,,0.000147471740622,-0.00186100998338,0.0504336775714,-0.998725715068
3150876000000,,25859,,3150,872313688,"""map""",,,-0.251991659403,0.076126396656,0.069314353168,,0.000161815745504,-0.00185559897012,0.0504245738521,-0.998726136536
3150908000000,,25860,,3150,904313688,"""map""",,,-0.25199136138,0.0762706398964,0.0699290409684,,0.00015128397246,-0.00187624713926,0.0504527279469,-0.998724703543
3150944000000,,25861,,3150,936312789,"""map""",,,-0.25184327364,0.076406262815,0.0705140903592,,0.000135694989185,-0.00189196239844,0.0505072238221,-0.998721879705
3150976000000,,25862,,3150,968312789,"""map""",,,-0.251749455929,0.0765094310045,0.0709645152092,,0.000160350730928,-0.00195420522652,0.0504914609007,-0.998722554054
3151008000000,,25863,,3151,312789,"""map""",,,-0.251978546381,0.0765252932906,0.0710875988007,,0.000187686748818,-0.0020081130214,0.0505022083471,-0.998721921851
3151044000000,,25864,,3151,40323891,"""map""",,,-0.252096325159,0.076592490077,0.0713657438755,,0.000164430990382,-0.00200892113783,0.0504823571814,-0.998722975523
3151076000000,,25865,,3151,72323891,"""map""",,,-0.252065181732,0.0766694992781,0.0716063901782,,0.000160373203759,-0.00202770233329,0.0504485132621,-0.99872461925
3151108000000,,25866,,3151,104323891,"""map""",,,-0.251902550459,0.076742708683,0.0718154758215,,0.000185379949725,-0.00206168207745,0.0504104546579,-0.998726431564
3151144000000,,25867,,3151,144322992,"""map""",,,-0.251526504755,0.0768340155482,0.0721936672926,,0.000180226098087,-0.0020682705683,0.0503726910816,-0.998728370319
3151176000000,,25868,,3151,168322992,"""map""",,,-0.251370042562,0.0769182369113,0.0721673443913,,0.00019241024162,-0.00206310387504,0.0503599205865,-0.998729002522
3151208000000,,25869,,3151,200322992,"""map""",,,-0.251461029053,0.0771159380674,0.0713399872184,,0.000193939299649,-0.00187463658634,0.0503214405138,-0.998731320599
3151244000000,,25870,,3151,240322093,"""map""",,,-0.25137218833,0.0773292183876,0.070649780333,,0.000169130117036,-0.00187355097572,0.0502738567219,-0.998733722969
3151276000000,,25871,,3151,272322093,"""map""",,,-0.251156002283,0.0774763897061,0.0703226625919,,0.000190998651467,-0.00182518063466,0.050248231438,-0.998735071668
3151308000000,,25872,,3151,304322093,"""map""",,,-0.250817686319,0.0775722116232,0.070173420012,,0.00015537032345,-0.00180271809308,0.050235418796,-0.998735830311
3151344000000,,25873,,3151,344321194,"""map""",,,-0.250199943781,0.0776819884777,0.0701520964503,,0.000155729888752,-0.00183499303014,0.0502212153081,-0.998736462514
3151376000000,,25874,,3151,368321194,"""map""",,,-0.249988153577,0.0777304470539,0.0700938552618,,0.000142863740063,-0.00185358193061,0.0502263150767,-0.998736167486
3151408000000,,25875,,3151,400321194,"""map""",,,-0.250174343586,0.0778203681111,0.0698527172208,,0.000195682631598,-0.00183983168592,0.0501767925297,-0.99873865415
3151444000000,,25876,,3151,440320294,"""map""",,,-0.250183075666,0.0779179334641,0.0697442293167,,0.000190796642939,-0.00184702669626,0.0501689110691,-0.998739033472
3151476000000,,25877,,3151,472320294,"""map""",,,-0.250022441149,0.0779553130269,0.069900020957,,0.000192985315612,-0.00186660061467,0.0501709762646,-0.998738907031
3151508000000,,25878,,3151,504320294,"""map""",,,-0.249747171998,0.0779862627387,0.0701580494642,,0.000163978076396,-0.00190577051273,0.0501514622738,-0.998739876409
3151544000000,,25879,,3151,544319395,"""map""",,,-0.249250546098,0.0779789164662,0.0705213174224,,0.000126905313319,-0.00189980064213,0.0502002683244,-0.998737431892
3151576000000,,25880,,3151,568319395,"""map""",,,-0.249114558101,0.0779751837254,0.0705852583051,,0.000125989030954,-0.00190020325978,0.0501873713887,-0.998738021948
3151608000000,,25881,,3151,600319395,"""map""",,,-0.249423459172,0.0780462473631,0.0703036338091,,0.000137336082099,-0.00187761024407,0.0501835360255,-0.998738232682
3151644000000,,25882,,3151,640318495,"""map""",,,-0.249565646052,0.078113257885,0.0700816363096,,0.000163563604946,-0.00191300157838,0.0501712712926,-0.998738864885
3151676000000,,25883,,3151,672318495,"""map""",,,-0.249504193664,0.0781534537673,0.0699251815677,,0.000145144938239,-0.00191123174002,0.0501780147883,-0.99873852771
3151708000000,,25884,,3151,704318495,"""map""",,,-0.24929612875,0.0781747996807,0.069837898016,,0.000160706838871,-0.00189489440323,0.050179489928,-0.998738485563
3151744000000,,25885,,3151,736317595,"""map""",,,-0.248959168792,0.0782006308436,0.0698954612017,,0.000106427871844,-0.00192335974263,0.0502056209741,-0.99873705257
3151776000000,,25886,,3151,768317595,"""map""",,,-0.248752236366,0.0782280191779,0.0699106678367,,0.00014396737834,-0.00194080672692,0.0501850111652,-0.998738106241
3151808000000,,25887,,3151,800317595,"""map""",,,-0.249125674367,0.0782775878906,0.0696830749512,,0.000161855258175,-0.0019841620046,0.0501540753784,-0.998739539234
3151844000000,,25888,,3151,840316695,"""map""",,,-0.249341607094,0.0783035457134,0.0694554373622,,0.000111588391244,-0.00200117303242,0.0501455195681,-0.998739918556
3151876000000,,25889,,3151,872316695,"""map""",,,-0.24934092164,0.0783314555883,0.0693858042359,,6.14297725673e-05,-0.00198835306417,0.0501688689222,-0.998738822738
3151908000000,,25890,,3151,904316695,"""map""",,,-0.249246358871,0.0783881619573,0.069253668189,,4.31768944395e-05,-0.00174605494798,0.0502066746453,-0.998737347598
3151944000000,,25891,,3151,944315795,"""map""",,,-0.248905003071,0.0784545391798,0.0694333389401,,4.99856684256e-05,-0.00177988133359,0.0502018277578,-0.998737558332
3151976000000,,25892,,3151,968315795,"""map""",,,-0.248900011182,0.0785303413868,0.0695705860853,,2.0546424013e-05,-0.0018003037866,0.0502024178136,-0.998737474039
3152008000000,,25893,,3152,315795,"""map""",,,-0.249501109123,0.0787249431014,0.0697254613042,,-5.05490532515e-06,-0.00184620392721,0.050217337798,-0.998736631102
3152044000000,,25894,,3152,40314895,"""map""",,,-0.249946832657,0.0789037570357,0.0700450763106,,7.45357137753e-06,-0.00179873677994,0.0501801221308,-0.998738612003
3152076000000,,25895,,3152,72314895,"""map""",,,-0.250096648932,0.0790202692151,0.0703590214252,,3.39282130513e-05,-0.00179917652303,0.0502056209741,-0.998737305451
3152108000000,,25896,,3152,104314895,"""map""",,,-0.250046014786,0.0791094079614,0.0707723125815,,1.21608475206e-05,-0.00181229407109,0.0502076440228,-0.998737136864
3152144000000,,25897,,3152,144313994,"""map""",,,-0.249783203006,0.079175375402,0.0714559853077,,-2.0765637016e-05,-0.0018097024515,0.0502045251561,-0.998737389745
3152176000000,,25898,,3152,168313994,"""map""",,,-0.249737843871,0.0792092382908,0.0717237219214,,-4.92187933454e-06,-0.00183537778477,0.0501996361216,-0.998737558332
3152208000000,,25899,,3152,200313994,"""map""",,,-0.250060796738,0.0793306231499,0.0719580799341,,5.04359482329e-05,-0.00188264835651,0.0501738843972,-0.998738780591
3152244000000,,25900,,3152,240313093,"""map""",,,-0.250183582306,0.0794787406921,0.0723597928882,,9.18756845784e-05,-0.00189599870005,0.0502307404958,-0.998735872458
3152276000000,,25901,,3152,272313093,"""map""",,,-0.250080168247,0.0795824155211,0.0728622972965,,8.91907163013e-05,-0.00191103467057,0.0502179278539,-0.998736462514
3152308000000,,25902,,3152,304313093,"""map""",,,-0.249811336398,0.0796921551228,0.0735387727618,,4.81635580901e-05,-0.00194330252828,0.0501745165999,-0.998738569857
3152344000000,,25903,,3152,344324193,"""map""",,,-0.249245598912,0.0798339098692,0.0744785144925,,7.64082850833e-05,-0.00196177445478,0.0501934826817,-0.998737558332
3152376000000,,25904,,3152,368324193,"""map""",,,-0.249062120914,0.0799638330936,0.0750208720565,,7.52221641063e-05,-0.00197621938161,0.0502274951885,-0.998735830311
3152408000000,,25905,,3152,400324193,"""map""",,,-0.24931435287,0.0802544876933,0.0756122395396,,6.00357161619e-05,-0.00202267500451,0.0502278745101,-0.998735788165
3152444000000,,25906,,3152,440323292,"""map""",,,-0.249340504408,0.0806192532182,0.0765380039811,,0.000189162382425,-0.00203927353652,0.0502221003919,-0.998735998899
3152476000000,,25907,,3152,472323292,"""map""",,,-0.24913610518,0.0809083282948,0.077236905694,,0.000203622620413,-0.00203425320478,0.0502432581098,-0.998734987375
3152508000000,,25908,,3152,504323292,"""map""",,,-0.248749181628,0.0812062621117,0.0780482664704,,0.000218080141905,-0.00206034803091,0.0502709907362,-0.998733470088
3152544000000,,25909,,3152,544322391,"""map""",,,-0.248071342707,0.0815469771624,0.0792061164975,,0.000164672593898,-0.00207043092355,0.0502409400332,-0.998735029521
3152576000000,,25910,,3152,568322391,"""map""",,,-0.247793123126,0.0817433521152,0.0798318088055,,0.000135653830154,-0.00209359341563,0.0502707800019,-0.998733512235
3152608000000,,25911,,3152,600322391,"""map""",,,-0.247874692082,0.082023628056,0.0803147926927,,2.5148662307e-05,-0.00207390614524,0.0502888188531,-0.998732585004
3152644000000,,25912,,3152,640321489,"""map""",,,-0.247723266482,0.0823755860329,0.0810261368752,,0.000100025419819,-0.00212817194138,0.0503248965554,-0.998730646249
3152676000000,,25913,,3152,672321489,"""map""",,,-0.247405484319,0.0826726406813,0.0816972181201,,7.38323059222e-05,-0.00214840703847,0.0503649360615,-0.9987286232
3152708000000,,25914,,3152,704321489,"""map""",,,-0.246953219175,0.0829698070884,0.0824981853366,,6.40736641307e-05,-0.00220800152982,0.0503644302993,-0.998728454613
3152744000000,,25915,,3152,736320588,"""map""",,,-0.246407285333,0.083265773952,0.0832975357771,,6.76880033447e-05,-0.00220672930414,0.0503255287581,-0.998730435515
3152776000000,,25916,,3152,768320588,"""map""",,,-0.246008336544,0.0836080089211,0.0839864760637,,5.48896847404e-05,-0.00215665160412,0.0503376670505,-0.998729929753
3152808000000,,25917,,3152,800320588,"""map""",,,-0.24624581635,0.0840370208025,0.0840627774596,,7.07606897009e-05,-0.00215089501963,0.0503212719264,-0.998730814837
3152844000000,,25918,,3152,840319686,"""map""",,,-0.246316924691,0.0846333876252,0.0843685716391,,1.06175484661e-05,-0.00217319737025,0.050282454679,-0.998732711445
3152876000000,,25919,,3152,868319686,"""map""",,,-0.246225744486,0.0849916115403,0.0846090763807,,4.3891909139e-05,-0.00215500186781,0.0502704006803,-0.998733301501
3152908000000,,25920,,3152,900319686,"""map""",,,-0.245947793126,0.0854930132627,0.0850503072143,,8.14710106245e-05,-0.00207148813444,0.0502925277757,-0.998732416417
3152944000000,,25921,,3152,940318784,"""map""",,,-0.2453661412,0.0861537978053,0.0857210755348,,4.19084553991e-05,-0.00207187716961,0.0502986812156,-0.998732079242
3152976000000,,25922,,3152,972318784,"""map""",,,-0.245005741715,0.0866853892803,0.0862984806299,,3.97159960959e-05,-0.00209505052767,0.0503053825645,-0.99873169992
3153008000000,,25923,,3153,4318784,"""map""",,,-0.245256766677,0.0871674269438,0.0868378654122,,2.82348488256e-05,-0.00206685173415,0.0502603275835,-0.998734017997
3153044000000,,25924,,3153,36317882,"""map""",,,-0.24531146884,0.0876360014081,0.0874354913831,,-7.4531597871e-06,-0.00199842171578,0.0502217632171,-0.998736083193
3153076000000,,25925,,3153,68317882,"""map""",,,-0.245197072625,0.0880660563707,0.0880281478167,,-1.06626587643e-06,-0.00196036722748,0.0502440589,-0.998735029521
3153108000000,,25926,,3153,100317882,"""map""",,,-0.244894772768,0.088499173522,0.0886761546135,,1.48996518112e-05,-0.00194678491164,0.0502247977902,-0.998736083193
3153144000000,,25927,,3153,140316980,"""map""",,,-0.24427691102,0.0890681669116,0.0896728485823,,5.66142481712e-06,-0.00201518611869,0.0502258936083,-0.998735914605
3153176000000,,25928,,3153,172316980,"""map""",,,-0.244030445814,0.0894876345992,0.0902771353722,,9.25790101134e-06,-0.00203778423812,0.0502323842229,-0.998735493137
3153208000000,,25929,,3153,204316980,"""map""",,,-0.244028612971,0.0898869857192,0.0906755328178,,-1.22726354507e-05,-0.00203712264784,0.0501750645089,-0.998738359122
3153244000000,,25930,,3153,236316078,"""map""",,,-0.24384072423,0.0902756080031,0.0910355597734,,-3.81882551553e-05,-0.00198561269583,0.0501931876538,-0.998737600479
3153276000000,,25931,,3153,268316078,"""map""",,,-0.243487328291,0.0906442478299,0.0914435759187,,-4.17910698404e-05,-0.00198951020918,0.0502041036876,-0.99873705257
3153308000000,,25932,,3153,300316078,"""map""",,,-0.242992982268,0.0910006612539,0.0919596925378,,-5.80230395093e-05,-0.0019371932932,0.0501935248286,-0.998737600479
3153344000000,,25933,,3153,340315175,"""map""",,,-0.242156028748,0.0914004445076,0.0927788540721,,-1.84527463859e-05,-0.00192097317733,0.0501604395525,-0.9987393285
3153376000000,,25934,,3153,372315175,"""map""",,,-0.241802453995,0.0917086899281,0.0932324156165,,7.90590913645e-06,-0.00191968613441,0.0501718613485,-0.998738780591
3153408000000,,25935,,3153,404315175,"""map""",,,-0.241745188832,0.0920227319002,0.0933750718832,,4.8973650153e-05,-0.00186862069995,0.0501847161373,-0.998738232682
3153444000000,,25936,,3153,436314272,"""map""",,,-0.241520226002,0.0923659652472,0.093638330698,,1.97028284983e-05,-0.00185186765693,0.050194241325,-0.998737811213
3153476000000,,25937,,3153,468314272,"""map""",,,-0.241136536002,0.09276137501,0.0940331220627,,1.7865489321e-05,-0.00188577232702,0.0502100042464,-0.998736883983
3153508000000,,25938,,3153,500314272,"""map""",,,-0.240603208542,0.0931534320116,0.0944215580821,,-8.07523739301e-05,-0.00189534081408,0.0502773549103,-0.998733512235
3153544000000,,25939,,3153,540313370,"""map""",,,-0.239666238427,0.0936302468181,0.0949031487107,,-0.000128291302554,-0.0019572547815,0.0502953094677,-0.99873250071
3153576000000,,25940,,3153,572313370,"""map""",,,-0.239254787564,0.0938333496451,0.0951549559832,,-0.000126518253785,-0.00199130902351,0.0503210190453,-0.998731152011
3153608000000,,25941,,3153,604313370,"""map""",,,-0.239133536816,0.0939255878329,0.0952411144972,,-0.000203009103885,-0.0019934781868,0.050328900506,-0.998730688396
3153644000000,,25942,,3153,636324467,"""map""",,,-0.238803088665,0.0940269455314,0.095342874527,,-0.000154014215672,-0.00199166521377,0.0503434411687,-0.9987299719
3153676000000,,25943,,3153,668324467,"""map""",,,-0.238308832049,0.0941373407841,0.095449693501,,-0.000200708560965,-0.00173077827944,0.0503259923735,-0.998731320599
3153708000000,,25944,,3153,700324467,"""map""",,,-0.237627327442,0.0942413583398,0.0957230255008,,-0.000182499805319,-0.0017101383421,0.050271580792,-0.998734144438
3153744000000,,25945,,3153,740323564,"""map""",,,-0.236560747027,0.0943281054497,0.0962315127254,,-0.000172009273625,-0.00170745683119,0.0502492008155,-0.998735282402
3153776000000,,25946,,3153,772323564,"""map""",,,-0.236139774323,0.0942050069571,0.0963955000043,,-0.000161808089924,-0.00174873505949,0.0502274530416,-0.998736293927
3153808000000,,25947,,3153,804323564,"""map""",,,-0.23612844944,0.0939378812909,0.0963558405638,,-0.000188042527489,-0.00175510944106,0.0502486950533,-0.998735198109
3153844000000,,25948,,3153,836322660,"""map""",,,-0.235912173986,0.0937013998628,0.096410214901,,-0.000216591748999,-0.00177609050444,0.0503152449271,-0.998731784214
3153876000000,,25949,,3153,868322660,"""map""",,,-0.235502481461,0.0934975296259,0.0965650305152,,-0.000202576275508,-0.00176787565562,0.0502927806568,-0.998732922179
3153908000000,,25950,,3153,900322660,"""map""",,,-0.234900712967,0.0933073610067,0.0969313979149,,-0.000270342974921,-0.00172253190279,0.0502810216861,-0.998733638675
3153944000000,,25951,,3153,940321757,"""map""",,,-0.233886376023,0.0930546149611,0.0975849926472,,-0.000268957726548,-0.00170810615607,0.0503312185827,-0.998731067718
3153976000000,,25952,,3153,972321757,"""map""",,,-0.233731195331,0.0927249416709,0.0979534089565,,-0.000232689375588,-0.00174753963657,0.0503412916795,-0.998730519809
3154008000000,,25953,,3154,4321757,"""map""",,,-0.234221562743,0.0922465398908,0.0981082990766,,-0.000203815820908,-0.00179441927983,0.0503033595158,-0.99873237427
3154044000000,,25954,,3154,36320853,"""map""",,,-0.234485775232,0.0917729958892,0.0984057933092,,-0.00016649099992,-0.00185101887538,0.0503279311285,-0.998731067718
3154076000000,,25955,,3154,72320853,"""map""",,,-0.234506502748,0.0913048163056,0.0986335128546,,-0.000155803563418,-0.00184525175417,0.0503357704423,-0.998730646249
3154108000000,,25956,,3154,104320853,"""map""",,,-0.234300628304,0.0908877775073,0.0988751649857,,-0.000163737954605,-0.00185162391315,0.0503946495897,-0.998727653823
3154144000000,,25957,,3154,136319950,"""map""",,,-0.233847767115,0.0905358716846,0.09909529984,,-0.000163104928696,-0.00182985506589,0.0504184204122,-0.998726473711
3154176000000,,25958,,3154,168319950,"""map""",,,-0.233468234539,0.0902015790343,0.0990801230073,,-0.000153752361912,-0.00182487852736,0.050435447739,-0.998725630774
3154208000000,,25959,,3154,200319950,"""map""",,,-0.233688831329,0.089863397181,0.0987006723881,,-0.000147782573629,-0.00180063643389,0.0504940318585,-0.998722764788
3154244000000,,25960,,3154,240319046,"""map""",,,-0.233630046248,0.0894770473242,0.0983518287539,,-0.00013195914851,-0.00183131497675,0.0504841694959,-0.998723186257
3154276000000,,25961,,3154,272319046,"""map""",,,-0.233343839645,0.0891943275928,0.0982791483402,,-0.000188286188957,-0.00180763758519,0.0505088254023,-0.998722048292
3154308000000,,25962,,3154,304319046,"""map""",,,-0.232875108719,0.0888949856162,0.098355434835,,-0.000231692586157,-0.0018229870229,0.0505254312606,-0.998721121061
3154344000000,,25963,,3154,336318141,"""map""",,,-0.232214838266,0.0886026397347,0.0985391959548,,-0.000218787912615,-0.00188552273865,0.0505725514373,-0.99871859225
3154376000000,,25964,,3154,368318141,"""map""",,,-0.231371879578,0.0883024558425,0.0987588018179,,-0.000220866608354,-0.00190785958055,0.050576808269,-0.998718381516
3154408000000,,25965,,3154,400318141,"""map""",,,-0.230338826776,0.0880016759038,0.099005676806,,-0.000181861840327,-0.00190628137863,0.0506205145509,-0.998716147733
3154444000000,,25966,,3154,440317237,"""map""",,,-0.228831708431,0.0876156687737,0.0995296835899,,-0.000163766272019,-0.00190655080565,0.0505705283885,-0.998718676544
3154476000000,,25967,,3154,472317237,"""map""",,,-0.228191390634,0.0873530134559,0.0999186262488,,-0.00019080553329,-0.00187241852612,0.0505362630007,-0.998720488859
3154508000000,,25968,,3154,504317237,"""map""",,,-0.228062212467,0.0871538817883,0.100178152323,,-0.000132982938265,-0.00161894548586,0.0505290137427,-0.998721331796
3154544000000,,25969,,3154,536316333,"""map""",,,-0.227663680911,0.0869610086083,0.100622087717,,-0.000121695732353,-0.00162892531629,0.0505305310293,-0.998721247502
3154576000000,,25970,,3154,568316333,"""map""",,,-0.227059110999,0.0867656171322,0.101114086807,,-0.000162058172201,-0.00164098894618,0.0505363051475,-0.99872086818
3154608000000,,25971,,3154,600316333,"""map""",,,-0.226240262389,0.0865618884563,0.101632595062,,-0.000148810890878,-0.0016355368562,0.0505980081338,-0.998717833607
3154644000000,,25972,,3154,640315428,"""map""",,,-0.224921986461,0.0863379836082,0.102281749249,,-0.000120675893864,-0.00170430767135,0.0506225797464,-0.998716442761
3154676000000,,25973,,3154,672315428,"""map""",,,-0.224441260099,0.0861359462142,0.102365791798,,-7.97718011577e-05,-0.00172897320894,0.050626035788,-0.99871618988
3154708000000,,25974,,3154,704315428,"""map""",,,-0.224505186081,0.0859362110496,0.102135069668,,-0.000125854934829,-0.00167844177175,0.0506376261714,-0.998715726265
3154744000000,,25975,,3154,736314523,"""map""",,,-0.224328368902,0.085767917335,0.102071925998,,-0.000100862923797,-0.00167791320747,0.050640239276,-0.998715557677
3154776000000,,25976,,3154,768314523,"""map""",,,-0.223919466138,0.085597962141,0.1020636186,,-0.000121173177286,-0.0016913250426,0.0506629985742,-0.998714377566
3154808000000,,25977,,3154,800314523,"""map""",,,-0.223294794559,0.0854059383273,0.10219809413,,-0.000140361517887,-0.00169874585139,0.0506487529394,-0.998715136209
3154844000000,,25978,,3154,840313619,"""map""",,,-0.222243607044,0.0851583704352,0.102484971285,,-0.000155603201252,-0.00175065084778,0.0506766120062,-0.998713576775
3154876000000,,25979,,3154,872313619,"""map""",,,-0.222067788243,0.084971614182,0.10242305696,,-0.00016952400897,-0.00178896546117,0.0506603854695,-0.998714377566
3154908000000,,25980,,3154,904313619,"""map""",,,-0.222502797842,0.0848181247711,0.102017007768,,-0.000134131028297,-0.00184248767824,0.0505833410305,-0.998718170782
3154944000000,,25981,,3154,936324714,"""map""",,,-0.222661077976,0.0846934691072,0.101629652083,,-6.99148715983e-05,-0.00187782418872,0.0505535010617,-0.998719603775
3154976000000,,25982,,3154,968324714,"""map""",,,-0.222586542368,0.0845825970173,0.101305775344,,-4.48335454673e-05,-0.00188797367667,0.0504973614595,-0.998722469761
3155008000000,,25983,,3155,324714,"""map""",,,-0.222267255187,0.0844813361764,0.101043052971,,-7.56189371723e-05,-0.00185717873607,0.0505129557935,-0.998721711117
3155044000000,,25984,,3155,40323809,"""map""",,,-0.221561476588,0.0843481421471,0.100932300091,,-7.89188213837e-05,-0.00185199278039,0.0504951276765,-0.998722596201
3155076000000,,25985,,3155,72323809,"""map""",,,-0.221522271633,0.0842913463712,0.10077662766,,-6.09799043501e-05,-0.00184002784986,0.050505285067,-0.998722132586
3155108000000,,25986,,3155,104323809,"""map""",,,-0.221961170435,0.0842575877905,0.100519403815,,-7.56265104341e-05,-0.00181990248274,0.0505337763366,-0.998720699593
3155144000000,,25987,,3155,136322903,"""map""",,,-0.222130715847,0.0842004492879,0.100363776088,,-6.95278943818e-05,-0.00182040001312,0.0504855181951,-0.998723186257
3155176000000,,25988,,3155,168322903,"""map""",,,-0.222025319934,0.0841159150004,0.100288912654,,-9.25414730758e-05,-0.00182680789814,0.0504285778027,-0.998726010096
3155208000000,,25989,,3155,200322903,"""map""",,,-0.221679851413,0.0839933902025,0.100157216191,,-0.000129019982052,-0.00179753501853,0.0503714266762,-0.998728960375
3155244000000,,25990,,3155,240321998,"""map""",,,-0.22094899416,0.0838011354208,0.0998362749815,,-0.000173906046444,-0.00178058260117,0.0503736183123,-0.998728876081
3155276000000,,25991,,3155,272321998,"""map""",,,-0.22090382874,0.0836077108979,0.0992800593376,,-0.000191261739998,-0.00179677859784,0.0503878218002,-0.998728159585
3155308000000,,25992,,3155,304321998,"""map""",,,-0.221387401223,0.083405084908,0.0986014902592,,-0.000133268746582,-0.00160298961098,0.0504214971322,-0.998726768739
3155344000000,,25993,,3155,336321092,"""map""",,,-0.221563443542,0.0831725969911,0.0982050523162,,-0.000103899472523,-0.00161725319111,0.0504000022394,-0.998727864557
3155376000000,,25994,,3155,368321092,"""map""",,,-0.221467673779,0.0829366743565,0.0979451611638,,-4.25444447575e-05,-0.00159805620712,0.0503935116248,-0.998728201732
3155408000000,,25995,,3155,400321092,"""map""",,,-0.221110284328,0.0827070772648,0.0977971553802,,-5.16460237662e-05,-0.00161103332055,0.0504142900211,-0.998727148061
3155444000000,,25996,,3155,440320186,"""map""",,,-0.220366820693,0.0823879465461,0.0977097079158,,-7.29867347739e-05,-0.00160270907102,0.0504109182732,-0.998727316648
3155476000000,,25997,,3155,472320186,"""map""",,,-0.220304697752,0.0820646286011,0.0975997075438,,-3.15707883488e-05,-0.00160453677898,0.0504188418807,-0.99872689518
3155508000000,,25998,,3155,504320186,"""map""",,,-0.220706567168,0.0817100405693,0.0973920077085,,-5.31102974797e-05,-0.00160650088798,0.0503869788633,-0.99872849676
3155544000000,,25999,,3155,536319280,"""map""",,,-0.22082029283,0.0813416093588,0.0972395241261,,8.60701208327e-06,-0.0015883589746,0.0503396479524,-0.99873089913
3155576000000,,26000,,3155,568319280,"""map""",,,-0.220668718219,0.0809716582298,0.0971508696675,,-4.3221099239e-06,-0.00160018701019,0.0503332837783,-0.998731194158
3155608000000,,26001,,3155,600319280,"""map""",,,-0.220284596086,0.0806239619851,0.0970377326012,,8.23411125562e-06,-0.00160875739073,0.0503286054781,-0.998731489186
3155644000000,,26002,,3155,640318374,"""map""",,,-0.21952842176,0.0801806300879,0.0969209000468,,9.76909618566e-06,-0.00163795420845,0.0503546100836,-0.99873009834
3155676000000,,26003,,3155,672318374,"""map""",,,-0.219538673759,0.0799852758646,0.0967178866267,,3.28696850728e-05,-0.00162176191609,0.0503402380083,-0.998730814837
3155708000000,,26004,,3155,704318374,"""map""",,,-0.220094740391,0.079920321703,0.0964391827583,,-5.11376274055e-06,-0.00161721655958,0.0503401537146,-0.99873089913
3155744000000,,26005,,3155,736317467,"""map""",,,-0.220374628901,0.0797931030393,0.0960813611746,,-4.56379575838e-05,-0.00161642317808,0.0502886502657,-0.998733427941
3155776000000,,26006,,3155,768317467,"""map""",,,-0.220418870449,0.0796263590455,0.095752350986,,-3.76733556681e-05,-0.00158936638306,0.0502456604802,-0.998735619577
3155808000000,,26007,,3155,800317467,"""map""",,,-0.22025051713,0.079436942935,0.0955506414175,,-0.000120671119416,-0.00153797315807,0.0502467141514,-0.998735661724
3155844000000,,26008,,3155,840316561,"""map""",,,-0.219701275229,0.0791875347495,0.0955887213349,,-0.000100614652517,-0.00149609351399,0.0502706114145,-0.998734523759
3155876000000,,26009,,3155,868316561,"""map""",,,-0.219636589289,0.0791261419654,0.095549158752,,-9.49431025784e-05,-0.00152327790201,0.0502732245191,-0.998734355172
3155908000000,,26010,,3155,900316561,"""map""",,,-0.220387816429,0.0792530104518,0.0951680243015,,-6.71707989516e-05,-0.00149094073249,0.0503384678406,-0.998731152011
3155944000000,,26011,,3155,940315654,"""map""",,,-0.220881968737,0.0793734490871,0.0947885513306,,-0.000127050851655,-0.0014797844123,0.0503155821019,-0.998732289976
3155972000000,,26012,,3155,972315654,"""map""",,,-0.220981329679,0.0794600099325,0.0945049598813,,-0.000137335958622,-0.00144330569752,0.0503258237861,-0.998731826361
3156008000000,,26013,,3156,4315654,"""map""",,,-0.220863431692,0.0795297697186,0.0942895263433,,-0.000133381193056,-0.00138594173759,0.0503824691505,-0.998729044669
3156044000000,,26014,,3156,36314748,"""map""",,,-0.220521226525,0.079546071589,0.0942179858685,,-0.000143701367518,-0.00143007051696,0.0503182373533,-0.998732247829
3156076000000,,26015,,3156,68314748,"""map""",,,-0.220338061452,0.0794500634074,0.0941556990147,,-0.000119445403451,-0.00142062184383,0.0503483302032,-0.998730730543
3156108000000,,26016,,3156,100314748,"""map""",,,-0.221002280712,0.0791808962822,0.0940579846501,,-0.000168991822689,-0.00141237884223,0.0503823005631,-0.998729044669
3156144000000,,26017,,3156,140313841,"""map""",,,-0.22144818306,0.0788149088621,0.0940652117133,,-0.00010330361322,-0.00140368296779,0.0503432725814,-0.998730983424
3156176000000,,26018,,3156,172313841,"""map""",,,-0.221514180303,0.0784882232547,0.0941598191857,,-0.000108860988005,-0.00141246605822,0.0503619857821,-0.998730056193
3156208000000,,26019,,3156,204313841,"""map""",,,-0.221327885985,0.0781483128667,0.0943313017488,,-0.000153317352106,-0.00141973589568,0.0503697408022,-0.998729634725
3156244000000,,26020,,3156,236324934,"""map""",,,-0.220928683877,0.0777966231108,0.0943186357617,,-0.000173380857199,-0.00141598124532,0.0504049334207,-0.998727906704
3156276000000,,26021,,3156,268324934,"""map""",,,-0.220712468028,0.0775094628334,0.0939260721207,,-0.000175194488774,-0.00140789876394,0.0504048912739,-0.998727864557
3156308000000,,26022,,3156,300324934,"""map""",,,-0.221453070641,0.0774086266756,0.0932167321444,,-0.000181172179591,-0.00135803402075,0.0504605251139,-0.998725167159
3156344000000,,26023,,3156,340324027,"""map""",,,-0.22197702527,0.0772281289101,0.0922696143389,,-0.000107706806437,-0.00131456477371,0.0504821464472,-0.998724113488
3156376000000,,26024,,3156,372324027,"""map""",,,-0.222140163183,0.077077537775,0.0915552824736,,-4.92651795747e-05,-0.0013366924454,0.0504627588969,-0.998725040718
3156408000000,,26025,,3156,404324027,"""map""",,,-0.222097530961,0.0769451037049,0.0908989012241,,-2.31524081081e-05,-0.00130501200939,0.0505093311645,-0.998722722642
3156444000000,,26026,,3156,436323119,"""map""",,,-0.221863389015,0.0767872929573,0.0903406441212,,-5.70224634475e-05,-0.00136395013765,0.0505092468708,-0.998722638348
3156476000000,,26027,,3156,468323119,"""map""",,,-0.221800714731,0.0766112580895,0.0896795839071,,-6.79515034658e-05,-0.00135906637158,0.0505628998089,-0.998719983096
3156508000000,,26028,,3156,500323119,"""map""",,,-0.222579076886,0.0765233337879,0.0889311954379,,-7.72775226747e-05,-0.0013498243168,0.0505463782443,-0.998720826033
3156544000000,,26029,,3156,540322212,"""map""",,,-0.223169162869,0.0763846114278,0.0882513746619,,-8.51283610266e-05,-0.00136600607245,0.0505385389305,-0.998721163208
3156576000000,,26030,,3156,572322212,"""map""",,,-0.22338065505,0.0762704759836,0.0879197493196,,-0.000107739569026,-0.00137169449759,0.050533397015,-0.998721500383
3156608000000,,26031,,3156,604322212,"""map""",,,-0.223386690021,0.076150432229,0.0878171771765,,-0.000143320687633,-0.00137299121289,0.0505050743328,-0.998722849082
3156644000000,,26032,,3156,636321304,"""map""",,,-0.223238676786,0.0760061442852,0.0877878293395,,-0.000150529198136,-0.00131743269388,0.0504649083862,-0.998724998571
3156676000000,,26033,,3156,668321304,"""map""",,,-0.223317191005,0.0758589208126,0.0875988975167,,-0.000163663086326,-0.00131268685172,0.0504650769735,-0.998724998571
3156708000000,,26034,,3156,700321304,"""map""",,,-0.224260181189,0.0758132636547,0.0870621874928,,-0.000211307176276,-0.00105212025814,0.0504711882666,-0.998724956425
3156744000000,,26035,,3156,740320396,"""map""",,,-0.225100576878,0.0756787657738,0.0866062641144,,-0.000217969012519,-0.00106487025604,0.050430179383,-0.99872702162
3156776000000,,26036,,3156,772320396,"""map""",,,-0.225515380502,0.0755407065153,0.0863380730152,,-0.000229783259833,-0.0010738930155,0.0504298422082,-0.99872702162
3156808000000,,26037,,3156,804320396,"""map""",,,-0.225733712316,0.0753834247589,0.0860869511962,,-0.000294300124418,-0.00106234387351,0.0504445093115,-0.998726262977
3156844000000,,26038,,3156,836319488,"""map""",,,-0.225750491023,0.0751898214221,0.0858748853207,,-0.000323671579905,-0.00117210904313,0.0504281984811,-0.998726979473
3156876000000,,26039,,3156,868319488,"""map""",,,-0.225857079029,0.0750140026212,0.0858047828078,,-0.000308752377554,-0.00120310907918,0.0504304744109,-0.998726810886
3156908000000,,26040,,3156,900319488,"""map""",,,-0.226629033685,0.0749922543764,0.0856113880873,,-0.000292654586328,-0.00118216308329,0.0504018567008,-0.998728286026
3156944000000,,26041,,3156,940318580,"""map""",,,-0.227250680327,0.0748729109764,0.0853201523423,,-0.000272716657441,-0.00122055902692,0.0504332139561,-0.998726684445
3156976000000,,26042,,3156,972318580,"""map""",,,-0.227518483996,0.0747443512082,0.0850216895342,,-0.000274917183914,-0.00118810628284,0.0504478389125,-0.998725967949
3157008000000,,26043,,3157,4318580,"""map""",,,-0.227604985237,0.0745858177543,0.084760248661,,-0.000265850960514,-0.00123347180879,0.0504764987695,-0.998724450662
3157044000000,,26044,,3157,36317672,"""map""",,,-0.227555558085,0.0744077190757,0.0844098106027,,-0.000306825558642,-0.00123836351855,0.0504259225513,-0.998726979473
3157076000000,,26045,,3157,68317672,"""map""",,,-0.227684855461,0.0742525681853,0.0840750932693,,-0.000303455992189,-0.00123207915179,0.0504402524798,-0.998726305124
3157108000000,,26046,,3157,100317672,"""map""",,,-0.228592276573,0.0742064267397,0.0839080736041,,-0.000251654716555,-0.00122372304517,0.0504980779559,-0.998723354844
3157144000000,,26047,,3157,140316763,"""map""",,,-0.229381084442,0.0740861073136,0.0837635695934,,-0.000268845485869,-0.00121793316301,0.0504813035102,-0.998724282075
3157176000000,,26048,,3157,172316763,"""map""",,,-0.229757755995,0.0739205032587,0.0836147516966,,-0.000226995064705,-0.00122886376707,0.0504727055531,-0.998724703543
3157208000000,,26049,,3157,204316763,"""map""",,,-0.229917690158,0.0737599134445,0.083413630724,,-0.000213920116248,-0.00122056120835,0.0505129979403,-0.998722680495
3157244000000,,26050,,3157,236315855,"""map""",,,-0.229906409979,0.0735890865326,0.0831958800554,,-0.000255499381711,-0.00120891509568,0.0505019133191,-0.998723228404
3157276000000,,26051,,3157,268315855,"""map""",,,-0.230093330145,0.0734214708209,0.0828753709793,,-0.000185123323162,-0.00116631710302,0.0504960549072,-0.998723607725
3157308000000,,26052,,3157,300315855,"""map""",,,-0.231086179614,0.0732637345791,0.082246683538,,-0.000248003704644,-0.00117454215929,0.050496392082,-0.998723523432
3157344000000,,26053,,3157,340314946,"""map""",,,-0.231989890337,0.0730576142669,0.0814860910177,,-0.000274828074611,-0.00115877870288,0.0505180134153,-0.998722469761
3157376000000,,26054,,3157,372314946,"""map""",,,-0.232514515519,0.0728624016047,0.0809610709548,,-0.000289921503143,-0.00117345428492,0.0505152317233,-0.998722638348
3157408000000,,26055,,3157,404314946,"""map""",,,-0.23286215961,0.072622641921,0.0804465189576,,-0.000336263609442,-0.00119872691823,0.0505073502626,-0.998722933376
3157444000000,,26056,,3157,436314037,"""map""",,,-0.233064651489,0.0723408833146,0.0799686908722,,-0.000347965163327,-0.00121347778014,0.0505226495686,-0.998722132586
3157476000000,,26057,,3157,468314037,"""map""",,,-0.233413413167,0.0720795243979,0.0795204341412,,-0.000317473358996,-0.00123630840694,0.05049361039,-0.998723607725
3157508000000,,26058,,3157,500314037,"""map""",,,-0.234437718987,0.0719528123736,0.078635878861,,-0.000297805062925,-0.00125384762862,0.0504853074608,-0.998723987047
3157544000000,,26059,,3157,540325128,"""map""",,,-0.23540507257,0.0717685520649,0.07748003304,,-0.000255401999442,-0.00117546226944,0.0504940740053,-0.998723649872
3157576000000,,26060,,3157,572325128,"""map""",,,-0.235961869359,0.0715623646975,0.0765302032232,,-0.000277296093631,-0.00111609485248,0.0504866983068,-0.998724113488
3157608000000,,26061,,3157,604325128,"""map""",,,-0.23631541431,0.0713372826576,0.0756185352802,,-0.000275555519338,-0.00113225047214,0.0504474595909,-0.998726094389
3157644000000,,26062,,3157,636324219,"""map""",,,-0.23650598526,0.0710659772158,0.0748326778412,,-0.000187333110417,-0.00109678093567,0.0504571112192,-0.998725630774
3157676000000,,26063,,3157,668324219,"""map""",,,-0.236795812845,0.0708277672529,0.0741026699543,,-0.00021304095933,-0.00107786761972,0.050464950533,-0.998725209306
3157708000000,,26064,,3157,700324219,"""map""",,,-0.23772148788,0.0707003772259,0.0732882469893,,-0.000220223498483,-0.00104370549989,0.0504732113153,-0.998724872131
3157744000000,,26065,,3157,740323310,"""map""",,,-0.23854252696,0.0704847723246,0.0723289325833,,-0.000229001526343,-0.00113464156493,0.0504912923133,-0.998723902753
3157776000000,,26066,,3157,772323310,"""map""",,,-0.239052683115,0.0702843293548,0.0715763047338,,-0.000271077828274,-0.000917934076738,0.0505280022184,-0.998722174733
3157808000000,,26067,,3157,804323310,"""map""",,,-0.239359080791,0.0700637474656,0.0710948556662,,-0.000303567594904,-0.000944513612205,0.0505262320507,-0.998722259026
3157844000000,,26068,,3157,836322400,"""map""",,,-0.239504992962,0.0697965621948,0.0708520561457,,-0.000322714015031,-0.000933526146941,0.0505121550033,-0.99872301767
3157876000000,,26069,,3157,868322400,"""map""",,,-0.239744469523,0.0695357099175,0.070581458509,,-0.000304075044606,-0.000947836421997,0.0505092047239,-0.998723101963
3157908000000,,26070,,3157,900322400,"""map""",,,-0.240518301725,0.0693342760205,0.0699839293957,,-0.000305125340779,-0.000947333787901,0.0504272291036,-0.998727274501
3157944000000,,26071,,3157,940321491,"""map""",,,-0.241210490465,0.0690715909004,0.069046869874,,-0.000291395757922,-0.000935536456949,0.0503730282564,-0.998730056193
3157976000000,,26072,,3157,972321491,"""map""",,,-0.24160553515,0.0688324794173,0.0682539343834,,-0.000279904423791,-0.000926797962339,0.0503672119913,-0.998730309074
3158008000000,,26073,,3158,4321491,"""map""",,,-0.241870045662,0.0685769617558,0.0674635469913,,-0.00025928523061,-0.000946603029872,0.0503814154793,-0.998729592578
3158044000000,,26074,,3158,36320581,"""map""",,,-0.241994515061,0.068316809833,0.0667744725943,,-0.000239121997183,-0.000984645335101,0.0504192633492,-0.998727653823
3158076000000,,26075,,3158,68320581,"""map""",,,-0.242222115397,0.0680294930935,0.0660272315145,,-0.000258299636436,-0.000992245350313,0.0504241523836,-0.998727400942
3158108000000,,26076,,3158,100320581,"""map""",,,-0.243036523461,0.0677434653044,0.0650255009532,,-0.000290632895848,-0.0010185639581,0.0504239837963,-0.998727400942
