rosbagTimestamp,header,seq,stamp,secs,nsecs,frame_id,pose,position,x,y,z,orientation,x,y,z,w
98520000000,,67,,98,516000000,"""map""",,,0.0514162257314,0.0147172408178,0.036306925118,,0.0101612953308,-0.0173511426819,0.0529179392632,-0.99839642174
98548000000,,68,,98,548000000,"""map""",,,0.051411755383,0.0148565974087,0.0364016965032,,0.0100902680129,-0.0173273053463,0.0528738958065,-0.998399919929
98580000000,,69,,98,580000000,"""map""",,,0.0511817745864,0.0150850871578,0.0364502295852,,0.0101551185126,-0.0172007123477,0.0528154381276,-0.998404513935
98616000000,,70,,98,616000000,"""map""",,,0.0512658245862,0.0153132444248,0.0365437082946,,0.0101096693926,-0.0170046257814,0.0526680927452,-0.998416146466
98648000000,,71,,98,648000000,"""map""",,,0.0515928305686,0.0156149743125,0.0366566739976,,0.0101177056113,-0.0169204855252,0.0526294019383,-0.998419518213
98680000000,,72,,98,680000000,"""map""",,,0.0521500855684,0.0159678645432,0.0368263982236,,0.0100519581739,-0.0167978023054,0.0524783054864,-0.998430181366
98716000000,,73,,98,716000000,"""map""",,,0.0529427304864,0.0163950882852,0.0371335595846,,0.0101106509532,-0.0167065431831,0.0523886169927,-0.998435829044
98748000000,,74,,98,748000000,"""map""",,,0.0525108277798,0.0164235308766,0.0374069213867,,0.0101152666917,-0.0166220459958,0.0523789653644,-0.998437725652
98780000000,,75,,98,780000000,"""map""",,,0.0518511757255,0.0163778308779,0.03765046224,,0.0100775864213,-0.0164275182044,0.0523593670799,-0.998442403952
98816000000,,76,,98,816000000,"""map""",,,0.0513632930815,0.0164163317531,0.0379763431847,,0.0100441037136,-0.0162411102667,0.0522916370943,-0.998449273888
98848000000,,77,,98,848000000,"""map""",,,0.0512531213462,0.0165049359202,0.0383880510926,,0.0100186308828,-0.016192388839,0.052281985466,-0.998450833322
98880000000,,78,,98,880000000,"""map""",,,0.0513682737947,0.0166253969073,0.0389925837517,,0.00999070003454,-0.0160671106246,0.0522298919612,-0.998455890944
98916000000,,79,,98,916000000,"""map""",,,0.0516891367733,0.0168019589037,0.0396384187043,,0.00989210242153,-0.0158941903369,0.0521967645383,-0.998461370034
98948000000,,80,,98,948000000,"""map""",,,0.0508453212678,0.0168891772628,0.0395870916545,,0.00985557065277,-0.015868331599,0.0521780934844,-0.998463098055
98980000000,,81,,98,980000000,"""map""",,,0.0498422794044,0.0169880632311,0.0393402911723,,0.00981992001655,-0.0156778591246,0.0521053480239,-0.998470263019
99016000000,,82,,99,16000000,"""map""",,,0.0489604435861,0.0172434803098,0.0392153076828,,0.00975919035912,-0.0155573020157,0.0519703516681,-0.99847974606
99048000000,,83,,99,48000000,"""map""",,,0.0484988316894,0.0175359882414,0.0393100678921,,0.00973982091878,-0.0154862980761,0.0519641139345,-0.998481431934
99080000000,,84,,99,80000000,"""map""",,,0.0482723861933,0.0178937055171,0.0395547822118,,0.00977744389579,-0.015380671159,0.0519192275409,-0.998485014416
99116000000,,85,,99,116000000,"""map""",,,0.0482519604266,0.0183328464627,0.0397960543633,,0.00994962727212,-0.0152602862595,0.0517989404352,-0.998491336443
99148000000,,86,,99,148000000,"""map""",,,0.047124736011,0.0184746365994,0.0397524237633,,0.00991948964126,-0.0152110613747,0.0517592802508,-0.998494497457
99180000000,,87,,99,180000000,"""map""",,,0.0458283238113,0.0185726974159,0.0395880453289,,0.00984848471386,-0.0150165121805,0.0516190998326,-0.998505371344
99216000000,,88,,99,216000000,"""map""",,,0.0445402823389,0.0187466070056,0.0395778939128,,0.00983588725133,-0.0148984149,0.0515165565502,-0.998512578455
99248000000,,89,,99,248000000,"""map""",,,0.0437580496073,0.0189530346543,0.0397819951177,,0.00979334922738,-0.014868808056,0.0514717123034,-0.998515781615
99280000000,,90,,99,280000000,"""map""",,,0.0432087108493,0.0191906932741,0.040175203234,,0.00975161462773,-0.0147201943168,0.0513972388221,-0.998522230083
99316000000,,91,,99,316000000,"""map""",,,0.0428868457675,0.0194848291576,0.0406777523458,,0.00975357017565,-0.014640293441,0.0513177498658,-0.998527456292
99348000000,,92,,99,348000000,"""map""",,,0.0416003167629,0.0192336961627,0.0401941090822,,0.00969567160105,-0.0145672839041,0.0512280613721,-0.998533694026
99380000000,,93,,99,380000000,"""map""",,,0.0402235127985,0.0188616514206,0.0395465008914,,0.00966357611737,-0.014474000416,0.0511387522001,-0.998539889613
99416000000,,94,,99,416000000,"""map""",,,0.038858409971,0.0185642614961,0.038884524256,,0.00950785553056,-0.0142861609672,0.0510501595246,-0.998548656157
99448000000,,95,,99,448000000,"""map""",,,0.0380373597145,0.0184186119586,0.0385755710304,,0.00945994296024,-0.0142443797755,0.0509600495625,-0.998554303835
99480000000,,96,,99,480000000,"""map""",,,0.0374461747706,0.0183481480926,0.0383368507028,,0.00934660037106,-0.0141271870058,0.0508340726323,-0.998563449701
99516000000,,97,,99,516000000,"""map""",,,0.0370561033487,0.0183375701308,0.0381670668721,,0.00935591795267,-0.0140524627837,0.0507272303713,-0.998569898169
99548000000,,98,,99,548000000,"""map""",,,0.0358594954014,0.0179998446256,0.0375834740698,,0.00930037219297,-0.013990669083,0.0507013943532,-0.99857255342
99580000000,,99,,99,580000000,"""map""",,,0.0345823764801,0.0176164079458,0.0368734560907,,0.00924635886633,-0.0138299731924,0.0505883986523,-0.998581024937
99616000000,,100,,99,616000000,"""map""",,,0.0333477593958,0.0171708445996,0.0361837744713,,0.00916143527149,-0.0137279043913,0.0505489070552,-0.998585281769
99648000000,,101,,99,648000000,"""map""",,,0.0326230451465,0.0168733689934,0.0358440093696,,0.00913821367505,-0.0136638714746,0.0505146416674,-0.998588021314
99680000000,,102,,99,680000000,"""map""",,,0.0321252979338,0.0166343208402,0.0356541387737,,0.00906065540661,-0.0136172150779,0.0504142900211,-0.998594469782
99716000000,,103,,99,716000000,"""map""",,,0.0318260677159,0.0164295714349,0.0355307385325,,0.00900700477337,-0.0135567030695,0.050335011799,-0.998599822431
99748000000,,104,,99,748000000,"""map""",,,0.0307006500661,0.0157527551055,0.0350957773626,,0.00899246015936,-0.0135655947374,0.0502656380864,-0.998603278473
99780000000,,105,,99,780000000,"""map""",,,0.0294938609004,0.0149812921882,0.0346364788711,,0.00891315674799,-0.0134626736151,0.0501513779801,-0.998611159934
99816000000,,106,,99,816000000,"""map""",,,0.0283197518438,0.014107872732,0.0343386493623,,0.00887544075156,-0.0133414169673,0.050069318066,-0.998617186933
99848000000,,107,,99,848000000,"""map""",,,0.0276503842324,0.0135019477457,0.0343323163688,,0.00895374119965,-0.0133175307348,0.0499858251591,-0.998621022296
99880000000,,108,,99,880000000,"""map""",,,0.0272336881608,0.0129221491516,0.0345968939364,,0.00904587766786,-0.0132517755596,0.0498527254115,-0.998627765792
99916000000,,109,,99,916000000,"""map""",,,0.0270139276981,0.0123694529757,0.0349389612675,,0.00895063270494,-0.0132189125423,0.0496986365334,-0.998636700924
99948000000,,110,,99,948000000,"""map""",,,0.0260296165943,0.0116477264091,0.035028513521,,0.00892346296954,-0.0131887098801,0.0496319180722,-0.998640620581
99980000000,,111,,99,980000000,"""map""",,,0.0249548088759,0.0109187159687,0.0351579897106,,0.00879536503211,-0.0131110416348,0.0495142019243,-0.998648670629
100016000000,,112,,100,16000000,"""map""",,,0.023962745443,0.0101109230891,0.0353453345597,,0.00880979423619,-0.0130964925756,0.0493801327992,-0.998655371978
100048000000,,113,,100,48000000,"""map""",,,0.0234258491546,0.00951914396137,0.0354225747287,,0.00880348225172,-0.0130654861599,0.0493456566771,-0.99865747932
100080000000,,114,,100,80000000,"""map""",,,0.0231038238853,0.00897422339767,0.0355755500495,,0.00871476297097,-0.0129812545307,0.0492141163629,-0.998665866543
100116000000,,115,,100,116000000,"""map""",,,0.0229539368302,0.0084875067696,0.0355555638671,,0.00867892349712,-0.012910080522,0.0490828710766,-0.998673621563
100148000000,,116,,100,148000000,"""map""",,,0.0222638957202,0.0079174907878,0.0351829454303,,0.00867674651361,-0.0128782660722,0.0490068803088,-0.998677794101
100180000000,,117,,100,180000000,"""map""",,,0.0215386208147,0.00733640044928,0.0346165671945,,0.00868734167156,-0.0128208655219,0.0488814512876,-0.998684537597
100216000000,,118,,100,216000000,"""map""",,,0.0209168232977,0.00663540698588,0.0340788885951,,0.00868209669383,-0.0127247907929,0.0487324621781,-0.998693093407
100248000000,,119,,100,248000000,"""map""",,,0.0206370316446,0.00609796354547,0.0336974672973,,0.0087271503578,-0.0127360953679,0.0486425629502,-0.99869692877
100280000000,,120,,100,280000000,"""map""",,,0.0205309577286,0.00560838682577,0.0333608090878,,0.00864956360732,-0.0127271559555,0.048464281781,-0.998706369664
100316000000,,121,,100,316000000,"""map""",,,0.0205751284957,0.00518705695868,0.0330413579941,,0.00865995511038,-0.0126992879982,0.0482663180336,-0.998716274174
100348000000,,122,,100,348000000,"""map""",,,0.019949644804,0.004551674705,0.0329078435898,,0.00859656608559,-0.0126487936042,0.0482301981844,-0.998719182306
100380000000,,123,,100,380000000,"""map""",,,0.0192619375885,0.00387101667002,0.0329448729753,,0.00854745792772,-0.0126365319994,0.0480990793387,-0.998726052243
100416000000,,124,,100,416000000,"""map""",,,0.0186369121075,0.00305186258629,0.0331762433052,,0.00853985865337,-0.0125503993168,0.0479720487373,-0.998733385794
100448000000,,125,,100,448000000,"""map""",,,0.0183215234429,0.00241536879912,0.0334887392819,,0.00853483247705,-0.0125802394502,0.0479019163814,-0.998736420367
100480000000,,126,,100,480000000,"""map""",,,0.0181654728949,0.00180225551594,0.0337191671133,,0.00856214182388,-0.0123406324761,0.0478163582789,-0.998743248157
100516000000,,127,,100,512000000,"""map""",,,0.0181822236627,0.00124863174278,0.0341857261956,,0.00853092352148,-0.0122578501387,0.0477624103128,-0.998747125667
100548000000,,128,,100,548000000,"""map""",,,0.0176055338234,0.0010227606399,0.0340060628951,,0.00851847719492,-0.0122693099656,0.0476885690342,-0.998750581708
100580000000,,129,,100,580000000,"""map""",,,0.0169837586582,0.000920940423384,0.0337020941079,,0.00847779988848,-0.0122350554438,0.0475321199325,-0.998758758197
100616000000,,130,,100,616000000,"""map""",,,0.0164914038032,0.000805176736321,0.0335765294731,,0.00849469007338,-0.0122070766865,0.0473891578224,-0.998765838868
100648000000,,131,,100,648000000,"""map""",,,0.0162809249014,0.000722310098354,0.033610843122,,0.00846316390142,-0.0122161860034,0.0473073929363,-0.998769800671
100680000000,,132,,100,680000000,"""map""",,,0.016219003126,0.000616264413111,0.0336606316268,,0.00841497573023,-0.0122269227484,0.0472151334849,-0.998774478972
100716000000,,133,,100,716000000,"""map""",,,0.0163035094738,0.000485200493131,0.0337829440832,,0.00843880055344,-0.0121732579564,0.0470867963312,-0.998781011733
100748000000,,134,,100,748000000,"""map""",,,0.0154442507774,0.000284040666884,0.0339063704014,,0.00847118908943,-0.0121743353352,0.0470399711825,-0.998782908341
100780000000,,135,,100,780000000,"""map""",,,0.0144165307283,7.37899099477e-05,0.033871229738,,0.00849386919765,-0.0120108030935,0.0468708780262,-0.99879268641
100816000000,,136,,100,816000000,"""map""",,,0.0134216966107,-0.000175032779225,0.0338427312672,,0.00845868299995,-0.0119217206254,0.0467713271701,-0.998798671263
100848000000,,137,,100,848000000,"""map""",,,0.0128277605399,-0.000345157051925,0.0338682569563,,0.00845730730048,-0.0119385431449,0.0466862326829,-0.998802506626
100880000000,,138,,100,880000000,"""map""",,,0.0124224545434,-0.000521713402122,0.0338853783906,,0.00849509195017,-0.0119205688311,0.0465291092317,-0.99880967159
100916000000,,139,,100,912000000,"""map""",,,0.0121204182506,-0.000682996585965,0.0339868329465,,0.00847296864133,-0.0118695818457,0.0464167878804,-0.998815698589
100948000000,,140,,100,948000000,"""map""",,,0.0114562334493,-0.000787561701145,0.0345998741686,,0.00848139455367,-0.0118341239984,0.0463623341521,-0.998818648869
100980000000,,141,,100,980000000,"""map""",,,0.0107639832422,-0.000899261620361,0.0353303961456,,0.00841289917476,-0.0117445344511,0.0462432271582,-0.998825729539
101016000000,,142,,101,16000000,"""map""",,,0.0101258130744,-0.00103582814336,0.0362702049315,,0.00837744676045,-0.0117385051469,0.0461405574352,-0.998830871455
101048000000,,143,,101,48000000,"""map""",,,0.00976192578673,-0.0011428068392,0.0370079949498,,0.00837187185191,-0.0117223230619,0.0460959239227,-0.998833189532
101080000000,,144,,101,80000000,"""map""",,,0.00952859874815,-0.00129012251273,0.0377466231585,,0.0083586132107,-0.0117076462451,0.0459740773836,-0.998839047943
101116000000,,145,,101,116000000,"""map""",,,0.00941797252744,-0.00146576552652,0.0384927652776,,0.00836236609121,-0.0116760948838,0.0458439279154,-0.998845369971
101148000000,,146,,101,148000000,"""map""",,,0.00938215386122,-0.00161916250363,0.0388240925968,,0.00836904537889,-0.0116978054499,0.0457767879857,-0.99884819381
101180000000,,147,,101,180000000,"""map""",,,0.00945323612541,-0.00175276445225,0.039160054177,,0.00836216704614,-0.0117009867138,0.0456167564019,-0.998855485214
101216000000,,148,,101,216000000,"""map""",,,0.00968085881323,-0.00190302950796,0.03982616961,,0.00838892831931,-0.011707537256,0.0454280228143,-0.99886383029
101248000000,,149,,101,248000000,"""map""",,,0.00996160227805,-0.00202341354452,0.0403950922191,,0.00844594213936,-0.0117374737015,0.0453610093252,-0.998866021927
101280000000,,150,,101,280000000,"""map""",,,0.010352153331,-0.00215039681643,0.040909960866,,0.00843710216716,-0.0116887937622,0.0452354117166,-0.998872343954
101316000000,,151,,101,316000000,"""map""",,,0.0108171971515,-0.00228060060181,0.0413554906845,,0.00844678441778,-0.0116469429295,0.045091480229,-0.998879298184
101344000000,,152,,101,348000000,"""map""",,,0.0108920717612,-0.00246697547846,0.0413649454713,,0.0086756696287,-0.0116598094074,0.0450053320706,-0.998881068351
101380000000,,153,,101,380000000,"""map""",,,0.0109735103324,-0.00268891453743,0.0414572693408,,0.00866566897181,-0.0116258206083,0.0448042494564,-0.998890551392
101416000000,,154,,101,416000000,"""map""",,,0.0112420786172,-0.00297615793534,0.0417216867208,,0.00864258352944,-0.01155537034,0.044664954122,-0.998897842797
101448000000,,155,,101,448000000,"""map""",,,0.0115541955456,-0.00321801286191,0.0421936959028,,0.00862236522523,-0.0115949116572,0.04460653859,-0.998900118727
101480000000,,156,,101,480000000,"""map""",,,0.011965318583,-0.00346750300378,0.0426780283451,,0.00867773597673,-0.0116185069776,0.0444940907982,-0.998904417706
101516000000,,157,,101,516000000,"""map""",,,0.0124298427254,-0.00373456138186,0.0429990291595,,0.00865370716936,-0.0115718318124,0.0443690832455,-0.998910739733
101548000000,,158,,101,548000000,"""map""",,,0.0122760124505,-0.00375571078621,0.0428843833506,,0.00863264362327,-0.0116068920635,0.0443415613534,-0.99891170911
101580000000,,159,,101,580000000,"""map""",,,0.0120395934209,-0.00372515921481,0.0427461080253,,0.00856200583444,-0.0115458591463,0.044239018071,-0.998917567522
101616000000,,160,,101,616000000,"""map""",,,0.0119299916551,-0.0037177936174,0.0426042713225,,0.0086229429334,-0.0115839447508,0.0441135047561,-0.998922203676
101648000000,,161,,101,648000000,"""map""",,,0.011977548711,-0.00373009266332,0.0425267107785,,0.00858133444502,-0.0115491818326,0.0440303068771,-0.998926586948
101680000000,,162,,101,680000000,"""map""",,,0.0121298618615,-0.00378692126833,0.0425285547972,,0.00859529739959,-0.0115960183412,0.0439152881276,-0.998931012367
101716000000,,163,,101,716000000,"""map""",,,0.0123795773834,-0.00386296329089,0.0426151752472,,0.00853415055421,-0.0116156189307,0.043758796879,-0.998938135184
101748000000,,164,,101,748000000,"""map""",,,0.0118551924825,-0.00382984662428,0.0425635054708,,0.00855123978419,-0.0115731335903,0.0436987797668,-0.998941169757
101780000000,,165,,101,780000000,"""map""",,,0.0112052746117,-0.0037466918584,0.0424710102379,,0.00856435338098,-0.011515875121,0.043530403107,-0.998949051218
101816000000,,166,,101,816000000,"""map""",,,0.0106047075242,-0.00364035344683,0.0425412990153,,0.0085144258291,-0.0113994938428,0.0433580646434,-0.998958281378
101848000000,,167,,101,848000000,"""map""",,,0.0102854724973,-0.0035641300492,0.0424963645637,,0.00846707236308,-0.0113703007294,0.0433143162146,-0.998960978776
101880000000,,168,,101,880000000,"""map""",,,0.0100914146751,-0.0035163173452,0.042393475771,,0.00851017475967,-0.0112986833556,0.0431800785021,-0.998967174363
101916000000,,169,,101,916000000,"""map""",,,0.0100072417408,-0.0034915516153,0.0422495305538,,0.00846175478081,-0.0112501629487,0.0430897578058,-0.998972105544
101948000000,,170,,101,948000000,"""map""",,,0.0100013846532,-0.00348651572131,0.0420109070837,,0.00844350420759,-0.0112753348247,0.043012081164,-0.998975266558
101980000000,,171,,101,980000000,"""map""",,,0.0100711360574,-0.00348290218972,0.0416806973517,,0.00845930557147,-0.0110668051422,0.042836792421,-0.99898500248
102016000000,,172,,102,16000000,"""map""",,,0.010287117213,-0.00348332896829,0.0416705794632,,0.00850615171127,-0.0111095645194,0.0426779830958,-0.998990903039
102048000000,,173,,102,48000000,"""map""",,,0.0098387375474,-0.00320669729263,0.0414477549493,,0.00851590014562,-0.0111195184197,0.0425813403722,-0.998994822696
102080000000,,174,,102,80000000,"""map""",,,0.00928680598736,-0.00286397454329,0.0411612689495,,0.00847703852871,-0.0111978874387,0.0423935761621,-0.999002282688
102116000000,,175,,102,116000000,"""map""",,,0.00881265196949,-0.00254174182191,0.0408555828035,,0.00849367402152,-0.01113914461,0.0422601813865,-0.999008478275
102148000000,,176,,102,148000000,"""map""",,,0.0084309251979,-0.00223791413009,0.0407631583512,,0.00854704460872,-0.0111436627193,0.0421816196609,-0.999011259967
102180000000,,177,,102,180000000,"""map""",,,0.00816248729825,-0.00196025264449,0.0407394170761,,0.00861185394938,-0.0111993314622,0.0421086213193,-0.999013198722
102216000000,,178,,102,216000000,"""map""",,,0.00804062560201,-0.00166606216226,0.0408309437335,,0.00859676570689,-0.0112256347176,0.0419369993522,-0.999020195098
102248000000,,179,,102,248000000,"""map""",,,0.00754281599075,-0.00142994779162,0.0409790128469,,0.00858047710239,-0.0111896875718,0.0418729782893,-0.999023440406
102280000000,,180,,102,280000000,"""map""",,,0.00697633298114,-0.00118565687444,0.041293758899,,0.00861400162766,-0.0111236230453,0.0416828117088,-0.999031869775
102316000000,,181,,102,316000000,"""map""",,,0.00652293022722,-0.000955122930463,0.0416378155351,,0.00857184325462,-0.011078923349,0.0415479839404,-0.999038318243
102348000000,,182,,102,348000000,"""map""",,,0.00617584539577,-0.000725895049982,0.0420055091381,,0.00857831806422,-0.0110710471566,0.0415061742667,-0.999040088411
102380000000,,183,,102,380000000,"""map""",,,0.00591662107036,-0.000506892800331,0.042380835861,,0.00855834811361,-0.0109773233492,0.0414670619913,-0.999042954397
102416000000,,184,,102,416000000,"""map""",,,0.00568651873618,-0.000204122043215,0.0424450822175,,0.00862425434247,-0.0109289106967,0.0414026194599,-0.999045609648
102448000000,,185,,102,448000000,"""map""",,,0.00506369536743,0.000200435693841,0.0417546145618,,0.00856711548128,-0.0109236406119,0.0413510317173,-0.999048222753
102480000000,,186,,102,480000000,"""map""",,,0.00441982084885,0.00061724265106,0.0406170338392,,0.00859329616515,-0.010938325249,0.0412701097682,-0.999051257326
102516000000,,187,,102,516000000,"""map""",,,0.0038784169592,0.00103238166776,0.0395038351417,,0.00856893726234,-0.0109493986749,0.0412332734226,-0.999052858906
102548000000,,188,,102,548000000,"""map""",,,0.00344427092932,0.00143303931691,0.0384293012321,,0.00863483114349,-0.0109438709346,0.041210050509,-0.999053322521
102580000000,,189,,102,580000000,"""map""",,,0.00311937532388,0.00179977563675,0.0374077968299,,0.00861815523251,-0.0109054266702,0.0411360406431,-0.99905694715
102616000000,,190,,102,616000000,"""map""",,,0.0028225549031,0.00228840112686,0.0361469723284,,0.00866972198398,-0.0109735833103,0.0410010021404,-0.999061246129
102648000000,,191,,102,648000000,"""map""",,,0.00234518689103,0.00261802133173,0.0355749726295,,0.00865598844986,-0.0109518818816,0.04096690534,-0.99906297415
102680000000,,192,,102,680000000,"""map""",,,0.00184454501141,0.00291946390644,0.0352051220834,,0.00864449125056,-0.0109610307111,0.0408933169425,-0.999066008723
102716000000,,193,,102,716000000,"""map""",,,0.00141412136145,0.00319210789166,0.0349187292159,,0.00860381707221,-0.0108862831107,0.0408309817535,-0.999069759792
102748000000,,194,,102,748000000,"""map""",,,0.00107163167559,0.00344733311795,0.0347136110067,,0.00859483650075,-0.0108870489979,0.0408036705957,-0.999070939904
102780000000,,195,,102,780000000,"""map""",,,0.000764283002354,0.0036789898295,0.0346112325788,,0.00863655949356,-0.0108107563697,0.0406943838175,-0.999075871085
102816000000,,196,,102,816000000,"""map""",,,0.000462269090349,0.00398410344496,0.0345223397017,,0.00870164731623,-0.0107998153936,0.0406130403999,-0.999078737071
102848000000,,197,,102,848000000,"""map""",,,3.80852870876e-05,0.00425383541733,0.0342440232635,,0.00868083055969,-0.0107944431521,0.0405677325377,-0.999080802267
102880000000,,198,,102,880000000,"""map""",,,-0.000377213407774,0.0045326272957,0.0339626185596,,0.00868554417433,-0.0106564967639,0.0404640934372,-0.999086407797
102916000000,,199,,102,916000000,"""map""",,,-0.000743250595406,0.00482922513038,0.033838134259,,0.00889024820714,-0.0106358862141,0.0404348435244,-0.999086070623
102948000000,,200,,102,948000000,"""map""",,,-0.00105576077476,0.00508331414312,0.0338880866766,,0.00887085333052,-0.0106318592968,0.0403856160053,-0.999088262259
102980000000,,201,,102,980000000,"""map""",,,-0.00132011156529,0.00527809839696,0.0340139865875,,0.00885903492614,-0.010607690878,0.0402876667294,-0.999092561237
103016000000,,202,,103,16000000,"""map""",,,-0.00156869227067,0.00550652993843,0.0341808609664,,0.00881621249328,-0.0106065146352,0.0402417266645,-0.999094837167
103048000000,,203,,103,48000000,"""map""",,,-0.00185516674537,0.00536413025111,0.0339770801365,,0.0087777315151,-0.0106101059253,0.0401716786023,-0.999097956034
103080000000,,204,,103,80000000,"""map""",,,-0.00211233645678,0.00511839427054,0.0336628258228,,0.00873536076145,-0.0105306367254,0.0400852775628,-0.999102592187
103116000000,,205,,103,116000000,"""map""",,,-0.00227477541193,0.00489465752617,0.0333646908402,,0.00869869991796,-0.0105559587495,0.0400341534356,-0.999104741677
103148000000,,206,,103,148000000,"""map""",,,-0.00240542297252,0.00469710165635,0.0331121943891,,0.0086413433255,-0.0105032198711,0.04003208824,-0.999105879641
103180000000,,207,,103,180000000,"""map""",,,-0.00250154593959,0.00455446448177,0.0328605957329,,0.00862003916371,-0.0105547525429,0.0399880026365,-0.999107228341
103216000000,,208,,103,216000000,"""map""",,,-0.00257085892372,0.00443420233205,0.0325559936464,,0.0085884785828,-0.0105498982467,0.0398800224106,-0.999111864494
103248000000,,209,,103,248000000,"""map""",,,-0.00286114076152,0.00425283005461,0.0320360846817,,0.00855271187812,-0.0105805375239,0.0398230398714,-0.999114140424
103280000000,,210,,103,280000000,"""map""",,,-0.00319687649608,0.00407243520021,0.0315621942282,,0.00855407267803,-0.0105757865368,0.039708526884,-0.99911873443
103316000000,,211,,103,316000000,"""map""",,,-0.00347308837809,0.00391989573836,0.031119517982,,0.00855948352666,-0.0106067694919,0.0395899256523,-0.999123033409
103348000000,,212,,103,348000000,"""map""",,,-0.00369816366583,0.00378795806319,0.0306257866323,,0.00852471937367,-0.0106173663785,0.039541583217,-0.999125182898
103380000000,,213,,103,380000000,"""map""",,,-0.00386015465483,0.00370708014816,0.0301888845861,,0.00854635428944,-0.0106586382683,0.0394156905805,-0.999129524023
103416000000,,214,,103,416000000,"""map""",,,-0.00400301022455,0.00366973504424,0.0298597123474,,0.0085167089206,-0.0106349481175,0.0393297531564,-0.99913344368
103448000000,,215,,103,448000000,"""map""",,,-0.00410528946668,0.0034916952718,0.029355417937,,0.00853036614587,-0.0106725361916,0.0393054765717,-0.999133865149
103480000000,,216,,103,480000000,"""map""",,,-0.00419273646548,0.00326849264093,0.028656648472,,0.00850242196213,-0.0104726674396,0.0392512335777,-0.999138374862
103516000000,,217,,103,516000000,"""map""",,,-0.00421314127743,0.00305395107716,0.0279099717736,,0.00849316406112,-0.0105030343262,0.0390968918184,-0.999144191127
103548000000,,218,,103,548000000,"""map""",,,-0.0041718906723,0.00281012011692,0.0271237716079,,0.0084910895636,-0.0105632622551,0.0390450090479,-0.999145581973
103580000000,,219,,103,580000000,"""map""",,,-0.00409647589549,0.00256223347969,0.0263345167041,,0.00853986828458,-0.010634256975,0.0390070347374,-0.999145877001
103616000000,,220,,103,616000000,"""map""",,,-0.00394994672388,0.00227804481983,0.0254467986524,,0.00859680299697,-0.0106013657226,0.0389410327726,-0.999148321518
103648000000,,221,,103,648000000,"""map""",,,-0.00416521448642,0.00197243690491,0.0248185060918,,0.00861985403039,-0.0106086459321,0.0388870426597,-0.999150133832
103680000000,,222,,103,680000000,"""map""",,,-0.00440707430243,0.00163393386174,0.0242855418473,,0.00863229854595,-0.0106342797771,0.0387612343169,-0.999154643545
103716000000,,223,,103,716000000,"""map""",,,-0.00456128455698,0.00130838667974,0.0236922353506,,0.00861058188835,-0.0106346714465,0.0385784855817,-0.999161892803
103748000000,,224,,103,748000000,"""map""",,,-0.00467483280227,0.000987426261418,0.0230558626354,,0.00859625525258,-0.0106500425338,0.0385412699145,-0.999163283649
103780000000,,225,,103,780000000,"""map""",,,-0.00477527873591,0.00063018547371,0.022533653304,,0.00861070577703,-0.010672325622,0.0384174424736,-0.999167751215
103816000000,,226,,103,816000000,"""map""",,,-0.00487763807178,0.000174170549144,0.021916102618,,0.00863109258632,-0.0106954119699,0.0383312100215,-0.999170617201
103848000000,,227,,103,848000000,"""map""",,,-0.00538896489888,-0.000115701353934,0.0215200707316,,0.00857772627966,-0.0106476666699,0.0382786107546,-0.99917356748
103880000000,,228,,103,880000000,"""map""",,,-0.00598159153014,-0.000360702280886,0.0211126096547,,0.00856454863942,-0.0106987843763,0.0382517210652,-0.999174157536
103916000000,,229,,103,916000000,"""map""",,,-0.00652962643653,-0.0006093820557,0.0206667371094,,0.00852374415157,-0.0106274966864,0.038138556777,-0.999179594479
103948000000,,230,,103,948000000,"""map""",,,-0.00702620018274,-0.00086987845134,0.0201740264893,,0.00851386878277,-0.010646158356,0.0381160925067,-0.99918039527
103980000000,,231,,103,980000000,"""map""",,,-0.00746895279735,-0.00113186216913,0.0197016540915,,0.00846236953211,-0.010637946059,0.0380401860325,-0.999183809164
104016000000,,232,,104,16000000,"""map""",,,-0.00799930095673,-0.00145067169797,0.0190580878407,,0.00844513089484,-0.0105758893521,0.038004993414,-0.999185958654
104048000000,,233,,104,48000000,"""map""",,,-0.00840296130627,-0.00163987663109,0.018953230232,,0.00842321008844,-0.0105908230013,0.037962425097,-0.999187560234
104080000000,,234,,104,80000000,"""map""",,,-0.0087506333366,-0.00178609811701,0.0189375672489,,0.00844307434266,-0.0105384490389,0.0378572265632,-0.999191943506
104116000000,,235,,104,116000000,"""map""",,,-0.00905004516244,-0.00193243287504,0.0189474411309,,0.0084683297715,-0.0105395722688,0.0378157962111,-0.999193250058
104148000000,,236,,104,148000000,"""map""",,,-0.00928899459541,-0.00208188709803,0.0189591310918,,0.00848654741749,-0.0104994553838,0.0378059338485,-0.999193924408
104180000000,,237,,104,180000000,"""map""",,,-0.0094917723909,-0.00221171812154,0.0190482977778,,0.00848253646985,-0.0104593109222,0.0377202493055,-0.999197591184
104216000000,,238,,104,216000000,"""map""",,,-0.00968995504081,-0.0023958873935,0.0191728770733,,0.00844221313108,-0.0105210474941,0.0377031798318,-0.999197970505
104248000000,,239,,104,248000000,"""map""",,,-0.00991547480226,-0.00247432198375,0.0190835800022,,0.00845210463423,-0.0104941642256,0.0376894821061,-0.999198687002
104280000000,,240,,104,280000000,"""map""",,,-0.0101418700069,-0.00255882646888,0.018906859681,,0.00842924169759,-0.0104555480812,0.0376287063505,-0.999201552988
104316000000,,241,,104,312000000,"""map""",,,-0.0103522725403,-0.00269942241721,0.0187968518585,,0.00847765821909,-0.0104446093276,0.0375741683286,-0.999203323155
104348000000,,242,,104,348000000,"""map""",,,-0.0105323102325,-0.00286986166611,0.0186848770827,,0.00844557022635,-0.010394928483,0.0375471943455,-0.999205093323
104380000000,,243,,104,380000000,"""map""",,,-0.0106764053926,-0.00303879380226,0.0185386352241,,0.00848590278474,-0.0104286940355,0.037460540425,-0.999207706427
104416000000,,244,,104,416000000,"""map""",,,-0.0108255138621,-0.00322784879245,0.0182909630239,,0.0087122671696,-0.0104308485462,0.0373536138703,-0.999209687329
104448000000,,245,,104,448000000,"""map""",,,-0.0107490131631,-0.00327431922778,0.018222624436,,0.00871138636632,-0.0104584175242,0.0373138693921,-0.999210909588
104480000000,,246,,104,480000000,"""map""",,,-0.0105721754953,-0.00331380381249,0.0182591341436,,0.00870273638421,-0.0103734540874,0.037274967851,-0.999213311958
104516000000,,247,,104,516000000,"""map""",,,-0.0103889647871,-0.00339339417405,0.0182754583657,,0.00873105849018,-0.0104463713458,0.0371763863723,-0.999216051503
104548000000,,248,,104,548000000,"""map""",,,-0.0101924976334,-0.00351083255373,0.018222341314,,0.00876331605813,-0.0104422599701,0.0371358832509,-0.999217273762
104580000000,,249,,104,580000000,"""map""",,,-0.00996806751937,-0.00363885355182,0.0181650649756,,0.00874996966586,-0.0104543893721,0.0370752339359,-0.999219507545
104616000000,,250,,104,616000000,"""map""",,,-0.00966071337461,-0.00378580088727,0.0181851256639,,0.00874271974937,-0.0105526277491,0.0370226346689,-0.999220519069
104648000000,,251,,104,648000000,"""map""",,,-0.00922091584653,-0.00396559759974,0.0180255062878,,0.00871799518973,-0.0105202077676,0.0369829323376,-0.999222542118
104680000000,,252,,104,680000000,"""map""",,,-0.0087158260867,-0.00414290325716,0.0178775433451,,0.00867722848587,-0.0105428144481,0.0369423449225,-0.999224185845
104716000000,,253,,104,716000000,"""map""",,,-0.0082097388804,-0.00430831732228,0.0178049560636,,0.00859640037932,-0.0105747390395,0.0368832971878,-0.999226672509
104748000000,,254,,104,748000000,"""map""",,,-0.0077009066008,-0.00447785528377,0.0177239924669,,0.00859904138975,-0.0105548955294,0.0367990456376,-0.99923000211
104780000000,,255,,104,780000000,"""map""",,,-0.00719192670658,-0.00465071480721,0.0176422558725,,0.00853511836768,-0.0105797326178,0.0367337180224,-0.999232699509
104816000000,,256,,104,816000000,"""map""",,,-0.00660126889125,-0.00486329849809,0.0176118854433,,0.00857387848642,-0.0105804509253,0.0367169014298,-0.999232910243
104848000000,,257,,104,848000000,"""map""",,,-0.00621095113456,-0.00491451332346,0.0177404191345,,0.00856751768734,-0.0105511344171,0.0366763140147,-0.999234806851
104880000000,,258,,104,880000000,"""map""",,,-0.00585060659796,-0.00492812413722,0.0179207213223,,0.00859880456069,-0.0105579917587,0.0366001968063,-0.999237251368
104916000000,,259,,104,916000000,"""map""",,,-0.0054911240004,-0.00494217965752,0.0180017277598,,0.00863586267115,-0.0105462270257,0.0364942396292,-0.999240960291
104948000000,,260,,104,948000000,"""map""",,,-0.00511612463742,-0.00495650712401,0.0180756505579,,0.00860690704536,-0.0105753512389,0.0364486367391,-0.999242561871
104980000000,,261,,104,980000000,"""map""",,,-0.00476136617362,-0.00494599994272,0.0182116515934,,0.00864188094477,-0.0105301580458,0.0363967118217,-0.99924458492
105016000000,,262,,105,16000000,"""map""",,,-0.00431426940486,-0.00494727864861,0.0182714182884,,0.00865969095172,-0.0105646733513,0.0363664925313,-0.999245217123
105048000000,,263,,105,48000000,"""map""",,,-0.00404198421165,-0.00485330168158,0.0175641421229,,0.00867372972122,-0.0105829217019,0.036364090161,-0.999244922095
105080000000,,264,,105,80000000,"""map""",,,-0.00378533313051,-0.00474622193724,0.016657885164,,0.00867713447864,-0.0105310507029,0.0363915699062,-0.999244416332
105116000000,,265,,105,116000000,"""map""",,,-0.00353300338611,-0.00466218823567,0.0158284679055,,0.00859270240496,-0.0105145898067,0.0364158043441,-0.999244458479
105148000000,,266,,105,148000000,"""map""",,,-0.00324820843525,-0.00455530360341,0.0149937886745,,0.00884693161895,-0.0105332429976,0.0364042561076,-0.999242519724
105180000000,,267,,105,180000000,"""map""",,,-0.00290870061144,-0.004448749125,0.0142804989591,,0.00884217758615,-0.0105304817205,0.0364075857086,-0.999242477577
105216000000,,268,,105,216000000,"""map""",,,-0.00249018566683,-0.00432502664626,0.0134740946814,,0.00880802694969,-0.0105271150763,0.0363578945742,-0.999244542773
105248000000,,269,,105,248000000,"""map""",,,-0.00250538275577,-0.00390443135984,0.0128032509238,,0.00877102728505,-0.0105351624902,0.0363530476866,-0.999245006388
105280000000,,270,,105,280000000,"""map""",,,-0.00260277744383,-0.00338925933465,0.0121409147978,,0.00869700943421,-0.0105269597421,0.0363110272787,-0.999247240171
105316000000,,271,,105,316000000,"""map""",,,-0.00265619507991,-0.00292541086674,0.0114772981033,,0.00876645879716,-0.0105562591281,0.0362745281079,-0.99924766164
105348000000,,272,,105,348000000,"""map""",,,-0.00266147428192,-0.00250693014823,0.0108014922589,,0.00876181317725,-0.0105190990256,0.0362607460884,-0.999248631017
105380000000,,273,,105,380000000,"""map""",,,-0.00263027031906,-0.00212392793037,0.0103032039478,,0.00874212072083,-0.0104366380579,0.0361921731659,-0.999252129206
105416000000,,274,,105,416000000,"""map""",,,-0.002556781983,-0.00167276919819,0.00971409771591,,0.00875141121979,-0.0104007568488,0.0361517543382,-0.999253857227
105448000000,,275,,105,448000000,"""map""",,,-0.00254532904364,-0.00133953453042,0.00929329451174,,0.00874545756585,-0.0104359419764,0.0361391102836,-0.999254025814
105480000000,,276,,105,480000000,"""map""",,,-0.00256042275578,-0.00103274581488,0.00888843555003,,0.00872302449414,-0.0103730711438,0.0360878597158,-0.999256723212
105516000000,,277,,105,516000000,"""map""",,,-0.00254444731399,-0.000768556026742,0.00844735465944,,0.0087601327363,-0.0103982915051,0.0360243444151,-0.999258451233
105548000000,,278,,105,548000000,"""map""",,,-0.00248140306212,-0.000501771923155,0.00801539514214,,0.008751485553,-0.0103913469887,0.0359606183802,-0.99926089575
105580000000,,279,,105,580000000,"""map""",,,-0.00238116830587,-0.000271429598797,0.00755871925503,,0.00874741023263,-0.0103594947549,0.0359252993211,-0.99926249733
105616000000,,280,,105,616000000,"""map""",,,-0.00218518148176,-1.52668071678e-05,0.00689798826352,,0.00874269991072,-0.010318192572,0.0358985360723,-0.99926397247
105648000000,,281,,105,648000000,"""map""",,,-0.00234734802507,0.000265379960183,0.00579161662608,,0.00874310302228,-0.0102278415003,0.0358787692004,-0.999265616197
105680000000,,282,,105,680000000,"""map""",,,-0.00254226895049,0.000578748353291,0.00468305591494,,0.00874189599251,-0.0102360409556,0.0358256641712,-0.999267470659
105712000000,,283,,105,712000000,"""map""",,,-0.00266797957011,0.000916731834877,0.00369606632739,,0.00874156589708,-0.0100415011457,0.0357626967796,-0.999271685343
105748000000,,284,,105,748000000,"""map""",,,-0.00272599724121,0.00122668058611,0.00288775004447,,0.00872967307717,-0.0100818865523,0.0357632868354,-0.999271348169
105780000000,,285,,105,780000000,"""map""",,,-0.00277802092023,0.00147820438724,0.00206965114921,,0.00872538488229,-0.0100621563119,0.0357334468667,-0.999272612574
105816000000,,286,,105,816000000,"""map""",,,-0.00281801167876,0.00175466667861,0.00107208266854,,0.00870431207542,-0.0100834095599,0.035657961861,-0.999275267826
105848000000,,287,,105,848000000,"""map""",,,-0.0028410081286,0.00191350851674,0.000404342805268,,0.00871948889215,-0.0100734312936,0.0356542950852,-0.999275394266
105880000000,,288,,105,880000000,"""map""",,,-0.00283311540261,0.00207350309938,-0.000200104375836,,0.0087712642376,-0.0101150836575,0.0355556714597,-0.999278007371
105916000000,,289,,105,916000000,"""map""",,,-0.00280072074383,0.00222465302795,-0.00070894084638,,0.00874608795758,-0.0101496942461,0.0354897537886,-0.999280283301
105948000000,,290,,105,948000000,"""map""",,,-0.00273061008193,0.00232684891671,-0.00132524163928,,0.00871533582237,-0.0101926689674,0.0354441508985,-0.999281716293
105980000000,,291,,105,980000000,"""map""",,,-0.00265054777265,0.00243224971928,-0.0019828977529,,0.00871251980374,-0.0102454487578,0.0353375615186,-0.999284961601
106016000000,,292,,106,16000000,"""map""",,,-0.00252520735376,0.00252190697938,-0.00266454135999,,0.00867783500536,-0.010245566555,0.0353086487805,-0.9992863103
106048000000,,293,,106,48000000,"""map""",,,-0.00250978278928,0.00236842315644,-0.00260121817701,,0.00865387765007,-0.0102681528206,0.0352915371601,-0.999286900356
106080000000,,294,,106,80000000,"""map""",,,-0.00251712882891,0.00218598009087,-0.00246810517274,,0.0086484921554,-0.0102783022262,0.035175801914,-0.99929086216
106116000000,,295,,106,116000000,"""map""",,,-0.00248560076579,0.00202782358974,-0.00237582623959,,0.00864946622505,-0.0102804338525,0.0351771084663,-0.999290820013
106148000000,,296,,106,148000000,"""map""",,,-0.00242813793011,0.00188668095507,-0.00234775152057,,0.00861265029433,-0.0102878971374,0.0351491651058,-0.999292042271
106180000000,,297,,106,180000000,"""map""",,,-0.0023452504538,0.00176611961797,-0.00235357438214,,0.00864299742467,-0.0102215908428,0.0351334443313,-0.999293011649
106216000000,,298,,106,216000000,"""map""",,,-0.00222295895219,0.00164724490605,-0.00231969123706,,0.0086228180569,-0.0101779519793,0.0351050795022,-0.999294655376
106248000000,,299,,106,248000000,"""map""",,,-0.00207332056016,0.00197320780717,-0.00197302456945,,0.00859247133815,-0.0101546602479,0.0351094627745,-0.999294992551
106280000000,,300,,106,280000000,"""map""",,,-0.00189648941159,0.00241696578451,-0.00158062647097,,0.0085324429483,-0.0100723705841,0.0350204907773,-0.99929941797
106316000000,,301,,106,316000000,"""map""",,,-0.00167112366762,0.00284973508678,-0.00124874548055,,0.00852081799137,-0.0101451427157,0.0349713475519,-0.999300513788
106348000000,,302,,106,348000000,"""map""",,,-0.00144057127181,0.00326256779954,-0.00105358555447,,0.0085139381769,-0.00989835250282,0.034940706793,-0.999304180564
106380000000,,303,,106,380000000,"""map""",,,-0.0011556497775,0.00363209936768,-0.000744417891838,,0.00856811436982,-0.00991476701279,0.0349204341589,-0.999304222711
106416000000,,304,,106,416000000,"""map""",,,-0.000789477664512,0.00404472369701,-0.000408472493291,,0.00851340615525,-0.00993296815402,0.034899276441,-0.999305234235
106448000000,,305,,106,444000000,"""map""",,,-0.000640964484774,0.00425094738603,-0.000308048562147,,0.00847677445236,-0.00994457253143,0.0349180739354,-0.999304812766
106480000000,,306,,106,480000000,"""map""",,,-0.00051075045485,0.00441254908219,-0.000247172254603,,0.00851494278654,-0.00994595901457,0.0348918585956,-0.999305318529
106516000000,,307,,106,516000000,"""map""",,,-0.000339350430295,0.00454867817461,-0.000222826449317,,0.00848357779335,-0.0099351718909,0.0348856630089,-0.999305950731
106548000000,,308,,106,548000000,"""map""",,,-0.000108376509161,0.00467313360423,-0.000221057343879,,0.00852549020002,-0.00992678335095,0.0348993607347,-0.999305234235
106580000000,,309,,106,580000000,"""map""",,,0.000177134628757,0.00477409176528,-5.89713163208e-05,,0.00850971073275,-0.00990872153305,0.0348899619874,-0.999305782144
106616000000,,310,,106,616000000,"""map""",,,0.000533066457137,0.00493144290522,0.000144202524098,,0.00844026993087,-0.00986358217598,0.0348801839186,-0.999307215137
106648000000,,311,,106,648000000,"""map""",,,0.000668739667162,0.00517281424254,0.000413595873397,,0.00845461714616,-0.00985778681967,0.0348299448752,-0.999308901011
106680000000,,312,,106,680000000,"""map""",,,0.00070859992411,0.00542339542881,0.000745845027268,,0.00846407055257,-0.00989119412402,0.0347989247947,-0.99930957536
106716000000,,313,,106,716000000,"""map""",,,0.000716475828085,0.00566496374086,0.0010126712732,,0.00843944493924,-0.00987238872705,0.0347621727428,-0.999311261234
106748000000,,314,,106,748000000,"""map""",,,0.00074948213296,0.00588821154088,0.0012852747459,,0.00847059853965,-0.00981226838792,0.0347709392872,-0.999311261234
106780000000,,315,,106,780000000,"""map""",,,0.000809422461316,0.00608452409506,0.00168632424902,,0.00841401573698,-0.00979296974111,0.0347706442593,-0.999311977731
106816000000,,316,,106,816000000,"""map""",,,0.000884576817043,0.00631578685716,0.0022573589813,,0.00844776766589,-0.0097893620285,0.0347619198617,-0.999312019877
106852000000,,317,,106,852000000,"""map""",,,0.000967958418187,0.00651065260172,0.00269587268122,,0.0083937704736,-0.00974309713654,0.0347376432769,-0.999313705751
106880000000,,318,,106,880000000,"""map""",,,0.00112842465751,0.006700810045,0.00308920047246,,0.00838743630441,-0.00975886693145,0.03467808978,-0.999315686653
106916000000,,319,,106,916000000,"""map""",,,0.0013233270729,0.00690711196512,0.00341811380349,,0.00838175602875,-0.00968543230409,0.0346788905701,-0.99931640315
106948000000,,320,,106,948000000,"""map""",,,0.00142739829607,0.00703822309151,0.00385297881439,,0.00839505949215,-0.0096884225489,0.0346580700269,-0.999317077499
106980000000,,321,,106,980000000,"""map""",,,0.00149267190136,0.00714293215424,0.00413971953094,,0.00846525650891,-0.00947197069945,0.0346774575772,-0.999317836143
107016000000,,322,,107,16000000,"""map""",,,0.00159931078088,0.00725356023759,0.0045288130641,,0.00849203317556,-0.00947740871305,0.0346915346247,-0.999317077499
107048000000,,323,,107,44000000,"""map""",,,0.001680952264,0.00734046567231,0.00474311830476,,0.00850266191929,-0.00947844806092,0.0346843696604,-0.999317246087
107080000000,,324,,107,80000000,"""map""",,,0.00179676525295,0.00741498265415,0.00480483518913,,0.00851564195502,-0.00944695633907,0.0345836808393,-0.999320912863
107116000000,,325,,107,116000000,"""map""",,,0.00192554702517,0.00748930685222,0.00466284388676,,0.0085053817081,-0.00942890048922,0.0345939225235,-0.999320786422
107148000000,,326,,107,148000000,"""map""",,,0.00155024928972,0.00742313358933,0.00424910429865,,0.00852712787673,-0.0094084371653,0.0345933746145,-0.999320828569
107180000000,,327,,107,180000000,"""map""",,,0.00108443270437,0.00733366981149,0.0039143320173,,0.00858879949977,-0.00944630717882,0.0345261503911,-0.999322303709
107216000000,,328,,107,216000000,"""map""",,,0.000565541675314,0.00721597764641,0.00357962842099,,0.00852570686116,-0.00949002807218,0.0344577039091,-0.999324748226
107248000000,,329,,107,248000000,"""map""",,,0.000215053383727,0.00711106741801,0.00333036389202,,0.0085180068295,-0.00939947853161,0.0344891033113,-0.999324621785
107280000000,,330,,107,280000000,"""map""",,,-8.21596113383e-05,0.00703302258626,0.00310673634522,,0.00854993668924,-0.00943689077438,0.0344279903809,-0.999326054778
107316000000,,331,,107,316000000,"""map""",,,-0.000335429853294,0.00695082917809,0.00296108610928,,0.0085748071165,-0.00946579314038,0.0343631263811,-0.999327867093
107348000000,,332,,107,344000000,"""map""",,,-0.000195852146135,0.00682445848361,0.00262349029072,,0.00855163005413,-0.00943382500274,0.0343351830205,-0.999329257939
107380000000,,333,,107,380000000,"""map""",,,9.24403793761e-05,0.00671429559588,0.00228150677867,,0.00852897945694,-0.00936495503548,0.0343493443616,-0.999329679407
107416000000,,334,,107,416000000,"""map""",,,0.000425715203164,0.00662662507966,0.00179014238529,,0.00849181902512,-0.00935542993003,0.0343220332038,-0.999330943812
107448000000,,335,,107,448000000,"""map""",,,0.000676973257214,0.00658980384469,0.00130591087509,,0.00848948176834,-0.00935551628168,0.0342988102902,-0.999331828896
107480000000,,336,,107,480000000,"""map""",,,0.000897712365258,0.00656581483781,0.000790511781815,,0.00829292203778,-0.00919957557637,0.0342605830986,-0.999336170022
107516000000,,337,,107,516000000,"""map""",,,0.00115646841004,0.00659525254741,0.000191303712199,,0.00837992618052,-0.00922262080636,0.034253249547,-0.999335495672
107548000000,,338,,107,548000000,"""map""",,,0.00114299089182,0.00656287977472,-0.000125179780298,,0.00840793930564,-0.00918597679692,0.0342252218927,-0.999336549343
107580000000,,339,,107,580000000,"""map""",,,0.00106884120032,0.00649693142623,-0.000346547109075,,0.00840106331896,-0.00922238455352,0.0341995966088,-0.999337139399
107616000000,,340,,107,616000000,"""map""",,,0.000902092666365,0.00646567484364,-0.000615713768639,,0.00801259305858,-0.0089466165301,0.0340411244584,-0.999348266167
107648000000,,341,,107,648000000,"""map""",,,0.000620309612714,0.00666618859395,-0.000749201397412,,0.00781034630228,-0.00900153897743,0.0336988920485,-0.999360994515
107680000000,,342,,107,680000000,"""map""",,,0.000120340606372,0.00700934790075,-0.000304410787066,,0.00646629824399,-0.00843449087355,0.0323737529845,-0.999419367901
107716000000,,343,,107,716000000,"""map""",,,-0.000619473168626,0.00743824196979,0.00103000225499,,0.00390227125418,-0.00662056204803,0.0307739007619,-0.999496875955
107748000000,,344,,107,748000000,"""map""",,,-0.00164287840016,0.00783848110586,0.00329142785631,,0.00187081118362,-0.00495380738334,0.0297078383756,-0.999544670481
107780000000,,345,,107,780000000,"""map""",,,-0.00291244476102,0.00821000989527,0.00659841345623,,-0.00339950273307,1.51792862729e-05,0.0272823715375,-0.999622052095
107816000000,,346,,107,816000000,"""map""",,,-0.00476724561304,0.00861389841884,0.0118293883279,,-0.00976621851074,0.00665303858203,0.0246032228182,-0.999627489039
107848000000,,347,,107,848000000,"""map""",,,-0.00645597465336,0.00889185722917,0.0167065188289,,-0.0132856415402,0.0104899357113,0.0232081199857,-0.999587323092
107880000000,,348,,107,880000000,"""map""",,,-0.00831649638712,0.00905844382942,0.0221706777811,,-0.021800460438,0.0198733318452,0.020040531439,-0.999363944795
107916000000,,349,,107,916000000,"""map""",,,-0.010829333216,0.00901419296861,0.0297646597028,,-0.0295527592112,0.0284333491222,0.0174043725052,-0.999007171722
107948000000,,350,,107,948000000,"""map""",,,-0.0122223403305,0.00870445091277,0.0333996750414,,-0.0340257818531,0.0333635518008,0.0159480303017,-0.998736673248
107980000000,,351,,107,980000000,"""map""",,,-0.0144681464881,0.00780016649514,0.0355411991477,,-0.0367496381712,0.0383019872736,0.0129834631243,-0.998505834959
108016000000,,352,,108,16000000,"""map""",,,-0.0180169846863,0.00590461678803,0.0331016182899,,-0.0293857169272,0.0331626981954,0.0101295314243,-0.998966584307
108048000000,,353,,108,48000000,"""map""",,,-0.0214106459171,0.00380812562071,0.0283055007458,,-0.0238361979198,0.0281678238119,0.00888969758161,-0.999279440364
108080000000,,354,,108,80000000,"""map""",,,-0.0252176504582,0.00130642345175,0.0225161146373,,-0.0131897977957,0.0175738033301,0.0069427660615,-0.99973445774
108116000000,,355,,108,116000000,"""map""",,,-0.0292386263609,-0.00148406811059,0.0169421993196,,-0.00516728166496,0.00855512898342,0.00570744193165,-0.999933812334
108148000000,,356,,108,148000000,"""map""",,,-0.0333085916936,-0.00415762048215,0.0142073463649,,-0.00503911573282,0.00765583904256,0.00510052731309,-0.999945023395
108180000000,,357,,108,180000000,"""map""",,,-0.0372660905123,-0.00678314920515,0.0184270720929,,-0.0268700866562,0.026995824792,0.00271084314937,-0.999270715966
108216000000,,358,,108,216000000,"""map""",,,-0.0406320095062,-0.00889684911817,0.0407060571015,,-0.0396331411951,0.0397467548576,3.4223240991e-05,-0.998423522164
108248000000,,359,,108,248000000,"""map""",,,-0.0445399731398,-0.0119721759111,0.0657346770167,,-0.0475124005581,0.0476451313561,-0.00138987662334,-0.997732777464
108280000000,,360,,108,280000000,"""map""",,,-0.049376886338,-0.0160900782794,0.0910584107041,,-0.0637909223884,0.063486649019,-0.00369016732137,-0.995935045787
108316000000,,361,,108,316000000,"""map""",,,-0.0551646202803,-0.0211914554238,0.113669604063,,-0.0767202148968,0.0752557890596,-0.00535391416634,-0.99419417021
108348000000,,362,,108,348000000,"""map""",,,-0.0620261915028,-0.0274495668709,0.131601333618,,-0.0811259178265,0.0793546984934,-0.00597528515393,-0.993521885829
108380000000,,363,,108,376000000,"""map""",,,-0.0701849982142,-0.0351235531271,0.147944927216,,-0.0868214005899,0.0847358395239,-0.00691001796021,-0.99258959754
108416000000,,364,,108,416000000,"""map""",,,-0.0826304405928,-0.0471599884331,0.170084223151,,-0.0887024250579,0.0863339214966,-0.00751267574707,-0.992281209049
108448000000,,365,,108,448000000,"""map""",,,-0.0944765731692,-0.0589256063104,0.190506860614,,-0.0893479096405,0.0867553422372,-0.00785162070279,-0.992183934123
108480000000,,366,,108,480000000,"""map""",,,-0.107929885387,-0.0725136622787,0.213213175535,,-0.0901625957922,0.0871879920672,-0.00838996239882,-0.992067819555
108516000000,,367,,108,516000000,"""map""",,,-0.12285964191,-0.0877949595451,0.237928077579,,-0.0907851338853,0.0875498779148,-0.00881109370914,-0.991975517957
108548000000,,368,,108,548000000,"""map""",,,-0.13894982636,-0.103796966374,0.266021162271,,-0.0910608001224,0.0877094411088,-0.00893896724752,-0.991935056983
108580000000,,369,,108,580000000,"""map""",,,-0.156291693449,-0.121038556099,0.295776903629,,-0.0913860914749,0.0880099672365,-0.00902380885358,-0.991877779415
108616000000,,370,,108,616000000,"""map""",,,-0.179687082767,-0.144611284137,0.334174484015,,-0.0911077146685,0.087867339173,-0.00906174101724,-0.991915627285
108648000000,,371,,108,648000000,"""map""",,,-0.199618861079,-0.165007337928,0.365969747305,,-0.0909421287557,0.0874928975159,-0.00911804920685,-0.991963421812
108680000000,,372,,108,680000000,"""map""",,,-0.220641046762,-0.186708793044,0.398929178715,,-0.090810688211,0.0868943335709,-0.0090358207054,-0.992028791574
108716000000,,373,,108,716000000,"""map""",,,-0.242732092738,-0.209693163633,0.43332067132,,-0.0905105048558,0.0872572314368,-0.00890023429374,-0.99202563056
108748000000,,374,,108,748000000,"""map""",,,-0.265320301056,-0.232879936695,0.468549817801,,-0.0902256024496,0.0874921476806,-0.00881872228872,-0.992031615413
108780000000,,375,,108,780000000,"""map""",,,-0.288705319166,-0.256939023733,0.504945516586,,-0.0894996640607,0.0868190108965,-0.0087201829569,-0.992157381609
108816000000,,376,,108,816000000,"""map""",,,-0.319200515747,-0.288603037596,0.552154958248,,-0.088593019824,0.0861033386402,-0.0086055856758,-0.992302156033
108848000000,,377,,108,848000000,"""map""",,,-0.344545811415,-0.315102636814,0.591400623322,,-0.0881454021829,0.0861088569139,-0.00855079477274,-0.992341942658
108880000000,,378,,108,880000000,"""map""",,,-0.370633006096,-0.342572510242,0.631937742233,,-0.0872958859003,0.0859536239382,-0.00843758833764,-0.992431462564
108916000000,,379,,108,916000000,"""map""",,,-0.397390902042,-0.370950728655,0.673796713352,,-0.0864527019759,0.0853149984259,-0.00838933019609,-0.992560811242
108948000000,,380,,108,948000000,"""map""",,,-0.425520092249,-0.400175839663,0.716365456581,,-0.0859869518468,0.0851698194492,-0.0083368573697,-0.9926142113
108980000000,,381,,108,980000000,"""map""",,,-0.454451650381,-0.43017873168,0.760139465332,,-0.0849138733994,0.0851448671257,-0.00827338421584,-0.992709210296
109016000000,,382,,109,16000000,"""map""",,,-0.49135774374,-0.468664079905,0.816882133484,,-0.0840968017216,0.0847910782784,-0.00828008556475,-0.992808971886
109048000000,,383,,109,48000000,"""map""",,,-0.521432518959,-0.50016617775,0.863787710667,,-0.0836650766528,0.0845900211004,-0.00827228839778,-0.992862709118
109080000000,,384,,109,80000000,"""map""",,,-0.551956474781,-0.532273769379,0.91212362051,,-0.0827672790149,0.084417583814,-0.00822837138163,-0.992952987668
109116000000,,385,,109,116000000,"""map""",,,-0.582873523235,-0.564916431904,0.961785912514,,-0.0820950583485,0.0843023432996,-0.00817450770923,-0.993018989633
109148000000,,386,,109,148000000,"""map""",,,-0.615095615387,-0.598596930504,1.01246452332,,-0.0817341137257,0.0841671668319,-0.00813278232921,-0.993060546425
109180000000,,387,,109,180000000,"""map""",,,-0.647900164127,-0.632871806622,1.06440365314,,-0.0808992902708,0.084064971014,-0.00811883172235,-0.993137717305
109216000000,,388,,109,216000000,"""map""",,,-0.689279615879,-0.676250815392,1.13135457039,,-0.0799723727414,0.084097384904,-0.00800583602149,-0.993210926381
109248000000,,389,,109,248000000,"""map""",,,-0.722663402557,-0.711311399937,1.18655669689,,-0.0795856495585,0.0840613751964,-0.00799036812809,-0.993245191769
109280000000,,390,,109,280000000,"""map""",,,-0.756269931793,-0.746647596359,1.24322474003,,-0.0788695145101,0.0840052640762,-0.00790051104706,-0.993307821985
109316000000,,391,,109,316000000,"""map""",,,-0.790077388287,-0.782221913338,1.30134165287,,-0.0781466292159,0.0839844682284,-0.00786654068716,-0.993366911867
109348000000,,392,,109,348000000,"""map""",,,-0.825457751751,-0.818510591984,1.3607686758,,-0.0777568416607,0.0839595940146,-0.00783779653648,-0.993399870703
109380000000,,393,,109,380000000,"""map""",,,-0.861367166042,-0.855166852474,1.42160046101,,-0.0770315493863,0.0839010708105,-0.00781579588156,-0.993461489395
109416000000,,394,,109,416000000,"""map""",,,-0.906356573105,-0.901221036911,1.49961423874,,-0.0761350516741,0.0836889062093,-0.00770119860046,-0.993549365574
109448000000,,395,,109,448000000,"""map""",,,-0.942440986633,-0.938225924969,1.56354236603,,-0.0753554561489,0.0832632388444,-0.00768311760244,-0.993644743892
109480000000,,396,,109,480000000,"""map""",,,-0.978576421738,-0.97531414032,1.62880682945,,-0.072392698981,0.0809548161095,-0.00759587362603,-0.994056350015
109516000000,,397,,109,516000000,"""map""",,,-1.01470947266,-1.0124143362,1.69543349743,,-0.0689541723821,0.0777069980732,-0.00739441169015,-0.994561353554
109548000000,,398,,109,548000000,"""map""",,,-1.05229413509,-1.05029165745,1.76360154152,,-0.0668162237713,0.0754929474005,-0.00728381835965,-0.994878635029
109580000000,,399,,109,580000000,"""map""",,,-1.09009182453,-1.08824729919,1.83294045925,,-0.0619318920104,0.0702403509653,-0.00706275813921,-0.995580675085
109616000000,,400,,109,616000000,"""map""",,,-1.13671505451,-1.13518953323,1.92007148266,,-0.0582155323983,0.0662395804682,-0.00624472995647,-0.996084456365
109648000000,,401,,109,648000000,"""map""",,,-1.1733725071,-1.17224133015,1.98853385448,,-0.0565913271998,0.0644239916989,-0.00614446260386,-0.996297761566
109680000000,,402,,109,680000000,"""map""",,,-1.20942676067,-1.20880794525,2.05456113815,,-0.0543034645537,0.0620728982433,-0.00593832236779,-0.996575635738
109716000000,,403,,109,716000000,"""map""",,,-1.24485945702,-1.24489164352,2.1175596714,,-0.0533351854902,0.06136772615,-0.00571367966523,-0.996672910664
109748000000,,404,,109,748000000,"""map""",,,-1.28223562241,-1.28152740002,2.17677998543,,-0.0528352194875,0.0609506294126,-0.00564755125991,-0.996725467784
109780000000,,405,,109,780000000,"""map""",,,-1.31981503963,-1.31800460815,2.22883892059,,-0.0515473785734,0.0560692253759,-0.00539669321758,-0.997080765717
109816000000,,406,,109,816000000,"""map""",,,-1.36602711678,-1.36311268806,2.28195381165,,-0.0499475335948,0.0453825369805,-0.00477363635604,-0.997708880201
109848000000,,407,,109,848000000,"""map""",,,-1.40237903595,-1.39885210991,2.31459403038,,-0.0488190769153,0.0378462601507,-0.00430702859618,-0.99808107902
109880000000,,408,,109,880000000,"""map""",,,-1.43820369244,-1.43426144123,2.33839273453,,-0.0434631736152,0.0172782217192,-0.00363929607522,-0.998899022909
109916000000,,409,,109,916000000,"""map""",,,-1.47351968288,-1.46936941147,2.35342907906,,-0.0341858593704,0.000417872832095,-0.00376957198397,-0.999408367573
109948000000,,410,,109,948000000,"""map""",,,-1.50955855846,-1.50459933281,2.36681127548,,-0.0260762525395,-0.00914312394753,-0.00410986563884,-0.999609745215
109980000000,,411,,109,980000000,"""map""",,,-1.54360461235,-1.53889489174,2.38685560226,,-0.0141655364192,-0.0138991754571,-0.00470658072006,-0.999791988188
110016000000,,412,,110,16000000,"""map""",,,-1.57462632656,-1.5717113018,2.41863465309,,-0.0100973496095,-0.0102486345286,-0.0045357173962,-0.999886228542
110048000000,,413,,110,48000000,"""map""",,,-1.60293567181,-1.60293769836,2.46449136734,,-0.00802349767071,-0.00851551837502,-0.0043119176306,-0.999922306244
110080000000,,414,,110,80000000,"""map""",,,-1.62896227837,-1.63259935379,2.52166724205,,-0.00662330019378,0.00135488288528,-0.00377875999694,-0.999970016476
110116000000,,415,,110,116000000,"""map""",,,-1.659258008,-1.66793835163,2.59829688072,,-0.012105450098,0.0200603687752,-0.00366294045723,-0.999718821259
110148000000,,416,,110,148000000,"""map""",,,-1.68501758575,-1.6966881752,2.65501213074,,-0.0157005163484,0.0293131607982,-0.00375494702753,-0.999439935563
110180000000,,417,,110,180000000,"""map""",,,-1.71100318432,-1.72525155544,2.70578694344,,-0.0281424332991,0.0599542002056,-0.00429101279374,-0.9977951548
110216000000,,418,,110,216000000,"""map""",,,-1.74291718006,-1.76022231579,2.76199889183,,-0.0377857323372,0.0845962929549,-0.00498323263369,-0.995686210794
110248000000,,419,,110,248000000,"""map""",,,-1.76203906536,-1.78095126152,2.79245400429,,-0.0399254988601,0.0902780016013,-0.00515241008361,-0.995102729823
110280000000,,420,,110,280000000,"""map""",,,-1.78789961338,-1.80840086937,2.83043241501,,-0.0402632821433,0.0938818021275,-0.00516796227071,-0.994755481938
110316000000,,421,,110,316000000,"""map""",,,-1.82098937035,-1.84240448475,2.87546157837,,-0.0356925591553,0.0874118315101,-0.00496317073379,-0.995520236504
110348000000,,422,,110,348000000,"""map""",,,-1.84920585155,-1.86938130856,2.91182470322,,-0.0321460941481,0.0805759050754,-0.00476297320337,-0.996218609784
110380000000,,423,,110,380000000,"""map""",,,-1.87789273262,-1.8959363699,2.94766187668,,-0.0239201369906,0.0611147808509,-0.00448724852041,-0.997834014194
110416000000,,424,,110,416000000,"""map""",,,-1.90636205673,-1.92195475101,2.98272657394,,-0.0174006912414,0.0444402942973,-0.00425556729414,-0.998851481264
110448000000,,425,,110,448000000,"""map""",,,-1.93431150913,-1.94732630253,3.01686239243,,-0.0152321963728,0.0386223196213,-0.0042145162637,-0.999128976114
110480000000,,426,,110,480000000,"""map""",,,-1.96155893803,-1.9720441103,3.04971575737,,-0.0103928287138,0.0242822633716,-0.00405633914123,-0.999642956932
110516000000,,427,,110,516000000,"""map""",,,-1.99447131157,-2.00205588341,3.08879256248,,-0.00787242873361,0.0157361416307,-0.00402110437588,-0.999837085316
110548000000,,428,,110,548000000,"""map""",,,-2.02049994469,-2.02539491653,3.11885261536,,-0.00695950198236,0.0126677005816,-0.00399054791071,-0.999887619388
110580000000,,429,,110,580000000,"""map""",,,-2.0457239151,-2.04804491997,3.14781236649,,-0.00543731685264,0.00871632586172,-0.00410501875126,-0.999938869955
110616000000,,430,,110,616000000,"""map""",,,-2.0699133873,-2.06998968124,3.17570948601,,-0.00459946310516,0.00673124296495,-0.00420267299926,-0.999957962478
110648000000,,431,,110,648000000,"""map""",,,-2.09313464165,-2.09130716324,3.20249390602,,-0.00440569585027,0.00632194084267,-0.00424444052614,-0.999961376372
110680000000,,432,,110,680000000,"""map""",,,-2.11546897888,-2.11200690269,3.22848105431,,-0.00420750490495,0.00733384979692,-0.00421704507461,-0.99995539152
110716000000,,433,,110,716000000,"""map""",,,-2.14217996597,-2.13705158234,3.259745121,,-0.00404417681199,0.00803540499917,-0.00426867496403,-0.999950460339
110748000000,,434,,110,748000000,"""map""",,,-2.16413879395,-2.15642213821,3.28416657448,,-0.00394122819542,0.00801714718196,-0.00429746126156,-0.99995083966
110780000000,,435,,110,780000000,"""map""",,,-2.18576812744,-2.17522788048,3.30789041519,,-0.00378130839955,0.00862143700675,-0.00424873950469,-0.999946709269
