rosbagTimestamp,header,seq,stamp,secs,nsecs,frame_id,pose,position,x,y,z,orientation,x,y,z,w
386808000000,,8241,,386,804044695,"""map""",,,-0.113838337362,0.0380901619792,-0.00460459291935,,-0.000690217864639,-0.0106605250807,0.0409614262497,-0.999103603712
386840000000,,8242,,386,836044695,"""map""",,,-0.113491356373,0.0377839431167,-0.00471545988694,,-0.000690958068666,-0.0106632567233,0.0409185629047,-0.999105416026
386876000000,,8243,,386,868044551,"""map""",,,-0.113087013364,0.0373408533633,-0.00482451636344,,-0.000732951805578,-0.0106240920936,0.0409028842771,-0.99910642755
386908000000,,8244,,386,900044551,"""map""",,,-0.112617872655,0.0367742218077,-0.0051731984131,,-0.000998963286316,-0.0105993515642,0.0408662586657,-0.99910790269
386940000000,,8245,,386,932044551,"""map""",,,-0.112072616816,0.0361244007945,-0.00539689604193,,-0.00104168273928,-0.0106262152411,0.0408515915625,-0.999108239865
386976000000,,8246,,386,972044407,"""map""",,,-0.111325584352,0.0360687151551,-0.0058560888283,,-0.00110824479615,-0.0106709774991,0.0408676073649,-0.999106975459
387008000000,,8247,,387,4044407,"""map""",,,-0.110668115318,0.0360384099185,-0.00620308006182,,-0.00113492770252,-0.010710748319,0.0408857305098,-0.999105795348
387040000000,,8248,,387,36044407,"""map""",,,-0.109979234636,0.0358554758132,-0.00654460070655,,-0.00110036399402,-0.0106524928133,0.0408885543486,-0.999106343257
387076000000,,8249,,387,68044264,"""map""",,,-0.10927542299,0.0355415008962,-0.0067443177104,,-0.00111888457049,-0.0106747835571,0.0409284674141,-0.999104446649
387108000000,,8250,,387,100044264,"""map""",,,-0.10856962204,0.0350940562785,-0.00688700657338,,-0.00115692506472,-0.0106769155949,0.0409385826578,-0.999103940886
387140000000,,8251,,387,132044264,"""map""",,,-0.107834674418,0.0345155522227,-0.00708319153637,,-0.00113944004949,-0.0106359152724,0.0408899873415,-0.99910642755
387176000000,,8252,,387,172044120,"""map""",,,-0.10742842406,0.0345332361758,-0.00697036506608,,-0.00117118189478,-0.0106474437526,0.0408562277158,-0.999107649809
387208000000,,8253,,387,204044120,"""map""",,,-0.107143677771,0.0345690101385,-0.00673100305721,,-0.00117722502845,-0.0106338839919,0.0408589672609,-0.999107691956
387240000000,,8254,,387,236044120,"""map""",,,-0.106772899628,0.0344532057643,-0.0063705407083,,-0.00116899914901,-0.0106225484653,0.0408683238613,-0.999107439075
387276000000,,8255,,387,276043976,"""map""",,,-0.10622792691,0.0340903736651,-0.00606940547004,,-0.00123829614122,-0.0106214134638,0.0408643199107,-0.999107481222
387308000000,,8256,,387,300043976,"""map""",,,-0.105861872435,0.0337676666677,-0.00588715681806,,-0.00129832181458,-0.0106094575883,0.0408505800381,-0.999108155571
387340000000,,8257,,387,332043976,"""map""",,,-0.10532052815,0.0332078151405,-0.00560523662716,,-0.00126039755345,-0.010609394368,0.0407981072117,-0.999110305061
387376000000,,8258,,387,372043833,"""map""",,,-0.105071693659,0.0331320464611,-0.00531062064692,,-0.00122785162532,-0.0106265224521,0.0408284107958,-0.999108914215
387408000000,,8259,,387,404043833,"""map""",,,-0.104916155338,0.033011008054,-0.0052953963168,,-0.00120344003896,-0.0104128385887,0.0408141230141,-0.999111822347
387440000000,,8260,,387,436043833,"""map""",,,-0.104643121362,0.0327357165515,-0.00521241454408,,-0.00118059578852,-0.0103896466267,0.0407920802124,-0.999112960312
387476000000,,8261,,387,468043689,"""map""",,,-0.104277528822,0.0322864837945,-0.00514811882749,,-0.00118341106629,-0.0103796584822,0.0407853788634,-0.999113339634
387508000000,,8262,,387,500043689,"""map""",,,-0.1038300246,0.0316941328347,-0.00498996116221,,-0.00122780849066,-0.0103297898701,0.0407042040332,-0.99911713285
387540000000,,8263,,387,532043689,"""map""",,,-0.103322587907,0.0309937410057,-0.00487576331943,,-0.00120287237359,-0.0103049808521,0.0407251088701,-0.999116542794
387576000000,,8264,,387,572043546,"""map""",,,-0.103036887944,0.0307801049203,-0.00462316256016,,-0.00113402286237,-0.0103441062984,0.0406913070976,-0.999117638612
387608000000,,8265,,387,604043546,"""map""",,,-0.102800734341,0.0305669438094,-0.00455586193129,,-0.00113160106494,-0.0103520414304,0.0406649653173,-0.99911860799
387640000000,,8266,,387,636043546,"""map""",,,-0.102438397706,0.0301717929542,-0.00451146205887,,-0.00116281047699,-0.0103571138695,0.0406934565868,-0.999117343584
387676000000,,8267,,387,668043403,"""map""",,,-0.101990059018,0.0296322144568,-0.00442121177912,,-0.00112554871164,-0.0103759205836,0.0406759656447,-0.999117891493
387708000000,,8268,,387,700043403,"""map""",,,-0.101496480405,0.0289604645222,-0.00438065966591,,-0.00113644070853,-0.0104022086925,0.0406393821802,-0.999119155899
387740000000,,8269,,387,732043403,"""map""",,,-0.100941136479,0.028140231967,-0.00439752358943,,-0.00117640250636,-0.0104135699024,0.0406306577826,-0.999119282339
387776000000,,8270,,387,772043259,"""map""",,,-0.10088455677,0.0280061513186,-0.00436302507296,,-0.00117138209231,-0.0104711711441,0.0406673676876,-0.999117217144
387808000000,,8271,,387,804043259,"""map""",,,-0.100830636919,0.0278661642224,-0.00427798368037,,-0.00121206302074,-0.0104829261636,0.0406373591315,-0.999118228668
387840000000,,8272,,387,836043259,"""map""",,,-0.100672997534,0.027534103021,-0.00436233449727,,-0.00120491978847,-0.0105446785406,0.040614684127,-0.999118565843
387876000000,,8273,,387,868043116,"""map""",,,-0.100406073034,0.0270543508232,-0.00453709764406,,-0.00124132709232,-0.0105329205577,0.040559303168,-0.999120841773
387908000000,,8274,,387,900043116,"""map""",,,-0.100062839687,0.0263992622495,-0.00466216728091,,-0.00124052531438,-0.0105377315546,0.0405571536788,-0.999120883919
387940000000,,8275,,387,932043116,"""map""",,,-0.0996411293745,0.0256094634533,-0.00477467942983,,-0.00124000671058,-0.010541084534,0.0405011405171,-0.999123117702
387976000000,,8276,,387,972042973,"""map""",,,-0.0995275899768,0.0256533008069,-0.00497909542173,,-0.00127821612148,-0.0105081250399,0.0405304325768,-0.999122232619
388008000000,,8277,,388,4042973,"""map""",,,-0.0994106456637,0.0257258340716,-0.00514285964891,,-0.00128092175159,-0.0105103400544,0.040558755259,-0.999121052507
388040000000,,8278,,388,36042973,"""map""",,,-0.099189504981,0.0256124660373,-0.00529038533568,,-0.00119959117558,-0.0104836587943,0.0405814724104,-0.999120504598
388076000000,,8279,,388,68042829,"""map""",,,-0.0988764390349,0.0252979956567,-0.00542082032189,,-0.00125084931663,-0.0104636736149,0.0405103706769,-0.999123581318
388108000000,,8280,,388,100042829,"""map""",,,-0.0984531268477,0.0248155724257,-0.00556334434077,,-0.00120484998275,-0.0104608892887,0.0404854197426,-0.999124677136
388140000000,,8281,,388,132042829,"""map""",,,-0.0979389920831,0.0241640433669,-0.00567058520392,,-0.00117879434002,-0.0104828619555,0.0404548211306,-0.99912568866
388176000000,,8282,,388,172042686,"""map""",,,-0.0975942760706,0.0245261117816,-0.00530268810689,,-0.00122113216643,-0.0104940532609,0.0404248547213,-0.999126742331
388208000000,,8283,,388,204042686,"""map""",,,-0.0972913503647,0.0248300209641,-0.0048529105261,,-0.00122023950935,-0.0104929452597,0.0403998616401,-0.999127796003
388240000000,,8284,,388,236042686,"""map""",,,-0.0969098508358,0.0249301567674,-0.00445719901472,,-0.00119306993859,-0.0104963413738,0.0404288586719,-0.999126615891
388276000000,,8285,,388,268042543,"""map""",,,-0.0964660272002,0.0248460527509,-0.0038718811702,,-0.00132053814283,-0.0106135013808,0.0403868804108,-0.999126868772
388308000000,,8286,,388,300042543,"""map""",,,-0.0959797203541,0.0245913807303,-0.00323079363443,,-0.00134468565284,-0.0106491075653,0.0403588949034,-0.999127627415
388340000000,,8287,,388,332042543,"""map""",,,-0.0954308584332,0.0241747610271,-0.00274517294019,,-0.00131596027068,-0.0105978000334,0.0403485267786,-0.99912863894
388376000000,,8288,,388,372042400,"""map""",,,-0.0953816995025,0.0245341174304,-0.00165060732979,,-0.00129160992895,-0.0105731270048,0.0402906591556,-0.999131294191
388408000000,,8289,,388,404042400,"""map""",,,-0.0953339189291,0.0247706715018,-0.000778661225922,,-0.00124233334832,-0.0106153900865,0.0402770878704,-0.999131378485
388440000000,,8290,,388,436042400,"""map""",,,-0.0951675474644,0.0247880015522,-6.22229563305e-05,,-0.00122428889953,-0.0105735478148,0.0402520526424,-0.999132895771
388476000000,,8291,,388,468042257,"""map""",,,-0.0948884412646,0.024618903175,0.000344469619449,,-0.00118606434211,-0.0105981260129,0.0402149634157,-0.999134160177
388508000000,,8292,,388,500042257,"""map""",,,-0.0945219770074,0.0242550261319,0.000700514123309,,-0.0011884522245,-0.0106055925905,0.0401943114599,-0.99913491882
388540000000,,8293,,388,532042257,"""map""",,,-0.0940780118108,0.0237015709281,0.00110868318006,,-0.00122967184234,-0.0106829281063,0.04018815802,-0.999134328764
388576000000,,8294,,388,572042114,"""map""",,,-0.094145052135,0.0238895211369,0.00182551611215,,-0.0011898585463,-0.0107139511502,0.040141164284,-0.999135888198
388608000000,,8295,,388,604042114,"""map""",,,-0.0942051038146,0.0240279100835,0.00233897776343,,-0.0011885625307,-0.0107328303042,0.040135305872,-0.999135930344
388640000000,,8296,,388,636042114,"""map""",,,-0.0941335111856,0.0239713545889,0.00274177873507,,-0.00113481805486,-0.0107571734019,0.0401340836134,-0.999135803904
388676000000,,8297,,388,668041971,"""map""",,,-0.0939574614167,0.0237318929285,0.00307383947074,,-0.00107679435681,-0.0107345174952,0.040068250236,-0.999138754183
388708000000,,8298,,388,700041971,"""map""",,,-0.0936614871025,0.0233168136328,0.00335675664246,,-0.00109254805853,-0.0107312195043,0.0400489891263,-0.999139554973
388740000000,,8299,,388,732041971,"""map""",,,-0.0932666882873,0.0227544587106,0.00357045582496,,-0.00110836234634,-0.0107860183099,0.0400217622621,-0.999139976442
388776000000,,8300,,388,772041828,"""map""",,,-0.0926403328776,0.0218504443765,0.00381030584686,,-0.0011223936249,-0.0107562069879,0.0400101718788,-0.999140777232
388808000000,,8301,,388,804041828,"""map""",,,-0.0920482575893,0.0209825448692,0.00397262210026,,-0.00115221976421,-0.0107833884124,0.0400753730534,-0.999137869099
388840000000,,8302,,388,836041828,"""map""",,,-0.091362670064,0.0200014747679,0.00391983427107,,-0.0011442260217,-0.0108024272634,0.0401074046583,-0.999136351813
388876000000,,8303,,388,868041685,"""map""",,,-0.0914514511824,0.0197098702192,0.00356878968887,,-0.000937414070239,-0.0108300097416,0.0400753730534,-0.999137531925
388908000000,,8304,,388,900041685,"""map""",,,-0.0917018800974,0.0194618999958,0.00327869341709,,-0.000913491123897,-0.010834358111,0.0400634454953,-0.99913799554
388940000000,,8305,,388,940041685,"""map""",,,-0.0918072164059,0.0188766904175,0.0029331871774,,-0.000918213217292,-0.0108405428317,0.0400682923829,-0.999137784806
388976000000,,8306,,388,972041542,"""map""",,,-0.0917734578252,0.018240109086,0.00268882419914,,-0.00096891587605,-0.0107367022166,0.0400441000918,-0.999139807854
389008000000,,8307,,389,4041542,"""map""",,,-0.0916263982654,0.0174544136971,0.0024171769619,,-0.000969776593722,-0.0107783373761,0.0400664800684,-0.999138417008
389040000000,,8308,,389,36041542,"""map""",,,-0.0913686826825,0.0165207348764,0.00205226382241,,-0.000975256013301,-0.0107343633958,0.0400226051991,-0.999140650791
389076000000,,8309,,389,68041400,"""map""",,,-0.0914348289371,0.0166056342423,0.00181632337626,,-0.000961207612584,-0.0107755938796,0.0400172104025,-0.999140482204
389108000000,,8310,,389,100041400,"""map""",,,-0.0915237441659,0.016842905432,0.0016695096856,,-0.00096875947173,-0.0108001368456,0.0399933131394,-0.999141114407
389140000000,,8311,,389,132041400,"""map""",,,-0.0914680361748,0.0168732497841,0.00158521928824,,-0.00102741767742,-0.0107970426743,0.0399742627639,-0.99914187305
389176000000,,8312,,389,172041257,"""map""",,,-0.0912224277854,0.0166101977229,0.00156942743342,,-0.00100033799798,-0.0107950515649,0.0399852630913,-0.999141493728
389208000000,,8313,,389,204041257,"""map""",,,-0.0909313634038,0.0161875691265,0.0015973263653,,-0.00101580556211,-0.0108074680924,0.039963641758,-0.999142210225
389240000000,,8314,,389,236041257,"""map""",,,-0.090524084866,0.0155861051753,0.0017093612114,,-0.00100563368364,-0.0108096570943,0.0399397444949,-0.999143095309
389276000000,,8315,,389,268041114,"""map""",,,-0.0906209275126,0.0157195627689,0.00184373999946,,-0.000993662332299,-0.0107992511033,0.0399626723805,-0.999142336665
389308000000,,8316,,389,300041114,"""map""",,,-0.0907733663917,0.0158621873707,0.00193956843577,,-0.000965979096817,-0.0107839748463,0.0399589634578,-0.99914267384
389340000000,,8317,,389,332041114,"""map""",,,-0.0907807648182,0.0157307256013,0.00198219623417,,-0.000995110800944,-0.0107499475223,0.0399680250303,-0.999142715987
389376000000,,8318,,389,372040972,"""map""",,,-0.0905783697963,0.0152423502877,0.00201946846209,,-0.00101944797178,-0.0107329649765,0.0399941139295,-0.99914174661
389408000000,,8319,,389,404040972,"""map""",,,-0.0902781933546,0.0146159501746,0.00206292816438,,-0.00101758231519,-0.0107189689301,0.0399788567703,-0.999142505253
389440000000,,8320,,389,436040972,"""map""",,,-0.0898566022515,0.0138377994299,0.00213884352706,,-0.000978888215535,-0.0107585072838,0.0399567296749,-0.999143053162
389476000000,,8321,,389,468040829,"""map""",,,-0.0898379683495,0.013964545913,0.002564919414,,-0.000986928714705,-0.010689393367,0.0399586684299,-0.999143727511
389508000000,,8322,,389,500040829,"""map""",,,-0.089859098196,0.0142142334953,0.00305570522323,,-0.000783897137988,-0.0107296827907,0.0399815541686,-0.999142505253
389540000000,,8323,,389,532040829,"""map""",,,-0.089789673686,0.014229696244,0.00364681356587,,-0.000782540207029,-0.0107602303655,0.0400328047364,-0.999140145029
389576000000,,8324,,389,572040687,"""map""",,,-0.0895623117685,0.0139318928123,0.00429904554039,,-0.000758548442787,-0.0107712027049,0.0400218465558,-0.999140482204
389608000000,,8325,,389,604040687,"""map""",,,-0.0892530083656,0.0134595446289,0.00473836483434,,-0.000759056180603,-0.0107545619437,0.0400086967391,-0.999141156554
389640000000,,8326,,389,636040687,"""map""",,,-0.0888470634818,0.0127990813926,0.00513943471014,,-0.000781566219702,-0.0107547190066,0.0399891406014,-0.999141915197
389676000000,,8327,,389,668040544,"""map""",,,-0.0890234038234,0.0130370398983,0.00584658002481,,-0.000773170765042,-0.0107827035261,0.0399519249341,-0.999143137456
389708000000,,8328,,389,700040544,"""map""",,,-0.089262790978,0.013332773,0.00656324392185,,-0.00076788067701,-0.0108151980878,0.0399261310629,-0.999143811805
389740000000,,8329,,389,732040544,"""map""",,,-0.089378207922,0.0133420163766,0.00728990416974,,-0.000799810536751,-0.0108222237699,0.0399118432812,-0.99914427542
389776000000,,8330,,389,772040402,"""map""",,,-0.0893241986632,0.0130000477657,0.00804580654949,,-0.000822095682901,-0.0107762823879,0.0399094830577,-0.999144865476
389808000000,,8331,,389,804040402,"""map""",,,-0.0891698747873,0.0125026712194,0.00853075738996,,-0.000832099961794,-0.0107882879836,0.0399209470005,-0.99914427542
389840000000,,8332,,389,836040402,"""map""",,,-0.0889258757234,0.0118095660582,0.00893780589104,,-0.000878079868614,-0.0108017456699,0.0398719723625,-0.999146045588
389876000000,,8333,,389,868040260,"""map""",,,-0.0892316624522,0.0120517676696,0.00934596080333,,-0.000869264262558,-0.0108331322304,0.0399006743664,-0.999144570448
389908000000,,8334,,389,900040260,"""map""",,,-0.0895998701453,0.0124084670097,0.00970781315118,,-0.000872712730874,-0.0108686933045,0.0399077128901,-0.999143938246
389940000000,,8335,,389,932040260,"""map""",,,-0.0898116752505,0.0125571778044,0.0100132692605,,-0.000828928411444,-0.0108692191523,0.0398734053554,-0.999145286945
389976000000,,8336,,389,972040118,"""map""",,,-0.0898829698563,0.0124084642157,0.0103040756658,,-0.000842044971682,-0.0108222112575,0.0398254843886,-0.999147689315
390008000000,,8337,,390,4040118,"""map""",,,-0.0898046195507,0.0120589211583,0.0104200579226,,-0.000840668284388,-0.0108720541864,0.0398180665433,-0.999147436434
390040000000,,8338,,390,36040118,"""map""",,,-0.0895967558026,0.0115029877052,0.0105827078223,,-0.000572768098001,-0.010844286328,0.0398326914997,-0.999147394287
390076000000,,8339,,390,68039975,"""map""",,,-0.0897974595428,0.0118791023269,0.0110130943358,,-0.000513539263498,-0.0108847953763,0.0398028936778,-0.999148195077
390108000000,,8340,,390,100039975,"""map""",,,-0.089995123446,0.0123533513397,0.0115553364158,,-0.000520169818876,-0.01090132188,0.0397815252256,-0.99914882728
390140000000,,8341,,390,140039975,"""map""",,,-0.0900048241019,0.0126163698733,0.0120663251728,,-0.000499516546017,-0.0108796228385,0.039805633223,-0.99914815293
390176000000,,8342,,390,172039833,"""map""",,,-0.0898937880993,0.0126145780087,0.0124397827312,,-0.000474660442108,-0.0109013798319,0.0398251893607,-0.999147141406
390208000000,,8343,,390,204039833,"""map""",,,-0.0896545350552,0.0124502042308,0.012751782313,,-0.000488612366054,-0.0108945520425,0.0398262851787,-0.999147141406
390240000000,,8344,,390,236039833,"""map""",,,-0.0892965272069,0.0120978644118,0.0128967054188,,-0.000489532682004,-0.0108554479989,0.0398272124094,-0.999147562875
390276000000,,8345,,390,268039691,"""map""",,,-0.0896009579301,0.0126472683623,0.0131208077073,,-0.000542365732246,-0.0108495257081,0.0397670688566,-0.999149965245
390308000000,,8346,,390,300039691,"""map""",,,-0.0899859443307,0.0132897468284,0.0133117558435,,-0.000542545185624,-0.0108328431294,0.0397516852569,-0.999150766035
390340000000,,8347,,390,332039691,"""map""",,,-0.0902160480618,0.0136916441843,0.0134250037372,,-0.000504124381939,-0.0108502932417,0.0397116457508,-0.999152199028
390376000000,,8348,,390,372039549,"""map""",,,-0.0902579277754,0.013905105181,0.013518281281,,-0.000536512259386,-0.0107889478452,0.0396576977847,-0.99915498072
390408000000,,8349,,390,404039549,"""map""",,,-0.090123616159,0.0138544738293,0.0135271027684,,-0.000518199782981,-0.010780988347,0.0396640619588,-0.999154854279
390440000000,,8350,,390,436039549,"""map""",,,-0.0898404121399,0.0136188454926,0.013484894298,,-0.000563510279308,-0.0107634895023,0.0396394060524,-0.999155992244
390476000000,,8351,,390,476039408,"""map""",,,-0.0901120752096,0.0143769802526,0.013369130902,,-0.000588929109499,-0.010769421342,0.0396189226841,-0.999156666594
390508000000,,8352,,390,500039408,"""map""",,,-0.090266533196,0.0148258665577,0.0132070388645,,-0.000559172117362,-0.0107804927922,0.0396134014469,-0.999156793034
390540000000,,8353,,390,532039408,"""map""",,,-0.0903662592173,0.0152179980651,0.0129506941885,,-0.000556638038095,-0.0107549913147,0.0396032019096,-0.999157467384
390576000000,,8354,,390,572039266,"""map""",,,-0.090304620564,0.0153808202595,0.0124115729704,,-0.000537751969423,-0.0107203166415,0.0395857952611,-0.999158521055
390608000000,,8355,,390,604039266,"""map""",,,-0.0901011228561,0.0152869010344,0.0118568856269,,-0.000529478016224,-0.0107189402834,0.0395843622683,-0.999158605349
390640000000,,8356,,390,636039266,"""map""",,,-0.0897854566574,0.0149955805391,0.0113605717197,,-0.000543086838482,-0.010938693293,0.0395482424191,-0.999157635971
390676000000,,8357,,390,668039124,"""map""",,,-0.0902601704001,0.0153985973448,0.0110451085493,,-0.000546956446011,-0.0109288124912,0.0395648482774,-0.999157130209
390708000000,,8358,,390,700039124,"""map""",,,-0.0908530056477,0.0158240348101,0.0108940070495,,-0.000558426315706,-0.0109246893441,0.0395370735043,-0.999158268174
390740000000,,8359,,390,732039124,"""map""",,,-0.0912546440959,0.0160262435675,0.0108164781705,,-0.000600807935334,-0.0109265065976,0.0395737834093,-0.999156793034
390776000000,,8360,,390,772038982,"""map""",,,-0.0914957821369,0.0160353574902,0.0106692612171,,-0.000587430591471,-0.0109146142716,0.0395557024113,-0.999157593825
390808000000,,8361,,390,804038982,"""map""",,,-0.0915513560176,0.0158304907382,0.0104735661298,,-0.000593925157409,-0.010932419998,0.0395642160747,-0.999157088062
390840000000,,8362,,390,836038982,"""map""",,,-0.0915017127991,0.0154638849199,0.0101959258318,,-0.000608758213907,-0.0109265247076,0.0395909793235,-0.999156034391
390876000000,,8363,,390,868038841,"""map""",,,-0.0919065102935,0.0160550829023,0.0101028978825,,-0.000664424651894,-0.0109062576711,0.039559116306,-0.999157467384
390908000000,,8364,,390,900038841,"""map""",,,-0.0923323631287,0.016784876585,0.0100279813632,,-0.000612113498175,-0.0109572030035,0.0395818334574,-0.999156076538
390940000000,,8365,,390,932038841,"""map""",,,-0.0926045104861,0.0172999445349,0.00984408613294,,-0.000617329499951,-0.0109392705073,0.0395968377354,-0.999155739363
390976000000,,8366,,390,972038699,"""map""",,,-0.0927543267608,0.0176406092942,0.009621899575,,-0.000589713765281,-0.0109736284206,0.0395454185803,-0.999157340943
391008000000,,8367,,391,4038699,"""map""",,,-0.0927283167839,0.0176866687834,0.0093833534047,,-0.000583872804767,-0.0109804571979,0.039563583872,-0.999156624447
391040000000,,8368,,391,36038699,"""map""",,,-0.0925598368049,0.0175680872053,0.00915375072509,,-0.000542138863663,-0.0110267495841,0.0396023589726,-0.999154517105
391076000000,,8369,,391,68038558,"""map""",,,-0.0928287729621,0.0183184333146,0.00908666290343,,-0.000494789184266,-0.0110360617327,0.0395914850857,-0.999154938573
391108000000,,8370,,391,100038558,"""map""",,,-0.0931257009506,0.0191816352308,0.00908618886024,,-0.000480722015031,-0.0110570884003,0.0395903892676,-0.999154769986
391140000000,,8371,,391,132038558,"""map""",,,-0.0932722240686,0.0198485925794,0.00897877011448,,-0.000274296958465,-0.0111068193766,0.0395337017564,-0.999156498006
391176000000,,8372,,391,172038417,"""map""",,,-0.0932238698006,0.020358979702,0.00899927504361,,-0.000266533047988,-0.0111270455834,0.0395294870715,-0.999156413713
391208000000,,8373,,391,204038417,"""map""",,,-0.0930264145136,0.0205728430301,0.00903009157628,,-0.000289409237834,-0.0111118585592,0.0395344603996,-0.999156413713
391240000000,,8374,,391,236038417,"""map""",,,-0.0926855131984,0.0205960776657,0.00897804647684,,-0.000280955501985,-0.0111353784763,0.0395361884204,-0.999156034391
391276000000,,8375,,391,268038275,"""map""",,,-0.0927283614874,0.0212784670293,0.00898279715329,,-0.000342481998277,-0.0112227541616,0.0395282648129,-0.999155444335
391308000000,,8376,,391,300038275,"""map""",,,-0.0927782952785,0.0220448374748,0.00898885168135,,-0.000347428984621,-0.0112592796742,0.0394859072302,-0.999156666594
391340000000,,8377,,391,332038275,"""map""",,,-0.0927078053355,0.0226218216121,0.00900261197239,,-0.000404350608441,-0.0112221631179,0.0394910491457,-0.999156835181
391376000000,,8378,,391,372038134,"""map""",,,-0.0924052521586,0.0230802092701,0.00900190137327,,-0.000424669999234,-0.0112725529681,0.039461757086,-0.99915738309
391408000000,,8379,,391,404038134,"""map""",,,-0.0919915661216,0.0232558492571,0.00897704157978,,-0.000405940664155,-0.0112658387775,0.0394854857617,-0.9991565823
391440000000,,8380,,391,436038134,"""map""",,,-0.0914328619838,0.0232653673738,0.00906324665993,,-0.000429669998411,-0.011288683028,0.0395036089065,-0.999155570776
391476000000,,8381,,391,468037993,"""map""",,,-0.0913841575384,0.0241672582924,0.00946030020714,,-0.000423272897061,-0.0113480020831,0.039461462058,-0.9991565823
391508000000,,8382,,391,500037993,"""map""",,,-0.0913587212563,0.0251922588795,0.00982283242047,,-0.00042154026646,-0.0113453290509,0.0394452776682,-0.99915725665
391540000000,,8383,,391,532037993,"""map""",,,-0.0911748930812,0.0260396711528,0.0101390369236,,-0.000473072691299,-0.01131721842,0.0394485229755,-0.999157467384
391576000000,,8384,,391,572037852,"""map""",,,-0.0907287895679,0.0268387366086,0.0105197345838,,-0.000500506667685,-0.0113057936606,0.0393923412265,-0.999159701167
391608000000,,8385,,391,604037852,"""map""",,,-0.0902257636189,0.0272601917386,0.0108827194199,,-0.000488282435255,-0.0112773014032,0.0394023300296,-0.999159743314
391640000000,,8386,,391,636037852,"""map""",,,-0.0896025151014,0.0275085531175,0.0111569641158,,-0.000449064134171,-0.0111896761295,0.0393826053045,-0.999161513481
391676000000,,8387,,391,668037711,"""map""",,,-0.0892771705985,0.0283468458802,0.0114470999688,,-0.000494641670297,-0.0112178898226,0.0393419757425,-0.999162693593
391708000000,,8388,,391,700037711,"""map""",,,-0.0889451876283,0.0292479265481,0.0117335002869,,-0.000519719045161,-0.0111733010911,0.0393599724468,-0.999162482859
391740000000,,8389,,391,732037711,"""map""",,,-0.0884677320719,0.0299508608878,0.0119991321117,,-0.000522383186968,-0.0111806876556,0.0393668423831,-0.999162187831
391776000000,,8390,,391,772037570,"""map""",,,-0.0876521244645,0.0305927339941,0.0122997509316,,-0.000785744026061,-0.0111371107776,0.0393083425574,-0.999164800936
391808000000,,8391,,391,804037570,"""map""",,,-0.0868645086884,0.0309231001884,0.0126723023131,,-0.000782628451994,-0.0111689836733,0.0393482977698,-0.999162862181
391840000000,,8392,,391,836037570,"""map""",,,-0.0859832391143,0.0310813300312,0.0130226053298,,-0.0007711253258,-0.0112029958508,0.0393679382012,-0.999161682069
391876000000,,8393,,391,876037429,"""map""",,,-0.0857401192188,0.0318353138864,0.0136645222083,,-0.000771793748476,-0.0111705961195,0.0393567271395,-0.999162525006
391908000000,,8394,,391,900037429,"""map""",,,-0.0855898484588,0.0322600603104,0.0140494890511,,-0.000794602766782,-0.0111562428127,0.0393244005067,-0.999163915852
391940000000,,8395,,391,932037429,"""map""",,,-0.0852472633123,0.0326747000217,0.0145122222602,,-0.000656789157597,-0.0111634077769,0.0393670531174,-0.999162229978
391976000000,,8396,,391,972037289,"""map""",,,-0.0845672115684,0.0329210273921,0.0151633014902,,-0.000663922511707,-0.0111729843312,0.0393640606911,-0.999162272125
392008000000,,8397,,392,4037289,"""map""",,,-0.0838702991605,0.0330107212067,0.0155948102474,,-0.000684899788464,-0.0112213899867,0.0394231084259,-0.999159363992
392040000000,,8398,,392,36037289,"""map""",,,-0.0830219238997,0.0329555049539,0.0159345734864,,-0.000663177039324,-0.0112409210997,0.0394617992328,-0.999157678118
392076000000,,8399,,392,68037148,"""map""",,,-0.082728035748,0.0333698838949,0.0160803217441,,-0.000709489840392,-0.0112400570893,0.039409452847,-0.999159701167
392108000000,,8400,,392,100037148,"""map""",,,-0.082471601665,0.0338049903512,0.0161941219121,,-0.000714286349316,-0.0112178815908,0.0394163649301,-0.999159616873
392140000000,,8401,,392,132037148,"""map""",,,-0.0820534154773,0.0341023430228,0.0162387099117,,-0.000706767088124,-0.0111981963784,0.0394203267339,-0.999159701167
392176000000,,8402,,392,172037008,"""map""",,,-0.0813160985708,0.0342861525714,0.0162979103625,,-0.000665231368917,-0.0111666586819,0.0394299362153,-0.999159785461
392208000000,,8403,,392,204037008,"""map""",,,-0.0805800184608,0.034319806844,0.0163205526769,,-0.000728072649319,-0.0112121743148,0.0394344459281,-0.999158984671
392240000000,,8404,,392,236037008,"""map""",,,-0.079701282084,0.0342726148665,0.0163259617984,,-0.000714406533689,-0.0112390389795,0.0394192309158,-0.999159363992
392276000000,,8405,,392,268036867,"""map""",,,-0.0796307548881,0.0347808711231,0.0164000187069,,-0.00073838776122,-0.0111671947371,0.039447005689,-0.999158984671
392308000000,,8406,,392,300036867,"""map""",,,-0.0796544924378,0.0353716872633,0.0164904892445,,-0.000783620878567,-0.0111695770219,0.0394309898865,-0.999159574726
392340000000,,8407,,392,332036867,"""map""",,,-0.0794652178884,0.0358192063868,0.0165612082928,,-0.000794396313079,-0.0112209747744,0.0393884637164,-0.999160712691
392376000000,,8408,,392,372036727,"""map""",,,-0.0789771303535,0.0361709520221,0.0167187452316,,-0.000779079226368,-0.0112134877819,0.0393272243455,-0.999163199355
392408000000,,8409,,392,404036727,"""map""",,,-0.0784073472023,0.0363057628274,0.0167920496315,,-0.00078845229035,-0.0112274535352,0.0392798512878,-0.999164885229
392440000000,,8410,,392,436036727,"""map""",,,-0.0777102559805,0.0363077111542,0.0169028639793,,-0.000811456896375,-0.011267818033,0.0392769853021,-0.999164548055
392476000000,,8411,,392,468036586,"""map""",,,-0.0778061151505,0.0368069633842,0.0167151018977,,-0.000867275458144,-0.0113057327453,0.0392810735464,-0.999163915852
392508000000,,8412,,392,500036586,"""map""",,,-0.0779895335436,0.0373464338481,0.0164157133549,,-0.000837327158827,-0.0112690784872,0.0392642569538,-0.999164969523
392540000000,,8413,,392,532036586,"""map""",,,-0.0779505744576,0.0377400070429,0.0161323677748,,-0.000775461512113,-0.0112701657442,0.0392370300897,-0.999166065341
392576000000,,8414,,392,572036446,"""map""",,,-0.0776512548327,0.0380619801581,0.0158265829086,,-0.000757832934179,-0.0112613142475,0.0392373251176,-0.999166191782
392608000000,,8415,,392,604036446,"""map""",,,-0.0772355720401,0.0381829552352,0.0156032415107,,-0.000755892532786,-0.0112567982785,0.0392714640649,-0.999164927376
392640000000,,8416,,392,636036446,"""map""",,,-0.0766405835748,0.0382104627788,0.01535087917,,-0.000816718337722,-0.0112587870829,0.03929426551,-0.999163957999
392676000000,,8417,,392,668036306,"""map""",,,-0.0767402499914,0.0387748219073,0.0152275944129,,-0.000792721634395,-0.0111789234148,0.0393901074435,-0.999161092013
392708000000,,8418,,392,700036306,"""map""",,,-0.0769223719835,0.0393701903522,0.0151237584651,,-0.000793296543751,-0.0111394654035,0.0393527653357,-0.999162946474
392740000000,,8419,,392,732036306,"""map""",,,-0.0768620818853,0.0398346297443,0.0150687322021,,-0.000844816456244,-0.0111648687579,0.0393643978659,-0.999162187831
392776000000,,8420,,392,772036166,"""map""",,,-0.0764569193125,0.0402107201517,0.0149879567325,,-0.000841050569475,-0.01119604195,0.0393764518646,-0.999161429188
392808000000,,8421,,392,804036166,"""map""",,,-0.0758978947997,0.0403700433671,0.014835331589,,-0.000849545135083,-0.0111414782448,0.0393577386638,-0.999162777887
392840000000,,8422,,392,836036166,"""map""",,,-0.0751752629876,0.0404191762209,0.0146522372961,,-0.000819374576994,-0.0111169659011,0.0393480870355,-0.99916341009
392876000000,,8423,,392,868036026,"""map""",,,-0.0751445367932,0.0407836772501,0.0146160200238,,-0.000844079215667,-0.0111307716282,0.0393304696529,-0.999163915852
392908000000,,8424,,392,900036026,"""map""",,,-0.0751549005508,0.0411461107433,0.0146990250796,,-0.000835456892424,-0.0111329612887,0.0393625012577,-0.999162651446
392940000000,,8425,,392,932036026,"""map""",,,-0.0749107599258,0.0413644313812,0.0148093206808,,-0.000872990307384,-0.0111290004728,0.0393750188717,-0.999162187831
392976000000,,8426,,392,972035887,"""map""",,,-0.0742937400937,0.0415063090622,0.0148252509534,,-0.00092785595525,-0.0113154992896,0.039349056413,-0.999161092013
393008000000,,8427,,393,4035887,"""map""",,,-0.073575489223,0.0415043830872,0.014808408916,,-0.000948449959104,-0.0113281499296,0.0393300903312,-0.999161597775
393040000000,,8428,,393,36035887,"""map""",,,-0.0726833939552,0.0413917079568,0.0148230018094,,-0.000977128584609,-0.0112821186563,0.0393305117997,-0.999162103537
393076000000,,8429,,393,68035747,"""map""",,,-0.0724866762757,0.0416048541665,0.0148274376988,,-0.000947621510113,-0.0112917311012,0.0393278565482,-0.999162145684
393108000000,,8430,,393,100035747,"""map""",,,-0.0723729133606,0.0418277196586,0.0148172583431,,-0.000944903367656,-0.0110496261032,0.039347960595,-0.999164042292
393140000000,,8431,,393,132035747,"""map""",,,-0.0719975233078,0.0419059209526,0.0148858986795,,-0.000962026183408,-0.0110735872451,0.0392990281039,-0.999165686019
393176000000,,8432,,393,172035607,"""map""",,,-0.0712064430118,0.0418481305242,0.0149724362418,,-0.000955971854474,-0.0111059280366,0.0393128101233,-0.999164800936
393208000000,,8433,,393,204035607,"""map""",,,-0.0703407973051,0.0416618436575,0.0149320103228,,-0.000973684726105,-0.0111541776171,0.0393348107782,-0.999163367943
393240000000,,8434,,393,236035607,"""map""",,,-0.0692958831787,0.0413824543357,0.0149179315194,,-0.000927300472957,-0.0111650952972,0.0394313692082,-0.99915953258
393276000000,,8435,,393,268035468,"""map""",,,-0.0692945197225,0.0414971858263,0.015053213574,,-0.000865955405678,-0.0111668328669,0.0394368482985,-0.999159363992
393308000000,,8436,,393,300035468,"""map""",,,-0.0694240629673,0.041657615453,0.0152831953019,,-0.000881861889723,-0.0112158009194,0.0393971459672,-0.999160291223
393340000000,,8437,,393,332035468,"""map""",,,-0.0692817345262,0.0417044050992,0.0155467735603,,-0.000896204330563,-0.011216525977,0.0394238670692,-0.999159279698
393376000000,,8438,,393,372035328,"""map""",,,-0.0687495172024,0.0416288040578,0.0158946476877,,-0.000899906009242,-0.0112465365087,0.0394038473161,-0.999159743314
393408000000,,8439,,393,404035328,"""map""",,,-0.0680514648557,0.0414599739015,0.0161117296666,,-0.000928004786309,-0.0112439945269,0.0393703405715,-0.999161049866
393440000000,,8440,,393,436035328,"""map""",,,-0.067117922008,0.0411907844245,0.0164895690978,,-0.000934162506731,-0.0112134548546,0.0394015713863,-0.999160164782
393476000000,,8441,,393,468035189,"""map""",,,-0.0670424029231,0.0413095876575,0.0169335957617,,-0.000959653447546,-0.0111759362569,0.039440051459,-0.999159026817
393508000000,,8442,,393,500035189,"""map""",,,-0.0670128762722,0.0414982028306,0.0173574779183,,-0.00095264357053,-0.0111918812658,0.0393989161348,-0.99916045981
393540000000,,8443,,393,532035189,"""map""",,,-0.066713899374,0.0415828004479,0.0176700334996,,-0.000878116747107,-0.0111910350361,0.0393732065572,-0.999161555628
393576000000,,8444,,393,572035050,"""map""",,,-0.0659742578864,0.0414943322539,0.0180150382221,,-0.00081982831416,-0.0112418871845,0.0393879579542,-0.99916045981
393608000000,,8445,,393,604035050,"""map""",,,-0.065114736557,0.041261125356,0.0183078832924,,-0.000898460833319,-0.0112436379251,0.0393266342896,-0.999162777887
393640000000,,8446,,393,636035050,"""map""",,,-0.064032971859,0.0409431494772,0.0185548178852,,-0.00099066332061,-0.0112391259074,0.0393076682078,-0.99916353653
393676000000,,8447,,393,668034911,"""map""",,,-0.0640565007925,0.0411258377135,0.0188535619527,,-0.00102253259426,-0.0111943768202,0.0392883228043,-0.999164758789
393708000000,,8448,,393,700034911,"""map""",,,-0.0642072185874,0.0413483344018,0.0191207788885,,-0.00106552369683,-0.0112015971022,0.0392692724288,-0.999165348845
393740000000,,8449,,393,732034911,"""map""",,,-0.0640765726566,0.0414548553526,0.0193044953048,,-0.00109756517986,-0.0111361977057,0.039264214807,-0.999166191782
393776000000,,8450,,393,772034772,"""map""",,,-0.0635739639401,0.0414278768003,0.0195095222443,,-0.00106648517181,-0.0110845447672,0.0392540574165,-0.999167245453
393808000000,,8451,,393,804034772,"""map""",,,-0.0628692209721,0.0412832163274,0.0197498053312,,-0.00105884440915,-0.011123112097,0.0392845717348,-0.999165643873
393840000000,,8452,,393,836034772,"""map""",,,-0.061925213784,0.041053391993,0.0199875421822,,-0.00101959647357,-0.0111287360671,0.0392790504977,-0.999165854607
393876000000,,8453,,393,868034633,"""map""",,,-0.0607842057943,0.040754981339,0.0202492121607,,-0.00104803604742,-0.0111344472944,0.0392560804652,-0.999166655397
393908000000,,8454,,393,900034633,"""map""",,,-0.0594475306571,0.0404037386179,0.0205721426755,,-0.00105941602579,-0.011181229967,0.0392697360441,-0.999165559579
393940000000,,8455,,393,932034633,"""map""",,,-0.0579093582928,0.0399837493896,0.0210215449333,,-0.00103183651107,-0.0111642115305,0.0392510649903,-0.999166528956
393976000000,,8456,,393,972034494,"""map""",,,-0.057605355978,0.0403010584414,0.0219075269997,,-0.00107884835713,-0.0111398878598,0.0392310873841,-0.999167540481
394008000000,,8457,,394,4034494,"""map""",,,-0.0573930889368,0.0405676178634,0.0226572975516,,-0.00112636497756,-0.011140068301,0.039229148629,-0.999167540481
394040000000,,8458,,394,36034494,"""map""",,,-0.0569140985608,0.0407167226076,0.0232180058956,,-0.000901336697186,-0.0111735444233,0.0391770972711,-0.999169437089
394076000000,,8459,,394,68034356,"""map""",,,-0.056177418679,0.0407134443521,0.0237608198076,,-0.00092349968333,-0.0111478819316,0.0391346132478,-0.999171375844
394108000000,,8460,,394,100034356,"""map""",,,-0.0552301369607,0.0406201295555,0.0242330431938,,-0.000936882295549,-0.011129092669,0.0391335595766,-0.999171586578
394140000000,,8461,,394,132034356,"""map""",,,-0.0540731102228,0.040442019701,0.0247925072908,,-0.000983466416954,-0.0111366448574,0.0391580047487,-0.99917049076
394176000000,,8462,,394,172034217,"""map""",,,-0.0541951172054,0.0408651903272,0.0254547894001,,-0.000965058122323,-0.0110939112457,0.0391776030333,-0.999170195732
394208000000,,8463,,394,204034217,"""map""",,,-0.0543045252562,0.0412020981312,0.0260081198066,,-0.000959792071165,-0.0110971858583,0.0391901627942,-0.99916968997
394240000000,,8464,,394,236034217,"""map""",,,-0.0540694743395,0.0414191409945,0.0265216361731,,-0.000929490791991,-0.0111285539796,0.0392251025316,-0.999168046243
394276000000,,8465,,394,268034079,"""map""",,,-0.0535238683224,0.041505780071,0.0270611345768,,-0.000939704488038,-0.0111485253296,0.0392618124366,-0.999166318222
394308000000,,8466,,394,300034079,"""map""",,,-0.0527409762144,0.0414595007896,0.0277001820505,,-0.000916638637373,-0.0111334640874,0.0392449958441,-0.999167203306
394340000000,,8467,,394,332034079,"""map""",,,-0.0517187230289,0.0413124300539,0.0282652806491,,-0.000890540847794,-0.0111114077855,0.0392302023002,-0.999168004096
394376000000,,8468,,394,372033940,"""map""",,,-0.0517230778933,0.0417372621596,0.0287468265742,,-0.000885155929352,-0.0110821163843,0.039255869731,-0.999167371893
394408000000,,8469,,394,404033940,"""map""",,,-0.0516840703785,0.0420548543334,0.0290502142161,,-0.000862510230084,-0.0110423241617,0.0392291907759,-0.999168847033
394440000000,,8470,,394,436033940,"""map""",,,-0.0513295568526,0.0422300137579,0.02929998748,,-0.000853671904242,-0.0110438394726,0.039216926043,-0.999169310648
394476000000,,8471,,394,468033802,"""map""",,,-0.0506931096315,0.0422525703907,0.02952869609,,-0.000807472372829,-0.0110250775396,0.0391814805434,-0.999171038669
394508000000,,8472,,394,500033802,"""map""",,,-0.0497549027205,0.0421336255968,0.0297507513314,,-0.000833639309582,-0.0110251088205,0.0391873389553,-0.999170743641
394540000000,,8473,,394,532033802,"""map""",,,-0.0485752746463,0.0419067591429,0.0300408490002,,-0.0008881269529,-0.0110344130665,0.0392427620611,-0.999168425565
394576000000,,8474,,394,572033664,"""map""",,,-0.04857795313,0.0422304645181,0.0299736559391,,-0.000853330448915,-0.0109749771198,0.0392636247511,-0.999168299124
394608000000,,8475,,394,604033664,"""map""",,,-0.0485729388893,0.0424913465977,0.0298413522542,,-0.000860449644319,-0.0109670663539,0.039266996499,-0.99916821483
394640000000,,8476,,394,636033664,"""map""",,,-0.048255007714,0.0426387749612,0.0298185367137,,-0.00086997746626,-0.0109893936469,0.0392325625238,-0.999169352795
394676000000,,8477,,394,668033526,"""map""",,,-0.0476471185684,0.042691282928,0.0298983417451,,-0.000854317936405,-0.0109468905258,0.0392519922209,-0.999169057767
394708000000,,8478,,394,700033526,"""map""",,,-0.0467687547207,0.0426422394812,0.0299225505441,,-0.000863251092656,-0.0109383037639,0.0392540574165,-0.99916901562
394740000000,,8479,,394,732033526,"""map""",,,-0.0456461459398,0.0425089783967,0.0300040505826,,-0.000891729520631,-0.0109201776556,0.0392931275451,-0.999167709068
394776000000,,8480,,394,772033388,"""map""",,,-0.0458842590451,0.0429264679551,0.030111644417,,-0.000950812816798,-0.0109821901578,0.0392719276803,-0.999167751215
394808000000,,8481,,394,804033388,"""map""",,,-0.0460557639599,0.0432329699397,0.0302951335907,,-0.00100693826031,-0.01098921123,0.0392731920857,-0.999167582628
394840000000,,8482,,394,836033388,"""map""",,,-0.0458766780794,0.0434240028262,0.0306126698852,,-0.000817697922677,-0.0110131200177,0.0393201858218,-0.999165686019
394876000000,,8483,,394,868033250,"""map""",,,-0.0453999936581,0.043468426913,0.0309107918292,,-0.000793550741931,-0.0110414239314,0.0393641871317,-0.999163662971
394908000000,,8484,,394,900033250,"""map""",,,-0.044670291245,0.0433652512729,0.0310939848423,,-0.000815891535092,-0.0110797943564,0.0394094949938,-0.999161429188
394940000000,,8485,,394,932033250,"""map""",,,-0.0436887517571,0.0431386195123,0.0313194319606,,-0.000827177012325,-0.0111073274437,0.039428081754,-0.999160375517
394976000000,,8486,,394,972033112,"""map""",,,-0.044072303921,0.0434422530234,0.031150193885,,-0.000835227060391,-0.0111331028758,0.0394340666065,-0.999159869754
395008000000,,8487,,395,4033112,"""map""",,,-0.0443828143179,0.0436290316284,0.0309478286654,,-0.00082705946213,-0.0111617354032,0.0393764097177,-0.999161808509
395040000000,,8488,,395,36033112,"""map""",,,-0.0443447604775,0.0436445437372,0.0307418629527,,-0.000823511882866,-0.011175086076,0.0393327455827,-0.99916341009
395076000000,,8489,,395,68032975,"""map""",,,-0.0440158061683,0.0435652919114,0.0305338222533,,-0.000826762458557,-0.0111934265405,0.0393810458711,-0.999161218454
395108000000,,8490,,395,100032975,"""map""",,,-0.0434131585062,0.0433411449194,0.0302938856184,,-0.000826303453035,-0.0112145717461,0.0393614054397,-0.999161808509
395140000000,,8491,,395,132032975,"""map""",,,-0.0425552763045,0.0429937168956,0.0300081931055,,-0.000851554354377,-0.0112006333223,0.0393435773227,-0.9991626093
395176000000,,8492,,395,172032837,"""map""",,,-0.0430035702884,0.0431448221207,0.0295328050852,,-0.000848431207048,-0.0111891565379,0.0393385197009,-0.999162946474
395208000000,,8493,,395,204032837,"""map""",,,-0.0433220379055,0.0432649590075,0.0291669685394,,-0.000878351518224,-0.0111973764905,0.0393211130525,-0.999163494383
395240000000,,8494,,395,236032837,"""map""",,,-0.0432645305991,0.0432560890913,0.0288039725274,,-0.000887657410666,-0.0111842984551,0.039352681042,-0.999162440712
395276000000,,8495,,395,268032700,"""map""",,,-0.042892690748,0.0431403443217,0.0284063499421,,-0.000868871770031,-0.011220784455,0.039299533866,-0.999164168733
395308000000,,8496,,395,300032700,"""map""",,,-0.0421883054078,0.0429265797138,0.0280579905957,,-0.000851143093332,-0.0112018348368,0.0392867633709,-0.999164885229
395340000000,,8497,,395,332032700,"""map""",,,-0.0411752313375,0.0426176451147,0.027754124254,,-0.000837864531145,-0.0112002013171,0.0392519079272,-0.999166276075
395376000000,,8498,,395,372032563,"""map""",,,-0.0414708219469,0.0429250188172,0.0272543802857,,-0.000867193798625,-0.0111650110035,0.0392507699623,-0.999166655397
395408000000,,8499,,395,404032563,"""map""",,,-0.0416284911335,0.0431512519717,0.0267190430313,,-0.000875897781387,-0.01116027541,0.0392677972891,-0.999166065341
395440000000,,8500,,395,436032563,"""map""",,,-0.0414198152721,0.0432171709836,0.026286477223,,-0.000923531622738,-0.0113008259301,0.0392699046315,-0.999164295173
395476000000,,8501,,395,468032426,"""map""",,,-0.0408743098378,0.043187674135,0.0258920844644,,-0.000913698565417,-0.0111984693451,0.0392960356776,-0.999164463761
395508000000,,8502,,395,500032426,"""map""",,,-0.0400025732815,0.04302957654,0.0255432911217,,-0.000902024217652,-0.0111790037572,0.0392596629474,-0.999166107488
395540000000,,8503,,395,532032426,"""map""",,,-0.0388504341245,0.0427236668766,0.0252121668309,,-0.00096899621848,-0.0112260547867,0.0392595786537,-0.999165601726
395576000000,,8504,,395,572032289,"""map""",,,-0.0390590913594,0.0430997125804,0.0247811079025,,-0.00101695241737,-0.0112309388821,0.0392921581676,-0.999164126586
395608000000,,8505,,395,604032289,"""map""",,,-0.039189979434,0.0433867350221,0.0245138276368,,-0.00101301662612,-0.0111777525227,0.0393453896372,-0.999162651446
395640000000,,8506,,395,636032289,"""map""",,,-0.0389661639929,0.0435072630644,0.0241236798465,,-0.000959526348456,-0.0112112533403,0.0393564742584,-0.99916193495
395676000000,,8507,,395,668032152,"""map""",,,-0.0384074263275,0.0434721149504,0.0237965807319,,-0.000967073927062,-0.0112187297961,0.0393462325742,-0.999162229978
395708000000,,8508,,395,700032152,"""map""",,,-0.0375366099179,0.0433188229799,0.0236074198037,,-0.000967240538822,-0.0112124281838,0.0393416807146,-0.999162482859
395740000000,,8509,,395,732032152,"""map""",,,-0.0364008061588,0.0430989824235,0.0235051251948,,-0.000950545118456,-0.0111490590799,0.0393016412085,-0.999164758789
395776000000,,8510,,395,772032015,"""map""",,,-0.0366863720119,0.0434492342174,0.0234144181013,,-0.000909936629915,-0.0111739059642,0.0393038749914,-0.999164463761
395808000000,,8511,,395,804032015,"""map""",,,-0.0368989259005,0.0436716750264,0.0232694149017,,-0.000905089742337,-0.0111844321396,0.0393199329407,-0.999163662971
395840000000,,8512,,395,836032015,"""map""",,,-0.0367244556546,0.0437216758728,0.0231770481914,,-0.000899282696865,-0.0111864604567,0.0393046336347,-0.999164295173
395876000000,,8513,,395,868031879,"""map""",,,-0.0361928343773,0.0436120219529,0.0231384914368,,-0.000881743351712,-0.0111563949365,0.0392981851669,-0.999164843082
395908000000,,8514,,395,900031879,"""map""",,,-0.0353735759854,0.0433870628476,0.0229641981423,,-0.000932279069438,-0.011151242155,0.0392227001612,-0.999167835509
395940000000,,8515,,395,932031879,"""map""",,,-0.0342562459409,0.0430535264313,0.0226961988956,,-0.000821797691512,-0.0111316254312,0.0391784881171,-0.999169900704
395976000000,,8516,,395,972031742,"""map""",,,-0.0344790145755,0.043375890702,0.0225547645241,,-0.000753809556507,-0.011098258298,0.039214144351,-0.99916888918
396008000000,,8517,,396,4031742,"""map""",,,-0.0346219353378,0.0436085835099,0.0223549194634,,-0.000728645583041,-0.0110749771033,0.0392210564341,-0.999168973474
396040000000,,8518,,396,36031742,"""map""",,,-0.0343954600394,0.0437020733953,0.0221301857382,,-0.000737785522267,-0.0110827670263,0.03923555495,-0.999168299124
396076000000,,8519,,396,68031606,"""map""",,,-0.0338221788406,0.0436478368938,0.0219513196498,,-0.000750507285072,-0.0110952082491,0.0392796827004,-0.999166402516
396108000000,,8520,,396,100031606,"""map""",,,-0.0329022929072,0.043408703059,0.0216432437301,,-0.000795631742576,-0.0110709886285,0.039258356395,-0.99916741404
396140000000,,8521,,396,132031606,"""map""",,,-0.0316740870476,0.043052572757,0.0212606657296,,-0.000771560952992,-0.0109709514372,0.0392466395712,-0.999169099914
396176000000,,8522,,396,172031470,"""map""",,,-0.0318984538317,0.043303437531,0.0205723848194,,-0.000817234636616,-0.010951872415,0.039273950729,-0.999168172684
396208000000,,8523,,396,204031470,"""map""",,,-0.0320570394397,0.0434945486486,0.0200699660927,,-0.000815965621349,-0.0109216722224,0.03923555495,-0.999169984998
396240000000,,8524,,396,236031470,"""map""",,,-0.0318220332265,0.0434877872467,0.0195220448077,,-0.00102565640013,-0.0108724884965,0.0392223208396,-0.999170827935
396276000000,,8525,,396,268031333,"""map""",,,-0.0312046669424,0.0433330126107,0.01914425008,,-0.00102672620568,-0.0108803907014,0.0392546474724,-0.999169521383
396308000000,,8526,,396,300031333,"""map""",,,-0.0302789919078,0.0430498272181,0.0188988726586,,-0.00102719179665,-0.0108974805899,0.0392289378948,-0.99917036432
396340000000,,8527,,396,332031333,"""map""",,,-0.029076103121,0.0426558628678,0.0185928624123,,-0.0010242207731,-0.010914959349,0.0392418769773,-0.999169647823
396376000000,,8528,,396,372031197,"""map""",,,-0.0297105330974,0.0427833609283,0.0177628211677,,-0.00107976900235,-0.0108963686375,0.0392994495723,-0.999167540481
396408000000,,8529,,396,404031197,"""map""",,,-0.0302336979657,0.0428759418428,0.0170819442719,,-0.00108080423432,-0.0108488783588,0.0393396576658,-0.999166444663
396440000000,,8530,,396,436031197,"""map""",,,-0.0303671360016,0.0427979342639,0.0165465027094,,-0.00112669194491,-0.0107961589075,0.0392902194125,-0.999168931327
396476000000,,8531,,396,476031062,"""map""",,,-0.0300016105175,0.0425093695521,0.0159191917628,,-0.00115745947359,-0.0108136258128,0.0392556168499,-0.999170069292
396508000000,,8532,,396,500031062,"""map""",,,-0.0295067243278,0.0422436892986,0.0155730564147,,-0.00114356714792,-0.010854557976,0.0392125006239,-0.99917129155
396540000000,,8533,,396,532031062,"""map""",,,-0.0285803545266,0.0417991317809,0.0151755586267,,-0.0011927327638,-0.0108492250825,0.0392008259468,-0.999171755166
396576000000,,8534,,396,572030926,"""map""",,,-0.0292523689568,0.0419583320618,0.0149322338402,,-0.00125372847322,-0.0108027331574,0.0392356813905,-0.999170785788
396608000000,,8535,,396,604030926,"""map""",,,-0.0297582130879,0.0420662537217,0.014569895342,,-0.00126902580359,-0.0107789629933,0.039228052811,-0.999171333697
396640000000,,8536,,396,636030926,"""map""",,,-0.0298279877752,0.0420212000608,0.0142534729093,,-0.00126602942608,-0.0107250163443,0.0392290221885,-0.999171881606
396676000000,,8537,,396,676030790,"""map""",,,-0.029355250299,0.0417936332524,0.0139209870249,,-0.00126978905668,-0.0107246916819,0.0391708595375,-0.99917424183
396708000000,,8538,,396,700030790,"""map""",,,-0.0287990905344,0.0415864624083,0.0135796368122,,-0.000976780214565,-0.0107326745584,0.0391474258898,-0.999175337648
396740000000,,8539,,396,732030790,"""map""",,,-0.0277866199613,0.0411522164941,0.0133221503347,,-0.000831200719269,-0.0108066689486,0.0391740205512,-0.999173609627
396776000000,,8540,,396,772030655,"""map""",,,-0.0284334663302,0.0414626151323,0.0130258360878,,-0.000872502325904,-0.0107847219651,0.0391867067526,-0.999173314599
396808000000,,8541,,396,804030655,"""map""",,,-0.0289109963924,0.0417023897171,0.0128730768338,,-0.000891592214101,-0.0107632165356,0.0391851473192,-0.999173609627
396840000000,,8542,,396,836030655,"""map""",,,-0.02897560969,0.0417805872858,0.0127369202673,,-0.000853805259505,-0.0107697371141,0.0391430847644,-0.999175211207
396876000000,,8543,,396,876030519,"""map""",,,-0.0285068247467,0.0416201502085,0.0126091446728,,-0.000880103905159,-0.0107856129758,0.0391015279717,-0.9991766442
396908000000,,8544,,396,900030519,"""map""",,,-0.0279624219984,0.0414079502225,0.0125540615991,,-0.000894268868254,-0.0107525240777,0.0391225592491,-0.999176180585
396940000000,,8545,,396,932030519,"""map""",,,-0.0269287545234,0.0410222038627,0.0125461583957,,-0.000917496720867,-0.0107211236877,0.0391040567827,-0.999177234256
396976000000,,8546,,396,972030384,"""map""",,,-0.0275778267533,0.0414608791471,0.0123157026246,,-0.000948252066479,-0.0106802833915,0.0391438434076,-0.999176054144
397008000000,,8547,,397,4030384,"""map""",,,-0.0280478298664,0.0418182909489,0.0120606012642,,-0.000946578375612,-0.010652535948,0.0391807219001,-0.999174916179
397040000000,,8548,,397,36030384,"""map""",,,-0.0280652120709,0.0420302376151,0.0117796240374,,-0.000914807554369,-0.0108124845552,0.0391507554908,-0.999174452564
397076000000,,8549,,397,68030249,"""map""",,,-0.0276561789215,0.042131356895,0.0113979615271,,-0.000936612621573,-0.0108073037855,0.0391762121873,-0.99917344104
397108000000,,8550,,397,100030249,"""map""",,,-0.0268721170723,0.0420902483165,0.0109712304547,,-0.000911553356683,-0.0107602366217,0.039138448611,-0.999175464088
397140000000,,8551,,397,132030249,"""map""",,,-0.0257371496409,0.0419331304729,0.0106190610677,,-0.000879875390215,-0.0107892356291,0.0390936043642,-0.999176981375
397176000000,,8552,,397,172030114,"""map""",,,-0.0261467527598,0.0425131432712,0.0103670293465,,-0.000928125299954,-0.0107828902235,0.0390742168139,-0.999177740018
397208000000,,8553,,397,204030114,"""map""",,,-0.0264024715871,0.0429585799575,0.0102606341243,,-0.000911712395181,-0.0107353861154,0.0391130762082,-0.999176728494
397240000000,,8554,,397,236030114,"""map""",,,-0.026199914515,0.0432583987713,0.0100818071514,,-0.000671128305713,-0.0107081533244,0.0391164479561,-0.999177065669
397276000000,,8555,,397,268029979,"""map""",,,-0.0256182011217,0.0433910265565,0.00998018309474,,-0.000659329822308,-0.010663048294,0.0391321687306,-0.999176939228
397308000000,,8556,,397,300029979,"""map""",,,-0.0246962886304,0.0433825068176,0.00989242177457,,-0.000680048620346,-0.0105932389541,0.0391343182199,-0.999177655724
397340000000,,8557,,397,332029979,"""map""",,,-0.0234629046172,0.0432745143771,0.00983086694032,,-0.000713575121248,-0.010549248181,0.0391521463368,-0.999177360696
397376000000,,8558,,397,372029845,"""map""",,,-0.0239323712885,0.0437679514289,0.00975217483938,,-0.000674860935985,-0.0105757108042,0.0391651275661,-0.999176602053
397408000000,,8559,,397,404029845,"""map""",,,-0.0242925211787,0.0440980866551,0.00970148760825,,-0.000652788828983,-0.0105571533493,0.0391727139989,-0.99917651776
397440000000,,8560,,397,436029845,"""map""",,,-0.0242216270417,0.0442704670131,0.00964975915849,,-0.000637861929893,-0.0104710898139,0.0391758750125,-0.99917731855
397476000000,,8561,,397,468029710,"""map""",,,-0.023758424446,0.0443255826831,0.00953955948353,,-0.000641143786448,-0.0104520568898,0.0391760857468,-0.99917744499
397508000000,,8562,,397,500029710,"""map""",,,-0.0229741167277,0.0442584007978,0.00936213042587,,-0.000615381854568,-0.0104269304533,0.0391639474544,-0.999178287927
397540000000,,8563,,397,532029710,"""map""",,,-0.0218490269035,0.0440731532872,0.00918861106038,,-0.000644510595245,-0.0103688441936,0.0391561502874,-0.999179173011
397576000000,,8564,,397,572041576,"""map""",,,-0.022485004738,0.0444816760719,0.00962907541543,,-0.000715367350126,-0.010357427666,0.0391293448918,-0.999180268829
397608000000,,8565,,397,604041576,"""map""",,,-0.0229981355369,0.044808473438,0.0100727565587,,-0.000753314001765,-0.0103417279649,0.0391368891776,-0.999180058095
397640000000,,8566,,397,636041576,"""map""",,,-0.0230628568679,0.0449709929526,0.0104599725455,,-0.000726341994352,-0.0102811589923,0.0391870439274,-0.999178793689
397676000000,,8567,,397,668041441,"""map""",,,-0.0227030329406,0.045011408627,0.0107794795185,,-0.000710769063099,-0.010159518907,0.0391169958651,-0.999182755493
397708000000,,8568,,397,700041441,"""map""",,,-0.0219790190458,0.0449287928641,0.0110940262675,,-0.000714942588919,-0.0101379828552,0.0391357090659,-0.999182249731
397740000000,,8569,,397,732041441,"""map""",,,-0.0209033247083,0.0447433963418,0.0113239493221,,-0.000706836893842,-0.0101001004117,0.0391282490737,-0.999182966227
397776000000,,8570,,397,772041307,"""map""",,,-0.0214252956212,0.0452944748104,0.0113853318617,,-0.00035839243359,-0.0102933035409,0.0391142141731,-0.999181659675
397808000000,,8571,,397,804041307,"""map""",,,-0.0218218229711,0.0457069501281,0.0115636680275,,-0.000333226484489,-0.0102931642587,0.0391435062329,-0.99918052171
397840000000,,8572,,397,836041307,"""map""",,,-0.0217820517719,0.0459833815694,0.011705330573,,-0.000350348312425,-0.0102687266598,0.0391433797923,-0.999180816738
397876000000,,8573,,397,868041173,"""map""",,,-0.0213936697692,0.0461296960711,0.0117313116789,,-0.000352009161674,-0.0102125172519,0.0391694686915,-0.999180353123
397908000000,,8574,,397,900041173,"""map""",,,-0.0206614118069,0.0461366549134,0.0117550650612,,-0.000345757269387,-0.0101956924275,0.0391477209177,-0.999181364647
397940000000,,8575,,397,932041173,"""map""",,,-0.0195944178849,0.0460129417479,0.0117042586207,,-0.000337524145949,-0.0101642838058,0.0391030031114,-0.999183429843
397976000000,,8576,,397,972041039,"""map""",,,-0.0202406253666,0.0464027263224,0.0114413509145,,-0.000389292329721,-0.0100690780262,0.039109788754,-0.999184146339
398008000000,,8577,,398,4041039,"""map""",,,-0.0207341033965,0.0467163100839,0.0112645318732,,-0.000405589659932,-0.0100571178702,0.0390914127281,-0.999184989276
398040000000,,8578,,398,36041039,"""map""",,,-0.020767711103,0.0468795374036,0.0111531475559,,-0.000417712147235,-0.0100761484894,0.0391387857858,-0.999182881934
398076000000,,8579,,398,68040904,"""map""",,,-0.0204352587461,0.0468833632767,0.0110329454765,,-0.000417611719198,-0.0100317141865,0.0391627673426,-0.999182418318
398108000000,,8580,,398,100040904,"""map""",,,-0.0197464823723,0.0467911846936,0.0109060741961,,-0.000400896871769,-0.00998346295967,0.0391464986591,-0.999183514136
398140000000,,8581,,398,132040904,"""map""",,,-0.0187206435949,0.0466519668698,0.0107591729611,,-0.000367371358684,-0.00996826671587,0.0391666027058,-0.999182966227
398176000000,,8582,,398,172040770,"""map""",,,-0.0194721929729,0.0471275560558,0.010603970848,,0.00016925153618,-0.010295114209,0.039132885227,-0.999181027472
398208000000,,8583,,398,204040770,"""map""",,,-0.0200926251709,0.0474772453308,0.0106066884473,,0.000107406633619,-0.0102705975848,0.0390901904695,-0.99918292408
398240000000,,8584,,398,236040770,"""map""",,,-0.0202452503145,0.047714419663,0.0106015158817,,0.000105374694539,-0.0103015284325,0.0391815226902,-0.999179004424
398276000000,,8585,,398,268040636,"""map""",,,-0.0199764464051,0.047842502594,0.0107320426032,,0.000133398726804,-0.010278457972,0.0391600699443,-0.999180142388
398308000000,,8586,,398,300040636,"""map""",,,-0.0193319357932,0.0478371530771,0.0109180156142,,0.00011429039936,-0.0102671454945,0.0391694265447,-0.999179889507
398340000000,,8587,,398,332040636,"""map""",,,-0.0183198191226,0.0477517619729,0.011148314923,,0.000166373038136,-0.0103000737077,0.039160702147,-0.999179847361
398376000000,,8588,,398,372040502,"""map""",,,-0.0187573991716,0.0479558669031,0.0114154350013,,0.000251747077423,-0.0106154977585,0.0391692579573,-0.999176180585
398408000000,,8589,,398,404040502,"""map""",,,-0.0190490391105,0.048044167459,0.0116446027532,,0.000484151385557,-0.0108176998984,0.0391570353712,-0.999174410417
398440000000,,8590,,398,436040502,"""map""",,,-0.0189305972308,0.0480042509735,0.011890922673,,0.000473184973138,-0.0107992899574,0.0392085388201,-0.999172640249
398476000000,,8591,,398,468040368,"""map""",,,-0.0184152405709,0.047887571156,0.0121017033234,,0.000454784910312,-0.0107341352101,0.0392381259078,-0.999172134487
398508000000,,8592,,398,500040368,"""map""",,,-0.0175305306911,0.0477322302759,0.0122215216979,,0.000452874472695,-0.0107393054431,0.0392927482234,-0.999169942851
398540000000,,8593,,398,532040368,"""map""",,,-0.0163313951343,0.047525241971,0.0123594878241,,0.000436300883062,-0.0106996630393,0.0392700732189,-0.99917129155
398576000000,,8594,,398,572040234,"""map""",,,-0.0169615838677,0.0481504425406,0.0119287734851,,0.000784059798482,-0.0108234298942,0.0393112928368,-0.99916808839
398608000000,,8595,,398,604040234,"""map""",,,-0.0174444187433,0.0487205795944,0.0116709452122,,0.000760998886901,-0.0108440410202,0.0393225881922,-0.999167498334
398640000000,,8596,,398,636040234,"""map""",,,-0.0174700580537,0.0491889566183,0.0114936893806,,0.000735118087737,-0.0108160199513,0.0393303010655,-0.999167456187
398676000000,,8597,,398,668040100,"""map""",,,-0.0170707181096,0.0495944060385,0.0113219209015,,0.000635180995201,-0.0108044865321,0.0393090590538,-0.999168467711
398708000000,,8598,,398,700040100,"""map""",,,-0.0162619594485,0.0499396622181,0.0112021444365,,0.000635741416577,-0.0108517851743,0.0393163504586,-0.999167751215
398736000000,,8599,,398,732040100,"""map""",,,-0.0151186687872,0.0502381101251,0.0110101858154,,0.000581210638594,-0.0108839030485,0.039300924712,-0.999168004096
398776000000,,8600,,398,772039966,"""map""",,,-0.0156120490283,0.050942465663,0.0111013138667,,0.000567270239176,-0.0108368832999,0.0393250327094,-0.999167582628
398808000000,,8601,,398,804039966,"""map""",,,-0.0159365665168,0.0515199042857,0.0112452851608,,0.000590960390034,-0.0108190146825,0.0393444202597,-0.999166992572
398840000000,,8602,,398,836039966,"""map""",,,-0.0157993808389,0.0520255714655,0.0114312749356,,0.000602347941666,-0.010816167136,0.0393765783051,-0.999165770313
398876000000,,8603,,398,868039832,"""map""",,,-0.0152754681185,0.0524498783052,0.0116775818169,,0.000586898487509,-0.0107990581497,0.039435035984,-0.999163620824
398908000000,,8604,,398,900039832,"""map""",,,-0.0143820950761,0.0528269000351,0.011886051856,,0.000607043034736,-0.0107555655655,0.0394561094083,-0.999163283649
