rosbagTimestamp,header,seq,stamp,secs,nsecs,frame_id,pose,position,x,y,z,orientation,x,y,z,w
100552000000,,127,,100,492000000,"""map""",,,0.0188812185079,0.000957487209234,0.0509753488004,,0.00859834580212,-0.0119335902316,0.0474369523486,-0.998766007455
100552000000,,128,,100,492000000,"""map""",,,0.0184892080724,0.000627867528237,0.0511220544577,,0.00858693470752,-0.0119362123912,0.047318603998,-0.998771655133
100576000000,,129,,100,576000000,"""map""",,,0.01777549088,0.000539464410394,0.0508705340326,,0.00858166207092,-0.0119154185191,0.047234563182,-0.998775954111
100612000000,,130,,100,612000000,"""map""",,,0.0171866342425,0.000433726381743,0.0506791174412,,0.00857167623127,-0.0118832456565,0.0470732671928,-0.998784004159
100644000000,,131,,100,644000000,"""map""",,,0.0169174931943,0.000358929682989,0.0505877099931,,0.00852496040096,-0.0118616612017,0.0469273548032,-0.998791506298
100676000000,,132,,100,676000000,"""map""",,,0.016801264137,0.000259906111751,0.0505204461515,,0.00851330268145,-0.0118715606073,0.0468680120405,-0.99879428799
100712000000,,133,,100,712000000,"""map""",,,0.0168423429132,0.000132513887365,0.050486985594,,0.00849998164314,-0.0118368395067,0.0467342800902,-0.998801073633
100744000000,,134,,100,744000000,"""map""",,,0.016287477687,-3.65341838915e-05,0.0504050888121,,0.00851863244679,-0.0117549302347,0.046667856657,-0.998805035437
100776000000,,135,,100,776000000,"""map""",,,0.0151763446629,-0.000225023642997,0.0502021387219,,0.00857023517125,-0.0117043192783,0.0465639225285,-0.998810008765
100812000000,,136,,100,812000000,"""map""",,,0.0140936318785,-0.000453917193227,0.0499793626368,,0.00858032407311,-0.0116193459633,0.0464526969953,-0.998816035764
100844000000,,137,,100,844000000,"""map""",,,0.0134407412261,-0.000611021299846,0.049958050251,,0.00850794295233,-0.011578283573,0.0462682623862,-0.998825729539
100876000000,,138,,100,876000000,"""map""",,,0.0129862548783,-0.000774057756644,0.0499764755368,,0.00852719648884,-0.0115904373411,0.0462040305891,-0.998828426938
100912000000,,139,,100,912000000,"""map""",,,0.0126509135589,-0.000930781185161,0.0500429347157,,0.00852881700224,-0.0115112995537,0.0460420602503,-0.998836814161
100944000000,,140,,100,944000000,"""map""",,,0.0120931873098,-0.00102994823828,0.0504591278732,,0.00855149250064,-0.0114810521106,0.0459818324037,-0.998839722293
100976000000,,141,,100,976000000,"""map""",,,0.0113372746855,-0.00111883110367,0.051223885268,,0.00851062042967,-0.0114175843897,0.0459257770952,-0.998843346922
101012000000,,142,,101,12000000,"""map""",,,0.0106238983572,-0.00123547727708,0.0520440004766,,0.00848018250251,-0.0113733644431,0.0457548716245,-0.998851987026
101044000000,,143,,101,44000000,"""map""",,,0.0102143390104,-0.0013247479219,0.0528200976551,,0.00844400305505,-0.0113548860134,0.0457011343927,-0.998854979452
101076000000,,144,,101,76000000,"""map""",,,0.00994066614658,-0.00145467242692,0.0535645261407,,0.00844710693996,-0.0113360890129,0.0456337837287,-0.998858182613
101112000000,,145,,101,112000000,"""map""",,,0.00979617424309,-0.00162020057905,0.0543216727674,,0.00846573881045,-0.0113213333354,0.0454804956407,-0.998865221136
101144000000,,146,,101,144000000,"""map""",,,0.00973704084754,-0.00177155039273,0.0547695867717,,0.00844995366323,-0.0113518949043,0.0453314643844,-0.998871796045
101176000000,,147,,101,176000000,"""map""",,,0.00975787919015,-0.001892631175,0.0550304949284,,0.008456815697,-0.0113734754078,0.0452643244547,-0.99887453559
101212000000,,148,,101,212000000,"""map""",,,0.00993613433093,-0.00202692952007,0.0554909519851,,0.00846142468538,-0.0113375697502,0.0450841888242,-0.998883049253
101244000000,,149,,101,244000000,"""map""",,,0.0101871369407,-0.00213500112295,0.0559557490051,,0.00852621723316,-0.0113538058358,0.0449362955327,-0.998888991959
101276000000,,150,,101,276000000,"""map""",,,0.0105550810695,-0.00225372053683,0.0564063452184,,0.00852126003937,-0.0113340807814,0.0448706728896,-0.998892152973
101312000000,,151,,101,312000000,"""map""",,,0.0110039999709,-0.00237575778738,0.0567599646747,,0.00855053563547,-0.0113230244777,0.0447140973474,-0.998899107203
101344000000,,152,,101,344000000,"""map""",,,0.0112004745752,-0.00253157876432,0.0568068660796,,0.00875311635616,-0.0113230805363,0.0445541079104,-0.998904501999
101376000000,,153,,101,376000000,"""map""",,,0.0112256435677,-0.00274636782706,0.0567774735391,,0.00871719464656,-0.0112939446339,0.0444770213245,-0.998908590244
101408000000,,154,,101,408000000,"""map""",,,0.0114466175437,-0.00302472687326,0.0567846745253,,0.00871429071224,-0.0111806931709,0.0442630417746,-0.99891933769
101444000000,,155,,101,444000000,"""map""",,,0.0117263607681,-0.00326147302985,0.0569552816451,,0.00873356235872,-0.0112385252325,0.044155820192,-0.998923299494
101476000000,,156,,101,476000000,"""map""",,,0.012115156278,-0.00350795150734,0.0572178214788,,0.00877380107452,-0.0112673638843,0.0440983740375,-0.998925111808
101512000000,,157,,101,512000000,"""map""",,,0.0125766210258,-0.00375804770738,0.0574541129172,,0.0087324612723,-0.0112325021844,0.0439513658299,-0.998932361066
101544000000,,158,,101,544000000,"""map""",,,0.0126216020435,-0.00384618341923,0.0574479699135,,0.00871048959334,-0.0112334715619,0.0438799269217,-0.998935690667
101576000000,,159,,101,576000000,"""map""",,,0.012333563529,-0.00378890009597,0.0571989230812,,0.00864516024947,-0.0111769991478,0.0438053691466,-0.99894020038
101612000000,,160,,101,612000000,"""map""",,,0.0121758589521,-0.00375317991711,0.0569230318069,,0.00867776100142,-0.0112222778693,0.0436792657759,-0.998944920827
101644000000,,161,,101,644000000,"""map""",,,0.012191388756,-0.00374186504632,0.0567314699292,,0.00868458533353,-0.0111949398758,0.043535966491,-0.998951411442
101676000000,,162,,101,676000000,"""map""",,,0.0123239681125,-0.00377756054513,0.0566703863442,,0.00865879409641,-0.0112240488601,0.0434549602481,-0.998954867483
101712000000,,163,,101,712000000,"""map""",,,0.0125676700845,-0.00383667880669,0.0566880591214,,0.00860891791101,-0.0112292111905,0.0433213125915,-0.998960978776
101744000000,,164,,101,744000000,"""map""",,,0.012320028618,-0.00382965267636,0.0565871559083,,0.00866021745805,-0.0112189086733,0.0431565605607,-0.998967848713
101776000000,,165,,101,776000000,"""map""",,,0.0116283455864,-0.00373221444897,0.0562478043139,,0.00866235706916,-0.0111790305106,0.043083562219,-0.998971389048
101812000000,,166,,101,812000000,"""map""",,,0.0109913628548,-0.00361383426934,0.0560978651047,,0.00863924034593,-0.0110499352075,0.0428563485587,-0.998982810844
101844000000,,167,,101,844000000,"""map""",,,0.010649538599,-0.00352633534931,0.0560705661774,,0.00857143997843,-0.0109568531517,0.0427704111346,-0.9989880792
101876000000,,168,,101,876000000,"""map""",,,0.0104404650629,-0.00346955796704,0.0560076534748,,0.00859023846068,-0.010928592702,0.0426990565201,-0.998991324507
101912000000,,169,,101,912000000,"""map""",,,0.0103523135185,-0.00343248108402,0.0558081083,,0.00856549612033,-0.0108598401615,0.0425497302358,-0.998998615912
101944000000,,170,,101,944000000,"""map""",,,0.0103542366996,-0.00342174968682,0.0555998198688,,0.00851718019151,-0.0109050635653,0.0424224889002,-0.999003968562
101976000000,,171,,101,976000000,"""map""",,,0.0104250637814,-0.00341813988052,0.055300373584,,0.00853487618794,-0.0106843066869,0.042308186647,-0.999011049232
102012000000,,172,,102,12000000,"""map""",,,0.0106064518914,-0.00341796828434,0.0552147887647,,0.00857727739926,-0.0107106733273,0.0421473542731,-0.999017202672
102044000000,,173,,102,44000000,"""map""",,,0.0103732375428,-0.00323821394704,0.0550952479243,,0.00859042688673,-0.0107387763849,0.0419509921059,-0.999025084133
102076000000,,174,,102,76000000,"""map""",,,0.00978128332645,-0.00289515173063,0.0549675524235,,0.00857833913765,-0.010789911872,0.0418491653199,-0.999028877349
102112000000,,175,,102,112000000,"""map""",,,0.00917783472687,-0.00250263791531,0.0548409335315,,0.00856718479309,-0.0107398452849,0.0417023256996,-0.999035705139
102144000000,,176,,102,144000000,"""map""",,,0.00880112312734,-0.00220918981358,0.054801594466,,0.00864275919619,-0.010757976497,0.0415623138689,-0.999040594173
102176000000,,177,,102,176000000,"""map""",,,0.00854211766273,-0.00194293726236,0.0548560917377,,0.00867144004428,-0.0107759614298,0.0415335275714,-0.999041394963
102212000000,,178,,102,212000000,"""map""",,,0.00844663381577,-0.00171447312459,0.0550403892994,,0.00867560624379,-0.0108208199176,0.0413576066257,-0.999048222753
102244000000,,179,,102,244000000,"""map""",,,0.00807993859053,-0.00148703367449,0.0551235973835,,0.00865094893801,-0.010792427512,0.0412374881074,-0.999053617549
102276000000,,180,,102,276000000,"""map""",,,0.0074683460407,-0.00123837182764,0.0551246143878,,0.00867101709407,-0.0107316007193,0.0411378951044,-0.999058295849
102312000000,,181,,102,312000000,"""map""",,,0.00686896778643,-0.000949952052906,0.0553978122771,,0.00864362402976,-0.0107012539182,0.0409561578936,-0.999066303751
102344000000,,182,,102,344000000,"""map""",,,0.00651758164167,-0.000722329190467,0.0554499961436,,0.00867527203246,-0.0106503803672,0.0408546682824,-0.999070687023
102376000000,,183,,102,376000000,"""map""",,,0.00625914800912,-0.000506141106598,0.0556075908244,,0.00868434463551,-0.0106299399688,0.0408228052649,-0.999072120016
102412000000,,184,,102,412000000,"""map""",,,0.00607709400356,-0.000268962437985,0.0558208152652,,0.00865706681649,-0.0105770716041,0.0407683936835,-0.999075112442
102444000000,,185,,102,444000000,"""map""",,,0.00558918062598,8.32789082779e-05,0.0553854070604,,0.0086520640185,-0.0105211814256,0.0406414052289,-0.999080970854
102476000000,,186,,102,476000000,"""map""",,,0.00489745335653,0.000507233082317,0.0546295568347,,0.00863624133424,-0.010564585271,0.0406147262738,-0.999081771644
102512000000,,187,,102,512000000,"""map""",,,0.00419309781864,0.00102090742439,0.0537757128477,,0.00868055331246,-0.0105597056208,0.0405599353708,-0.999083626105
102544000000,,188,,102,544000000,"""map""",,,0.00375575246289,0.00141726096626,0.0532127656043,,0.00871769481112,-0.010554136063,0.0404888336373,-0.999086281357
102576000000,,189,,102,576000000,"""map""",,,0.00343258492649,0.00177862809505,0.0527797788382,,0.00871216065003,-0.0105215510337,0.0404522923197,-0.999088093671
102612000000,,190,,102,612000000,"""map""",,,0.00319346832111,0.00216000247747,0.0522231794894,,0.00874060162328,-0.0105669750467,0.040341741136,-0.999091844741
102644000000,,191,,102,644000000,"""map""",,,0.00279750674963,0.00250629941002,0.0519641824067,,0.00872049378991,-0.0105070894787,0.0402461520836,-0.999096480894
102676000000,,192,,102,676000000,"""map""",,,0.00226209801622,0.00281372480094,0.0519564934075,,0.0087153947621,-0.0105443702595,0.0402119709895,-0.999097534565
102712000000,,193,,102,712000000,"""map""",,,0.00169809814543,0.00315547012724,0.051833819598,,0.00868902952114,-0.0104865959028,0.0401471069896,-0.99910094846
102744000000,,194,,102,744000000,"""map""",,,0.00135145173408,0.0034062503837,0.0516101680696,,0.00866755981772,-0.0104999931677,0.0400676180333,-0.999104235914
102776000000,,195,,102,776000000,"""map""",,,0.00104491226375,0.00363222742453,0.0513181202114,,0.00870303824455,-0.0104112859054,0.039984504448,-0.999108197718
102812000000,,196,,102,812000000,"""map""",,,0.000803037313744,0.00386987091042,0.0510520264506,,0.00875774320755,-0.0104241923899,0.0399271847341,-0.999109883592
102844000000,,197,,102,844000000,"""map""",,,0.000434592540842,0.00412445887923,0.0506199225783,,0.00873647444253,-0.0103757463162,0.0398394771423,-0.99911405613
102876000000,,198,,102,876000000,"""map""",,,-1.92349616555e-05,0.00440484145656,0.0501424521208,,0.00874376477719,-0.0102935715685,0.0397840540365,-0.999117048556
102912000000,,199,,102,912000000,"""map""",,,-0.000491732964292,0.00476540625095,0.049741383642,,0.00874275736873,-0.0102151874852,0.0397401370204,-0.999119577367
102944000000,,200,,102,944000000,"""map""",,,-0.000808860349935,0.00501445168629,0.0496652573347,,0.00893513032027,-0.0102207479881,0.0396719012726,-0.999120546745
102976000000,,201,,102,976000000,"""map""",,,-0.00107350130565,0.00520286941901,0.0496918521821,,0.00893988143078,-0.010215647849,0.0396154666425,-0.999122780528
103012000000,,202,,103,12000000,"""map""",,,-0.00127392378636,0.00537178618833,0.0497081503272,,0.00890859776783,-0.0102122393873,0.0395597063619,-0.999125351485
103044000000,,203,,103,44000000,"""map""",,,-0.00153449829668,0.00534185953438,0.0493540652096,,0.00884310847997,-0.0102151432393,0.0394437603816,-0.999130451254
103076000000,,204,,103,76000000,"""map""",,,-0.0018324223347,0.00508925039321,0.0486794859171,,0.00881271092982,-0.0101732642126,0.0394169971328,-0.999132179275
103112000000,,205,,103,112000000,"""map""",,,-0.00205820915289,0.00480515696108,0.0479322373867,,0.0087829513035,-0.0101419820314,0.0393368759738,-0.999135930344
103144000000,,206,,103,144000000,"""map""",,,-0.00219363393262,0.00460359128192,0.047325566411,,0.00871058006089,-0.0101273555932,0.0393237683039,-0.999137236897
103176000000,,207,,103,176000000,"""map""",,,-0.00229066843167,0.00445539178327,0.0468382909894,,0.00870118147831,-0.0101378183837,0.0393259177932,-0.999137110456
103208000000,,208,,103,208000000,"""map""",,,-0.00234887306578,0.00434723729268,0.0464273169637,,0.00868985722927,-0.0101316200805,0.0392370722366,-0.999140819379
103244000000,,209,,103,244000000,"""map""",,,-0.00256361928768,0.00419520027936,0.0459964908659,,0.00861487971444,-0.0101966324998,0.0391402187787,-0.999144612595
103276000000,,210,,103,276000000,"""map""",,,-0.00292457244359,0.00400781771168,0.0453931950033,,0.00865741683289,-0.0101834177341,0.0390718144435,-0.999147014966
103312000000,,211,,103,312000000,"""map""",,,-0.0032913859468,0.00380766903982,0.0446865484118,,0.00860824051567,-0.0102240395582,0.0389426343529,-0.999152114734
103344000000,,212,,103,344000000,"""map""",,,-0.00352107803337,0.00367159605958,0.0441515892744,,0.00859064675828,-0.0102192348998,0.0388655056201,-0.999155317895
103376000000,,213,,103,376000000,"""map""",,,-0.00368391117081,0.00358501099981,0.0435375869274,,0.00860609448375,-0.0102617641157,0.0388174160659,-0.999156624447
103412000000,,214,,103,412000000,"""map""",,,-0.00379601935856,0.00354532012716,0.0430936664343,,0.00858001817919,-0.0102374762534,0.0386970446666,-0.999161766363
103444000000,,215,,103,444000000,"""map""",,,-0.00390787422657,0.00341647444293,0.0424541160464,,0.00860267285113,-0.0102748465963,0.0386430545536,-0.999163241502
103476000000,,216,,103,476000000,"""map""",,,-0.00399975525215,0.00319322384894,0.0415303595364,,0.00858198862667,-0.0102864626628,0.0386355945615,-0.999163620824
103512000000,,217,,103,512000000,"""map""",,,-0.00406307680532,0.00291925109923,0.0401620939374,,0.00857107637954,-0.010069575145,0.0384580298887,-0.99917276669
103544000000,,218,,103,544000000,"""map""",,,-0.00402587931603,0.00267143454403,0.0392816253006,,0.00857502196664,-0.0101726022107,0.038395062497,-0.999174115389
103576000000,,219,,103,576000000,"""map""",,,-0.00395113090053,0.00241785938852,0.0384430587292,,0.0086122094811,-0.0102265230118,0.0383484059357,-0.999175000473
103612000000,,220,,103,612000000,"""map""",,,-0.00383022171445,0.00218289787881,0.0376510992646,,0.00866500820471,-0.0101922583649,0.03830073785,-0.999176728494
103644000000,,221,,103,644000000,"""map""",,,-0.00394570827484,0.00190065486822,0.0368809625506,,0.00870059471515,-0.0101972000005,0.0381901866664,-0.999180563857
103676000000,,222,,103,676000000,"""map""",,,-0.00422404287383,0.00156228931155,0.0361671224236,,0.00872396662437,-0.010226897559,0.0381272614216,-0.999182544759
103712000000,,223,,103,712000000,"""map""",,,-0.00443703867495,0.00115172937512,0.0352532491088,,0.00868146910091,-0.0102277039468,0.0379402137079,-0.999189962604
103744000000,,224,,103,744000000,"""map""",,,-0.00455328682438,0.000826802861411,0.0344232693315,,0.00869439394238,-0.0102443978031,0.0378275551818,-0.999193966555
103776000000,,225,,103,776000000,"""map""",,,-0.00463272770867,0.000553126214072,0.0337611660361,,0.00869762015193,-0.0102360902641,0.0377733121878,-0.99919603175
103812000000,,226,,103,812000000,"""map""",,,-0.0047425897792,7.87717290223e-05,0.0326348878443,,0.00868382800734,-0.0103021063053,0.0376488525441,-0.999200204288
103844000000,,227,,103,844000000,"""map""",,,-0.00512099452317,-0.000232465899899,0.0318343266845,,0.00866838629108,-0.0102749665337,0.0375500181844,-0.999204376826
103876000000,,228,,103,876000000,"""map""",,,-0.00574109097943,-0.000483799143694,0.0311770606786,,0.0086792993614,-0.010274686323,0.0375351824937,-0.999204798295
103912000000,,229,,103,912000000,"""map""",,,-0.00631021941081,-0.000735231908038,0.0305634960532,,0.0086199784953,-0.0102217885707,0.0374529961391,-0.999208928686
103944000000,,230,,103,944000000,"""map""",,,-0.00682750158012,-0.00100039178506,0.0299286488444,,0.00862021112614,-0.010242049845,0.0373911667123,-0.999211078175
103980000000,,231,,103,976000000,"""map""",,,-0.00728175509721,-0.00126963481307,0.0292663816363,,0.00860834859929,-0.0102499532023,0.0373816836714,-0.999211457497
104012000000,,232,,104,12000000,"""map""",,,-0.00782144162804,-0.00160294305533,0.0283929817379,,0.008546913723,-0.0101786650184,0.0373242796637,-0.999214829245
104044000000,,233,,104,44000000,"""map""",,,-0.00824404601008,-0.00178934878204,0.0281653348356,,0.00851601588482,-0.0101822516988,0.0372350969323,-0.99921836958
104076000000,,234,,104,72000000,"""map""",,,-0.00861521996558,-0.00193930999376,0.0280558541417,,0.0085366683345,-0.01014490778,0.0371818233158,-0.999220561216
104112000000,,235,,104,112000000,"""map""",,,-0.00893300306052,-0.00208443822339,0.0279789939523,,0.00857109053825,-0.0101774964312,0.0371262316226,-0.999222036356
104144000000,,236,,104,144000000,"""map""",,,-0.00919020734727,-0.00223773904145,0.0279114451259,,0.00859769055033,-0.0101073758467,0.037103851646,-0.999223342908
104176000000,,237,,104,176000000,"""map""",,,-0.00940097589046,-0.00237244111486,0.0279343966395,,0.00860340943316,-0.0101267317046,0.0370661302166,-0.999224480873
104212000000,,238,,104,212000000,"""map""",,,-0.00960995163769,-0.00256234942935,0.0279654618353,,0.0085276028108,-0.0100826740069,0.0370236461933,-0.999227178271
104244000000,,239,,104,244000000,"""map""",,,-0.00984389800578,-0.00263460120186,0.0278699435294,,0.00855133708414,-0.0100981363027,0.0369656521298,-0.999228948439
104276000000,,240,,104,276000000,"""map""",,,-0.0100774941966,-0.00271026673727,0.0277153458446,,0.00849408528257,-0.010062938992,0.0369467281948,-0.999230507872
104312000000,,241,,104,312000000,"""map""",,,-0.0102904252708,-0.00284215202555,0.0276397876441,,0.00855624826213,-0.0100564599019,0.036879883293,-0.999232530921
104344000000,,242,,104,344000000,"""map""",,,-0.0104697477072,-0.00300997355953,0.0275706201792,,0.00858932925767,-0.0100100934294,0.0368127855102,-0.999235144026
104376000000,,243,,104,376000000,"""map""",,,-0.0106133949012,-0.00318047450855,0.0274366103113,,0.00858431584065,-0.0100504943941,0.0368081915037,-0.999234933292
104412000000,,244,,104,412000000,"""map""",,,-0.0107538439333,-0.00337245571427,0.0272447261959,,0.00877559515555,-0.0100373526857,0.0366488342695,-0.999239274417
104444000000,,245,,104,444000000,"""map""",,,-0.0106824776158,-0.00342094851658,0.0272472258657,,0.00880392088352,-0.0100791922409,0.0366031049389,-0.999240328088
104476000000,,246,,104,476000000,"""map""",,,-0.0105146616697,-0.00345591222867,0.0272264815867,,0.00884624051765,-0.0100239177192,0.0366167183709,-0.999239948767
104512000000,,247,,104,512000000,"""map""",,,-0.0103290015832,-0.00353980017826,0.0272641852498,,0.00881838140962,-0.0100611729403,0.0364827335395,-0.999244795654
104544000000,,248,,104,544000000,"""map""",,,-0.010132455267,-0.00365698244423,0.0272796712816,,0.00887081229496,-0.010055261639,0.0364402916631,-0.999245933619
104576000000,,249,,104,576000000,"""map""",,,-0.00990633293986,-0.00379382399842,0.0272898357362,,0.00884495302197,-0.0100598486073,0.0363922864026,-0.999247830227
104612000000,,250,,104,612000000,"""map""",,,-0.00958743784577,-0.00395272765309,0.02753078565,,0.00883718141476,-0.0101480074255,0.0363400664573,-0.999248883898
104644000000,,251,,104,644000000,"""map""",,,-0.00915096793324,-0.00413441751152,0.0275653935969,,0.00881009136324,-0.0101567978422,0.036303693727,-0.999250359038
104676000000,,252,,104,676000000,"""map""",,,-0.0086507126689,-0.00431921798736,0.0274737570435,,0.00876415874815,-0.010158397241,0.0362729265276,-0.999251876325
104712000000,,253,,104,712000000,"""map""",,,-0.00814461149275,-0.00449145073071,0.0274265520275,,0.00868963258327,-0.010157168397,0.0362237833023,-0.999254320842
104744000000,,254,,104,744000000,"""map""",,,-0.00763660110533,-0.00466405693442,0.0274185147136,,0.00869159414041,-0.0101844672894,0.0361227994532,-0.99925769259
104776000000,,255,,104,776000000,"""map""",,,-0.007117560599,-0.00484677031636,0.0274619143456,,0.00864507002887,-0.0101569973401,0.0360590734183,-0.999260642869
104812000000,,256,,104,812000000,"""map""",,,-0.00651294505224,-0.00506879156455,0.0275272559375,,0.00867063843098,-0.0101908770678,0.0360517398666,-0.999260389988
104844000000,,257,,104,844000000,"""map""",,,-0.00611600745469,-0.00511963339522,0.0277107302099,,0.00868413480676,-0.0101581946563,0.0359743161059,-0.999263382414
104876000000,,258,,104,876000000,"""map""",,,-0.00575335789472,-0.00513830734417,0.0279439985752,,0.00871442118637,-0.0101751970407,0.0359263951392,-0.999264688967
104912000000,,259,,104,912000000,"""map""",,,-0.0053943535313,-0.00515473354608,0.0281123071909,,0.00874389409887,-0.0101326164583,0.0358722364388,-0.999266754162
104944000000,,260,,104,944000000,"""map""",,,-0.00501016620547,-0.00517925154418,0.0282816421241,,0.00869883747145,-0.0101848933677,0.03579679358,-0.999269367267
104976000000,,261,,104,976000000,"""map""",,,-0.00464708684012,-0.00517640030012,0.0285498630255,,0.00876494760215,-0.0101642280764,0.0357562061649,-0.999270420938
105012000000,,262,,105,12000000,"""map""",,,-0.0041843210347,-0.0051853870973,0.0287985727191,,0.00875832955912,-0.0101747433859,0.0357189483508,-0.999271769637
105044000000,,263,,105,44000000,"""map""",,,-0.00391695136204,-0.0050896643661,0.0281666480005,,0.00875904350368,-0.0101707419871,0.0357238795321,-0.999271558903
105076000000,,264,,105,76000000,"""map""",,,-0.00366149609908,-0.00497806910425,0.0273627974093,,0.00873796802148,-0.0101534625201,0.035756164018,-0.99927080026
105112000000,,265,,105,112000000,"""map""",,,-0.00340957264416,-0.00489226728678,0.0266484115273,,0.00872855956073,-0.0101523737814,0.0357642562129,-0.999270631672
105144000000,,266,,105,144000000,"""map""",,,-0.00312939379364,-0.00478893890977,0.0258901491761,,0.00894372292669,-0.0101181349823,0.0357771531486,-0.999268608624
105176000000,,267,,105,176000000,"""map""",,,-0.00278860493563,-0.00468726130202,0.0253165978938,,0.00894626758383,-0.0101306854824,0.0357645512409,-0.999268903651
105212000000,,268,,105,212000000,"""map""",,,-0.00236049387604,-0.00456936564296,0.0246883556247,,0.00886746948188,-0.0101295494519,0.0357280099232,-0.999270884553
105244000000,,269,,105,244000000,"""map""",,,-0.00238858675584,-0.00414230022579,0.0241134017706,,0.00887269532067,-0.0101407411277,0.0357116990929,-0.999271348169
105276000000,,270,,105,276000000,"""map""",,,-0.00250412384048,-0.00362378242426,0.023489927873,,0.00887055126438,-0.0101725144185,0.0356778973204,-0.999272191106
105312000000,,271,,105,312000000,"""map""",,,-0.00257095554844,-0.00315166777,0.0228472892195,,0.00883938692147,-0.0101601897992,0.0356389536323,-0.999274045567
105344000000,,272,,105,344000000,"""map""",,,-0.00258608302101,-0.00272801378742,0.0221899412572,,0.00887002850352,-0.0101134244134,0.0355968489307,-0.999275689294
105376000000,,273,,105,376000000,"""map""",,,-0.00256083393469,-0.00234603555873,0.0216335318983,,0.00887314333673,-0.0100598650709,0.0355606026409,-0.999277543755
105412000000,,274,,105,412000000,"""map""",,,-0.00249190721661,-0.00189710885752,0.0209547895938,,0.0088451415715,-0.0100015579929,0.0354905967256,-0.999280873356
105444000000,,275,,105,444000000,"""map""",,,-0.00249253679067,-0.00156412879005,0.0204246621579,,0.00882502209012,-0.0100311144171,0.0354742858952,-0.999281336972
105476000000,,276,,105,476000000,"""map""",,,-0.00251953164116,-0.00124717864674,0.0199319440871,,0.00884192075379,-0.00999869254228,0.0354379974586,-0.999282812111
105512000000,,277,,105,512000000,"""map""",,,-0.00251729832962,-0.000978166121058,0.019416006282,,0.00883010173203,-0.0100134723801,0.0353781910806,-0.999284877307
105544000000,,278,,105,544000000,"""map""",,,-0.00246601528488,-0.000709577987436,0.0188254956156,,0.00884568515883,-0.00996219979227,0.0352876175031,-0.999288459789
105576000000,,279,,105,576000000,"""map""",,,-0.00237403041683,-0.000477988331113,0.0181980058551,,0.00885023240866,-0.00993316917473,0.0352343860335,-0.999290609278
105612000000,,280,,105,612000000,"""map""",,,-0.00218124547973,-0.000218013912672,0.017438063398,,0.0088391530147,-0.00994272864797,0.0352042088899,-0.999291620803
105644000000,,281,,105,644000000,"""map""",,,-0.00234949053265,6.00441089773e-05,0.0162369925529,,0.00882857958871,-0.00982698006643,0.0351688055372,-0.99929406532
105676000000,,282,,105,676000000,"""map""",,,-0.00255009601824,0.000364512088709,0.0149903651327,,0.00884874109346,-0.00982747973707,0.0351527897348,-0.999294486789
105712000000,,283,,105,712000000,"""map""",,,-0.00267720385455,0.000696277245879,0.0137956310064,,0.0088271918708,-0.00962918441246,0.03507675682,-0.999299291529
105744000000,,284,,105,744000000,"""map""",,,-0.00272734928876,0.00100415246561,0.0127839809284,,0.00882490194691,-0.0096793478879,0.0350726685757,-0.999298996501
105776000000,,285,,105,776000000,"""map""",,,-0.00276948325336,0.00125367776491,0.011854769662,,0.00884097944673,-0.00969233195722,0.0350413534673,-0.999299797291
105812000000,,286,,105,812000000,"""map""",,,-0.00279591791332,0.00152188690845,0.010795484297,,0.00877393158981,-0.00968717040884,0.0349641404408,-0.999303084746
105844000000,,287,,105,844000000,"""map""",,,-0.00281576206908,0.00167964654975,0.00997360143811,,0.00881683214251,-0.00965107788926,0.0349241430816,-0.999304475592
105876000000,,288,,105,876000000,"""map""",,,-0.0028066446539,0.0018408036558,0.00918170716614,,0.00883760082529,-0.00969907705818,0.0348702372623,-0.99930569785
105912000000,,289,,105,912000000,"""map""",,,-0.00277193263173,0.0019949527923,0.00856935698539,,0.00884653690383,-0.00974558384177,0.0348244657849,-0.999306793668
105944000000,,290,,105,944000000,"""map""",,,-0.00269403285347,0.00210039084777,0.00804864335805,,0.00881282996174,-0.00982111231139,0.0347141674823,-0.999310207563
105976000000,,291,,105,976000000,"""map""",,,-0.00260459445417,0.00220106914639,0.00752782681957,,0.0088355685981,-0.00986879183926,0.0346834845766,-0.999310629031
106012000000,,292,,106,12000000,"""map""",,,-0.00246416544542,0.00229469477199,0.00697541749105,,0.00875860396638,-0.00985761555694,0.0346093904169,-0.999313916486
106044000000,,293,,106,44000000,"""map""",,,-0.00244256667793,0.00214613624848,0.00720553426072,,0.00874864990151,-0.00986280439375,0.0345544309264,-0.999315855241
106076000000,,294,,106,76000000,"""map""",,,-0.00244975322857,0.00196607224643,0.00756263593212,,0.00874585631455,-0.00987685250636,0.0345144757141,-0.99931720394
106112000000,,295,,106,112000000,"""map""",,,-0.00241647707298,0.00180983915925,0.00782794877887,,0.00877029942873,-0.00989775018155,0.034474984117,-0.999318089024
106144000000,,296,,106,144000000,"""map""",,,-0.00235217390582,0.00166828976944,0.00806819647551,,0.00870137290896,-0.00988078537532,0.0344400022327,-0.999320112072
106176000000,,297,,106,176000000,"""map""",,,-0.00226121419109,0.00154490768909,0.00823238864541,,0.00873572506004,-0.00982419417621,0.0344638994958,-0.99931947987
106212000000,,298,,106,212000000,"""map""",,,-0.00212332908995,0.00142345938366,0.0084837442264,,0.00868712875589,-0.00977701176711,0.034410710173,-0.999322261562
106244000000,,299,,106,244000000,"""map""",,,-0.00197338778526,0.00175494304858,0.00886792317033,,0.00867538447893,-0.00974629046002,0.0343851691828,-0.999323525967
106276000000,,300,,106,276000000,"""map""",,,-0.00179787050001,0.00220179208554,0.00930555164814,,0.00859182209559,-0.00969929376048,0.0343232976092,-0.999326813421
106312000000,,301,,106,312000000,"""map""",,,-0.00157516740728,0.00264010345563,0.00965674035251,,0.00863355945289,-0.00974620176231,0.0342659778952,-0.999327993533
106344000000,,302,,106,344000000,"""map""",,,-0.00132333429065,0.00305653573014,0.00998559221625,,0.00861372293986,-0.00967340213649,0.0342197428024,-0.999330395903
106376000000,,303,,106,376000000,"""map""",,,-0.00103403581306,0.00343168876134,0.0103361252695,,0.00862258028117,-0.00969253030259,0.034229605165,-0.999329890141
106412000000,,304,,106,412000000,"""map""",,,-0.00066370726563,0.0038453778252,0.0107439085841,,0.00860119343089,-0.00962089247276,0.0341739713249,-0.99933258754
106444000000,,305,,106,444000000,"""map""",,,-0.000515704858117,0.00406217621639,0.0109631204978,,0.00856578979003,-0.00966022499016,0.0341605264803,-0.999332966861
106476000000,,306,,106,476000000,"""map""",,,-0.000389399734559,0.00423625344411,0.0111028840765,,0.00858881559295,-0.00961617449527,0.0341634767597,-0.999333135449
106512000000,,307,,106,512000000,"""map""",,,-0.000214202329516,0.0043803374283,0.0112279811874,,0.00854926468573,-0.00957768919539,0.0341631395849,-0.999333809798
106544000000,,308,,106,544000000,"""map""",,,1.47222308442e-05,0.00451224017888,0.0113354353234,,0.00856779123026,-0.00947588179529,0.0341243223374,-0.999335959287
106576000000,,309,,106,576000000,"""map""",,,0.00031528971158,0.00461807381362,0.0115031935275,,0.0085585132848,-0.0094548877668,0.0341363763361,-0.999335874994
106612000000,,310,,106,612000000,"""map""",,,0.000699427560903,0.00478334585205,0.0116803385317,,0.00851601353875,-0.0094019815358,0.0341254603023,-0.999337097252
106644000000,,311,,106,644000000,"""map""",,,0.000865252222866,0.00504110008478,0.0118717821315,,0.00874873275464,-0.00940118852474,0.0340650217215,-0.999337181546
106676000000,,312,,106,676000000,"""map""",,,0.000943217659369,0.00530209904537,0.0121763730422,,0.00875623666351,-0.00939667704211,0.0340554122401,-0.999337434427
106712000000,,313,,106,712000000,"""map""",,,0.000985984457657,0.0055501582101,0.0124591011554,,0.00871850784605,-0.0093970268733,0.0340279746417,-0.999338740979
106744000000,,314,,106,744000000,"""map""",,,0.0010556956986,0.00577865773812,0.0127818053588,,0.00874813053627,-0.0093802089225,0.0339920655268,-0.999339836798
106776000000,,315,,106,776000000,"""map""",,,0.00115887669381,0.00598294846714,0.0131234955043,,0.00868661585262,-0.00935410821063,0.0339787892695,-0.999341059056
106812000000,,316,,106,812000000,"""map""",,,0.0012970038224,0.0062198471278,0.0135432835668,,0.00867017730577,-0.00935971765159,0.0339726358296,-0.999341311937
106844000000,,317,,106,844000000,"""map""",,,0.00128865125589,0.00632477318868,0.0139755178243,,0.0085899391522,-0.00933382740642,0.0339331442325,-0.999343630014
106876000000,,318,,106,876000000,"""map""",,,0.00132143311203,0.00641040084884,0.0144738173112,,0.00859217252358,-0.00935752224941,0.0339094155568,-0.999344177923
106912000000,,319,,106,912000000,"""map""",,,0.00141347292811,0.00651460746303,0.0149767203256,,0.00857847483898,-0.00934318832849,0.0338908709435,-0.999345105154
106944000000,,320,,106,944000000,"""map""",,,0.00157734262757,0.00668616313487,0.0155323259532,,0.00859547574168,-0.009304854535,0.0338703454283,-0.999345990237
106976000000,,321,,106,976000000,"""map""",,,0.00170217326377,0.00679511390626,0.0158279538155,,0.00865413137492,-0.00930010076973,0.0338825258675,-0.999345105154
107012000000,,322,,107,8000000,"""map""",,,0.00189628079534,0.00694985920563,0.0161389671266,,0.00865656817482,-0.00924107655735,0.0339283816387,-0.999344093629
107044000000,,323,,107,40000000,"""map""",,,0.00205391901545,0.00706813577563,0.0162220727652,,0.00866416434166,-0.00922724002275,0.0338798284692,-0.999345779503
107076000000,,324,,107,76000000,"""map""",,,0.00223853834905,0.00717632984743,0.016159273684,,0.00868722587063,-0.00915106819631,0.0338305588033,-0.999347928992
107112000000,,325,,107,112000000,"""map""",,,0.00245084078051,0.00728201447055,0.0160020608455,,0.0086750398132,-0.00914196877815,0.0338360378936,-0.999347928992
107144000000,,326,,107,144000000,"""map""",,,0.00230055558495,0.00728683220223,0.015665365383,,0.00869130905237,-0.00906947300888,0.0338137000639,-0.999349277692
107176000000,,327,,107,176000000,"""map""",,,0.00185730331577,0.00722492439672,0.0153459059075,,0.00874728177529,-0.00904695302988,0.0338021939742,-0.999349319838
107212000000,,328,,107,212000000,"""map""",,,0.00137972971424,0.00714384112507,0.0150102870539,,0.00866683128228,-0.00904134492659,0.033732693821,-0.999352480852
107244000000,,329,,107,244000000,"""map""",,,0.0010834778659,0.00707742059603,0.0147360125557,,0.00877316381952,-0.00901209238983,0.033748836064,-0.999351258593
107276000000,,330,,107,276000000,"""map""",,,0.000843310379423,0.00702919391915,0.0144623750821,,0.0087646636357,-0.00905219744168,0.0337348011635,-0.999351385034
107312000000,,331,,107,312000000,"""map""",,,0.00065530417487,0.006998477038,0.0141672091559,,0.0089653243673,-0.00903439739779,0.0336374840902,-0.999353028761
107344000000,,332,,107,344000000,"""map""",,,0.000748696445953,0.00693353032693,0.0138920368627,,0.00900230211218,-0.00907670841167,0.0336015328285,-0.99935357667
107376000000,,333,,107,376000000,"""map""",,,0.00108215317596,0.00683792447671,0.0135552305728,,0.00894558669511,-0.00903573533643,0.0336247135951,-0.999353660964
107412000000,,334,,107,412000000,"""map""",,,0.00149777403567,0.00678239250556,0.0131297390908,,0.00892900717858,-0.00901824834556,0.0336183915679,-0.999354166726
107444000000,,335,,107,444000000,"""map""",,,0.0018182763597,0.00677163572982,0.0126813724637,,0.00885050531876,-0.00899168469748,0.0336152305542,-0.999355220397
107476000000,,336,,107,476000000,"""map""",,,0.00214839214459,0.006797935348,0.0122685786337,,0.00882580083958,-0.0090202693209,0.0335827774809,-0.999356316215
107512000000,,337,,107,512000000,"""map""",,,0.00249330885708,0.00686254212633,0.011770894751,,0.00886933985118,-0.0090645761954,0.0335764554536,-0.999355726159
107544000000,,338,,107,544000000,"""map""",,,0.00263079372235,0.00688333110884,0.0114437965676,,0.00887799799307,-0.00898916403091,0.0335424008,-0.999357496327
107576000000,,339,,107,576000000,"""map""",,,0.00258749420755,0.00685037160292,0.0112897641957,,0.00885339317534,-0.00901250180901,0.0335190935928,-0.999358297117
107612000000,,340,,107,612000000,"""map""",,,0.00257501658052,0.00683505786583,0.0109579144046,,0.00878320808441,-0.00901190258496,0.033514035971,-0.99935905576
107644000000,,341,,107,644000000,"""map""",,,0.00261612888426,0.00682881148532,0.0107197063044,,0.00881233497293,-0.00903519320509,0.0334547353551,-0.999360615194
107676000000,,342,,107,676000000,"""map""",,,0.00269335485063,0.00683122640476,0.0104031469673,,0.00878918917085,-0.00903029554785,0.0334117455696,-0.999362301068
107712000000,,343,,107,712000000,"""map""",,,0.00279119121842,0.00684841489419,0.0100092031062,,0.00877629703023,-0.00900902371648,0.0333712003013,-0.999363902648
107744000000,,344,,107,744000000,"""map""",,,0.00285513000563,0.00684375455603,0.00941315013915,,0.00885921113825,-0.0090279680046,0.0333156929019,-0.999364872026
107776000000,,345,,107,776000000,"""map""",,,0.00288677820936,0.0067918705754,0.00870983209461,,0.00887131153344,-0.00901993082903,0.0332659174738,-0.999366515753
107812000000,,346,,107,812000000,"""map""",,,0.00296207587235,0.00674848258495,0.00799938291311,,0.00886208215564,-0.00906598996698,0.0332030765226,-0.999368243773
107844000000,,347,,107,844000000,"""map""",,,0.00306996610016,0.0067579112947,0.00723710702732,,0.00892933737691,-0.00903271695941,0.0331787156442,-0.999368749536
107876000000,,348,,107,876000000,"""map""",,,0.0031804961618,0.00679615465924,0.00650993734598,,0.00891018529227,-0.0090236728024,0.0331530060666,-0.999369845354
107912000000,,349,,107,912000000,"""map""",,,0.00339210941456,0.00684784213081,0.0057234223932,,0.00899110852506,-0.00903580322568,0.03311671763,-0.999370224675
107944000000,,350,,107,944000000,"""map""",,,0.00344689306803,0.00679822033271,0.00531170004979,,0.00892874392155,-0.00894966340845,0.0331265799926,-0.9993712362
107976000000,,351,,107,976000000,"""map""",,,0.00351444724947,0.00671208603308,0.00500535639003,,0.00896066029078,-0.00897486392149,0.0331329441667,-0.999370519703
108012000000,,352,,108,12000000,"""map""",,,0.00359820690937,0.00666148914024,0.00471140863374,,0.00904863644971,-0.00895638133031,0.0331276758107,-0.999370056088
108044000000,,353,,108,44000000,"""map""",,,0.00369873619638,0.00662891939282,0.00447128387168,,0.00899354888264,-0.00887768558059,0.0330664364398,-0.999373301395
108076000000,,354,,108,76000000,"""map""",,,0.00370386173017,0.00670928740874,0.00432218518108,,0.0088292116268,-0.0086433149666,0.0329745984569,-0.999379834157
108112000000,,355,,108,112000000,"""map""",,,0.00356660340913,0.00711700925604,0.00435972912237,,0.0084986569397,-0.00831348648945,0.0322451208028,-0.999409252657
108144000000,,356,,108,144000000,"""map""",,,0.00305978069082,0.00758661795408,0.00527964346111,,0.00710514116918,-0.00708940769584,0.0311415477214,-0.999464633616
108176000000,,357,,108,176000000,"""map""",,,0.00224112533033,0.00810182560235,0.00734857330099,,0.00565234708971,-0.00579283508931,0.0303570684301,-0.999506401143
108212000000,,358,,108,212000000,"""map""",,,0.00121568748727,0.00864942930639,0.0105001125485,,0.00132985313141,-0.00175563236655,0.028383710836,-0.99959469879
108244000000,,359,,108,244000000,"""map""",,,-1.13964051707e-06,0.00921867974102,0.0146207511425,,-0.00450577776086,0.00414769858866,0.0260319166891,-0.999642409023
108276000000,,360,,108,276000000,"""map""",,,-0.00139111094177,0.00976542849094,0.0195162333548,,-0.00776739088459,0.00763529607591,0.0248001750413,-0.999633094569
108312000000,,361,,108,312000000,"""map""",,,-0.00337121146731,0.0103608397767,0.0265343654901,,-0.0158632614648,0.0164492205386,0.0218735821744,-0.999499573353
108344000000,,362,,108,344000000,"""map""",,,-0.00503176916391,0.0103839626536,0.0324583612382,,-0.0233657352874,0.0246216232927,0.0193386599707,-0.999236703459
108376000000,,363,,108,376000000,"""map""",,,-0.00683434074745,0.0101491650566,0.03878364712,,-0.027889716021,0.0294817700888,0.0179564962207,-0.999014758155
108412000000,,364,,108,412000000,"""map""",,,-0.00939518306404,0.0095348758623,0.0475109480321,,-0.0388343255956,0.0410145279038,0.0148237631177,-0.99829358343
108444000000,,365,,108,444000000,"""map""",,,-0.011080769822,0.00893860682845,0.0532820783556,,-0.0488322127379,0.051539179365,0.0122870707464,-0.997400702444
108476000000,,366,,108,476000000,"""map""",,,-0.0136836525053,0.00768062891439,0.061342369765,,-0.0547424292493,0.057743969091,0.0109199955681,-0.996769595535
108512000000,,367,,108,512000000,"""map""",,,-0.0184611510485,0.00446110777557,0.0719299316406,,-0.0661676450174,0.0700036173855,0.0081611893051,-0.995316414345
108544000000,,368,,108,544000000,"""map""",,,-0.023822421208,0.000489686382934,0.0802146792412,,-0.0730108472988,0.0754744282234,0.0053649987875,-0.994456787223
108576000000,,369,,108,576000000,"""map""",,,-0.0301724616438,-0.00438814098015,0.0851756036282,,-0.0721603836176,0.0708752622453,0.00359575838071,-0.994865190185
108612000000,,370,,108,612000000,"""map""",,,-0.0372216850519,-0.0100578851998,0.0858362317085,,-0.0572095401372,0.0506491342366,-0.000245505392576,-0.997076635326
108644000000,,371,,108,644000000,"""map""",,,-0.0447154417634,-0.0164329055697,0.0829568654299,,-0.0315888239073,0.024948049235,-0.00343968860067,-0.999183682724
108676000000,,372,,108,676000000,"""map""",,,-0.0524168647826,-0.0232641659677,0.0782596319914,,-0.0187941378345,0.0126971233624,-0.00461946318419,-0.999732097517
108712000000,,373,,108,712000000,"""map""",,,-0.0617763288319,-0.0319327227771,0.0721872672439,,0.00348396847484,-0.00943527602324,-0.00646414644981,-0.999928501831
108744000000,,374,,108,744000000,"""map""",,,-0.0678486526012,-0.037685342133,0.0699109509587,,0.0143605583866,-0.0202627141485,-0.00732984271823,-0.999664662559
108776000000,,375,,108,776000000,"""map""",,,-0.0726970285177,-0.042539767921,0.0740363746881,,0.0139628409677,-0.0200768715713,-0.00759073171051,-0.999672164698
108812000000,,376,,108,812000000,"""map""",,,-0.0764546096325,-0.0467668622732,0.0888921916485,,-0.000272043089886,-0.00637601179195,-0.00769500301372,-0.999949996723
108844000000,,377,,108,844000000,"""map""",,,-0.0797872915864,-0.0509527996182,0.114155143499,,-0.0257197007378,0.0198688067389,-0.00783703789321,-0.999441031381
108876000000,,378,,108,876000000,"""map""",,,-0.0835508853197,-0.055790245533,0.145917311311,,-0.0374683874767,0.0329251208555,-0.00791838131083,-0.998723860607
108912000000,,379,,108,912000000,"""map""",,,-0.0893564298749,-0.0631016567349,0.187124922872,,-0.0551760067215,0.0535630099505,-0.00793384920424,-0.997007430201
108944000000,,380,,108,944000000,"""map""",,,-0.0961809679866,-0.0706668421626,0.215972080827,,-0.0672269796718,0.0679797942498,-0.00773301947108,-0.995389117659
108976000000,,381,,108,976000000,"""map""",,,-0.104320690036,-0.079400986433,0.242072835565,,-0.0715553627672,0.0734419976229,-0.00759052097627,-0.99470022742
109012000000,,382,,109,12000000,"""map""",,,-0.11363158375,-0.0892919152975,0.267546981573,,-0.0782393568924,0.0813190653087,-0.00731732510422,-0.99358552757
109044000000,,383,,109,44000000,"""map""",,,-0.124359838665,-0.100600287318,0.294090092182,,-0.0812062218962,0.0840440162924,-0.00716256187649,-0.993121743649
109076000000,,384,,109,76000000,"""map""",,,-0.136627852917,-0.11349400878,0.322707056999,,-0.0823365470312,0.0848015222592,-0.00707986975971,-0.992964957373
109112000000,,385,,109,112000000,"""map""",,,-0.154063627124,-0.131804078817,0.361588895321,,-0.0839688981783,0.0854295276711,-0.00689358068929,-0.992775718023
109144000000,,386,,109,144000000,"""map""",,,-0.169774845243,-0.148018136621,0.395923167467,,-0.0845306558855,0.0850614558063,-0.00683891622677,-0.992759997249
109176000000,,387,,109,176000000,"""map""",,,-0.186731278896,-0.165543273091,0.431923776865,,-0.0846894458711,0.0848193836481,-0.00679946677657,-0.992767415094
109212000000,,388,,109,212000000,"""map""",,,-0.204759791493,-0.18431904912,0.469012290239,,-0.0848295790695,0.0846584509799,-0.00673447633616,-0.992769691024
109244000000,,389,,109,244000000,"""map""",,,-0.223776787519,-0.204246222973,0.50719833374,,-0.0846556885246,0.0843380116753,-0.00667665086,-0.992812175047
109276000000,,390,,109,276000000,"""map""",,,-0.243724986911,-0.225268468261,0.546512186527,,-0.0844969948769,0.0840353659193,-0.00666029788278,-0.99285145591
109312000000,,391,,109,312000000,"""map""",,,-0.269932359457,-0.253014862537,0.597362697124,,-0.0840006944358,0.0836077231472,-0.00667230973461,-0.99292955402
109344000000,,392,,109,344000000,"""map""",,,-0.292143076658,-0.275714695454,0.639193594456,,-0.0834627783293,0.0834514595853,-0.00671909273646,-0.992987716671
109376000000,,393,,109,376000000,"""map""",,,-0.315204888582,-0.299246221781,0.682321667671,,-0.083159361963,0.0832534127481,-0.00674846908987,-0.993029652785
109412000000,,394,,109,412000000,"""map""",,,-0.338999181986,-0.323748975992,0.726761221886,,-0.0824863786352,0.0827486234677,-0.00674766829975,-0.993127981383
109444000000,,395,,109,444000000,"""map""",,,-0.363493949175,-0.349169492722,0.772478282452,,-0.0818477497788,0.0824826229044,-0.00672419250512,-0.993203129214
109476000000,,396,,109,476000000,"""map""",,,-0.388651996851,-0.375434309244,0.819522440434,,-0.0814377646223,0.0823909973433,-0.00675554976042,-0.993244180244
109512000000,,397,,109,512000000,"""map""",,,-0.420961171389,-0.409351229668,0.880134820938,,-0.0807388839751,0.0821611721835,-0.00672844933682,-0.993320508187
109544000000,,398,,109,544000000,"""map""",,,-0.448138535023,-0.437324643135,0.929870486259,,-0.0800648926472,0.0819049931016,-0.00665578816999,-0.993396709689
109576000000,,399,,109,576000000,"""map""",,,-0.475997149944,-0.465972542763,0.980834186077,,-0.0797703517013,0.0818606839222,-0.00667454351758,-0.993423894406
109612000000,,400,,109,612000000,"""map""",,,-0.504274189472,-0.495209723711,1.03316688538,,-0.0791115934956,0.0817251110107,-0.00668449017383,-0.993487704735
109644000000,,401,,109,644000000,"""map""",,,-0.532926142216,-0.525001645088,1.08680438995,,-0.0785079528311,0.0815244844385,-0.0066922873408,-0.993551978679
109676000000,,402,,109,676000000,"""map""",,,-0.561958253384,-0.555328965187,1.14169681072,,-0.0781938969065,0.081461652707,-0.00669068576056,-0.993581902941
109712000000,,403,,109,712000000,"""map""",,,-0.598734915257,-0.593945145607,1.21219611168,,-0.0775233637603,0.0813092475625,-0.00665456591138,-0.99364718841
109744000000,,404,,109,744000000,"""map""",,,-0.630341827869,-0.625671088696,1.26991593838,,-0.0769995823188,0.0812493478358,-0.00663842366841,-0.99369291774
109776000000,,405,,109,776000000,"""map""",,,-0.662719666958,-0.657858669758,1.32891595364,,-0.0766932947498,0.0812356249207,-0.00662367227143,-0.993717784381
109812000000,,406,,109,812000000,"""map""",,,-0.695230007172,-0.690417230129,1.38929605484,,-0.0761179420293,0.0811863086628,-0.00665389156181,-0.993765873935
109844000000,,407,,109,844000000,"""map""",,,-0.727836489677,-0.723315656185,1.4510256052,,-0.0755532351746,0.0811148615227,-0.00661161827275,-0.993815143601
109876000000,,408,,109,876000000,"""map""",,,-0.760546505451,-0.756498992443,1.51411819458,,-0.0753177752199,0.081076040324,-0.00664697947865,-0.993835921997
109912000000,,409,,109,912000000,"""map""",,,-0.801626682281,-0.798337101936,1.5948984623,,-0.074799217518,0.0810769925793,-0.00667555504194,-0.993874781392
109944000000,,410,,109,944000000,"""map""",,,-0.836274027824,-0.832495093346,1.66090559959,,-0.0743106278717,0.0811223343565,-0.0066342511304,-0.993907993108
109976000000,,411,,109,976000000,"""map""",,,-0.871465325356,-0.866951704025,1.72830200195,,-0.0740724158596,0.081130087401,-0.00667070815436,-0.993924893995
110012000000,,412,,110,12000000,"""map""",,,-0.906623661518,-0.901593863964,1.79706978798,,-0.0737185370901,0.081068261267,-0.00664613654168,-0.993956461984
110044000000,,413,,110,44000000,"""map""",,,-0.9417309165,-0.936374008656,1.8666665554,,-0.0733791094212,0.0809035177972,-0.00656904995576,-0.993995532113
110076000000,,414,,110,76000000,"""map""",,,-0.976652801037,-0.971161782742,1.93583643436,,-0.0728519833967,0.0811591022135,-0.00197575996449,-0.994033169248
110112000000,,415,,110,112000000,"""map""",,,-1.01989531517,-1.01454079151,2.01965141296,,-0.0724598366058,0.0810987288286,-0.00201655811385,-0.99406671814
110140000000,,416,,110,140000000,"""map""",,,-1.05593204498,-1.0503257513,2.08267498016,,-0.0722027437933,0.0803841576588,-0.00216925614601,-0.994143130376
110176000000,,417,,110,176000000,"""map""",,,-1.09198129177,-1.0861634016,2.13834118843,,-0.0719211768328,0.0782144744467,-0.00221852581192,-0.99433645797
110212000000,,418,,110,212000000,"""map""",,,-1.12749946117,-1.12168574333,2.1855764389,,-0.0709319344043,0.068398803277,-0.00227765784038,-0.99513071533
110244000000,,419,,110,244000000,"""map""",,,-1.16252028942,-1.15695548058,2.22410392761,,-0.0697989894969,0.0552953540842,-0.00201019393973,-0.996025408631
110276000000,,420,,110,276000000,"""map""",,,-1.19706726074,-1.19201421738,2.25382876396,,-0.0688262514286,0.0459629664207,-0.00175958877848,-0.996567754277
110312000000,,421,,110,312000000,"""map""",,,-1.23956203461,-1.23551976681,2.27857661247,,-0.0636298690111,0.0220487523794,-0.00168342942322,-0.997728604926
110344000000,,422,,110,344000000,"""map""",,,-1.27494978905,-1.27079367638,2.29074597359,,-0.0526749942917,0.000787650841684,-0.00240873453925,-0.998608504682
110376000000,,423,,110,376000000,"""map""",,,-1.30997908115,-1.30589830875,2.2959291935,,-0.0428612178368,-0.010919372585,-0.00324400078303,-0.999016149001
110412000000,,424,,110,412000000,"""map""",,,-1.34350097179,-1.34038543701,2.29569101334,,-0.0158468080596,-0.0318558327537,-0.0052998397597,-0.999352818027
110444000000,,425,,110,444000000,"""map""",,,-1.37492096424,-1.3738244772,2.29306983948,,0.0130462948558,-0.0460814504315,-0.00735382427503,-0.998825392365
110476000000,,426,,110,476000000,"""map""",,,-1.40377116203,-1.40567529202,2.29033994675,,0.0253367939849,-0.0508886422644,-0.00814036876194,-0.998349723032
110512000000,,427,,110,512000000,"""map""",,,-1.43592345715,-1.4426510334,2.28863763809,,0.0444483759555,-0.0565564938173,-0.0093061927386,-0.997366142029
110544000000,,428,,110,544000000,"""map""",,,-1.46005868912,-1.47005784512,2.2906832695,,0.056866726891,-0.0580808577415,-0.0101448307303,-0.996639277479
110576000000,,429,,110,576000000,"""map""",,,-1.48138809204,-1.4945691824,2.2981762886,,0.0558785171426,-0.0543597472247,-0.0104036123801,-0.996902442401
110612000000,,430,,110,612000000,"""map""",,,-1.49902284145,-1.51550269127,2.31663370132,,0.0410666685768,-0.0388157180089,-0.0105963920652,-0.998345971963
110644000000,,431,,110,644000000,"""map""",,,-1.51354312897,-1.53340280056,2.34832954407,,0.0304397154366,-0.0262442344019,-0.01071802787,-0.999134539498
110676000000,,432,,110,676000000,"""map""",,,-1.52570354939,-1.54886996746,2.39410066605,,0.0262765682787,-0.0207887436965,-0.0105473331335,-0.99938286873
110712000000,,433,,110,712000000,"""map""",,,-1.53857839108,-1.56577575207,2.46648621559,,0.00923178840445,-0.000860877698249,-0.0104114095471,-0.9999028344
110744000000,,434,,110,744000000,"""map""",,,-1.55056965351,-1.57925987244,2.52808094025,,-0.0202674829986,0.0325708355994,-0.0117021567827,-0.999195399548
110776000000,,435,,110,776000000,"""map""",,,-1.56314325333,-1.5928786993,2.58806586266,,-0.044851502659,0.0610688697619,-0.0131953774786,-0.997038028813
110812000000,,436,,110,812000000,"""map""",,,-1.57585668564,-1.60673141479,2.64401865005,,-0.083579788677,0.109950047095,-0.0158324636431,-0.990290276219
110844000000,,437,,110,844000000,"""map""",,,-1.5890648365,-1.62120449543,2.69501161575,,-0.120060943027,0.15979754498,-0.0186912422308,-0.979643181496
110876000000,,438,,110,876000000,"""map""",,,-1.60744869709,-1.64097321033,2.75217914581,,-0.132792755221,0.178005607837,-0.0200351366424,-0.974822424963
110912000000,,439,,110,912000000,"""map""",,,-1.62458825111,-1.65872037411,2.79362249374,,-0.145324757109,0.197685072493,-0.0227091434462,-0.969167540151
110944000000,,440,,110,944000000,"""map""",,,-1.64672088623,-1.67875802517,2.83278059959,,-0.140519415787,0.193955824507,-0.0244195468524,-0.970587046009
110976000000,,441,,110,972000000,"""map""",,,-1.67181766033,-1.70073413849,2.86937713623,,-0.133220759102,0.185038776255,-0.0251817304609,-0.97333384042
111012000000,,442,,111,12000000,"""map""",,,-1.69870424271,-1.72430467606,2.9038643837,,-0.111929382956,0.156811440763,-0.0261669551917,-0.98091656423
111044000000,,443,,111,44000000,"""map""",,,-1.72695446014,-1.74915111065,2.93708014488,,-0.0866234891967,0.121964762272,-0.0264235030586,-0.988394047358
111076000000,,444,,111,76000000,"""map""",,,-1.75605344772,-1.77488517761,2.96956300735,,-0.0742004329607,0.104473334134,-0.0262560957763,-0.991408221376
111112000000,,445,,111,112000000,"""map""",,,-1.79277634621,-1.80761361122,3.00959300995,,-0.0518150141896,0.072173490917,-0.0252627788506,-0.995724901601
111144000000,,446,,111,144000000,"""map""",,,-1.82382440567,-1.8336083889,3.04196596146,,-0.0339660971412,0.0459159048545,-0.0236770879691,-0.998086937432
111176000000,,447,,111,176000000,"""map""",,,-1.85466599464,-1.85922718048,3.07372879982,,-0.0268633390086,0.0354830188539,-0.0226903880986,-0.998751466792
111212000000,,448,,111,212000000,"""map""",,,-1.88436114788,-1.88437473774,3.10448503494,,-0.0153933082989,0.019432932922,-0.0203859248625,-0.99948477981
111244000000,,449,,111,244000000,"""map""",,,-1.91282010078,-1.90894556046,3.13397216797,,-0.00986722137525,0.0123233472468,-0.0184673581715,-0.999704828506
111276000000,,450,,111,276000000,"""map""",,,-1.94003129005,-1.93288266659,3.16206812859,,-0.00801104173351,0.0103998264901,-0.0174685621555,-0.999761305283
111312000000,,451,,111,312000000,"""map""",,,-1.97235035896,-1.96185076237,3.19552540779,,-0.00609508131465,0.00942317098737,-0.0153793428748,-0.999818793584
111344000000,,452,,111,344000000,"""map""",,,-1.99903130531,-1.9844700098,3.22161960602,,-0.0058586921537,0.0106692300512,-0.0138277909405,-0.999830299674
111376000000,,453,,111,376000000,"""map""",,,-2.02516317368,-2.0065073967,3.24686145782,,-0.00601421303689,0.0117633987878,-0.0130449132295,-0.999827644422
111412000000,,454,,111,412000000,"""map""",,,-2.05016064644,-2.0279250145,3.27117443085,,-0.00684714177695,0.0142027395123,-0.0113897643416,-0.99981082783
111444000000,,455,,111,444000000,"""map""",,,-2.07415533066,-2.04881072044,3.2946972847,,-0.00766194638433,0.0158610948534,-0.0101784217685,-0.999793084006
111476000000,,456,,111,476000000,"""map""",,,-2.09719276428,-2.06919264793,3.31733560562,,-0.00791575404752,0.016512775352,-0.00957555324743,-0.999786509098
111512000000,,457,,111,512000000,"""map""",,,-2.12478923798,-2.09400129318,3.34439468384,,-0.00824350111243,0.0172411492854,-0.00839742239101,-0.999782167973
111544000000,,458,,111,544000000,"""map""",,,-2.14829158783,-2.11344838142,3.36568713188,,-0.00836587382854,0.0173519856188,-0.00721195798294,-0.999788447853
111576000000,,459,,111,576000000,"""map""",,,-2.17165088654,-2.13247895241,3.38628983498,,-0.00833605493321,0.0172234588043,-0.00678893006444,-0.999793884797
111612000000,,460,,111,612000000,"""map""",,,-2.19957494736,-2.15568327904,3.41088199615,,-0.00804071253864,0.0165706814999,-0.00577024073593,-0.999813778109
111644000000,,461,,111,644000000,"""map""",,,-2.21569132805,-2.16928362846,3.42507481575,,-0.00764354500442,0.0154400600199,-0.00503777065566,-0.999838939778
111676000000,,462,,111,676000000,"""map""",,,-2.23649549484,-2.18707513809,3.44333267212,,-0.00741161056779,0.0147451510134,-0.00467964888386,-0.999852890384
111712000000,,463,,111,712000000,"""map""",,,-2.26141452789,-2.20873761177,3.46514701843,,-0.00692224713172,0.0132357594279,-0.00403724661886,-0.999880285836
111744000000,,464,,111,744000000,"""map""",,,-2.28266787529,-2.22524547577,3.48224806786,,-0.00641324589843,0.0116432503058,-0.0034404050971,-0.999905784679
111776000000,,465,,111,776000000,"""map""",,,-2.3037405014,-2.24128723145,3.49891710281,,-0.00610297874503,0.0109223776882,-0.00318920987997,-0.999916658566
111812000000,,466,,111,812000000,"""map""",,,-2.32393264771,-2.25698256493,3.51503515244,,-0.00549538599027,0.00960763292605,-0.00270397321306,-0.999935161033
111844000000,,467,,111,844000000,"""map""",,,-2.3432571888,-2.27234911919,3.53065657616,,-0.00508524233042,0.00851508206871,-0.00236174080316,-0.999948057968
111876000000,,468,,111,876000000,"""map""",,,-2.36177992821,-2.28740930557,3.54570412636,,-0.00487087259291,0.00785110358072,-0.00218021432662,-0.999954927905
111912000000,,469,,111,912000000,"""map""",,,-2.38380527496,-2.30583071709,3.56370234489,,-0.00429315306339,0.00662872396635,-0.00180177777384,-0.999967192638
111944000000,,470,,111,944000000,"""map""",,,-2.40234136581,-2.31975650787,3.57804346085,,-0.00387811468918,0.00567783237116,-0.00159968363523,-0.999975158392
111976000000,,471,,111,976000000,"""map""",,,-2.42060923576,-2.33324241638,3.59201812744,,-0.00363078932654,0.00524426946921,-0.00142616505991,-0.99997865658
112012000000,,472,,112,12000000,"""map""",,,-2.43804812431,-2.34647274017,3.60540628433,,-0.00311951595005,0.00445138500969,-0.00109248846025,-0.99998468358
112044000000,,473,,112,44000000,"""map""",,,-2.45468044281,-2.3594379425,3.61824679375,,-0.00280039462459,0.00388644326041,-0.000853431535497,-0.999988223915
112076000000,,474,,112,76000000,"""map""",,,-2.47056508064,-2.37215304375,3.63062095642,,-0.00274061586426,0.00351304922409,-0.000709415754135,-0.999989867642
112112000000,,475,,112,112000000,"""map""",,,-2.4894592762,-2.38770961761,3.645424366,,-0.00251129627635,0.0025982922799,-0.000553598855191,-0.999993365831
112144000000,,476,,112,144000000,"""map""",,,-2.50383925438,-2.39987850189,3.65680074692,,-0.00226976178883,0.00173472520421,-0.000316185657529,-0.999995852495
112176000000,,477,,112,176000000,"""map""",,,-2.5175538063,-2.41181373596,3.66762566566,,-0.0021524798893,0.00140965090392,-0.00026577802671,-0.999996695432
112212000000,,478,,112,212000000,"""map""",,,-2.5306198597,-2.42354202271,3.67797994614,,-0.00188789131745,0.000673937533108,-0.000172886372592,-0.999997959837
112244000000,,479,,112,244000000,"""map""",,,-2.5443110466,-2.43465232849,3.68857216835,,-0.00169991838989,0.000194812941257,-4.99440154853e-05,-0.99999859204
112276000000,,480,,112,276000000,"""map""",,,-2.55853438377,-2.44518709183,3.69927215576,,-0.00157864050402,9.51478276024e-05,5.31050291253e-06,-0.99999871848
112312000000,,481,,112,312000000,"""map""",,,-2.57536506653,-2.45818185806,3.71190571785,,-0.00120901893991,-0.000119514427147,0.000118980553346,-0.999999266389
112344000000,,482,,112,344000000,"""map""",,,-2.58812880516,-2.46843290329,3.72156047821,,-0.000737781241728,-0.000508127920958,0.000196952223092,-0.999999603564
112376000000,,483,,112,376000000,"""map""",,,-2.60032510757,-2.47854757309,3.73066163063,,-0.000564142811308,-0.000796238509022,0.000222914681774,-0.99999951927
112412000000,,484,,112,412000000,"""map""",,,-2.61196947098,-2.48853993416,3.73944664001,,-0.000230168796484,-0.00138353689768,0.000271172823319,-0.999998971361
112444000000,,485,,112,444000000,"""map""",,,-2.62405633926,-2.49813842773,3.74849772453,,1.30441203419e-05,-0.00197508018193,0.000337048347542,-0.999998001984
112476000000,,486,,112,476000000,"""map""",,,-2.63650846481,-2.50733709335,3.75771522522,,0.000184391639055,-0.00233223586893,0.000399720711277,-0.999997201194
112512000000,,487,,112,512000000,"""map""",,,-2.65122818947,-2.51868200302,3.76852250099,,0.000541817576261,-0.00288598758876,0.000385685810723,-0.99999564176
112544000000,,488,,112,544000000,"""map""",,,-2.66236066818,-2.52763152122,3.77667474747,,0.000780739664027,-0.00338576047323,0.000384969314299,-0.99999391374
112576000000,,489,,112,576000000,"""map""",,,-2.6729695797,-2.53648495674,3.78444218636,,0.000866584480319,-0.00372370287726,0.000441656825546,-0.999992607187
112612000000,,490,,112,612000000,"""map""",,,-2.68307590485,-2.54521846771,3.79176139832,,0.000943264744284,-0.00434536988061,0.000526119109962,-0.999989994083
112644000000,,491,,112,644000000,"""map""",,,-2.69337153435,-2.55313301086,3.79924297333,,0.00100984145377,-0.00500088985831,0.000548709820763,-0.999986875216
112676000000,,492,,112,676000000,"""map""",,,-2.70380973816,-2.56029367447,3.80693888664,,0.00113224084093,-0.00527331226983,0.000524770410809,-0.999985357929
112712000000,,493,,112,712000000,"""map""",,,-2.71613693237,-2.56919980049,3.81597471237,,0.00131649467955,-0.00591296807496,0.000599159598431,-0.999981522566
112744000000,,494,,112,744000000,"""map""",,,-2.72541284561,-2.57630348206,3.8227648735,,0.0013194602701,-0.00635882098148,0.000661410493682,-0.999978698727
112776000000,,495,,112,776000000,"""map""",,,-2.73420071602,-2.58339500427,3.82913994789,,0.00133024130224,-0.00659713440948,0.000656816487194,-0.999977139294
112812000000,,496,,112,812000000,"""map""",,,-2.74254417419,-2.59047198296,3.83516836166,,0.00133712029354,-0.00704782465468,0.000683790470241,-0.999974104721
