rosbagTimestamp,header,seq,stamp,secs,nsecs,frame_id,pose,position,x,y,z,orientation,x,y,z,w
157964000000,,240,,157,960006206,"""map""",,,0.0171306077391,0.0387748517096,0.00255114212632,,0.00313643939146,-0.0261560128161,0.0680779499383,-0.997332171669
158000000000,,241,,157,992006206,"""map""",,,0.0171229634434,0.038744520396,0.00338680576533,,0.0030958085124,-0.0261631553899,0.068073313785,-0.997332508843
158032000000,,242,,158,24006206,"""map""",,,0.0171808674932,0.0388505272567,0.00414053350687,,0.00306818257029,-0.0261633331969,0.0680787928753,-0.997332171669
158064000000,,243,,158,56006204,"""map""",,,0.0173126757145,0.0390786901116,0.00489649362862,,0.0030253982507,-0.0262585692695,0.0681245222059,-0.997326650432
158100000000,,244,,158,96006204,"""map""",,,0.0175686497241,0.0395347066224,0.00565554667264,,0.0029945928557,-0.0262079048063,0.0681365340577,-0.997327198341
158132000000,,245,,158,128006204,"""map""",,,0.0174816828221,0.0393100492656,0.00618218863383,,0.00298963006429,-0.0262210862332,0.0681499367556,-0.997325933935
158164000000,,246,,158,160006202,"""map""",,,0.0175059493631,0.0392114855349,0.00660397578031,,0.00294944304424,-0.026195605829,0.0681827270037,-0.997324585236
158200000000,,247,,158,192006202,"""map""",,,0.0176157783717,0.0392154939473,0.00713779451326,,0.00299151086741,-0.0261497763997,0.0681896812337,-0.997325133145
158232000000,,248,,158,224006202,"""map""",,,0.0177913159132,0.0393124781549,0.00769105646759,,0.00292813386105,-0.026112185362,0.0681913249608,-0.997326186816
158264000000,,249,,158,256006199,"""map""",,,0.018030455336,0.0395126864314,0.00824785418808,,0.00295481413324,-0.0260826786168,0.0681935587438,-0.997326819019
158300000000,,250,,158,296006199,"""map""",,,0.0183924231678,0.0399055406451,0.0088618202135,,0.00286884509899,-0.0260817434836,0.068141465239,-0.997330527942
158332000000,,251,,158,328006199,"""map""",,,0.0181895457208,0.0395751707256,0.00914891902357,,0.00285410423873,-0.0260558890262,0.0681520862448,-0.997330527942
158364000000,,252,,158,360006197,"""map""",,,0.0180572252721,0.03937349841,0.00946278125048,,0.00284184872543,-0.0260418554428,0.0681843707308,-0.997328842068
158400000000,,253,,158,392006197,"""map""",,,0.0180161334574,0.0393024720252,0.00975459069014,,0.00287116712693,-0.0259546088322,0.0682011873234,-0.997329811445
158432000000,,254,,158,424006197,"""map""",,,0.0180716160685,0.0393535085022,0.0100397793576,,0.00284653756233,-0.0259655670128,0.0682030417847,-0.99732947427
158464000000,,255,,158,456006195,"""map""",,,0.0182310268283,0.0394989028573,0.0102980909869,,0.00277766961186,-0.0259016012676,0.0682290042434,-0.997329558564
158500000000,,256,,158,496006195,"""map""",,,0.0184931904078,0.0398118570447,0.0105315996334,,0.00278257971972,-0.0258851060448,0.0682021567009,-0.997331792347
158532000000,,257,,158,528006195,"""map""",,,0.0184603538364,0.0394959338009,0.0108520332724,,0.00278527184966,-0.0258910224087,0.0682017352324,-0.997331708053
158564000000,,258,,158,560006193,"""map""",,,0.0184948071837,0.0393043495715,0.0111637637019,,0.00279933967744,-0.0259430724495,0.0682411003889,-0.997327577662
158600000000,,259,,158,592006193,"""map""",,,0.0186121426523,0.0392129272223,0.011461570859,,0.00274856984715,-0.0259277007036,0.068258043422,-0.997326987606
158632000000,,260,,158,624006193,"""map""",,,0.0187884196639,0.0392262414098,0.0118082817644,,0.00277341278016,-0.0258944784502,0.0682564839886,-0.99732787269
158664000000,,261,,158,656006190,"""map""",,,0.0190366134048,0.0393700562418,0.0120896529406,,0.00295594024435,-0.0259166529609,0.0681691978653,-0.997332719578
158700000000,,262,,158,696006190,"""map""",,,0.019461683929,0.039622798562,0.0125775616616,,0.00299859417214,-0.0259604553903,0.0681697036275,-0.997331455172
158732000000,,263,,158,728006190,"""map""",,,0.0195280853659,0.0389980375767,0.0130220782012,,0.00298081478751,-0.025933698727,0.0681588718875,-0.997332930312
158764000000,,264,,158,760006188,"""map""",,,0.0197020173073,0.0385287180543,0.0133821777999,,0.00291534624379,-0.0259262216126,0.0681517069232,-0.997333773249
158800000000,,265,,158,792006188,"""map""",,,0.0199511107057,0.0382170639932,0.01367089618,,0.00286227414189,-0.0258615617616,0.0681225834509,-0.997337608612
158832000000,,266,,158,824006188,"""map""",,,0.0202677529305,0.038043577224,0.0139590855688,,0.00287285168378,-0.0258936947823,0.0681022265231,-0.997338156521
158864000000,,267,,158,856006186,"""map""",,,0.0206533446908,0.0379497632384,0.0143059166148,,0.00289362612883,-0.025909996393,0.0681111195081,-0.99733710285
158900000000,,268,,158,896006186,"""map""",,,0.0212365612388,0.037957906723,0.0147445984185,,0.00287932122503,-0.0258258594296,0.06812005464,-0.997338620137
158932000000,,269,,158,928006186,"""map""",,,0.0212613493204,0.0373854003847,0.0152683034539,,0.00289165839784,-0.0258399272574,0.0681146598434,-0.99733870443
158964000000,,270,,158,960006183,"""map""",,,0.0213662888855,0.0369742400944,0.0157284718007,,0.00282701435185,-0.0258450994659,0.0681675541382,-0.997335121948
159000000000,,271,,158,992006183,"""map""",,,0.0215654224157,0.0367048457265,0.0161358490586,,0.00278051188996,-0.0257961735603,0.0681636766282,-0.997336723528
159032000000,,272,,159,24006183,"""map""",,,0.0218316763639,0.0365855358541,0.0165765881538,,0.00278197122459,-0.0257910974992,0.0681795659901,-0.997335838445
159044000000,,273,,159,56006181,"""map""",,,0.0221825744957,0.0365970097482,0.0169800315052,,0.00282857510233,-0.0258341057239,0.0682091530777,-0.99733255099
159044000000,,274,,159,96006181,"""map""",,,0.0227407477796,0.0367491804063,0.0174630898982,,0.00283144372221,-0.025889428731,0.0682225136287,-0.997330232914
159132000000,,275,,159,128006181,"""map""",,,0.0230143740773,0.0362964868546,0.0176736097783,,0.00281065742336,-0.0259229038654,0.0681863937795,-0.997331792347
159164000000,,276,,159,160006178,"""map""",,,0.0233752671629,0.0359865762293,0.0179782640189,,0.00279326131164,-0.0258594491508,0.0681995014494,-0.997332677431
159200000000,,277,,159,192006178,"""map""",,,0.0237727519125,0.035784855485,0.0182276424021,,0.00277833474182,-0.0256419727295,0.0681924207789,-0.997338746577
159232000000,,278,,159,224006178,"""map""",,,0.0242701079696,0.0356805324554,0.0185134094208,,0.00277889187047,-0.0256716427938,0.0682336825436,-0.997335164095
159264000000,,279,,159,256006175,"""map""",,,0.0248249378055,0.0356585197151,0.0188449975103,,0.00279338380091,-0.0257040076222,0.0681832749127,-0.9973377772
159300000000,,280,,159,296006175,"""map""",,,0.0256073474884,0.0357433892787,0.019251961261,,0.00282119808675,-0.0258067115895,0.0681698722149,-0.997335922738
159332000000,,281,,159,328006175,"""map""",,,0.0257981456816,0.0350959300995,0.0199484694749,,0.00282325142853,-0.0258202631184,0.0681355225334,-0.99733790364
159364000000,,282,,159,360006173,"""map""",,,0.0261165164411,0.034618999809,0.0205659158528,,0.00277672789322,-0.0258073648656,0.0681313499954,-0.99733870443
159400000000,,283,,159,392006173,"""map""",,,0.026540145278,0.0342686958611,0.02109679766,,0.00282422870858,-0.025858727386,0.0681387256939,-0.997336723528
159432000000,,284,,159,424006173,"""map""",,,0.0270678438246,0.0340226851404,0.021610064432,,0.00286234131343,-0.025839596668,0.0681568066919,-0.997335838445
159464000000,,285,,159,456006170,"""map""",,,0.0276977717876,0.0338830128312,0.0221709329635,,0.00283741145254,-0.0257928373738,0.0682134099094,-0.997333267487
159500000000,,286,,159,496006170,"""map""",,,0.0285865273327,0.0338379219174,0.0227594096214,,0.00282391260721,-0.0258301676278,0.0682587177716,-0.997329263536
159532000000,,287,,159,528006170,"""map""",,,0.0284804627299,0.0331603810191,0.0231208316982,,0.00282439071053,-0.0258271132983,0.0682268126073,-0.997331497319
159564000000,,288,,159,560006167,"""map""",,,0.0285356622189,0.0326049849391,0.0235608331859,,0.00278592775999,-0.0257212048535,0.0682958491451,-0.997329642858
159600000000,,289,,159,592006167,"""map""",,,0.0286864060909,0.0321735218167,0.0241067726165,,0.00278931399585,-0.025648608224,0.0683405669514,-0.997328504893
159632000000,,290,,159,624006167,"""map""",,,0.0289529487491,0.031860999763,0.0246017817408,,0.00283300052143,-0.0256268854749,0.0683414941821,-0.997328757774
159664000000,,291,,159,656006164,"""map""",,,0.0293472316116,0.0316585861146,0.0250855218619,,0.00280616088146,-0.0256084251552,0.0683989824834,-0.997325386026
159700000000,,292,,159,696006164,"""map""",,,0.0299689564854,0.0315183624625,0.0256997719407,,0.00281440980996,-0.0255533431755,0.0684042508395,-0.997326439697
159732000000,,293,,159,728006164,"""map""",,,0.0297678075731,0.0307962819934,0.0261392220855,,0.00278282733245,-0.0255794175867,0.0683701961859,-0.997328209865
159764000000,,294,,159,760006162,"""map""",,,0.0297093167901,0.0302271656692,0.0266159791499,,0.0027578566418,-0.0255020952419,0.0683307467357,-0.997332930312
159800000000,,295,,159,792006162,"""map""",,,0.0298197548836,0.029798688367,0.0271638166159,,0.00275568739619,-0.0255714307589,0.0683004852985,-0.997333267487
159832000000,,296,,159,824006162,"""map""",,,0.0300536621362,0.0294979549944,0.0276768654585,,0.00270498737161,-0.0255042960976,0.0683248883237,-0.997333393927
159864000000,,297,,159,856006159,"""map""",,,0.030431009829,0.0292983278632,0.0281953141093,,0.00269280824948,-0.0255056698215,0.0683420842379,-0.997332298109
159900000000,,298,,159,896006159,"""map""",,,0.0310554858297,0.0291833560914,0.0288377143443,,0.00265656327685,-0.0254503718391,0.0683165011009,-0.997335543417
159932000000,,299,,159,928006159,"""map""",,,0.0307266619056,0.0287669077516,0.0293111111969,,0.0026616775335,-0.0254800234641,0.0683208000794,-0.997334363305
159964000000,,300,,159,960006156,"""map""",,,0.0305158905685,0.0284825377166,0.029722629115,,0.00261384349461,-0.0252764015023,0.0683027612283,-0.997341022507
160000000000,,301,,159,992006156,"""map""",,,0.0304968301207,0.0282954275608,0.0302909258753,,0.00260248623603,-0.0253578147256,0.0682848066708,-0.997340263864
160032000000,,302,,160,24006156,"""map""",,,0.0306037329137,0.028219236061,0.0307933595031,,0.00262214115541,-0.0253962513344,0.0682937418027,-0.997338493696
160064000000,,303,,160,56006153,"""map""",,,0.0308438576758,0.0282219350338,0.0312736704946,,0.00259552015222,-0.025381110079,0.0683652650046,-0.997334152571
160100000000,,304,,160,96006153,"""map""",,,0.0313151367009,0.0283293332905,0.0319516509771,,0.00261131731788,-0.0254068222908,0.0684142817894,-0.997329980033
160132000000,,305,,160,128006153,"""map""",,,0.0309769958258,0.0279290042818,0.0326743200421,,0.00258933773638,-0.0254020675995,0.0684537733865,-0.997327493369
160164000000,,306,,160,160006150,"""map""",,,0.0307922679931,0.0276546627283,0.0334206856787,,0.0026172270963,-0.0254251364136,0.0684512867224,-0.997327029753
160200000000,,307,,160,192006150,"""map""",,,0.0307635627687,0.0274961329997,0.0340735390782,,0.00257452575331,-0.0254473833641,0.068503422374,-0.997322941509
160232000000,,308,,160,224006150,"""map""",,,0.0308704562485,0.0274032130837,0.0346333086491,,0.00257336803206,-0.0254440840562,0.0684958780881,-0.997323573712
160264000000,,309,,160,256006147,"""map""",,,0.0310886763036,0.027411095798,0.0351314246655,,0.00255345364614,-0.0254422480341,0.0684798201389,-0.997324880264
160300000000,,310,,160,296006147,"""map""",,,0.0315193869174,0.027558978647,0.035835955292,,0.002553555062,-0.0254342519867,0.0684358609759,-0.997327956984
160332000000,,311,,160,328006147,"""map""",,,0.0310292635113,0.0272397976369,0.0362441390753,,0.00252942730831,-0.0254461255441,0.0684257878791,-0.997328504893
160364000000,,312,,160,360006143,"""map""",,,0.0307145901024,0.0270088650286,0.0367044247687,,0.002493275849,-0.0254490020665,0.0684246077673,-0.997328589187
160400000000,,313,,160,392006143,"""map""",,,0.0305623840541,0.0268894415349,0.0372031927109,,0.00258708683125,-0.0254350909724,0.0684640993644,-0.997325933935
160432000000,,314,,160,424006143,"""map""",,,0.0305505022407,0.0268907137215,0.0378077477217,,0.00258487675589,-0.025425157487,0.0684564707848,-0.997326734725
160464000000,,315,,160,456006140,"""map""",,,0.0306628867984,0.0269620977342,0.0384564809501,,0.00255916981247,-0.0254217040796,0.0684645208329,-0.997326355404
160500000000,,316,,160,496006140,"""map""",,,0.0309340134263,0.0271273292601,0.0393208563328,,0.00251945694446,-0.0254636744382,0.0684439110239,-0.997326819019
160532000000,,317,,160,528006140,"""map""",,,0.0305897034705,0.0266723670065,0.0391342118382,,0.00248329099717,-0.0254261360841,0.0684555014073,-0.997327029753
160564000000,,318,,160,560006137,"""map""",,,0.0304058119655,0.0263231899589,0.0389971509576,,0.00242632953141,-0.0253477508484,0.0685128211212,-0.997325175292
160600000000,,319,,160,592006137,"""map""",,,0.0304050371051,0.0260873194784,0.0389672853053,,0.00244177635139,-0.0253655921363,0.0685129475618,-0.99732479597
160632000000,,320,,160,624006137,"""map""",,,0.0305272210389,0.0259397849441,0.0390543453395,,0.00241277800253,-0.0254424324265,0.0685084799959,-0.99732319439
160664000000,,321,,160,656006134,"""map""",,,0.0307716745883,0.0258865822107,0.0392068140209,,0.00237614185446,-0.0253800471882,0.0685589297735,-0.997321382075
160700000000,,322,,160,696006134,"""map""",,,0.0312221311033,0.0258847773075,0.039479881525,,0.00233255279347,-0.0252084423432,0.0685514697813,-0.997326313257
160732000000,,323,,160,728006134,"""map""",,,0.0311478041112,0.025441383943,0.0392811186612,,0.00233792519957,-0.025242988271,0.0685964826155,-0.997322351453
160764000000,,324,,160,760006130,"""map""",,,0.0312325060368,0.0250814631581,0.0391613170505,,0.00230775464148,-0.0253227762065,0.0686055020411,-0.997319738348
160800000000,,325,,160,792006130,"""map""",,,0.0314544290304,0.0248050298542,0.0392156951129,,0.00234870952443,-0.0253392543072,0.068645035785,-0.997316619482
160832000000,,326,,160,824006130,"""map""",,,0.0317872911692,0.0246235355735,0.0393356569111,,0.00236107303903,-0.0253040603716,0.0686353420099,-0.997318052474
160864000000,,327,,160,856006127,"""map""",,,0.0322222150862,0.0245300773531,0.0395205765963,,0.00240763872118,-0.0253292760408,0.0685998122166,-0.997319780495
160900000000,,328,,160,896006127,"""map""",,,0.0328897349536,0.0245039388537,0.0398453995585,,0.00246150502776,-0.0253137976107,0.0686090845232,-0.99731944332
160932000000,,329,,160,928006127,"""map""",,,0.0324976854026,0.0240867175162,0.0398506000638,,0.0024472910031,-0.0252751278772,0.068578275177,-0.99732252004
160964000000,,330,,160,960006124,"""map""",,,0.0322463177145,0.023748530075,0.0399617813528,,0.00239439539113,-0.0252474281781,0.0685330937554,-0.997326481844
161000000000,,331,,160,992006124,"""map""",,,0.0321002118289,0.0235066004097,0.040218681097,,0.00237303352438,-0.025211338622,0.0685535771238,-0.997325976082
161032000000,,332,,161,24006124,"""map""",,,0.032096631825,0.0233328137547,0.0405625775456,,0.00237032954063,-0.0251958799482,0.0685693400451,-0.997325301732
161064000000,,333,,161,56006120,"""map""",,,0.032204721123,0.0232114959508,0.0410033240914,,0.00231727060962,-0.0252055197227,0.0685762942751,-0.997324753823
161100000000,,334,,161,96006120,"""map""",,,0.0324964895844,0.0231563877314,0.0416513718665,,0.00236196207411,-0.0251859504141,0.0686178089209,-0.997322267159
161132000000,,335,,161,128006120,"""map""",,,0.0319827571511,0.0227269288152,0.0419624336064,,0.00232373224833,-0.0251346787729,0.0686536337421,-0.997321255635
161164000000,,336,,161,160006117,"""map""",,,0.0316125825047,0.0223376266658,0.042390242219,,0.0023405593776,-0.0251306195045,0.0686654348597,-0.997320496992
161200000000,,337,,161,192006117,"""map""",,,0.0313698351383,0.0220215860754,0.0428993813694,,0.00239407797268,-0.0251119484507,0.0686786268233,-0.997319864789
161232000000,,338,,161,224006117,"""map""",,,0.0312104150653,0.02174083516,0.0434745587409,,0.00237294396233,-0.0251824522257,0.0686972978772,-0.997316872363
161264000000,,339,,161,256006113,"""map""",,,0.0311261471361,0.021502032876,0.0441319979727,,0.00235061930351,-0.0251599932238,0.0686959070312,-0.997317504565
161300000000,,340,,161,296006113,"""map""",,,0.0311804525554,0.0213010199368,0.0447214916348,,0.00231002003459,-0.0252395414491,0.06864309703,-0.99731931688
161332000000,,341,,161,328006113,"""map""",,,0.0304660368711,0.0208199266344,0.0447155609727,,0.0023203552321,-0.0252110198864,0.0686261539969,-0.997321171341
161364000000,,342,,161,360006109,"""map""",,,0.029930986464,0.0204269420356,0.0447027310729,,0.00236154719107,-0.0252422441157,0.0685464543064,-0.997325765348
161400000000,,343,,161,392006109,"""map""",,,0.0295560657978,0.0201074853539,0.0446950271726,,0.00224774279756,-0.0252610047317,0.068533768105,-0.997326481844
161432000000,,344,,161,424006109,"""map""",,,0.0293172523379,0.0198272056878,0.0447974428535,,0.00225471810099,-0.0252525885329,0.0685188059737,-0.997327619809
161464000000,,345,,161,456006106,"""map""",,,0.0291883964092,0.0196022931486,0.0450491718948,,0.00222302762217,-0.0251918957539,0.0685233156865,-0.997329010655
161500000000,,346,,161,496006106,"""map""",,,0.0292301028967,0.0193908717483,0.04537974298,,0.00221960187364,-0.0251895500184,0.0685413545377,-0.99732774625
161532000000,,347,,161,528006106,"""map""",,,0.0286200027913,0.0187722481787,0.0457082279027,,0.00222349914004,-0.0251882184414,0.0685661368846,-0.997326060376
161564000000,,348,,161,560006102,"""map""",,,0.0281905643642,0.0182259846479,0.0460595190525,,0.00218924165474,-0.0251653511419,0.0685971569651,-0.997324543089
161600000000,,349,,161,592006102,"""map""",,,0.0279099438339,0.0177518893033,0.0463797226548,,0.00213783698753,-0.0251499082732,0.0686078201178,-0.997324332355
161632000000,,350,,161,624006102,"""map""",,,0.0277277175337,0.0173207856715,0.0467588230968,,0.00237606151203,-0.0251975974323,0.0685842600295,-0.997324205914
161664000000,,351,,161,656006098,"""map""",,,0.0276691559702,0.0169404726475,0.0472751744092,,0.00236381653545,-0.0251872938449,0.0685486459425,-0.997327029753
161700000000,,352,,161,696006098,"""map""",,,0.0276905614883,0.016540247947,0.0481572188437,,0.00229404242774,-0.0251563080087,0.0685561902284,-0.997327409075
161732000000,,353,,161,728006098,"""map""",,,0.0278088450432,0.0162637978792,0.048788793385,,0.00231679118922,-0.0251496303674,0.0685562745221,-0.997327577662
161764000000,,354,,161,760006095,"""map""",,,0.0280421860516,0.0159905850887,0.0495023541152,,0.00224434602499,-0.0251667367195,0.0686020038527,-0.997324163767
161800000000,,355,,161,792006095,"""map""",,,0.0283510070294,0.0157322641462,0.0502739697695,,0.00223006878005,-0.0251930179138,0.0685894862387,-0.997324374502
161832000000,,356,,161,824006095,"""map""",,,0.0279586054385,0.015255077742,0.0502847880125,,0.00220181590357,-0.0251621492985,0.06860832588,-0.997323910886
161844000000,,357,,161,856006091,"""map""",,,0.0277189742774,0.0147902062163,0.050434011966,,0.00222721991651,-0.0251754044824,0.0686243416824,-0.9973223936
161844000000,,358,,161,896006091,"""map""",,,0.027564059943,0.0142465094104,0.0508826598525,,0.00216244547871,-0.0251303705747,0.0686240466545,-0.997323700152
161844000000,,359,,161,928006091,"""map""",,,0.0275699831545,0.0138320988044,0.0513137727976,,0.00218372436885,-0.0251571206526,0.0686321809962,-0.9973223936
161844000000,,360,,161,960006091,"""map""",,,0.0276787448674,0.0134317697957,0.0517189837992,,0.00217460879577,-0.0250873083493,0.0686236673328,-0.997324753823
161844000000,,361,,161,992006091,"""map""",,,0.0278848353773,0.01308058016,0.0520810037851,,0.00221014254033,-0.0250001921306,0.0686183146831,-0.997327240487
162032000000,,362,,162,24006087,"""map""",,,0.0273453053087,0.0124554848298,0.0520435906947,,0.0021920523227,-0.0249909422144,0.0686428441489,-0.997325891788
162064000000,,363,,162,56006083,"""map""",,,0.0269951783121,0.011885936372,0.0521107502282,,0.00219118436103,-0.024997889859,0.0687096890506,-0.997321087048
162100000000,,364,,162,96006083,"""map""",,,0.0267383307219,0.0112768476829,0.0522702597082,,0.00222413792821,-0.0248223903818,0.0686993630728,-0.997326102523
162132000000,,365,,162,128006083,"""map""",,,0.0267072878778,0.0108385067433,0.0524771474302,,0.0022070645033,-0.0248311371699,0.0686707875095,-0.99732787269
162164000000,,366,,162,160006079,"""map""",,,0.0267944186926,0.010428134352,0.0528297685087,,0.00214957093357,-0.0248689613323,0.0686731055861,-0.997326903313
162200000000,,367,,162,192006079,"""map""",,,0.0269970092922,0.0100575061515,0.0531659163535,,0.00214199240338,-0.0249180755817,0.0686667835589,-0.997326144669
162232000000,,368,,162,224006079,"""map""",,,0.0267752651125,0.00962990708649,0.0530361384153,,0.00210560781931,-0.0249358971132,0.0686844852352,-0.997324543089
162264000000,,369,,162,256006075,"""map""",,,0.0266877692193,0.00923232734203,0.0530304163694,,0.00214173425393,-0.0250177133657,0.0686861711092,-0.997322351453
162300000000,,370,,162,296006075,"""map""",,,0.0267450921237,0.00879002176225,0.0530694201589,,0.00212502039432,-0.0250391450382,0.0687039570792,-0.997320665579
162332000000,,371,,162,328006075,"""map""",,,0.0269294083118,0.00846454873681,0.0532652065158,,0.00209543989211,-0.0250524041733,0.0686754236628,-0.997322309306
162364000000,,372,,162,360006071,"""map""",,,0.0271714255214,0.00815076753497,0.0535123609006,,0.00204552748676,-0.0250533998926,0.0686672471742,-0.997322899362
162400000000,,373,,162,392006071,"""map""",,,0.0274918228388,0.00786123983562,0.0538108088076,,0.00201901711905,-0.0250759958718,0.0685927736929,-0.997327577662
162432000000,,374,,162,424006071,"""map""",,,0.0271218139678,0.00748194986954,0.0536903552711,,0.00201801086304,-0.0251072056131,0.0686043219294,-0.997325891788
162464000000,,375,,162,456006067,"""map""",,,0.0268929358572,0.00711062550545,0.0536853149533,,0.00201998913074,-0.025085365643,0.0685617536124,-0.99732934783
162500000000,,376,,162,496006067,"""map""",,,0.0267899092287,0.00670290738344,0.0538269542158,,0.00202723707159,-0.0251079787444,0.0685524813057,-0.997329516417
162532000000,,377,,162,528006067,"""map""",,,0.026828719303,0.00639454368502,0.0540058128536,,0.0019517296754,-0.0250779135534,0.0685503318164,-0.997330570088
162564000000,,378,,162,560006063,"""map""",,,0.0269631724805,0.00608551548794,0.054240167141,,0.00195315476571,-0.0251098318886,0.0685121889185,-0.997332382403
162600000000,,379,,162,592006063,"""map""",,,0.0271743442863,0.00575287500396,0.0545413605869,,0.00190769675542,-0.0250569323254,0.0685352432447,-0.997332255962
162632000000,,380,,162,624006063,"""map""",,,0.0267812777311,0.00523979775608,0.0546403415501,,0.00193036649156,-0.025083337326,0.0685038438425,-0.997333646808
162664000000,,381,,162,656006059,"""map""",,,0.0264913160354,0.00474695581943,0.0549325346947,,0.00182568162239,-0.0250555414794,0.0684863529004,-0.997335712004
162700000000,,382,,162,696006059,"""map""",,,0.0262849889696,0.00416199536994,0.0552416667342,,0.00184265363145,-0.0250495697978,0.0684914105222,-0.997335459123
162732000000,,383,,162,728006059,"""map""",,,0.0262738596648,0.00370834954083,0.0554451607168,,0.00184217816232,-0.0249991345081,0.0684839926769,-0.997337229291
162764000000,,384,,162,760006055,"""map""",,,0.0263539161533,0.00326232728548,0.0555990375578,,0.00186941424608,-0.0249911121189,0.0684688198114,-0.997338493696
162800000000,,385,,162,792006055,"""map""",,,0.0265128910542,0.0028228117153,0.0557649284601,,0.00186251796799,-0.0250074624619,0.068433037137,-0.997340558892
162832000000,,386,,162,824006055,"""map""",,,0.0260836184025,0.00259690405801,0.0556215308607,,0.0018172746432,-0.0250460123403,0.068402986434,-0.997341696856
162864000000,,387,,162,856006050,"""map""",,,0.0257620289922,0.0023650736548,0.0555196888745,,0.00177729967448,-0.0250013696081,0.06840049977,-0.997343087702
162900000000,,388,,162,896006050,"""map""",,,0.0255288463086,0.00202589575201,0.0555289164186,,0.00175113701827,-0.0249860623996,0.0684147032579,-0.997342539793
162932000000,,389,,162,928006050,"""map""",,,0.0254273153841,0.00172920362093,0.0556039065123,,0.0017641788337,-0.0249724884802,0.0684284009837,-0.997341907591
162964000000,,390,,162,960006046,"""map""",,,0.0254078321159,0.00141311774496,0.0557798743248,,0.00175599707673,-0.02496781018,0.0684756476009,-0.997338746577
163000000000,,391,,162,992006046,"""map""",,,0.0254649110138,0.0010830181418,0.0558975189924,,0.00175424534834,-0.0248885345921,0.0684885866834,-0.997339968836
163032000000,,392,,163,24006046,"""map""",,,0.0246662981808,0.000797243323177,0.0556062757969,,0.00171938858754,-0.0248784838859,0.0685081428211,-0.997338873018
163064000000,,393,,163,56006042,"""map""",,,0.0240261871368,0.000496501219459,0.0554148741066,,0.00171268592153,-0.0248327321647,0.0685722481776,-0.99733562771
163100000000,,394,,163,96006042,"""map""",,,0.02345129475,0.000110138367745,0.0551988892257,,0.00190466218232,-0.0248444200126,0.0685483509145,-0.997336597088
163132000000,,395,,163,128006042,"""map""",,,0.0231454689056,-0.000215982290683,0.0552118048072,,0.00191377380414,-0.0248753926779,0.0685457799568,-0.997335964885
163164000000,,396,,163,160006037,"""map""",,,0.0229236986488,-0.000570890144445,0.0553550235927,,0.00186591737474,-0.0248899926097,0.0685360440348,-0.9973364285
163200000000,,397,,163,192006037,"""map""",,,0.0227654576302,-0.000955078634433,0.0555977635086,,0.00178212548863,-0.0248335224181,0.0685632708989,-0.997336091326
163232000000,,398,,163,224006037,"""map""",,,0.0223264787346,-0.00111202220432,0.0549900792539,,0.00172816171747,-0.024873366995,0.0685923522244,-0.99733322534
163264000000,,399,,163,256006033,"""map""",,,0.0219823122025,-0.00127966341097,0.0542986653745,,0.0017021860879,-0.0248807927429,0.0685963983218,-0.997332719578
163300000000,,400,,163,296006033,"""map""",,,0.0216774959117,-0.00150083960034,0.0534074082971,,0.00164812090088,-0.0248979978767,0.0685900341477,-0.997332930312
163332000000,,401,,163,328006033,"""map""",,,0.0215223375708,-0.00173351843841,0.0527817346156,,0.00158704353194,-0.0249316165739,0.0686003601256,-0.997331455172
163364000000,,402,,163,360006029,"""map""",,,0.0214309357107,-0.00200976873748,0.0520527139306,,0.0014966609324,-0.0249277114049,0.0686754236628,-0.997326523991
163400000000,,403,,163,392006029,"""map""",,,0.0214218162,-0.00233291648328,0.0513616912067,,0.00150928391353,-0.0248925582991,0.068636985737,-0.997329980033
163432000000,,404,,163,424006029,"""map""",,,0.0211030039936,-0.00257389736362,0.0501926988363,,0.00149243307666,-0.0248416106618,0.0685780644427,-0.997335374829
163464000000,,405,,163,456006024,"""map""",,,0.0208620522171,-0.00282173533924,0.0490972772241,,0.00145559014562,-0.0249090653757,0.0685955553849,-0.997332466697
163500000000,,406,,163,496006024,"""map""",,,0.020663164556,-0.00313388742507,0.0477737560868,,0.00141313904954,-0.024889331431,0.0686277134303,-0.99733082297
163532000000,,407,,163,528006024,"""map""",,,0.0206150449812,-0.00339001580141,0.0467532686889,,0.00142040542964,-0.0248838536578,0.0686158701659,-0.997331792347
163564000000,,408,,163,560006020,"""map""",,,0.0206579584628,-0.00368034280837,0.0458929017186,,0.00144864381815,-0.0248995428221,0.0686116133342,-0.997331665907
163600000000,,409,,163,592006020,"""map""",,,0.0207551755011,-0.00401904201135,0.0451796352863,,0.00140567115482,-0.0248961829281,0.0686187361516,-0.997331286585
163632000000,,410,,163,624006020,"""map""",,,0.0205207578838,-0.00430072424933,0.044590588659,,0.00143906989809,-0.0249119089709,0.0686226979553,-0.997330527942
163664000000,,411,,163,656006015,"""map""",,,0.0203498229384,-0.00458692479879,0.0441116169095,,0.00164280117835,-0.0248887453264,0.0686293150105,-0.997330401501
163700000000,,412,,163,696006015,"""map""",,,0.0202787127346,-0.0050066546537,0.0437162593007,,0.00167863390212,-0.0249378648441,0.0686571319305,-0.997327198341
163732000000,,413,,163,728006015,"""map""",,,0.0203072596341,-0.00538509292528,0.0434242635965,,0.00164859768711,-0.0249469698805,0.0686387980514,-0.997328252012
163764000000,,414,,163,760006010,"""map""",,,0.0204149223864,-0.00580312870443,0.0431222058833,,0.00163367901982,-0.0250003554496,0.0686382079956,-0.9973270719
163800000000,,415,,163,792006010,"""map""",,,0.0205849930644,-0.00627083564177,0.0428312793374,,0.00160146038831,-0.0249537199617,0.0686081994394,-0.997330275061
163832000000,,416,,163,824006010,"""map""",,,0.0201643966138,-0.00657547870651,0.0427328124642,,0.00162188448768,-0.0249715230539,0.0686161651938,-0.997329305683
163864000000,,417,,163,856006006,"""map""",,,0.0198370870203,-0.00689995801076,0.0424957163632,,0.00161723384637,-0.0250088085269,0.0686167552497,-0.997328294159
163900000000,,418,,163,896006006,"""map""",,,0.0195855405182,-0.00736621348187,0.0421861112118,,0.00159156509854,-0.0250489257412,0.0685738497579,-0.997330232914
163932000000,,419,,163,928006006,"""map""",,,0.0194903928787,-0.0077881985344,0.0419468581676,,0.00161647256892,-0.0250923541174,0.0685736390236,-0.997329094949
163964000000,,420,,163,960006001,"""map""",,,0.0194823741913,-0.00824885629117,0.0416977368295,,0.00159691247994,-0.025074208582,0.0685269824623,-0.997332846018
164000000000,,421,,163,992006001,"""map""",,,0.0195475015789,-0.00876193214208,0.0416163019836,,0.00158991346891,-0.0250385971292,0.0685135376177,-0.997334742626
164032000000,,422,,164,24006001,"""map""",,,0.019248386845,-0.0092885652557,0.0419331043959,,0.00163048771314,-0.0250104878154,0.0685145069952,-0.997335290535
164064000000,,423,,164,56005996,"""map""",,,0.0190708190203,-0.00987183954567,0.0423322208226,,0.00160477023301,-0.0251070014643,0.0684760690693,-0.997335459123
164100000000,,424,,164,96005996,"""map""",,,0.0189759917557,-0.0106321163476,0.0427980720997,,0.00170642974871,-0.0250320340746,0.0684874065716,-0.997336512794
164132000000,,425,,164,128005996,"""map""",,,0.0190503820777,-0.0112814363092,0.0431882068515,,0.00168949725232,-0.0250207123774,0.0685062883597,-0.99733550127
164164000000,,426,,164,160005992,"""map""",,,0.0192000698298,-0.0119553310797,0.0436325892806,,0.00168892958695,-0.024999532269,0.0684979854306,-0.997336639235
164200000000,,427,,164,192005992,"""map""",,,0.0194230489433,-0.0126541955397,0.0441024526954,,0.00170833557651,-0.0250242592981,0.0684578194839,-0.99733870443
164232000000,,428,,164,224005992,"""map""",,,0.0187569539994,-0.0129837319255,0.0444958768785,,0.00168235862985,-0.0250271107959,0.068454194855,-0.997338957311
164264000000,,429,,164,256005987,"""map""",,,0.0182179659605,-0.0133727388456,0.0450393669307,,0.00164312518224,-0.0251255816391,0.0684695363078,-0.997335416976
164300000000,,430,,164,296005987,"""map""",,,0.0176915079355,-0.0139039233327,0.0456371568143,,0.00147402412348,-0.0250766333429,0.0684633407211,-0.997337397878
164332000000,,431,,164,328005987,"""map""",,,0.0173752885312,-0.0143427243456,0.0461694821715,,0.0014469948227,-0.0250872648854,0.0684504437855,-0.997337987934
164364000000,,432,,164,360005982,"""map""",,,0.0171275790781,-0.0148316184059,0.0467444099486,,0.0013906379008,-0.0250796165495,0.0684479149745,-0.997338493696
164400000000,,433,,164,392005982,"""map""",,,0.0169507805258,-0.0153616443276,0.047343865037,,0.00141601425487,-0.0251084489451,0.0684638464833,-0.997336639235
164432000000,,434,,164,424005982,"""map""",,,0.0166878346354,-0.0156006291509,0.0473359264433,,0.00148301720729,-0.0250908921486,0.0684488843521,-0.997337945787
164464000000,,435,,164,456005977,"""map""",,,0.0165431965142,-0.0158935617656,0.0474390797317,,0.00153055358405,-0.0251651180171,0.0684046301611,-0.997339041605
164500000000,,436,,164,496005977,"""map""",,,0.0164566617459,-0.0163339450955,0.0474873222411,,0.00157043767363,-0.0251639379054,0.0683765182132,-0.997340938213
164532000000,,437,,164,528005977,"""map""",,,0.0164571460336,-0.0167313218117,0.047303404659,,0.00155958617723,-0.0251944192965,0.0683650964172,-0.99734098036
164564000000,,438,,164,560005972,"""map""",,,0.0164945907891,-0.0171435475349,0.0471636988223,,0.00149592204546,-0.0252120116545,0.0683825452125,-0.997339463073
164600000000,,439,,164,592005972,"""map""",,,0.0165842548013,-0.0175917949528,0.0470892824233,,0.00151690327349,-0.025222835492,0.0683534217402,-0.997341191094
164632000000,,440,,164,624005972,"""map""",,,0.0160981249064,-0.0177844688296,0.0466618128121,,0.00151150320852,-0.025164464741,0.0683819130098,-0.997340685332
164664000000,,441,,164,656005967,"""map""",,,0.0157229676843,-0.0180448293686,0.0461729615927,,0.00154061350995,-0.0252059161665,0.0683468468318,-0.997341949738
164700000000,,442,,164,696005967,"""map""",,,0.0154065368697,-0.0184711609036,0.0455522276461,,0.00158547224475,-0.0252163330235,0.0683277543094,-0.997342919115
164732000000,,443,,164,728005967,"""map""",,,0.0152657628059,-0.0188529286534,0.0450872555375,,0.00157920553521,-0.0252457014744,0.068364885683,-0.997339673808
164764000000,,444,,164,760005962,"""map""",,,0.0151954013854,-0.0192703288049,0.0445848032832,,0.00160692499064,-0.0252216988442,0.0683886565055,-0.997338662283
164800000000,,445,,164,792005962,"""map""",,,0.015181931667,-0.0196975469589,0.04410078004,,0.00161322331032,-0.0251904258826,0.0683650964172,-0.99734098036
164832000000,,446,,164,824005962,"""map""",,,0.0146548226476,-0.0199670810252,0.0437003970146,,0.00162876232653,-0.0251932945025,0.0683178076532,-0.997344183521
164864000000,,447,,164,856005957,"""map""",,,0.0141875045374,-0.0202788673341,0.0433840379119,,0.00165046005097,-0.0252093814277,0.0682983358092,-0.997345110751
164900000000,,448,,164,896005957,"""map""",,,0.0137340184301,-0.0207803808153,0.0429951027036,,0.00156625855018,-0.0252113913055,0.0683015389697,-0.99734485787
164932000000,,449,,164,928005957,"""map""",,,0.0135254841298,-0.0212534107268,0.0426771007478,,0.00177126740679,-0.0252237653568,0.0683183977091,-0.997343087702
164964000000,,450,,164,960005952,"""map""",,,0.0133882565424,-0.0217641703784,0.0423979125917,,0.00173143336659,-0.0252521538935,0.0682975771659,-0.997343930639
165000000000,,451,,164,992005952,"""map""",,,0.0133325625211,-0.0223255641758,0.0420775823295,,0.001695410982,-0.0252878628109,0.0682031682252,-0.997349578317
165032000000,,452,,165,24005952,"""map""",,,0.0132128652185,-0.0224441774189,0.0415682159364,,0.00174093484675,-0.0253242381753,0.0681747191025,-0.997350379107
165064000000,,453,,165,56005947,"""map""",,,0.0131873954087,-0.0226388983428,0.0411785244942,,0.00167090390668,-0.0253701084345,0.0680778234978,-0.997355984638
165100000000,,454,,165,96005947,"""map""",,,0.0132593652233,-0.0229908451438,0.0408027172089,,0.0017024732133,-0.0254293497813,0.0680995712716,-0.997352950065
165132000000,,455,,165,128005947,"""map""",,,0.0133573682979,-0.0233311168849,0.0405811071396,,0.00169541361618,-0.0254251377307,0.0681423924697,-0.997350252667
165164000000,,456,,165,160005942,"""map""",,,0.0134892053902,-0.0237362980843,0.0403713695705,,0.00168643370327,-0.0254159655228,0.0681919571635,-0.997346965213
165200000000,,457,,165,192005942,"""map""",,,0.0136437993497,-0.0242085736245,0.0402194336057,,0.00161895264753,-0.0254572101653,0.0681202653742,-0.997350969163
165232000000,,458,,165,224005942,"""map""",,,0.0132037457079,-0.0243192929775,0.0400461219251,,0.00163795297368,-0.025414681361,0.0680859156927,-0.997354467352
165264000000,,459,,165,256005937,"""map""",,,0.012871065177,-0.0244746655226,0.0399684235454,,0.00165866946681,-0.0253746563429,0.068060501143,-0.997357122603
165300000000,,460,,165,296005937,"""map""",,,0.0125750293955,-0.0247686579823,0.0400462672114,,0.00163189963256,-0.0253214419954,0.068070532093,-0.997357881246
165332000000,,461,,165,328005937,"""map""",,,0.0124537479132,-0.0251067019999,0.0403588525951,,0.00161947026352,-0.0252947037712,0.0681060197394,-0.997356111079
165364000000,,462,,165,360005931,"""map""",,,0.0123819438741,-0.0254962686449,0.040677998215,,0.0015920972025,-0.0253013458511,0.0681054296835,-0.997356026785
165400000000,,463,,165,392005931,"""map""",,,0.0123520707712,-0.0259422753006,0.0409805513918,,0.00158485584709,-0.0253477706048,0.0680517345985,-0.997358555596
165432000000,,464,,165,424005931,"""map""",,,0.0119596160948,-0.0258860010654,0.0414956063032,,0.00160344260728,-0.0253346971792,0.0680511445427,-0.997358892771
165464000000,,465,,165,456005926,"""map""",,,0.0116667943075,-0.025921151042,0.0418702587485,,0.00156585815512,-0.0253002473989,0.0680386269287,-0.997360620791
165500000000,,466,,165,496005926,"""map""",,,0.0113734584302,-0.0261003747582,0.0422764346004,,0.00152616767763,-0.0252737989344,0.0680040665129,-0.997363739658
165532000000,,467,,165,528005926,"""map""",,,0.0112149491906,-0.0263062100857,0.0425977557898,,0.00150684466467,-0.0252622283074,0.0679640270068,-0.997366774231
165564000000,,468,,165,560005921,"""map""",,,0.0111300786957,-0.0265594590455,0.0430610477924,,0.00170397601187,-0.0253080287608,0.0678909443715,-0.997370314567
165600000000,,469,,165,592005921,"""map""",,,0.0111156087369,-0.0268639344722,0.0437536537647,,0.00167729969094,-0.0253293181877,0.0679123128237,-0.997368249371
165632000000,,470,,165,624005921,"""map""",,,0.0108690252528,-0.0269428882748,0.0440593659878,,0.00165017555975,-0.0253149540149,0.0678713460869,-0.997371452531
165664000000,,471,,165,656005915,"""map""",,,0.0107303895056,-0.0270790290087,0.0443585775793,,0.001701166661,-0.0253237324132,0.0678833579387,-0.99737039886
165700000000,,472,,165,696005915,"""map""",,,0.0106410561129,-0.0273277573287,0.044698882848,,0.00167500927314,-0.0253174288251,0.0678058920312,-0.997375877951
165732000000,,473,,165,728005915,"""map""",,,0.0106086460873,-0.0275609176606,0.0448083505034,,0.00167339979037,-0.0253199708069,0.0677870945367,-0.997377058062
165764000000,,474,,165,760005910,"""map""",,,0.0106153897941,-0.0278237052262,0.0449179150164,,0.00170144851805,-0.0253861914085,0.0677810675374,-0.997375835804
165800000000,,475,,165,792005910,"""map""",,,0.0106810228899,-0.0281531773508,0.044977389276,,0.00168901124647,-0.0253542085359,0.0677846921664,-0.997376341566
165832000000,,476,,165,824005910,"""map""",,,0.0103864725679,-0.027965625748,0.0448238924146,,0.00170315809959,-0.0253500662909,0.0678247316725,-0.997373728461
165864000000,,477,,165,856005905,"""map""",,,0.0101299071684,-0.0278749447316,0.0447583720088,,0.00174555519502,-0.0254026998022,0.0677899183756,-0.997374655692
165900000000,,478,,165,896005905,"""map""",,,0.0098863998428,-0.0278689078987,0.0446789748967,,0.00179184823975,-0.0253415578959,0.0677921943054,-0.997376004391
165932000000,,479,,165,928017899,"""map""",,,0.00977829471231,-0.0279209911823,0.0447187423706,,0.00181579686933,-0.0253712859121,0.0677965354308,-0.997374866426
165964000000,,480,,165,960017899,"""map""",,,0.00974417850375,-0.0280173141509,0.044853631407,,0.00177446925018,-0.0253422335626,0.0677906770189,-0.997376088685
166000000000,,481,,165,992017899,"""map""",,,0.00974015705287,-0.0280947797,0.0450575985014,,0.00182762564578,-0.025316657011,0.0677947231163,-0.997376341566
166032000000,,482,,166,24017899,"""map""",,,0.00947850383818,-0.0276851411909,0.0447588823736,,0.00183263190113,-0.0253491561824,0.0677840178168,-0.997376257272
166064000000,,483,,166,56017893,"""map""",,,0.00929673481733,-0.0273724365979,0.0445097759366,,0.00178234412541,-0.0252613524432,0.0677840178168,-0.997378533202
166100000000,,484,,166,96017893,"""map""",,,0.00915324222296,-0.0270448382944,0.0442581549287,,0.00175477218395,-0.0252794439779,0.0677403536817,-0.9973812306
166132000000,,485,,166,128017893,"""map""",,,0.00909465923905,-0.0268202070147,0.0441022180021,,0.00176007478433,-0.0252930416049,0.0677150655726,-0.9973825793
166164000000,,486,,166,160017888,"""map""",,,0.00909211393446,-0.0266729742289,0.0440235137939,,0.00178568162898,-0.0253192437738,0.0677229048865,-0.9973812306
166200000000,,487,,166,192017888,"""map""",,,0.00915948115289,-0.0265858191997,0.0438354536891,,0.00195403458118,-0.0253014340961,0.0677256444316,-0.997381188454
166232000000,,488,,166,224017888,"""map""",,,0.00877573527396,-0.0262568108737,0.043527238071,,0.001952448806,-0.025320563497,0.0677134218455,-0.997381609922
166264000000,,489,,166,256017882,"""map""",,,0.00849025510252,-0.0260291378945,0.0432550534606,,0.0018837771018,-0.0252928927738,0.0677409015908,-0.997380514104
166300000000,,490,,166,296017882,"""map""",,,0.00825425703079,-0.0258393809199,0.0428914315999,,0.00188324499783,-0.025310842063,0.0677991906823,-0.997376088685
166332000000,,491,,166,328017882,"""map""",,,0.00812964513898,-0.0257780086249,0.04260674119,,0.00188541424344,-0.0253071423599,0.0677866309214,-0.997377015916
166364000000,,492,,166,360017876,"""map""",,,0.00805625319481,-0.0257578436285,0.0424183011055,,0.0018645436509,-0.0253306471305,0.067789539054,-0.997376299419
166400000000,,493,,166,392017876,"""map""",,,0.0080087762326,-0.0257688369602,0.042299002409,,0.00182654299861,-0.0253434992851,0.0677933744172,-0.997375835804
166432000000,,494,,166,424017876,"""map""",,,0.00767237786204,-0.0255166646093,0.042084980756,,0.00182431053273,-0.025351250354,0.0677840178168,-0.997376341566
166464000000,,495,,166,456017870,"""map""",,,0.00741103664041,-0.0253202300519,0.0419333912432,,0.00175641722813,-0.0253623744878,0.0677725960209,-0.997376805181
166500000000,,496,,166,496017870,"""map""",,,0.0071779396385,-0.0251451767981,0.0417800098658,,0.00177241064005,-0.0253973840309,0.0677217247747,-0.997379376139
166532000000,,497,,166,528017870,"""map""",,,0.0070437323302,-0.0250635351986,0.0417316146195,,0.00171122131855,-0.0254121828431,0.0677583082392,-0.997376678741
166564000000,,498,,166,560017863,"""map""",,,0.00696403067559,-0.0250334665179,0.04170018062,,0.00179216434111,-0.0253819345768,0.0677039388046,-0.997380893426
166600000000,,499,,166,592017863,"""map""",,,0.00693597644567,-0.0250432994217,0.0417079031467,,0.00174304877462,-0.0253425338589,0.0677296062354,-0.997380345517
166632000000,,500,,166,624017863,"""map""",,,0.00665303366259,-0.0246578212827,0.0416688881814,,0.00176273793832,-0.0253294512137,0.0677306599066,-0.997380556251
166664000000,,501,,166,656017857,"""map""",,,0.00641896435991,-0.0243647843599,0.0416537076235,,0.00174184363817,-0.0254094169562,0.0676459025942,-0.997384223027
166700000000,,502,,166,696017857,"""map""",,,0.0061913668178,-0.0241260621697,0.041581813246,,0.00177222888177,-0.0251955085291,0.0676950879664,-0.997386288222
166732000000,,503,,166,728017857,"""map""",,,0.00607015891001,-0.0240261163563,0.0416091755033,,0.00175670567063,-0.0252273267655,0.0676429944617,-0.997389069914
166764000000,,504,,166,760017850,"""map""",,,0.00599517067894,-0.0239965543151,0.0417314171791,,0.00171000827956,-0.0252555849104,0.0675627047153,-0.997393916802
166800000000,,505,,166,792017850,"""map""",,,0.00597441568971,-0.0240296777338,0.0418763123453,,0.00166781006458,-0.0252580702573,0.0675343820331,-0.997395855557
166832000000,,506,,166,824017850,"""map""",,,0.00598568981513,-0.0241243727505,0.0419157631695,,0.00170337541928,-0.0253045174015,0.0675443708362,-0.997393874655
166864000000,,507,,166,856017844,"""map""",,,0.00605295458809,-0.0242676939815,0.0418375581503,,0.00168245477735,-0.0253749632246,0.0675639269739,-0.997390840082
166900000000,,508,,166,896017844,"""map""",,,0.00619476754218,-0.0245185922831,0.0417752116919,,0.00170974881303,-0.025356488417,0.0675847053702,-0.997389870704
166932000000,,509,,166,928017844,"""map""",,,0.00602848362178,-0.0242070630193,0.0416742451489,,0.00171847584485,-0.0253618226275,0.0675804063916,-0.997389954998
166964000000,,510,,166,960017837,"""map""",,,0.00593959121034,-0.0239908881485,0.0415667407215,,0.00172032635492,-0.025378653708,0.0676153882759,-0.9973872576
167000000000,,511,,166,992017837,"""map""",,,0.00590398721397,-0.0238567329943,0.0414002537727,,0.0017059147669,-0.0253882078717,0.0676190971986,-0.997386667544
167032000000,,512,,167,24017837,"""map""",,,0.00590995978564,-0.0237492881715,0.041211143136,,0.00170310409894,-0.0254058674013,0.0676231011492,-0.997386035341
167064000000,,513,,167,56017830,"""map""",,,0.00595351401716,-0.0236926991493,0.0408850200474,,0.00160244688799,-0.0253753636197,0.0675695746516,-0.997390502907
167100000000,,514,,167,96017830,"""map""",,,0.00609285896644,-0.0236789602786,0.0405632592738,,0.00159553217065,-0.0254419530061,0.0675363629349,-0.997391177257
167132000000,,515,,167,128017830,"""map""",,,0.00598174054176,-0.023429799825,0.0398664586246,,0.00157145051508,-0.0254327228463,0.0675836095521,-0.997388269124
167164000000,,516,,167,160017822,"""map""",,,0.00591562921181,-0.0232427716255,0.0393103770912,,0.00159429674116,-0.0251708407689,0.0675904373416,-0.99739433827
167200000000,,517,,167,192017822,"""map""",,,0.00591885205358,-0.0231110714376,0.0388140752912,,0.00162986341294,-0.0251680195642,0.0675753487698,-0.997395349795
167232000000,,518,,167,224017822,"""map""",,,0.0059720100835,-0.0230549387634,0.0382904447615,,0.0016478548489,-0.0251860689521,0.0675932611804,-0.997393621774
167264000000,,519,,167,256017815,"""map""",,,0.0060349823907,-0.0230554640293,0.0378067046404,,0.0016544745383,-0.0251702032978,0.0676084761927,-0.997393073865
167300000000,,520,,167,296017815,"""map""",,,0.00611515436321,-0.0231243874878,0.0371719077229,,0.00163718379369,-0.0252243251197,0.0676019012844,-0.997392230928
167332000000,,521,,167,328017815,"""map""",,,0.0059921448119,-0.0229653958231,0.0367152653635,,0.00161166387692,-0.0252870238252,0.0676190971986,-0.997389449236
167364000000,,522,,167,360017808,"""map""",,,0.00590581586584,-0.0228944979608,0.0363523960114,,0.00159229871712,-0.0253890284182,0.0676163998003,-0.997387004719
167400000000,,523,,167,392017808,"""map""",,,0.00588414352387,-0.0228799078614,0.0360600873828,,0.00151681634561,-0.0253783889731,0.0675943569985,-0.997388901327
167432000000,,524,,167,424017808,"""map""",,,0.00589391030371,-0.022909514606,0.0358018502593,,0.00147746172582,-0.0254250165585,0.067606748172,-0.997386962572
167464000000,,525,,167,464017800,"""map""",,,0.00594619242474,-0.0230046696961,0.0355161242187,,0.00146192534378,-0.0254592397995,0.0676297603512,-0.997384518055
167500000000,,526,,167,496017800,"""map""",,,0.00602405332029,-0.0231647547334,0.0353493802249,,0.00147523979665,-0.0254801564901,0.0676115529127,-0.997385276698
167532000000,,527,,167,528017800,"""map""",,,0.00595901533961,-0.0231002885848,0.035204641521,,0.00144699218852,-0.025472845329,0.0676060316755,-0.997385908901
167564000000,,528,,167,560017792,"""map""",,,0.00593062583357,-0.023125750944,0.0351432897151,,0.00138420128677,-0.0254265812602,0.0675977287464,-0.997387721215
167600000000,,529,,167,592017792,"""map""",,,0.0059430594556,-0.0232303850353,0.0350965484977,,0.00133669652015,-0.0254140004259,0.0676822753245,-0.997382326418
167632000000,,530,,167,624017792,"""map""",,,0.00597801571712,-0.0234098341316,0.0350887477398,,0.00133692437655,-0.0254081354286,0.0677052032101,-0.997380977719
167664000000,,531,,167,656017785,"""map""",,,0.0060438523069,-0.0236753113568,0.035163834691,,0.00127026650145,-0.025386806489,0.0676653744382,-0.997384223027
167700000000,,532,,167,696017785,"""map""",,,0.00621025171131,-0.0240494962782,0.0352888405323,,0.00130009461639,-0.0254213524168,0.0677038123641,-0.997380682691
167732000000,,533,,167,728017785,"""map""",,,0.00600088760257,-0.0242232456803,0.0355297960341,,0.00131109494385,-0.0254108420465,0.0676580408866,-0.997384054439
167764000000,,534,,167,760017777,"""map""",,,0.00582382129505,-0.0244473088533,0.0356740355492,,0.00129133070608,-0.0254305114539,0.0676968581341,-0.997380977719
167800000000,,535,,167,792017777,"""map""",,,0.00569261284545,-0.0247315950692,0.0358705706894,,0.00120209924234,-0.0254038838652,0.0676255035195,-0.997386667544
167832000000,,536,,167,824017777,"""map""",,,0.0056012654677,-0.02508135885,0.0361104570329,,0.00123667678027,-0.0253815499868,0.0675954106697,-0.997389196355
167864000000,,537,,167,856017768,"""map""",,,0.00553986802697,-0.0254862643778,0.0363007821143,,0.00114727804623,-0.0253569994475,0.067613702402,-0.997388690593
167900000000,,538,,167,896017768,"""map""",,,0.0055414037779,-0.0260470435023,0.0364473573864,,0.00120820131575,-0.0253877245001,0.0675911116912,-0.997389280648
167932000000,,539,,167,928017768,"""map""",,,0.00539568345994,-0.0260408539325,0.0358955040574,,0.00123158491414,-0.0254003790913,0.0675860119225,-0.997389407089
167964000000,,540,,167,960017760,"""map""",,,0.00529447710142,-0.0261180251837,0.0354026295245,,0.00121190233588,-0.0253602210472,0.0676238597925,-0.997387805509
168000000000,,541,,167,992017760,"""map""",,,0.00520848017186,-0.0262897983193,0.03488490358,,0.00119738538075,-0.025370871029,0.0676580830334,-0.997385192404
168032000000,,542,,168,24017760,"""map""",,,0.00516106793657,-0.0265496950597,0.0343650430441,,0.00116381409882,-0.0253734274988,0.0676945400574,-0.997382790034
168064000000,,543,,168,56017752,"""map""",,,0.00517529528588,-0.0269214902073,0.033882252872,,0.001183170039,-0.025352375148,0.0676988811828,-0.997383000768
168100000000,,544,,168,96017752,"""map""",,,0.00524263735861,-0.0274189729244,0.0333246402442,,0.00121748284204,-0.0253459740954,0.0676565657469,-0.997386035341
168132000000,,545,,168,128017752,"""map""",,,0.00476367818192,-0.0271744988859,0.0328624732792,,0.00122287632156,-0.0253178450252,0.0675999203825,-0.997390502907
168164000000,,546,,168,160017743,"""map""",,,0.00436101434752,-0.0270524471998,0.032298732549,,0.00119010582976,-0.0253042987647,0.0675560455132,-0.997393832508
168200000000,,547,,168,192017743,"""map""",,,0.00400171102956,-0.0270599294454,0.0316817574203,,0.00118152236064,-0.0253033544119,0.0675728199589,-0.99739273669
168232000000,,548,,168,224017743,"""map""",,,0.00368241756223,-0.0271777063608,0.0310980826616,,0.00120906532614,-0.0252714940286,0.0675751801824,-0.997393326746
168264000000,,549,,168,256017735,"""map""",,,0.00343080679886,-0.0273997876793,0.0305062774569,,0.00119777392201,-0.0252562276498,0.0676383161615,-0.99738953353
168300000000,,550,,168,296017735,"""map""",,,0.00317230238579,-0.0278049111366,0.0297830272466,,0.00116659315665,-0.0252640327193,0.0676738459548,-0.997386962572
168332000000,,551,,168,328017735,"""map""",,,0.00288253789768,-0.027678353712,0.0291287787259,,0.00114121548549,-0.0252691693665,0.067689103114,-0.99738578246
168364000000,,552,,168,360017726,"""map""",,,0.00261395866983,-0.0276958104223,0.0284720156342,,0.00121309298435,-0.0252026181756,0.0676555963694,-0.997389702117
168400000000,,553,,168,392017726,"""map""",,,0.00237908191048,-0.0278365146369,0.027808830142,,0.00124256943653,-0.0252460610397,0.0676528568242,-0.997388648446
168432000000,,554,,168,424017726,"""map""",,,0.00216359342448,-0.0280389562249,0.0270672496408,,0.00116539855691,-0.0252549803665,0.0675968015157,-0.997392441662
168464000000,,555,,168,456017717,"""map""",,,0.00201724888757,-0.0283423103392,0.0266370493919,,0.00133409658643,-0.0253100109798,0.0675946941733,-0.997391008669
168500000000,,556,,168,496017717,"""map""",,,0.0019108747365,-0.0288717802614,0.0260040368885,,0.00132713840516,-0.025370795955,0.0675707126165,-0.997391050816
168532000000,,557,,168,528017717,"""map""",,,0.00190241704695,-0.0287552271038,0.0257122144103,,0.00131295467354,-0.0254257172498,0.06759701225,-0.997387763362
168564000000,,558,,168,560017708,"""map""",,,0.00191661319695,-0.0287731327116,0.0254542957991,,0.0012520814534,-0.0254067195579,0.0676341436235,-0.997385951047
168600000000,,559,,168,592017708,"""map""",,,0.001918116468,-0.0289034843445,0.0251984931529,,0.00130639425316,-0.0254003698717,0.0676052730323,-0.997387931949
168632000000,,560,,168,624017708,"""map""",,,0.0019393414259,-0.0291416272521,0.0248898640275,,0.00127588652028,-0.0253752016177,0.0675849161044,-0.997389997145
168664000000,,561,,168,656017699,"""map""",,,0.00199142843485,-0.0294968243688,0.0245891306549,,0.00130005115245,-0.0253783297041,0.0675214850974,-0.997394253977
168700000000,,562,,168,696017699,"""map""",,,0.00208328105509,-0.0301110427827,0.0241581965238,,0.00126748612654,-0.0253359207549,0.067536067907,-0.997394253977
168732000000,,563,,168,728017699,"""map""",,,0.00184471567627,-0.0300565119833,0.0237747654319,,0.00124076634167,-0.0253487004696,0.0675308416978,-0.997394422564
168764000000,,564,,168,760017689,"""map""",,,0.00163383688778,-0.0301321987063,0.0233931131661,,0.00122545254768,-0.0253468025444,0.0675909009569,-0.997390418613
168800000000,,565,,168,792017689,"""map""",,,0.00144949997775,-0.0303107779473,0.0228382200003,,0.00120818814486,-0.0253340610252,0.0675496391922,-0.997393579627
168832000000,,566,,168,824017689,"""map""",,,0.00130095495842,-0.0306108817458,0.0223007202148,,0.00120937484206,-0.0253043066673,0.0675711762318,-0.997392778837
168864000000,,567,,168,856017680,"""map""",,,0.00118177616969,-0.0310401227325,0.0218388605863,,0.00118135377325,-0.0253138226354,0.0674875147375,-0.997398300074
168900000000,,568,,168,896017680,"""map""",,,0.00107790599577,-0.0317672565579,0.0216100886464,,0.00120050029627,-0.0252894103905,0.0674890741709,-0.997398847983
168932000000,,569,,168,928017680,"""map""",,,0.00109677785076,-0.0319371782243,0.0212091729045,,0.00125482626691,-0.0252670686095,0.0674916029818,-0.997399100864
168964000000,,570,,168,960017670,"""map""",,,0.00114136713091,-0.0322438403964,0.0207943413407,,0.00123538471595,-0.0253006293547,0.0674397623582,-0.997401713969
169000000000,,571,,168,992017670,"""map""",,,0.00120435003191,-0.032679785043,0.0203126538545,,0.00116351907088,-0.025313905612,0.0674124512003,-0.997403399843
169032000000,,572,,169,24017670,"""map""",,,0.00127557525411,-0.0332297831774,0.0199739020318,,0.00101706535775,-0.0253136487796,0.0674315015759,-0.997402219731
169064000000,,573,,169,56017661,"""map""",,,0.00138173357118,-0.0338806882501,0.0196664556861,,0.00100383256441,-0.0253292602358,0.0674378236031,-0.997401376794
169100000000,,574,,169,96017661,"""map""",,,0.00154407601804,-0.0348795801401,0.019269792363,,0.00095049309344,-0.0253282776873,0.0674435134277,-0.997401081766
169132000000,,575,,169,128017661,"""map""",,,0.00172372115776,-0.0349624790251,0.0191595535725,,0.000975135828928,-0.0253109843086,0.0674032210405,-0.997404284926
169164000000,,576,,169,160017651,"""map""",,,0.00191152642947,-0.035179246217,0.0191861465573,,0.000939380813412,-0.0253667801505,0.067357449563,-0.9974059708
169200000000,,577,,169,192017651,"""map""",,,0.00210754503496,-0.0355395115912,0.0192605871707,,0.00101329058063,-0.0253973234448,0.0673712737293,-0.997404200633
169232000000,,578,,169,224017651,"""map""",,,0.00234207883477,-0.0360376872122,0.0194467138499,,0.000998587915947,-0.0254703204694,0.0674239994368,-0.997398847983
169264000000,,579,,169,256017641,"""map""",,,0.00259977253154,-0.036687027663,0.019683951512,,0.00100460964693,-0.0254318825435,0.0673520547664,-0.997404622101
169300000000,,580,,169,296017641,"""map""",,,0.00292977760546,-0.0376548916101,0.0197812076658,,0.00105353423551,-0.0254868262289,0.0673507482141,-0.997403231255
169332000000,,581,,169,328017641,"""map""",,,0.00303058512509,-0.0376569516957,0.0200544632971,,0.00104493759551,-0.0255073820372,0.0673609056046,-0.997402008997
169364000000,,582,,169,360017631,"""map""",,,0.00315576046705,-0.0378621667624,0.0203414503485,,0.00107665178192,-0.0254685292283,0.0673043866807,-0.997406771591
169400000000,,583,,169,392017631,"""map""",,,0.00327626988292,-0.0382367558777,0.0205738637596,,0.0010319524149,-0.0254158245942,0.0672780870473,-0.997409974751
169432000000,,584,,169,424017631,"""map""",,,0.00341489585117,-0.0387621112168,0.0207540392876,,0.00102880193797,-0.0254103929191,0.0672798572149,-0.997409974751
169464000000,,585,,169,456017620,"""map""",,,0.00356147740968,-0.0394164696336,0.0208270195872,,0.00105791092231,-0.0254437218567,0.0672464769109,-0.997411407744
169500000000,,586,,169,496017620,"""map""",,,0.00374404084869,-0.0404146611691,0.0207359138876,,0.000968541164225,-0.0254344916969,0.0671887357284,-0.997415538135
169532000000,,587,,169,528017620,"""map""",,,0.00356891355477,-0.0406573675573,0.0206972640008,,0.000951500666537,-0.0254673952147,0.0671952684899,-0.997414315876
169564000000,,588,,169,560017610,"""map""",,,0.00343821081333,-0.0410455018282,0.0205445066094,,0.000926273143525,-0.0255386866089,0.0671739000378,-0.997414020848
169600000000,,589,,169,592017610,"""map""",,,0.00337684340775,-0.0415510721505,0.0202744919807,,0.000903002814791,-0.0255986958187,0.0671681680664,-0.997412840737
169632000000,,590,,169,624017610,"""map""",,,0.00336512504146,-0.0422036871314,0.0200487356633,,0.000904740055203,-0.0256330599882,0.0671380752165,-0.997414020848
169664000000,,591,,169,656017600,"""map""",,,0.0034026671201,-0.0429808646441,0.0197510011494,,0.000842146716808,-0.0255697817635,0.0671121549047,-0.997417434743
169700000000,,592,,169,696017600,"""map""",,,0.00352274184115,-0.0441545620561,0.0193521939218,,0.0010860676513,-0.0256256434599,0.0671754594711,-0.997411534184
169732000000,,593,,169,728017600,"""map""",,,0.00346332951449,-0.0444678887725,0.0185881759971,,0.0010505022966,-0.0256642381194,0.0671993567343,-0.997408878933
169764000000,,594,,169,760017589,"""map""",,,0.00346279097721,-0.0449840389192,0.017915379256,,0.000967997206462,-0.0256049954554,0.0672092612437,-0.99740984831
169800000000,,595,,169,792017589,"""map""",,,0.0035246561747,-0.045661251992,0.0170842520893,,0.000976423941986,-0.0255836902235,0.0672323155698,-0.997408878933
169832000000,,596,,169,824017589,"""map""",,,0.0036415650975,-0.0465043485165,0.0161789674312,,0.000951052856271,-0.0256127596952,0.0672212309486,-0.997408836786
169864000000,,597,,169,856017578,"""map""",,,0.00380423222668,-0.0474823862314,0.0152149954811,,0.000959994573601,-0.0255949750422,0.0671959849864,-0.997410986275
169900000000,,598,,169,896017578,"""map""",,,0.00409180251881,-0.0489188916981,0.0140727497637,,0.00095966135008,-0.0256898462811,0.0672126751384,-0.99740744594
169932000000,,599,,169,928017578,"""map""",,,0.00434584636241,-0.0490752197802,0.0129973441362,,0.000914607686111,-0.0257382190094,0.0672071117544,-0.997406687297
169964000000,,600,,169,960017567,"""map""",,,0.00463068345562,-0.0494078956544,0.0119787110016,,0.000874453593281,-0.0256722605086,0.0671626046824,-0.99741132345
170000000000,,601,,169,992017567,"""map""",,,0.00494985841215,-0.0499240532517,0.0110582998022,,0.000946202017426,-0.025743347754,0.0671436807474,-0.997410691247
170032000000,,602,,170,24017567,"""map""",,,0.00525696249679,-0.0506277158856,0.0102180857211,,0.000864010394473,-0.0257129835838,0.0671363050489,-0.997412166387
170064000000,,603,,170,56017556,"""map""",,,0.00556276226416,-0.0514851771295,0.00946901459247,,0.000862439107277,-0.0257310026787,0.0671223122952,-0.997412587856
170100000000,,604,,170,96017556,"""map""",,,0.00599303422496,-0.0527147911489,0.00854390859604,,0.00088698306109,-0.0257479918099,0.0671807278272,-0.997408204583
170132000000,,605,,170,128017556,"""map""",,,0.00613063015044,-0.0526500679553,0.00820896029472,,0.000861006114428,-0.0257974182094,0.0671940040845,-0.997406055094
170164000000,,606,,170,160017545,"""map""",,,0.00631712656468,-0.0528577156365,0.00800104532391,,0.000877677827192,-0.0258113872555,0.0672227060883,-0.997403737017
170200000000,,607,,170,192017545,"""map""",,,0.00651985360309,-0.0533093735576,0.00782664027065,,0.000905310354747,-0.0258076994062,0.0671336497974,-0.99740984831
170232000000,,608,,170,224017545,"""map""",,,0.0067582228221,-0.053947918117,0.00752023933455,,0.00115116082465,-0.0258405344354,0.0671447344186,-0.997407867409
170264000000,,609,,170,256017534,"""map""",,,0.00706749456003,-0.0547742657363,0.00726467184722,,0.00118708574464,-0.0258940846406,0.0671317110424,-0.997407403793
170300000000,,610,,170,296017534,"""map""",,,0.00750635610893,-0.05602780357,0.00695029366761,,0.00117909628267,-0.0259504376113,0.0671134193101,-0.997407150912
