rosbagTimestamp,header,seq,stamp,secs,nsecs,frame_id,pose,position,x,y,z,orientation,x,y,z,w
97612000000,,72,,97,612000000,"""map""",,,0.00853025447577,0.00397250987589,0.0484870374203,,0.0111127864484,-0.0188729682463,0.0518801152655,-0.998413196186
97644000000,,73,,97,644000000,"""map""",,,0.00969051476568,0.00458036456257,0.0470581464469,,0.0111368964214,-0.0188979804252,0.0519236108131,-0.998410161613
97676000000,,74,,97,676000000,"""map""",,,0.0110485814512,0.00524450745434,0.0458986796439,,0.0110739194808,-0.0189474387642,0.0519724590105,-0.998407337774
97712000000,,75,,97,712000000,"""map""",,,0.0126275951043,0.00595146836713,0.0449684262276,,0.0110831901411,-0.0189586830824,0.0519913829455,-0.998406031222
97744000000,,76,,97,744000000,"""map""",,,0.0137760266662,0.00641252938658,0.0439188927412,,0.0111348269453,-0.0189550884172,0.0520142265374,-0.998404345348
97776000000,,77,,97,776000000,"""map""",,,0.0145754264668,0.00661039352417,0.042774092406,,0.0111950100108,-0.01896539859,0.0520261119487,-0.998402912355
97812000000,,78,,97,812000000,"""map""",,,0.0158981923014,0.0069494987838,0.0416538193822,,0.01112861259,-0.0189841700719,0.0520253533054,-0.998403333824
97844000000,,79,,97,844000000,"""map""",,,0.0172059182078,0.00727706542239,0.0409805774689,,0.011005896443,-0.0189309731758,0.0520910180954,-0.998402238006
97876000000,,80,,97,876000000,"""map""",,,0.0187267065048,0.00764048937708,0.0405784063041,,0.0109401565789,-0.0189363798262,0.0521222489101,-0.998401268628
97912000000,,81,,97,912000000,"""map""",,,0.02042719163,0.00801675580442,0.0401637479663,,0.0108398059204,-0.0189193040964,0.0521394869712,-0.998401732243
97944000000,,82,,97,944000000,"""map""",,,0.0216327067465,0.00823877844959,0.0394408516586,,0.0107569310576,-0.0189796909814,0.0521936878184,-0.99839869767
97976000000,,83,,97,976000000,"""map""",,,0.0223825462162,0.00830946676433,0.0384785979986,,0.0106827094695,-0.0189149201656,0.0522238649619,-0.998399119139
98012000000,,84,,98,12000000,"""map""",,,0.0236494969577,0.00844027288258,0.0375032871962,,0.0106440212968,-0.0189131447296,0.0522287539963,-0.998399287726
98044000000,,85,,98,44000000,"""map""",,,0.0249346066266,0.00862294528633,0.0367816314101,,0.0105447387975,-0.0188473274866,0.0522209568294,-0.998402027271
98076000000,,86,,98,76000000,"""map""",,,0.0264503657818,0.00884387642145,0.0361729264259,,0.0104715837222,-0.01879258795,0.0523001086109,-0.998399667048
98112000000,,87,,98,112000000,"""map""",,,0.0281485654414,0.00910964794457,0.0357038490474,,0.0104675557348,-0.0187879126133,0.0522752419702,-0.998401184334
98144000000,,88,,98,144000000,"""map""",,,0.0292244907469,0.00937426276505,0.0351555012167,,0.01039739572,-0.0187090202983,0.0522803417389,-0.998403080942
98176000000,,89,,98,176000000,"""map""",,,0.0297002568841,0.00964504852891,0.0344963409007,,0.0103839446191,-0.018630614977,0.0523466387316,-0.998401184334
98212000000,,90,,98,212000000,"""map""",,,0.0306157767773,0.0100530451164,0.0339258722961,,0.0103775458714,-0.0185920035247,0.0523612636881,-0.998401226481
98244000000,,91,,98,244000000,"""map""",,,0.0316186770797,0.010418866761,0.0336247123778,,0.0103750832442,-0.0185504042559,0.0523572597374,-0.998402280152
98276000000,,92,,98,276000000,"""map""",,,0.0328329764307,0.010816866532,0.0333451703191,,0.0103902146214,-0.0182453526104,0.0523373664249,-0.998408770767
98312000000,,93,,98,312000000,"""map""",,,0.034308321774,0.0112542975694,0.0334828235209,,0.0103559554897,-0.0182429044712,0.0523382936556,-0.998409107942
98344000000,,94,,98,344000000,"""map""",,,0.0351654440165,0.0113825229928,0.0334236584604,,0.0103803463319,-0.0181809634211,0.0523154079169,-0.998411173137
98376000000,,95,,98,376000000,"""map""",,,0.0354189164937,0.0112170213833,0.0330583006144,,0.0103846644083,-0.0180760566225,0.0522465821133,-0.998416694375
98412000000,,96,,98,412000000,"""map""",,,0.036024235189,0.0110857803375,0.0327975228429,,0.0103639074147,-0.0180046911419,0.0521951629581,-0.998420824766
98444000000,,97,,98,444000000,"""map""",,,0.0367758274078,0.0110543761402,0.0325999781489,,0.0102891573446,-0.0179310184507,0.0521313947763,-0.998426261709
98476000000,,98,,98,476000000,"""map""",,,0.0377719737589,0.0110466210172,0.0324290953577,,0.0102708626489,-0.0177938255198,0.0521294560212,-0.998428959107
98512000000,,99,,98,512000000,"""map""",,,0.0389842987061,0.0110855232924,0.0324205756187,,0.0102839107205,-0.0177539378082,0.0521228811129,-0.998429970632
98544000000,,100,,98,544000000,"""map""",,,0.0394803285599,0.0110284239054,0.0324273407459,,0.0101350622103,-0.0176678387114,0.0520543081903,-0.998436587687
98576000000,,101,,98,572000000,"""map""",,,0.0393249504268,0.0108986338601,0.0325677320361,,0.0100247708225,-0.017501765311,0.0520355528428,-0.998441603162
98612000000,,102,,98,612000000,"""map""",,,0.0394886024296,0.010801140219,0.0328092090786,,0.00998106585766,-0.017404583898,0.0520515686452,-0.998442867567
98644000000,,103,,98,644000000,"""map""",,,0.0398950651288,0.0107712643221,0.0330107137561,,0.00994311097421,-0.0172882101931,0.0520326868571,-0.998446239315
98676000000,,104,,98,676000000,"""map""",,,0.040521223098,0.0108143398538,0.0333031378686,,0.00992533290667,-0.0171803300659,0.0520215600891,-0.99844885242
98712000000,,105,,98,712000000,"""map""",,,0.0413644053042,0.010904321447,0.0337391197681,,0.00993005071953,-0.0171852507105,0.052009885412,-0.998449316035
98744000000,,106,,98,744000000,"""map""",,,0.0415160171688,0.0110456114635,0.0339704826474,,0.00988942049902,-0.017094580327,0.05194451565,-0.998454668685
98776000000,,107,,98,776000000,"""map""",,,0.0410248041153,0.0112227760255,0.0339419133961,,0.00994045144222,-0.0169679827186,0.0518860158242,-0.998459389132
98812000000,,108,,98,812000000,"""map""",,,0.040762796998,0.0114951534197,0.0339482761919,,0.00996371452696,-0.0168821183929,0.0518171900206,-0.99846423602
98844000000,,109,,98,844000000,"""map""",,,0.0408151298761,0.0117684556171,0.0338841900229,,0.00991464670494,-0.0166810420349,0.051679917735,-0.998475152053
98876000000,,110,,98,876000000,"""map""",,,0.0411078818142,0.0120913684368,0.0337890647352,,0.00988919824025,-0.0165608757721,0.0515394422889,-0.998484719388
98912000000,,111,,98,912000000,"""map""",,,0.0416348464787,0.0124668581411,0.0338330827653,,0.00991338065313,-0.0165026966576,0.0514844406516,-0.99848830187
98944000000,,112,,98,944000000,"""map""",,,0.0413916297257,0.0126368552446,0.0336636267602,,0.00990552388787,-0.0163832515011,0.0514267837629,-0.998493275198
98976000000,,113,,98,976000000,"""map""",,,0.0403928048909,0.0125887813047,0.0332989729941,,0.00991505994162,-0.0161644537103,0.0513767133068,-0.998499344344
99012000000,,114,,99,12000000,"""map""",,,0.0394928827882,0.0126090226695,0.0329344682395,,0.00990287258769,-0.0161302953359,0.0513753646077,-0.998500102988
99044000000,,115,,99,44000000,"""map""",,,0.0390453748405,0.012668822892,0.0328310988843,,0.00985415412353,-0.0159159437084,0.0513220488443,-0.998506720043
99076000000,,116,,99,76000000,"""map""",,,0.0388384908438,0.0127528812736,0.0329794511199,,0.00984660424002,-0.0157986019431,0.0512646869835,-0.998511651224
99112000000,,117,,99,112000000,"""map""",,,0.0388210304081,0.0128726568073,0.0332359261811,,0.00976418805339,-0.0156757787825,0.0512429392097,-0.998515528734
99144000000,,118,,99,144000000,"""map""",,,0.0381737649441,0.0129988351837,0.0330333635211,,0.00971720287838,-0.0155854100124,0.0511772744197,-0.99852067065
99176000000,,119,,99,176000000,"""map""",,,0.036967728287,0.013116998598,0.0324943251908,,0.00968250219262,-0.0153990952587,0.0511163300767,-0.998527076971
99212000000,,120,,99,212000000,"""map""",,,0.0358474776149,0.0133756296709,0.0320899039507,,0.0096851334072,-0.015346599054,0.0510260093804,-0.998532513914
99244000000,,121,,99,244000000,"""map""",,,0.0351942069829,0.0136479167268,0.0319147184491,,0.00961189963592,-0.0152067884086,0.0509640113662,-0.99853845662
99276000000,,122,,99,276000000,"""map""",,,0.0347697325051,0.0139834880829,0.0318490043283,,0.00965470799239,-0.0151071002459,0.0509176498329,-0.998541912661
99312000000,,123,,99,312000000,"""map""",,,0.0345548018813,0.0143879754469,0.0317181758583,,0.00962895067032,-0.0150391888313,0.050859740063,-0.998546127346
99344000000,,124,,99,344000000,"""map""",,,0.0337449535728,0.0143542448059,0.0310131795704,,0.00980423809619,-0.0149565270076,0.0507489781451,-0.998551353556
99376000000,,125,,99,376000000,"""map""",,,0.0323891416192,0.0139385117218,0.0299053415656,,0.00973748374432,-0.014799010076,0.0506182807679,-0.998561005184
99412000000,,126,,99,412000000,"""map""",,,0.0310193039477,0.013453701511,0.0287726819515,,0.00967582800867,-0.0147055311648,0.0505573364249,-0.998566062806
99444000000,,127,,99,444000000,"""map""",,,0.0301736909896,0.0131323225796,0.028245696798,,0.009623798712,-0.0146343441499,0.0504465323602,-0.998573185623
99476000000,,128,,99,476000000,"""map""",,,0.029546296224,0.0128355361521,0.0280466396362,,0.00953992944691,-0.0145156951737,0.0503760628295,-0.998579254769
99512000000,,129,,99,512000000,"""map""",,,0.0291437469423,0.0125788468868,0.0280929319561,,0.00951317014937,-0.0144625651199,0.0503275939537,-0.998582795105
99544000000,,130,,99,544000000,"""map""",,,0.0283139199018,0.0122224641964,0.0280602201819,,0.00946588945251,-0.0143641020146,0.0501981188351,-0.998591140181
99576000000,,131,,99,576000000,"""map""",,,0.0271271802485,0.0117730144411,0.0279825571924,,0.00942522531696,-0.0142893575422,0.050109947628,-0.998597040739
99612000000,,132,,99,612000000,"""map""",,,0.0259999204427,0.0113307088614,0.0279153157026,,0.00938234913041,-0.0141998004282,0.0500806555683,-0.998600201753
99644000000,,133,,99,644000000,"""map""",,,0.025349477306,0.0110553922132,0.0281001199037,,0.00922599732869,-0.0140774878043,0.0499409387655,-0.998610359143
99676000000,,134,,99,676000000,"""map""",,,0.0249283574522,0.0108375549316,0.0282590314746,,0.00910485082245,-0.0139790307905,0.0498092720107,-0.998619462863
99712000000,,135,,99,708000000,"""map""",,,0.0246988963336,0.0106575815007,0.0284822974354,,0.0090946010711,-0.013983408959,0.0497250626074,-0.998623677548
99744000000,,136,,99,744000000,"""map""",,,0.0240040831268,0.0103869987652,0.028502272442,,0.00909159596787,-0.0138993255024,0.0496659305789,-0.998627850086
99776000000,,137,,99,776000000,"""map""",,,0.0228883251548,0.0100162522867,0.0281540099531,,0.00902955465441,-0.0137234689294,0.049543493984,-0.998636911658
99812000000,,138,,99,812000000,"""map""",,,0.0218405537307,0.00957833603024,0.027878459543,,0.00901908692482,-0.0136826439444,0.0495376355721,-0.998637796742
99844000000,,139,,99,844000000,"""map""",,,0.0212643295527,0.00924901571125,0.0277632828802,,0.00896320448423,-0.0135661879214,0.0494681354189,-0.998643402273
99876000000,,140,,99,876000000,"""map""",,,0.0209017582238,0.00896932557225,0.027652092278,,0.00889494535816,-0.0135236087384,0.0493755809395,-0.998649134244
99912000000,,141,,99,912000000,"""map""",,,0.0207216218114,0.00869685225189,0.0277604926378,,0.00884937341967,-0.0134394184329,0.0493414841391,-0.998652379551
99944000000,,142,,99,944000000,"""map""",,,0.0200657323003,0.00832433253527,0.0277540795505,,0.00884477694364,-0.0134912615261,0.0492375078638,-0.998656804971
99976000000,,143,,99,976000000,"""map""",,,0.0189749151468,0.00783799309283,0.0275636687875,,0.0087938200867,-0.0133824660221,0.0491276310298,-0.998664180669
100012000000,,144,,100,12000000,"""map""",,,0.0179440211505,0.00729755917564,0.0273262131959,,0.00879827184757,-0.0133381907577,0.0490639471417,-0.998667847445
100044000000,,145,,100,44000000,"""map""",,,0.0173667967319,0.00692234467715,0.0272300038487,,0.00875467685969,-0.0132347064152,0.0489698332289,-0.998674211619
100076000000,,146,,100,76000000,"""map""",,,0.0170398820192,0.00655300263315,0.0272347088903,,0.00898371452366,-0.0131898662843,0.0488381243273,-0.998679227094
100112000000,,147,,100,112000000,"""map""",,,0.0169113464653,0.00618129037321,0.0272804964334,,0.00891545819641,-0.0131950919996,0.0487842185081,-0.998682472401
100144000000,,148,,100,144000000,"""map""",,,0.0163292549551,0.005642761942,0.0272475294769,,0.00887930525537,-0.0131327806829,0.0486350186644,-0.998690817477
100176000000,,149,,100,176000000,"""map""",,,0.0153336562216,0.00494592124596,0.0272149052471,,0.00878874287318,-0.0130402676919,0.0485180611597,-0.998698530351
100212000000,,150,,100,212000000,"""map""",,,0.0144166294485,0.00415616249666,0.0271333269775,,0.00878234643037,-0.0130222387189,0.0484611207674,-0.998701607071
100244000000,,151,,100,244000000,"""map""",,,0.0139407338575,0.00356207508594,0.027211619541,,0.00879457181525,-0.0129990406654,0.0483501059684,-0.998707170455
100276000000,,152,,100,276000000,"""map""",,,0.0136762708426,0.00298758363351,0.0274379774928,,0.00868707627813,-0.0129364894738,0.0482582258387,-0.998713408188
100312000000,,153,,100,312000000,"""map""",,,0.0135829914361,0.00245600077324,0.0276885740459,,0.0087116278052,-0.012886121685,0.0481823615114,-0.998717454286
100344000000,,154,,100,344000000,"""map""",,,0.0131887514144,0.00196315092035,0.0278696659952,,0.00866378290033,-0.0128027094498,0.0480337517235,-0.998726136536
100376000000,,155,,100,376000000,"""map""",,,0.0125154200941,0.00148551922757,0.0279604289681,,0.00866948671895,-0.012758429411,0.0479376569089,-0.998731194158
100412000000,,156,,100,412000000,"""map""",,,0.0119468048215,0.000892343872692,0.0281580965966,,0.00866026380312,-0.0126508502387,0.0478802107544,-0.99873545099
100444000000,,157,,100,444000000,"""map""",,,0.011705907993,0.000398289877921,0.0284544862807,,0.00871445888804,-0.0126443061173,0.0476993586274,-0.998743753919
100476000000,,158,,100,476000000,"""map""",,,0.0116408467293,-7.90788180893e-05,0.0287020690739,,0.00864920502983,-0.0126554355195,0.0475380204913,-0.998751846114
100512000000,,159,,100,512000000,"""map""",,,0.0117251966149,-0.000503110117279,0.0289352051914,,0.00868208681566,-0.0126130680585,0.0474296187969,-0.998757240911
100544000000,,160,,100,544000000,"""map""",,,0.0111966738477,-0.000885472807568,0.0289048943669,,0.00859702509111,-0.012570157463,0.0473082780201,-0.998764279434
100576000000,,161,,100,576000000,"""map""",,,0.0101267229766,-0.00122662109789,0.0286404732615,,0.00855640194995,-0.0125322017564,0.047175599741,-0.998771360105
100576000000,,162,,100,576000000,"""map""",,,0.00905986130238,-0.00167709740344,0.0284401718527,,0.00852440360158,-0.0124849956397,0.0471528404428,-0.99877329886
100644000000,,163,,100,644000000,"""map""",,,0.00839987397194,-0.00205475813709,0.0284018404782,,0.00856562272552,-0.012456844673,0.0469731684276,-0.998781770376
100676000000,,164,,100,676000000,"""map""",,,0.0078999530524,-0.0024408234749,0.0284468270838,,0.00860010823186,-0.012213339774,0.0468801503329,-0.9987888089
100712000000,,165,,100,712000000,"""map""",,,0.00758626731113,-0.00279596331529,0.0287546776235,,0.00858162091189,-0.0121738172253,0.0468752612985,-0.998789736131
100744000000,,166,,100,744000000,"""map""",,,0.00699976179749,-0.00290095480159,0.0286847390234,,0.00857959918025,-0.0121186707082,0.0467575872974,-0.998795973864
100772000000,,167,,100,772000000,"""map""",,,0.00616942998022,-0.00275453692302,0.0283432304859,,0.00856660889592,-0.0120760021279,0.0465995366155,-0.998803897472
100812000000,,168,,100,812000000,"""map""",,,0.00542106479406,-0.00260246056132,0.0279903095216,,0.00856862601775,-0.0120814976818,0.0465311322804,-0.998807058485
100844000000,,169,,100,844000000,"""map""",,,0.00502086058259,-0.00249542668462,0.0276868194342,,0.00854830909649,-0.0120368768462,0.0463794036258,-0.998814897799
100876000000,,170,,100,876000000,"""map""",,,0.00476385420188,-0.00243022479117,0.0273930095136,,0.00851873896636,-0.0120436284091,0.0462602966319,-0.998820461183
100912000000,,171,,100,912000000,"""map""",,,0.00466095516458,-0.00241415994242,0.0270079486072,,0.00850501242927,-0.0120517704888,0.0462219851466,-0.998822273498
100944000000,,172,,100,944000000,"""map""",,,0.00424384325743,-0.00242833094671,0.0261735133827,,0.00856376184337,-0.0119928419506,0.0460911613288,-0.998828595525
100976000000,,173,,100,976000000,"""map""",,,0.00353078078479,-0.00245498982258,0.0249387435615,,0.00859846664504,-0.0118636188899,0.0459455018203,-0.998836519133
101012000000,,174,,101,12000000,"""map""",,,0.00290430779569,-0.00251074135303,0.0235260110348,,0.00860428620285,-0.0118338599221,0.0458891514839,-0.998839427265
101044000000,,175,,101,44000000,"""map""",,,0.00258754892275,-0.00255315029062,0.0226550679654,,0.00859250220743,-0.0117777308566,0.0457477488071,-0.998846634376
101076000000,,176,,101,76000000,"""map""",,,0.00244508078322,-0.0026141286362,0.0220212060958,,0.00861016041986,-0.011789115774,0.0456012042148,-0.998853082844
101112000000,,177,,101,112000000,"""map""",,,0.00241626636125,-0.00269260210916,0.0214650202543,,0.00859312947107,-0.0117293156522,0.0455409342215,-0.998856707473
101144000000,,178,,101,144000000,"""map""",,,0.0019329530187,-0.00279809604399,0.0205863341689,,0.00862617638693,-0.0117279539468,0.045438390939,-0.998861048598
101176000000,,179,,101,176000000,"""map""",,,0.00104970252141,-0.002972681541,0.0195616222918,,0.00853923731662,-0.0116602338394,0.0453142684702,-0.99886825571
101212000000,,180,,101,212000000,"""map""",,,0.000173589767655,-0.00321285706013,0.0183463394642,,0.00856281732591,-0.0115999623643,0.0452422395061,-0.998872006779
101244000000,,181,,101,244000000,"""map""",,,-0.000361026643077,-0.00340711534955,0.0175096187741,,0.00848326893598,-0.0116046974639,0.0451765325693,-0.998875589261
101276000000,,182,,101,276000000,"""map""",,,-0.000761963543482,-0.00364891462959,0.0166454836726,,0.00847633841358,-0.0115961218973,0.0450573412817,-0.998881152645
101312000000,,183,,101,312000000,"""map""",,,-0.00103558250703,-0.00393767096102,0.0159317795187,,0.00851204963588,-0.0116200142214,0.04499437389,-0.998883428575
101344000000,,184,,101,344000000,"""map""",,,-0.0011711078696,-0.0041567729786,0.0153395887464,,0.00848198312783,-0.0115889401402,0.0448479135914,-0.998890635686
101376000000,,185,,101,376000000,"""map""",,,-0.00117792130914,-0.0042980844155,0.0147798163816,,0.00847753712922,-0.0116039636807,0.0446931082168,-0.998897421329
101412000000,,186,,101,412000000,"""map""",,,-0.00104436313268,-0.0044777719304,0.0141440397128,,0.00849069237895,-0.0115752325363,0.044602071024,-0.998901720307
101444000000,,187,,101,444000000,"""map""",,,-0.000834716833197,-0.00463464157656,0.0137733398005,,0.00853623287194,-0.0116110064849,0.044424590645,-0.998908843125
101476000000,,188,,101,476000000,"""map""",,,-0.000516924308613,-0.00481562316418,0.0133745633066,,0.00854892878688,-0.0115662605259,0.0443027441059,-0.998914617243
101512000000,,189,,101,512000000,"""map""",,,-0.000120023265481,-0.00500924326479,0.0129450149834,,0.00859892795546,-0.0115426768946,0.0442204313108,-0.998918115431
101544000000,,190,,101,544000000,"""map""",,,-3.73707298422e-05,-0.00518665835261,0.0123800132424,,0.00878498225476,-0.0115253759426,0.0440747718023,-0.998923173053
101576000000,,191,,101,576000000,"""map""",,,-0.000189284517546,-0.0053779440932,0.0121216624975,,0.00876027440569,-0.011503673526,0.0438996094999,-0.998931349542
101612000000,,192,,101,612000000,"""map""",,,-0.000179406430107,-0.00564526440576,0.0120520470664,,0.00876779942914,-0.0114692285201,0.0437913342461,-0.99893644931
101644000000,,193,,101,644000000,"""map""",,,-6.9459383667e-05,-0.00588875310495,0.01214620471,,0.0087484546019,-0.0114324956483,0.0436511538279,-0.998943108512
101676000000,,194,,101,676000000,"""map""",,,0.000150214400492,-0.00615443009883,0.0122609185055,,0.00882251970331,-0.011487143071,0.0435461238815,-0.99894648026
101708000000,,195,,101,712000000,"""map""",,,0.000441980140749,-0.00643708696589,0.012331883423,,0.00876560573507,-0.0114310837289,0.0434596385483,-0.998951369295
101744000000,,196,,101,744000000,"""map""",,,0.000496944179758,-0.00661562709138,0.0120890755206,,0.00877049765063,-0.011438334057,0.0433830998714,-0.998954572455
101776000000,,197,,101,776000000,"""map""",,,0.000373882649001,-0.00670685851946,0.0115423193201,,0.00869256409415,-0.0113738744858,0.043266648129,-0.998961020923
101812000000,,198,,101,812000000,"""map""",,,0.000399459095206,-0.00686666555703,0.0110012944788,,0.00873039912249,-0.0114140954209,0.0432098341772,-0.998962706797
101844000000,,199,,101,844000000,"""map""",,,0.000540917972103,-0.00701529392973,0.0106325186789,,0.00869859175203,-0.0113859528506,0.0430534272224,-0.998970082496
101876000000,,200,,101,876000000,"""map""",,,0.000790101010352,-0.00721540255472,0.0103870788589,,0.00870530783588,-0.0114479045197,0.0429095800284,-0.998975519439
101912000000,,201,,101,912000000,"""map""",,,0.00113197392784,-0.00744905648753,0.0103048533201,,0.00864606163226,-0.0114126008541,0.0428712685431,-0.998978006103
101944000000,,202,,101,944000000,"""map""",,,0.00101232260931,-0.00755567708984,0.0103068817407,,0.00866930175027,-0.0114298322474,0.0426924816117,-0.998985255361
101976000000,,203,,101,976000000,"""map""",,,0.000465215998702,-0.00750503037125,0.0102389780805,,0.00868578610712,-0.0113877634364,0.0425268866439,-0.998992715353
102012000000,,204,,102,12000000,"""map""",,,-5.31462137587e-06,-0.00746903987601,0.010276899673,,0.00867603528554,-0.011316268305,0.0424067681257,-0.998998700206
102044000000,,205,,102,44000000,"""map""",,,-0.000228983335546,-0.00745447073132,0.0103462059051,,0.00859791009261,-0.0112368182851,0.0422764922169,-0.999005823023
102076000000,,206,,102,76000000,"""map""",,,-0.00033264484955,-0.00748199783266,0.010411827825,,0.00863556904262,-0.0111731257536,0.0421742861093,-0.999010501323
102112000000,,207,,102,112000000,"""map""",,,-0.000322161969962,-0.00753596518189,0.0102677680552,,0.00858937560274,-0.0111160870735,0.0421106022212,-0.999014252393
102144000000,,208,,102,144000000,"""map""",,,-0.00022970806458,-0.00762858102098,0.0100923459977,,0.00856629822755,-0.0111566830497,0.0419815064242,-0.999019352161
102176000000,,209,,102,176000000,"""map""",,,-7.78598623583e-05,-0.00774135673419,0.00983536429703,,0.00857870520608,-0.0109458566109,0.0417877995084,-0.999029720286
102212000000,,210,,102,212000000,"""map""",,,0.000244820694206,-0.00788895320147,0.00978819373995,,0.00858835979784,-0.0109539076468,0.0417184257958,-0.999032501978
102244000000,,211,,102,244000000,"""map""",,,0.00022207236907,-0.00797853153199,0.00957283098251,,0.00864363728297,-0.0109892261296,0.0415465509476,-0.999038739712
102276000000,,212,,102,276000000,"""map""",,,-4.67795034638e-05,-0.00804119836539,0.00925878528506,,0.00861039041653,-0.0110744901097,0.0413495565776,-0.999046326144
102312000000,,213,,102,312000000,"""map""",,,-0.000239923901972,-0.00812278781086,0.00899870786816,,0.00859390400173,-0.0110391056077,0.0412910988987,-0.999049234277
102344000000,,214,,102,344000000,"""map""",,,-0.00035853299778,-0.00821845605969,0.00881592091173,,0.008640235489,-0.0110282235713,0.0411414775865,-0.999055134836
102376000000,,215,,102,376000000,"""map""",,,-0.0003914910194,-0.00833216682076,0.00863327179104,,0.00870540390106,-0.0110864848393,0.0410634216231,-0.999057157885
102412000000,,216,,102,412000000,"""map""",,,-0.000226125252084,-0.00852466654032,0.00852069072425,,0.00872780947853,-0.0111126693098,0.0409519432088,-0.999061246129
102444000000,,217,,102,444000000,"""map""",,,-0.000371814792743,-0.00854510720819,0.00844382867217,,0.00866757554047,-0.0110944350356,0.040818042671,-0.999067441716
102476000000,,218,,102,476000000,"""map""",,,-0.000773838488385,-0.00841904338449,0.00836155097932,,0.00869886290773,-0.0110264601538,0.0406366426351,-0.999075281029
102512000000,,219,,102,512000000,"""map""",,,-0.00107068114448,-0.00832610297948,0.00847919657826,,0.00868781977488,-0.0110335928493,0.0405805451797,-0.999077599106
102544000000,,220,,102,544000000,"""map""",,,-0.00126062065829,-0.00824763718992,0.00849839765579,,0.00865388637579,-0.0109929118386,0.0404615224795,-0.99908316249
102576000000,,221,,102,576000000,"""map""",,,-0.00136046367697,-0.00818829983473,0.00850057136267,,0.00866014403034,-0.0109174240341,0.0404016739546,-0.999086365651
102612000000,,222,,102,612000000,"""map""",,,-0.00139042211231,-0.00811307691038,0.00861403625458,,0.00865662690876,-0.0108624584521,0.0403814856142,-0.99908784079
102644000000,,223,,102,644000000,"""map""",,,-0.0017409484135,-0.00793462619185,0.00855216570199,,0.00866823655452,-0.0108595415938,0.0403070121328,-0.999090748923
102676000000,,224,,102,676000000,"""map""",,,-0.00232175528072,-0.00768707646057,0.00847001746297,,0.00867595749497,-0.0108492273051,0.0402028251233,-0.999094963608
102712000000,,225,,102,712000000,"""map""",,,-0.00279370229691,-0.00746247544885,0.00841156113893,,0.00870165497181,-0.0108449694033,0.0401918247959,-0.999095258636
102744000000,,226,,102,744000000,"""map""",,,-0.00316136842594,-0.00725567247719,0.00851844251156,,0.00869581639852,-0.0108448995152,0.040142260102,-0.999097281684
102776000000,,227,,102,776000000,"""map""",,,-0.00341703975573,-0.0070976279676,0.00872407853603,,0.00870468806318,-0.0108027068156,0.0400679552081,-0.999100695579
102812000000,,228,,102,812000000,"""map""",,,-0.0036137229763,-0.00689386948943,0.00879181548953,,0.00872100416191,-0.0108289010819,0.0400164939061,-0.999102255012
102844000000,,229,,102,844000000,"""map""",,,-0.00394072057679,-0.00674851657823,0.00919143483043,,0.00876023686865,-0.0108755768233,0.0398930457868,-0.99910642755
102876000000,,230,,102,876000000,"""map""",,,-0.0044253654778,-0.00662992149591,0.00988878123462,,0.00872095477107,-0.0108496524779,0.0398450826732,-0.999108956361
102912000000,,231,,102,912000000,"""map""",,,-0.00484258541837,-0.00655447272584,0.0104179345071,,0.0087121336497,-0.0108187185844,0.0398093842925,-0.999110768676
102944000000,,232,,102,944000000,"""map""",,,-0.00515660690144,-0.00650870706886,0.0108896261081,,0.00867606228587,-0.0107772660888,0.0397484820964,-0.999113929689
102976000000,,233,,102,976000000,"""map""",,,-0.00543166929856,-0.00650171376765,0.0113087687641,,0.00870704664033,-0.0106982237903,0.0396282371376,-0.999119282339
103012000000,,234,,103,12000000,"""map""",,,-0.00568833621219,-0.00649811187759,0.0117406398058,,0.00874056902533,-0.0107218380439,0.0396161409921,-0.999119240192
103044000000,,235,,103,44000000,"""map""",,,-0.00602849991992,-0.00634375447407,0.0119544696063,,0.00875641615805,-0.0106766975344,0.0395255252678,-0.999123201996
103076000000,,236,,103,76000000,"""map""",,,-0.00646792072803,-0.00604537548497,0.0121617419645,,0.00875426197665,-0.0105577019168,0.0394099586091,-0.999129018261
103112000000,,237,,103,112000000,"""map""",,,-0.00683348858729,-0.00577936507761,0.0125347916037,,0.00877244924728,-0.0105302752667,0.0393984525195,-0.99912956617
103144000000,,238,,103,144000000,"""map""",,,-0.00715354597196,-0.0055290539749,0.0129733411595,,0.00895231331052,-0.010516608081,0.0393375924702,-0.999130577695
103176000000,,239,,103,176000000,"""map""",,,-0.00741394981742,-0.00538193713874,0.0135821774602,,0.00894654009778,-0.0104889351353,0.0392506435218,-0.999134328764
103212000000,,240,,103,212000000,"""map""",,,-0.00765285268426,-0.00526068080217,0.014265560545,,0.00891827981267,-0.0104770176199,0.0392208878467,-0.999135846051
103244000000,,241,,103,244000000,"""map""",,,-0.00785104185343,-0.00515597499907,0.0146234771237,,0.00887766144596,-0.0104897308217,0.0391492382043,-0.999138880624
103276000000,,242,,103,276000000,"""map""",,,-0.00804433040321,-0.00508639588952,0.0147991189733,,0.00882387646963,-0.0104256455507,0.0390699599822,-0.999143137456
103312000000,,243,,103,312000000,"""map""",,,-0.0081285443157,-0.00503706838936,0.0149583537132,,0.00881700817969,-0.0104197367601,0.0390218282812,-0.999145160504
103344000000,,244,,103,344000000,"""map""",,,-0.00817156396806,-0.00500493403524,0.0150317577645,,0.00877075472994,-0.010407208527,0.0390051381292,-0.999146340616
103376000000,,245,,103,376000000,"""map""",,,-0.0081749688834,-0.00495849596336,0.0150988874957,,0.00874555470116,-0.0104328616344,0.0389685125178,-0.999147731462
103412000000,,246,,103,412000000,"""map""",,,-0.00813169591129,-0.0048864739947,0.0151907959953,,0.00875213290225,-0.0104244526796,0.0389125836499,-0.999149965245
103444000000,,247,,103,444000000,"""map""",,,-0.00817633420229,-0.0048113935627,0.0152149926871,,0.00867651898648,-0.0104527290991,0.0388196077021,-0.999153927049
103476000000,,248,,103,476000000,"""map""",,,-0.0083034215495,-0.00472062267363,0.015135999769,,0.0087116583452,-0.010495470531,0.038699994946,-0.999157804559
103512000000,,249,,103,512000000,"""map""",,,-0.00837750919163,-0.00464328518137,0.0150738181546,,0.00869290275066,-0.0104946647194,0.0386480278818,-0.999159954048
103544000000,,250,,103,544000000,"""map""",,,-0.00840165745467,-0.00457437103614,0.0150107322261,,0.00868530849771,-0.0105190215643,0.0385368444954,-0.999164084439
103576000000,,251,,103,576000000,"""map""",,,-0.00837520323694,-0.00449958536774,0.0148992929608,,0.00870017530462,-0.0105459051621,0.0384289907101,-0.999167835509
103612000000,,252,,103,612000000,"""map""",,,-0.00826164521277,-0.0043697101064,0.0146608054638,,0.00870213167571,-0.0105883360079,0.0383668662553,-0.999169774264
103644000000,,253,,103,644000000,"""map""",,,-0.00822383165359,-0.00430258130655,0.0142835443839,,0.0087059386392,-0.010575925819,0.0382968181931,-0.999172555956
103676000000,,254,,103,676000000,"""map""",,,-0.0082160141319,-0.00428471202031,0.0136684840545,,0.00866327285761,-0.0106032330256,0.0382554721347,-0.999174199683
103712000000,,255,,103,712000000,"""map""",,,-0.00817895121872,-0.00429436471313,0.0129659697413,,0.00866954211901,-0.0103928241863,0.0381667530186,-0.999179805214
103744000000,,256,,103,744000000,"""map""",,,-0.00804857071489,-0.00435862177983,0.0123765394092,,0.00867602334942,-0.0104529362936,0.0380221471814,-0.999184567808
103776000000,,257,,103,776000000,"""map""",,,-0.00787865463644,-0.00446065794677,0.0118318032473,,0.0087064791396,-0.0105323915818,0.0379833720807,-0.999184989276
103812000000,,258,,103,812000000,"""map""",,,-0.00760375708342,-0.00460496731102,0.0113246208057,,0.0087661960379,-0.0105031429037,0.037940466589,-0.999186337975
103844000000,,259,,103,844000000,"""map""",,,-0.00746320048347,-0.00462376512587,0.0107743768021,,0.0087944066029,-0.0105147295005,0.0378579009127,-0.999189161814
103876000000,,260,,103,876000000,"""map""",,,-0.00734929880127,-0.00457020057365,0.010064558126,,0.00882296051654,-0.0105364738992,0.0377529131131,-0.999192660003
103912000000,,261,,103,912000000,"""map""",,,-0.00715122092515,-0.00455072987825,0.00937104132026,,0.00879912795543,-0.0105452771576,0.0376394537969,-0.999197043275
103944000000,,262,,103,944000000,"""map""",,,-0.00691284658387,-0.00455542374402,0.00853840541095,,0.00879594002379,-0.0105637670294,0.0375065647835,-0.999201890162
103976000000,,263,,103,976000000,"""map""",,,-0.00666755903512,-0.00463170465082,0.00767699861899,,0.00880848142771,-0.0105509674761,0.0373872470554,-0.999206315581
104012000000,,264,,104,12000000,"""map""",,,-0.00634647812694,-0.00479585118592,0.00670404266566,,0.00880087565024,-0.010620398729,0.0373402111725,-0.999207411399
104044000000,,265,,104,44000000,"""map""",,,-0.00648177647963,-0.00484950747341,0.00603476120159,,0.00879270920443,-0.0105650446058,0.0372667913624,-0.999210867441
104076000000,,266,,104,76000000,"""map""",,,-0.00694400258362,-0.00483524380252,0.00546245276928,,0.00880092759294,-0.0106042914712,0.0372000307543,-0.999212806196
104112000000,,267,,104,112000000,"""map""",,,-0.00744333397597,-0.00485369283706,0.00475991982967,,0.00880621331811,-0.0105968167441,0.037183972805,-0.999213438399
104144000000,,268,,104,144000000,"""map""",,,-0.00770289916545,-0.00489597115666,0.00432886509225,,0.00872468410862,-0.0105535162079,0.0370760768729,-0.999218664608
104176000000,,269,,104,176000000,"""map""",,,-0.00798833742738,-0.0049768043682,0.00378533452749,,0.00871385417955,-0.0105711067549,0.0370391983804,-0.999219886867
104212000000,,270,,104,212000000,"""map""",,,-0.00831539556384,-0.00511040817946,0.0030252605211,,0.00866549034161,-0.010549560825,0.0370314855071,-0.999220856244
104244000000,,271,,104,244000000,"""map""",,,-0.00864152051508,-0.00514698494226,0.00259409379214,,0.00865823927267,-0.0105119136465,0.0369548203897,-0.999224101551
104276000000,,272,,104,276000000,"""map""",,,-0.00899370200932,-0.00511872535571,0.00227473862469,,0.00866201948278,-0.0104711324546,0.0368555645614,-0.999228189796
104312000000,,273,,104,312000000,"""map""",,,-0.00927898287773,-0.00510198064148,0.00204759789631,,0.00867063884257,-0.0104816201052,0.0368427519195,-0.999228526971
104344000000,,274,,104,344000000,"""map""",,,-0.00949558056891,-0.00511649111286,0.00183476018719,,0.00871837541687,-0.0104268450072,0.036811731839,-0.999229791376
104376000000,,275,,104,376000000,"""map""",,,-0.00965275708586,-0.00513413595036,0.00167774455622,,0.00875877613461,-0.0104190975603,0.0367359096585,-0.999232362334
104412000000,,276,,104,412000000,"""map""",,,-0.00978728756309,-0.00519760604948,0.00147703674156,,0.00869118880626,-0.0103801258018,0.0367236870725,-0.999233795327
104440000000,,277,,104,440000000,"""map""",,,-0.00975997466594,-0.00518258148804,0.00131864030845,,0.0086902985364,-0.0104185899871,0.0367051424591,-0.999234048208
104480000000,,278,,104,476000000,"""map""",,,-0.00962328445166,-0.00512704299763,0.00111705181189,,0.00866052475138,-0.0103708781083,0.0366429758576,-0.999237124928
104512000000,,279,,104,512000000,"""map""",,,-0.00947696808726,-0.0051448661834,0.000942185812164,,0.00871473308951,-0.010355211746,0.0366217338459,-0.999237546396
104544000000,,280,,104,544000000,"""map""",,,-0.00930977892131,-0.00522018270567,0.000802774738986,,0.00868900301472,-0.0103120672849,0.0365770160396,-0.999239864473
104576000000,,281,,104,576000000,"""map""",,,-0.00911982357502,-0.00531678553671,0.000628633191809,,0.00873121703477,-0.010354430136,0.0364802468755,-0.999242646165
104612000000,,282,,104,612000000,"""map""",,,-0.00885143410414,-0.00543571729213,0.000394448579755,,0.00873487113361,-0.010375778338,0.036452261368,-0.999243404808
104644000000,,283,,104,644000000,"""map""",,,-0.00862391944975,-0.0054461020045,0.000348640605807,,0.00895695004009,-0.0103819022256,0.0363492544703,-0.999245090682
104676000000,,284,,104,676000000,"""map""",,,-0.00835707318038,-0.00537370564416,0.000407443149015,,0.00897048996212,-0.0103245835818,0.0363089620831,-0.999247029437
104712000000,,285,,104,712000000,"""map""",,,-0.0080554196611,-0.0053734080866,0.000516018480994,,0.00895474556235,-0.0103363503728,0.0362738959051,-0.999248378136
104744000000,,286,,104,744000000,"""map""",,,-0.00773985125124,-0.0054157464765,0.000590026611462,,0.00901966990134,-0.0103842281225,0.0361745979301,-0.999250822653
104776000000,,287,,104,776000000,"""map""",,,-0.00738859316334,-0.00549974152818,0.000632600102108,,0.00899043941554,-0.0103911550229,0.0361135271466,-0.999253225024
104812000000,,288,,104,812000000,"""map""",,,-0.00690013822168,-0.00560947787017,0.000793623097707,,0.00896756717696,-0.0104303881413,0.0360911050232,-0.99925381508
104844000000,,289,,104,844000000,"""map""",,,-0.00647869193926,-0.00562461884692,0.000958459801041,,0.00896869304112,-0.010449989307,0.0360307085892,-0.999255795982
104876000000,,290,,104,876000000,"""map""",,,-0.00601901859045,-0.00556390313432,0.00101954536512,,0.00891840748798,-0.0104718915918,0.0359949680617,-0.999257313268
104912000000,,291,,104,912000000,"""map""",,,-0.00553542934358,-0.00551318423823,0.00110558199231,,0.00887235670531,-0.010445552528,0.0359719980293,-0.999258872702
104944000000,,292,,104,944000000,"""map""",,,-0.00503457384184,-0.00547862285748,0.00121997122187,,0.00886074812968,-0.0104733231029,0.03585938165,-0.999262665918
104976000000,,293,,104,976000000,"""map""",,,-0.00437368033454,-0.00547949690372,0.00140041369013,,0.00879585762341,-0.0104984177646,0.0357830958542,-0.999265784785
105012000000,,294,,105,12000000,"""map""",,,-0.00386503431946,-0.00549761159346,0.00150821276475,,0.00884958036728,-0.0104881141772,0.0357756780089,-0.999265616197
105044000000,,295,,105,44000000,"""map""",,,-0.00349954981357,-0.00544052850455,0.0016923325602,,0.00882013568987,-0.0104869391692,0.0357457115996,-0.999267007043
105076000000,,296,,105,76000000,"""map""",,,-0.00326003017835,-0.00531441438943,0.00194532249589,,0.00891817477482,-0.0104882494258,0.0356139605512,-0.99927080026
105112000000,,297,,105,112000000,"""map""",,,-0.00300636421889,-0.00519895507023,0.00206032744609,,0.00893250157523,-0.0104752410315,0.0356006000002,-0.999271263875
105144000000,,298,,105,144000000,"""map""",,,-0.00270083732903,-0.0051094442606,0.00209849514067,,0.00888431751994,-0.0104730135047,0.0355108272129,-0.999274972798
105176000000,,299,,105,176000000,"""map""",,,-0.00239664711989,-0.00500316545367,0.00222001806833,,0.00894774811536,-0.0104513754608,0.0354556569882,-0.999276532231
105212000000,,300,,105,212000000,"""map""",,,-0.00198555202223,-0.00489810016006,0.00224080425687,,0.00895923008581,-0.0104542945417,0.035445120276,-0.999276785112
105244000000,,301,,105,244000000,"""map""",,,-0.00179032597225,-0.00475609349087,0.00176404917147,,0.00893799177847,-0.0104790231349,0.0354300317043,-0.999277290874
105276000000,,302,,105,276000000,"""map""",,,-0.00169465690851,-0.00456294370815,0.000827313982882,,0.00895810850219,-0.010384567273,0.0354464689752,-0.999277543755
105312000000,,303,,105,312000000,"""map""",,,-0.00158014032058,-0.00440648710355,-5.14130770171e-05,,0.00892533652866,-0.0104293221224,0.0354530860304,-0.99927708014
105344000000,,304,,105,344000000,"""map""",,,-0.00141843000893,-0.00424402300268,-0.000913124997169,,0.00914277726501,-0.0104197825701,0.0354462582409,-0.99927547856
105376000000,,305,,105,376000000,"""map""",,,-0.00117546820547,-0.00409416621551,-0.00165215414017,,0.00912533332649,-0.0104172265119,0.03544680615,-0.999275605
105412000000,,306,,105,412000000,"""map""",,,-0.000837235536892,-0.0039231562987,-0.00246428418905,,0.00907104337,-0.0104159919467,0.0354330241305,-0.999276658672
105444000000,,307,,105,444000000,"""map""",,,-0.000680581317283,-0.00392572116107,-0.00295402365737,,0.00905280843721,-0.0104081221752,0.0353934060929,-0.999278260252
105480000000,,308,,105,476000000,"""map""",,,-0.000629545073025,-0.00404420681298,-0.00332731427625,,0.0089795052718,-0.0104264829723,0.0353523972093,-0.999280241154
105512000000,,309,,105,512000000,"""map""",,,-0.000526457850356,-0.00416530529037,-0.00374383991584,,0.00896457384522,-0.0104234940858,0.0353524393561,-0.999280367594
105544000000,,310,,105,544000000,"""map""",,,-0.000369247019989,-0.00430552847683,-0.00417416123673,,0.00902704304797,-0.0104109056782,0.0352949089079,-0.999281927028
105576000000,,311,,105,576000000,"""map""",,,-0.000165652250871,-0.00446289405227,-0.00454251654446,,0.00899348271435,-0.0103326635937,0.0352447963051,-0.99928483516
105612000000,,312,,105,612000000,"""map""",,,0.000129175939946,-0.00465331366286,-0.00503623299301,,0.00899360195206,-0.0103376954911,0.0351994041492,-0.999286394594
105644000000,,313,,105,644000000,"""map""",,,0.000244353461312,-0.00472717545927,-0.0054745352827,,0.00897767748152,-0.0103229370559,0.0351763919699,-0.999287490412
105676000000,,314,,105,676000000,"""map""",,,0.00022148177959,-0.00472259381786,-0.00582502735779,,0.0089600389431,-0.0102933935145,0.0351370268134,-0.999289344873
105712000000,,315,,105,712000000,"""map""",,,0.000237120155361,-0.00476288609207,-0.00610512588173,,0.00893299103843,-0.0102978862698,0.0351131716972,-0.999290356397
105744000000,,316,,105,744000000,"""map""",,,0.000315915298415,-0.00480002118275,-0.00640358310193,,0.00896672070031,-0.010290228385,0.0350088582471,-0.999293854586
105776000000,,317,,105,776000000,"""map""",,,0.000450823252322,-0.00486101023853,-0.00669010262936,,0.00894746597019,-0.0102598670548,0.0349659949022,-0.999295835488
105812000000,,318,,105,812000000,"""map""",,,0.000715423724614,-0.00495610339567,-0.00706851342693,,0.00895635957262,-0.0102375799741,0.0349471552609,-0.999296636278
105844000000,,319,,105,844000000,"""map""",,,0.000718035036698,-0.00500032957643,-0.00732331955805,,0.00892282767988,-0.0101363328308,0.034942097639,-0.999298153564
105876000000,,320,,105,876000000,"""map""",,,0.000565212918445,-0.00498958583921,-0.0074570402503,,0.00893808059966,-0.0101334302547,0.0348776551077,-0.99930021876
105912000000,,321,,105,912000000,"""map""",,,0.000497108616401,-0.00494425743818,-0.00761239556596,,0.00892962208937,-0.0099112783321,0.0348204196874,-0.999304517738
105944000000,,322,,105,944000000,"""map""",,,0.000528659613337,-0.00491238757968,-0.00773565797135,,0.00892462567102,-0.00996934816943,0.0348106416185,-0.999304349151
105976000000,,323,,105,976000000,"""map""",,,0.000578696082812,-0.00493039237335,-0.00783631484956,,0.00892411797437,-0.00995643472902,0.0347931506764,-0.999305149941
106012000000,,324,,106,12000000,"""map""",,,0.000679094693623,-0.00499497028068,-0.00794014614075,,0.0089113309745,-0.0099849398692,0.034738444067,-0.999306835815
106044000000,,325,,106,44000000,"""map""",,,0.000633444578853,-0.00500692846254,-0.00800593476743,,0.0088988505271,-0.00998135051352,0.0347067074901,-0.999308058074
106076000000,,326,,106,76000000,"""map""",,,0.000485363241751,-0.00494978483766,-0.008041318506,,0.00894975844595,-0.0100037570377,0.0346196321011,-0.999310418297
106112000000,,327,,106,112000000,"""map""",,,0.000394013884943,-0.00490360008553,-0.00787597894669,,0.00897003531946,-0.0100404073856,0.0346091796827,-0.99931024971
106144000000,,328,,106,144000000,"""map""",,,0.000372751324903,-0.00490905949846,-0.00762991793454,,0.0088995594091,-0.0100588345722,0.0345131691618,-0.999314042926
106176000000,,329,,106,176000000,"""map""",,,0.000386964529753,-0.00493242917582,-0.00736071076244,,0.0089110605185,-0.0101339544561,0.0343989933491,-0.999317119646
106212000000,,330,,106,212000000,"""map""",,,0.000460813229438,-0.00499196117744,-0.0069005349651,,0.00888284908916,-0.0101288725093,0.0343932192309,-0.999317583261
106244000000,,331,,106,244000000,"""map""",,,0.000402637349907,-0.00513851875439,-0.00609002215788,,0.00885503599694,-0.0101552460233,0.0343552027735,-0.999318931961
106276000000,,332,,106,276000000,"""map""",,,0.000216197891859,-0.00531565537676,-0.0050095776096,,0.00884369108606,-0.0101622814189,0.0342492034495,-0.999322598736
106312000000,,333,,106,312000000,"""map""",,,9.36681826715e-05,-0.00548146059737,-0.00406959746033,,0.00884020051206,-0.0101889079785,0.0342364329544,-0.999322725177
106344000000,,334,,106,344000000,"""map""",,,3.43107967637e-05,-0.00564610306174,-0.00311229517683,,0.00882347582762,-0.0101605210471,0.0342239574873,-0.999323652408
106376000000,,335,,106,376000000,"""map""",,,2.18982604565e-05,-0.00580451544374,-0.00224388227798,,0.00883944763105,-0.0100979835615,0.0341990908466,-0.999324916813
106412000000,,336,,106,412000000,"""map""",,,6.30729773548e-05,-0.00598454661667,-0.00111037376337,,0.00879777785687,-0.0100554031026,0.0341922630572,-0.999326012631
106444000000,,337,,106,444000000,"""map""",,,-1.76494286279e-05,-0.00603105872869,-0.000269229814876,,0.0088157495365,-0.0100345456809,0.0341636032002,-0.999327024156
106476000000,,338,,106,476000000,"""map""",,,-0.00019293546211,-0.00600068690255,0.000532644509804,,0.00873190702478,-0.00993530096562,0.0340742097345,-0.999331786749
106512000000,,339,,106,512000000,"""map""",,,-0.000283796340227,-0.00596123933792,0.00127278838772,,0.00875398365927,-0.00996514661431,0.0340489637723,-0.999332166071
106544000000,,340,,106,544000000,"""map""",,,-0.000309509399813,-0.00593111710623,0.00191580678802,,0.00870376153221,-0.00992768354014,0.0339962380648,-0.999334821323
106576000000,,341,,106,576000000,"""map""",,,-0.00026799767511,-0.00593179604039,0.00251134717837,,0.00873505910691,-0.00994002375872,0.0339790842974,-0.999334947763
106612000000,,342,,106,612000000,"""map""",,,-0.000165772624314,-0.00597968744114,0.00331685040146,,0.00872099881123,-0.00986940708447,0.0339585166353,-0.99933646505
106644000000,,343,,106,644000000,"""map""",,,-0.000156832160428,-0.00606888020411,0.00378372427076,,0.00863815255388,-0.0098920136415,0.0339579265795,-0.999337055106
106676000000,,344,,106,676000000,"""map""",,,-0.000212865968933,-0.00619852729142,0.00430045509711,,0.00864913699395,-0.00983129855436,0.0339372746237,-0.999338235217
106712000000,,345,,106,712000000,"""map""",,,-0.000199306785362,-0.00636004470289,0.00482328934595,,0.00864305393602,-0.0098247191185,0.0339390447913,-0.999338319511
106744000000,,346,,106,744000000,"""map""",,,-0.000110717737698,-0.00653197756037,0.0053097428754,,0.00864250997825,-0.00973892657418,0.0339356730435,-0.999339246742
106776000000,,347,,106,776000000,"""map""",,,7.67300734879e-05,-0.00673150690272,0.0057168235071,,0.00860988741201,-0.00970167493395,0.0339019134178,-0.999340974762
106812000000,,348,,106,812000000,"""map""",,,0.000349227368133,-0.00695588067174,0.00608386145905,,0.00863060559266,-0.00966390703598,0.033910764256,-0.999340890469
106844000000,,349,,106,844000000,"""map""",,,0.000434864341514,-0.00689318869263,0.00619042012841,,0.00880198468035,-0.00964241662958,0.0338595979819,-0.999341311937
106876000000,,350,,106,876000000,"""map""",,,0.000353288458427,-0.0066874329932,0.00656255474314,,0.00881945812989,-0.00966265934109,0.033835363544,-0.999341859846
106912000000,,351,,106,912000000,"""map""",,,0.000258961343206,-0.00651047332212,0.00691661052406,,0.00876998554996,-0.00966764328825,0.0338447201444,-0.999341859846
106944000000,,352,,106,944000000,"""map""",,,0.00020258242148,-0.00637029483914,0.00722033064812,,0.00879406901652,-0.00962861876389,0.0337995387228,-0.99934354572
106976000000,,353,,106,976000000,"""map""",,,0.000203003524803,-0.00626901257783,0.00741162523627,,0.00872766447526,-0.00959965420659,0.0337696144603,-0.999345484475
107012000000,,354,,107,12000000,"""map""",,,0.000238100677961,-0.00617754459381,0.00779408589005,,0.00872601321607,-0.00960425442809,0.0337951975974,-0.999344599391
107044000000,,355,,107,44000000,"""map""",,,7.09798041498e-05,-0.00597963482141,0.00811834167689,,0.00872533475059,-0.00958779493129,0.0337790132075,-0.999345273741
107076000000,,356,,107,76000000,"""map""",,,-0.000214572792174,-0.0056616300717,0.00851680058986,,0.00865679714251,-0.00959486267791,0.0337195018574,-0.999347802552
107112000000,,357,,107,112000000,"""map""",,,-0.000400832213927,-0.00536532513797,0.00891856476665,,0.00866266271613,-0.00960866651166,0.0336995242512,-0.999348308314
107144000000,,358,,107,144000000,"""map""",,,-0.000525814248249,-0.00506759993732,0.00953993946314,,0.00864410764839,-0.00955301019879,0.0336883974832,-0.999349404132
107176000000,,359,,107,176000000,"""map""",,,-0.000591023184825,-0.00479083321989,0.0100703481585,,0.00873208277385,-0.00954836597828,0.0337196704448,-0.999347633964
107212000000,,360,,107,212000000,"""map""",,,-0.000638739438727,-0.00450426200405,0.0105325393379,,0.00873032359567,-0.00947728091425,0.0337461808126,-0.99934742323
107244000000,,361,,107,244000000,"""map""",,,-0.000659315264784,-0.00430775107816,0.0107100652531,,0.00877429366581,-0.00948154396097,0.0337395637573,-0.999347212496
107276000000,,362,,107,276000000,"""map""",,,-0.000636410084553,-0.00413933582604,0.010705165565,,0.00878752964898,-0.00937452597151,0.0336442697329,-0.99935130074
107312000000,,363,,107,312000000,"""map""",,,-0.000565371243283,-0.00399907911196,0.010612574406,,0.00878501094261,-0.00935994886245,0.0336585996613,-0.999350963566
107344000000,,364,,107,344000000,"""map""",,,-0.000896161713172,-0.00386919919401,0.0100770024583,,0.00880715594226,-0.00909359316873,0.0336601169479,-0.999353155202
107376000000,,365,,107,376000000,"""map""",,,-0.00151115015615,-0.00374206481501,0.00950377993286,,0.00887647434746,-0.00911590596346,0.0336140082956,-0.999353913845
107412000000,,366,,107,412000000,"""map""",,,-0.00216673943214,-0.00362491677515,0.00875070039183,,0.00885964962599,-0.00913884066087,0.0335845476485,-0.999354883222
107444000000,,367,,107,444000000,"""map""",,,-0.00259479111992,-0.00356988515705,0.00821659713984,,0.00884996820883,-0.00915187802084,0.0335646964829,-0.999355515425
107476000000,,368,,107,476000000,"""map""",,,-0.0029510888271,-0.00351914251223,0.00772590888664,,0.00890053360222,-0.00919774593393,0.0335262164102,-0.999355894747
107512000000,,369,,107,512000000,"""map""",,,-0.00325215165503,-0.00349673698656,0.00732351839542,,0.00893046504692,-0.00917865413184,0.0334829737436,-0.999357243446
107544000000,,370,,107,544000000,"""map""",,,-0.0035594869405,-0.00333595694974,0.00708265369758,,0.00896392787479,-0.0092361020562,0.0334384666716,-0.999357917796
107576000000,,371,,107,576000000,"""map""",,,-0.00387308420613,-0.00306165730581,0.00692997872829,,0.0089657167595,-0.00925078073546,0.0334525858658,-0.999357285593
107612000000,,372,,107,612000000,"""map""",,,-0.00420156307518,-0.00272476277314,0.00665865698829,,0.00896079560045,-0.00922160377697,0.0334237152746,-0.999358592145
107644000000,,373,,107,644000000,"""map""",,,-0.00442959414795,-0.0024612986017,0.0063414699398,,0.00888786669412,-0.00920353368611,0.0334087952902,-0.999359940844
107676000000,,374,,107,676000000,"""map""",,,-0.00462008686736,-0.00220338674262,0.00608171196654,,0.00882865723523,-0.00919521203988,0.0333769744196,-0.999361584571
107712000000,,375,,107,712000000,"""map""",,,-0.00476221041754,-0.00193288654555,0.0057164831087,,0.00884608281682,-0.00919472685721,0.0333753728394,-0.999361500278
107744000000,,376,,107,744000000,"""map""",,,-0.00487450323999,-0.00175238633528,0.0053778574802,,0.00889905171244,-0.00916487945926,0.0333430883534,-0.999362343215
107776000000,,377,,107,776000000,"""map""",,,-0.00495646428317,-0.00167792465072,0.00518547650427,,0.00885956172059,-0.00913215477746,0.0333090758466,-0.999364155529
107812000000,,378,,107,812000000,"""map""",,,-0.00500789005309,-0.0015879557468,0.00488143088296,,0.00890254353151,-0.00914247819319,0.0333043132528,-0.999363776207
107844000000,,379,,107,844000000,"""map""",,,-0.00501487078145,-0.00154352362733,0.00455743353814,,0.00883034964316,-0.00916730956053,0.0332490587344,-0.999366094284
107876000000,,380,,107,876000000,"""map""",,,-0.00498170638457,-0.00150445429608,0.00420342339203,,0.0088558309219,-0.00917664157866,0.0331811180146,-0.999368033039
107912000000,,381,,107,912000000,"""map""",,,-0.00493198540062,-0.00146973086521,0.00386856729165,,0.00882433248083,-0.00915873601073,0.0331526688918,-0.999369423885
107944000000,,382,,107,944000000,"""map""",,,-0.00490968441591,-0.00140257901512,0.00328188342974,,0.00891205346985,-0.00922884706686,0.0331069395612,-0.999369466032
107976000000,,383,,107,976000000,"""map""",,,-0.00492812413722,-0.00132750044577,0.00257501704618,,0.00892187990057,-0.00917750994162,0.0330212550182,-0.999372711339
108012000000,,384,,108,12000000,"""map""",,,-0.00488693406805,-0.00124785769731,0.00159317825455,,0.00892672887697,-0.00919394117246,0.0329927637486,-0.999373469983
108044000000,,385,,108,44000000,"""map""",,,-0.00482383370399,-0.00116458721459,0.000696977251209,,0.0089503938385,-0.00918818467028,0.0329305550002,-0.999375324444
108076000000,,386,,108,76000000,"""map""",,,-0.00474869972095,-0.00107130070683,-0.00032960815588,,0.00897425937828,-0.00920374223892,0.0329015158215,-0.999375956647
108112000000,,387,,108,112000000,"""map""",,,-0.00463382387534,-0.00099882890936,-0.0012721051462,,0.0089898812682,-0.00916456421195,0.0329030331081,-0.999376125234
108144000000,,388,,108,144000000,"""map""",,,-0.00473264837638,-0.000925737724174,-0.00220762286335,,0.00904452045907,-0.00919808437436,0.0328595375604,-0.999376799584
108176000000,,389,,108,176000000,"""map""",,,-0.00508698821068,-0.00087258889107,-0.00326124951243,,0.00905717290492,-0.00915942073753,0.0328715915591,-0.999376630996
108212000000,,390,,108,212000000,"""map""",,,-0.00533083733171,-0.000817999301944,-0.00409060204402,,0.00908110398017,-0.00911019101646,0.0328754690692,-0.99937671529
108244000000,,391,,108,244000000,"""map""",,,-0.00552939251065,-0.000764823984355,-0.00473383162171,,0.00910201964701,-0.00914687560357,0.0328381269614,-0.99937738964
108276000000,,392,,108,276000000,"""map""",,,-0.00568483490497,-0.000670155277476,-0.00529692927375,,0.00911960984414,-0.00912273288857,0.0327674045496,-0.999379834157
108312000000,,393,,108,312000000,"""map""",,,-0.00577057292685,-0.000573301513214,-0.00584726547822,,0.00911384193432,-0.00911065160805,0.0327832517646,-0.999379412688
108344000000,,394,,108,344000000,"""map""",,,-0.00611022626981,-0.000302668195218,-0.00629046885297,,0.00907999097822,-0.00910613312694,0.032748101293,-0.999380929975
108376000000,,395,,108,376000000,"""map""",,,-0.00674192700535,9.56994481385e-05,-0.00665137963369,,0.00907975267771,-0.0090513869123,0.0327571207185,-0.999381182856
108412000000,,396,,108,412000000,"""map""",,,-0.00741891516373,0.000596549594775,-0.00719101121649,,0.00905062776611,-0.00903332184155,0.0327251312605,-0.999382657996
108444000000,,397,,108,444000000,"""map""",,,-0.00786752346903,0.00100198178552,-0.00738896941766,,0.00925256800467,-0.00903712144399,0.0326732063432,-0.999382405114
108476000000,,398,,108,476000000,"""map""",,,-0.00824687257409,0.00140567682683,-0.00742716621608,,0.00922045786323,-0.00909135472964,0.0326317338442,-0.999383585226
108512000000,,399,,108,512000000,"""map""",,,-0.00857910886407,0.00182019453496,-0.00744046224281,,0.00922544554556,-0.00909802987054,0.0326063192946,-0.999384301723
108544000000,,400,,108,544000000,"""map""",,,-0.00885907653719,0.00209702318534,-0.00729505065829,,0.00923328724661,-0.00912172586598,0.0325292327086,-0.999386535506
108576000000,,401,,108,576000000,"""map""",,,-0.00908515509218,0.00224888464436,-0.00697170104831,,0.00924715937863,-0.00908099038639,0.0325348803863,-0.999386619799
108612000000,,402,,108,612000000,"""map""",,,-0.00935248844326,0.00242549111135,-0.00658815959468,,0.0092592251848,-0.00909569309738,0.032501879404,-0.999387420589
108644000000,,403,,108,644000000,"""map""",,,-0.00953297503293,0.00253251474351,-0.00632284861058,,0.0092672599783,-0.00908892007516,0.0324684148062,-0.999388516408
108676000000,,404,,108,676000000,"""map""",,,-0.00965158641338,0.00262874830514,-0.0061991661787,,0.00926411812419,-0.00912272507865,0.0324574566256,-0.999388600701
108712000000,,405,,108,712000000,"""map""",,,-0.00972663518041,0.00270848115906,-0.00612570950761,,0.00922958760016,-0.0091390626521,0.0324311569922,-0.999389612226
108744000000,,406,,108,744000000,"""map""",,,-0.0097671719268,0.00272996583953,-0.00584778469056,,0.00911495511603,-0.00911333691107,0.0323693697122,-0.99939289968
108776000000,,407,,108,776000000,"""map""",,,-0.00978986825794,0.00271170330234,-0.00521009415388,,0.00906276448544,-0.00910721869383,0.0323328283946,-0.999394627701
108812000000,,408,,108,812000000,"""map""",,,-0.00983583275229,0.00272274133749,-0.00448485976085,,0.0090319143017,-0.00910730167816,0.0322690180659,-0.99939690363
108844000000,,409,,108,844000000,"""map""",,,-0.00984636042267,0.00270811421797,-0.00405958108604,,0.00898472868735,-0.00914249124575,0.0321455277998,-0.999401034022
108872000000,,410,,108,872000000,"""map""",,,-0.00983849354088,0.00271096057259,-0.00361470435746,,0.00900097145097,-0.00911246382849,0.0321297648785,-0.999401624077
108912000000,,411,,108,912000000,"""map""",,,-0.00981972366571,0.00272659771144,-0.00310916849412,,0.00895663167497,-0.00909759255068,0.0321112202651,-0.999402804189
108944000000,,412,,108,944000000,"""map""",,,-0.00969606172293,0.00276833353564,-0.00256078038365,,0.00895510473664,-0.00906836809468,0.0320681883328,-0.999404447916
108976000000,,413,,108,976000000,"""map""",,,-0.00953356269747,0.00285870954394,-0.00206500268541,,0.00895729485759,-0.00887258169344,0.0320332907422,-0.999407313902
109012000000,,414,,109,12000000,"""map""",,,-0.0093099437654,0.00295691564679,-0.00153552705888,,0.00895970745855,-0.00886916678774,0.0320019334869,-0.999408325426
109044000000,,415,,109,44000000,"""map""",,,-0.00913097709417,0.00305188703351,-0.00125538883731,,0.00899295110944,-0.00885772096007,0.032050318069,-0.999406555259
109076000000,,416,,109,76000000,"""map""",,,-0.00893522333354,0.0031513988506,-0.00102074444294,,0.0089624364567,-0.0088561961054,0.0320630042704,-0.999406513112
109112000000,,417,,109,112000000,"""map""",,,-0.00870502181351,0.00323734385893,-0.000852595665492,,0.00893281667077,-0.00887773555022,0.0320668817805,-0.999406428818
109144000000,,418,,109,144000000,"""map""",,,-0.00852374080569,0.00337937567383,-0.000609697774053,,0.00892250963247,-0.00888873537735,0.032094277232,-0.999405501587
109176000000,,419,,109,176000000,"""map""",,,-0.00837539695203,0.00358132994734,-0.000258738349658,,0.00895208580912,-0.0088771453683,0.032078430017,-0.999405838762
109212000000,,420,,109,212000000,"""map""",,,-0.00818546582013,0.00384616665542,0.00016619550297,,0.0089609572474,-0.00886064008208,0.0320740045979,-0.999406049497
109244000000,,421,,109,244000000,"""map""",,,-0.00802164338529,0.00407545082271,0.000474411033792,,0.00900906139243,-0.00891612498815,0.0320579045018,-0.999405712322
109276000000,,422,,109,276000000,"""map""",,,-0.00783827528358,0.00430720392615,0.000716941314749,,0.00903799203469,-0.00894876562322,0.0320351873504,-0.999405838762
109312000000,,423,,109,312000000,"""map""",,,-0.00763346720487,0.00455589406192,0.000896048673894,,0.00906361748836,-0.00896618395567,0.0320353559378,-0.999405501587
109344000000,,424,,109,344000000,"""map""",,,-0.00744692748412,0.00475613633171,0.00101269490551,,0.00901877609438,-0.0089593388254,0.032040034238,-0.999405796615
109376000000,,425,,109,376000000,"""map""",,,-0.00725669274107,0.0049314526841,0.00085953110829,,0.0090284218884,-0.00900476447441,0.0319914389216,-0.999406850287
109412000000,,426,,109,412000000,"""map""",,,-0.00699779577553,0.00516720628366,0.000727717531845,,0.0089828182806,-0.00892209546585,0.0319636220016,-0.999408873335
109444000000,,427,,109,444000000,"""map""",,,-0.00676331948489,0.0054053561762,0.000713351299055,,0.00907975541993,-0.00892473815866,0.0319634112674,-0.999407988252
109476000000,,428,,109,476000000,"""map""",,,-0.00650091608986,0.00567942811176,0.000808644748759,,0.00903598906128,-0.00889216867213,0.0319662772531,-0.999408578307
109512000000,,429,,109,512000000,"""map""",,,-0.00620894506574,0.00601263856515,0.00075965677388,,0.00904304680625,-0.00887866245934,0.0319624418899,-0.999408789042
109544000000,,430,,109,544000000,"""map""",,,-0.0059760985896,0.00629811780527,0.000882542459294,,0.00898116588439,-0.00887947391479,0.0319077352805,-0.999411064971
109576000000,,431,,109,576000000,"""map""",,,-0.00577385071665,0.00652195420116,0.00116526836064,,0.00893863416806,-0.0088485515767,0.0318361277849,-0.999413973104
109612000000,,432,,109,612000000,"""map""",,,-0.00548899685964,0.00680568628013,0.00140659511089,,0.00896459625117,-0.008857913821,0.0318129048714,-0.999414436719
109644000000,,433,,109,644000000,"""map""",,,-0.00525653082877,0.0070278365165,0.00140470301267,,0.00891570702333,-0.00888301642121,0.0318081844243,-0.999414773894
109676000000,,434,,109,676000000,"""map""",,,-0.00503647746518,0.0072657330893,0.00139877328184,,0.00893738869061,-0.00890326296566,0.031739822236,-0.999416544062
109712000000,,435,,109,712000000,"""map""",,,-0.00480666430667,0.00752808619291,0.00146505807061,,0.00893780122759,-0.00886059821305,0.0317353125232,-0.999417091971
109744000000,,436,,109,744000000,"""map""",,,-0.00468468200415,0.00784952938557,0.00157023919746,,0.00900191081326,-0.00890356664729,0.0317659532821,-0.999415195363
