rosbagTimestamp,header,seq,stamp,secs,nsecs,frame_id,pose,position,x,y,z,orientation,x,y,z,w
96984000000,,146,,96,928000000,"""map""",,,0.0100550949574,0.00234847515821,0.0854083001614,,0.0113049780533,-0.0182603012415,0.0522334322965,-0.998403966026
96984000000,,147,,96,928000000,"""map""",,,0.00926205981523,0.00215794169344,0.0807624831796,,0.0112637577769,-0.0182340417792,0.0522601533985,-0.998403544558
97016000000,,148,,97,16000000,"""map""",,,0.00869882944971,0.00201077898964,0.0757133737206,,0.011249370555,-0.0182786008762,0.0522910891853,-0.998401268628
97048000000,,149,,97,48000000,"""map""",,,0.00854502059519,0.00196899054572,0.0721017718315,,0.0113174383739,-0.0183218376159,0.0523595356673,-0.998396126712
97080000000,,150,,97,80000000,"""map""",,,0.00864006206393,0.00201239087619,0.0687470510602,,0.0113218878299,-0.0183482212138,0.0523902607198,-0.998393977223
97116000000,,151,,97,116000000,"""map""",,,0.00897812843323,0.00213255826384,0.0656693056226,,0.0112942974492,-0.0184513361129,0.0524575270901,-0.998388835308
97148000000,,152,,97,148000000,"""map""",,,0.00919455569237,0.00218054535799,0.063108921051,,0.0113037166113,-0.0185023528974,0.0525241612575,-0.998384241301
97180000000,,153,,97,180000000,"""map""",,,0.00952965673059,0.00227012485266,0.0607933998108,,0.0113271249051,-0.0185775208139,0.052488968639,-0.998384452035
97216000000,,154,,97,216000000,"""map""",,,0.0103127388284,0.00247899862006,0.0579489953816,,0.011276247732,-0.0186090868278,0.0524967236592,-0.998384030567
97248000000,,155,,97,248000000,"""map""",,,0.0111764837056,0.0027366145514,0.0559418164194,,0.0113048512835,-0.0186030239377,0.0524552511602,-0.998385969322
97280000000,,156,,97,280000000,"""map""",,,0.0122448094189,0.00307622179389,0.0541819408536,,0.011275286257,-0.0186377888316,0.0524181619335,-0.998387655196
97316000000,,157,,97,316000000,"""map""",,,0.0134782819077,0.00344332796521,0.0527112707496,,0.0112849866176,-0.0187346146306,0.0524525116151,-0.998383904126
97348000000,,158,,97,348000000,"""map""",,,0.0142326457426,0.00365587277338,0.0512261427939,,0.011233246422,-0.0187989066846,0.0525392498293,-0.998378762211
97380000000,,159,,97,380000000,"""map""",,,0.0149918859825,0.00386650045402,0.049883145839,,0.0111972648672,-0.0188150212687,0.0525620934212,-0.998377666393
97416000000,,160,,97,416000000,"""map""",,,0.0162273813039,0.00424514245242,0.0485753528774,,0.0111756501193,-0.0188882211249,0.0526263252183,-0.998373114533
97448000000,,161,,97,448000000,"""map""",,,0.017421098426,0.00462227268144,0.047711469233,,0.0111811825518,-0.0189114065014,0.0527038332728,-0.998368520527
97480000000,,162,,97,480000000,"""map""",,,0.0188170615584,0.00507893133909,0.0469192303717,,0.0111333119637,-0.018890704167,0.0526970476301,-0.998369827079
97516000000,,163,,97,516000000,"""map""",,,0.0204270482063,0.00557414349169,0.0462269410491,,0.0111295964555,-0.0189626317152,0.0527128526983,-0.99836767759
97548000000,,164,,97,548000000,"""map""",,,0.0213229544461,0.00580631708726,0.0451837293804,,0.011300571732,-0.0189334463397,0.0527636396508,-0.998363589345
97580000000,,165,,97,580000000,"""map""",,,0.0221720654517,0.00597223034129,0.0442175008357,,0.011283387013,-0.01893819247,0.0527495626034,-0.998364432282
97616000000,,166,,97,616000000,"""map""",,,0.0235503707081,0.00628499966115,0.0432857908309,,0.0111989477777,-0.0189480238809,0.0527561796586,-0.998364895898
97648000000,,167,,97,648000000,"""map""",,,0.0249036569148,0.0066033853218,0.042717538774,,0.0110874235945,-0.0189027538851,0.0528372280483,-0.998362662115
97680000000,,168,,97,680000000,"""map""",,,0.0264546349645,0.00695799617097,0.0422001071274,,0.0110664068051,-0.0189083923432,0.052856784186,-0.998361734884
97716000000,,169,,97,716000000,"""map""",,,0.0281918682158,0.0073328288272,0.0417941436172,,0.0109801638163,-0.0189287255634,0.0529486221689,-0.998357478052
97748000000,,170,,97,748000000,"""map""",,,0.0290996767581,0.00748456921428,0.0415688045323,,0.0109102961953,-0.0189372352755,0.0529669139012,-0.998357140878
97780000000,,171,,97,780000000,"""map""",,,0.02989792265,0.00757939415053,0.0414225384593,,0.0108653742402,-0.0188862494426,0.0529991562403,-0.99835684585
97816000000,,172,,97,816000000,"""map""",,,0.0312324352562,0.00776114175096,0.0411975346506,,0.0107738220656,-0.0188642026896,0.0529981868628,-0.998358320989
97848000000,,173,,97,848000000,"""map""",,,0.0325693637133,0.00798807200044,0.0413103364408,,0.010696158924,-0.0187994990453,0.053036498348,-0.998358363136
97880000000,,174,,97,876000000,"""map""",,,0.0341188274324,0.00825749430805,0.0416016504169,,0.0106816637008,-0.0187821575928,0.053078518756,-0.998356635115
97916000000,,175,,97,916000000,"""map""",,,0.0358560979366,0.00856256391853,0.0420427247882,,0.0106579959405,-0.0187436982643,0.0530716488197,-0.998357941668
97948000000,,176,,97,948000000,"""map""",,,0.0365701131523,0.00887417793274,0.0418623648584,,0.010611428612,-0.0186526877425,0.0531054927391,-0.998358320989
97980000000,,177,,97,980000000,"""map""",,,0.0370959118009,0.00920747965574,0.0417803041637,,0.0105967997043,-0.0186455346321,0.0531395052458,-0.99835684585
98016000000,,178,,98,16000000,"""map""",,,0.038089517504,0.00970732886344,0.0418289229274,,0.0106019169244,-0.0185604753771,0.053169766683,-0.998356677262
98048000000,,179,,98,48000000,"""map""",,,0.0391186922789,0.0101349521428,0.0417596027255,,0.0106353788879,-0.0183979413242,0.0531901236109,-0.998358320989
98080000000,,180,,98,80000000,"""map""",,,0.0404109172523,0.010602498427,0.0420313701034,,0.0106395833653,-0.0182321642688,0.0531521071535,-0.998363294318
98116000000,,181,,98,116000000,"""map""",,,0.0419352687895,0.0111085698009,0.0423972122371,,0.0105878543649,-0.0182071965416,0.0531842651989,-0.998362577821
98148000000,,182,,98,148000000,"""map""",,,0.0426373556256,0.0112416204065,0.0422354899347,,0.0106566781929,-0.0181571175245,0.0531434670496,-0.998364938045
98180000000,,183,,98,180000000,"""map""",,,0.043219871819,0.0112989423797,0.0419661737978,,0.0106776939945,-0.0181234049848,0.0531212135136,-0.998366539625
98216000000,,184,,98,216000000,"""map""",,,0.0442361980677,0.0114419013262,0.0418172255158,,0.0106056538352,-0.0179711132746,0.0530466557385,-0.998373999617
98248000000,,185,,98,248000000,"""map""",,,0.0453204773366,0.0116226160899,0.0417409054935,,0.0105924753718,-0.017946517625,0.0530203982519,-0.998375980519
98280000000,,186,,98,280000000,"""map""",,,0.0466490127146,0.0118284774944,0.0416603833437,,0.0105917196919,-0.0178551165864,0.0530273946288,-0.998377244924
98316000000,,187,,98,316000000,"""map""",,,0.0481840632856,0.0120863113552,0.0417013280094,,0.010597390748,-0.0178226032562,0.0529686419219,-0.998380869553
98348000000,,188,,98,348000000,"""map""",,,0.048602361232,0.0120303798467,0.0415886715055,,0.0104297029257,-0.0177429075169,0.052940529974,-0.998385547854
98380000000,,189,,98,380000000,"""map""",,,0.0488474108279,0.0119194155559,0.041437830776,,0.0103800848898,-0.0176577451997,0.0529278437726,-0.998388287399
98416000000,,190,,98,416000000,"""map""",,,0.0495103374124,0.0118463402614,0.0413656197488,,0.0102672673252,-0.0174856711418,0.0529635843001,-0.998390563328
98448000000,,191,,98,448000000,"""map""",,,0.0503194369376,0.0118455160409,0.0413550660014,,0.010268292679,-0.0174511890928,0.0529578101819,-0.998391448412
98480000000,,192,,98,480000000,"""map""",,,0.0513438023627,0.0119185773656,0.0414584055543,,0.0102697579405,-0.0173863007268,0.0529337864782,-0.99839389293
98516000000,,193,,98,516000000,"""map""",,,0.0525828450918,0.0120417345315,0.0417554676533,,0.0102543180353,-0.0173746955262,0.0529426373164,-0.998393724342
98548000000,,194,,98,548000000,"""map""",,,0.0525765866041,0.0122001171112,0.0416767410934,,0.0101625271383,-0.017263762716,0.0528607038429,-0.9984009736
98580000000,,195,,98,580000000,"""map""",,,0.0523544922471,0.0124026201665,0.0415295287967,,0.0101997474153,-0.0172318371368,0.0528343620626,-0.998402533033
98616000000,,196,,98,616000000,"""map""",,,0.052426006645,0.0127019109204,0.0414912961423,,0.010233244611,-0.0169896366498,0.0526986492104,-0.998413491214
98648000000,,197,,98,648000000,"""map""",,,0.0527576468885,0.0130084929988,0.0415621474385,,0.0102330671333,-0.0168819603423,0.052620846128,-0.998419476067
98680000000,,198,,98,680000000,"""map""",,,0.0533234924078,0.0133575396612,0.0416649803519,,0.010213028941,-0.0168290291689,0.0525032142738,-0.998426683178
98716000000,,199,,98,716000000,"""map""",,,0.0541285835207,0.0137726385146,0.0418343469501,,0.0102386960424,-0.0167079231631,0.052424146786,-0.99843266803
98748000000,,200,,98,748000000,"""map""",,,0.0536895208061,0.0138325849548,0.0419025123119,,0.0101985169249,-0.0164943176665,0.052369060855,-0.998439537966
98780000000,,201,,98,780000000,"""map""",,,0.0530193708837,0.01382532157,0.0421432107687,,0.0102031553832,-0.0163998642741,0.052348198165,-0.998442108924
98816000000,,202,,98,816000000,"""map""",,,0.0525268688798,0.0138959651813,0.0425703749061,,0.0102198083274,-0.016278515924,0.0523319716283,-0.998444764176
98848000000,,203,,98,848000000,"""map""",,,0.0524184815586,0.0139991473407,0.0430589355528,,0.0101579686932,-0.0161426789361,0.0522994342613,-0.998449316035
98880000000,,204,,98,880000000,"""map""",,,0.0525396056473,0.0141252307221,0.0437018610537,,0.0101408774876,-0.0160579538925,0.0522612913634,-0.998452898517
98916000000,,205,,98,916000000,"""map""",,,0.0528705865145,0.0142989205196,0.04428614676,,0.01002537372,-0.0158700398635,0.0522257194232,-0.99845888337
98948000000,,206,,98,948000000,"""map""",,,0.0520169958472,0.0144254649058,0.0441176407039,,0.0100012179781,-0.015787229538,0.0521737945059,-0.998463182348
98980000000,,207,,98,980000000,"""map""",,,0.051001124084,0.0145700443536,0.0437351986766,,0.00997696510101,-0.015672324058,0.0521357359017,-0.998467186299
99016000000,,208,,99,16000000,"""map""",,,0.0501101389527,0.0148682463914,0.0432695820928,,0.00995128680428,-0.0155471666865,0.0520012453081,-0.998476416459
99048000000,,209,,99,48000000,"""map""",,,0.0496463626623,0.0151841528714,0.0430445410311,,0.00992348503079,-0.0154162486968,0.0519738077097,-0.998480167528
99080000000,,210,,99,80000000,"""map""",,,0.0494221188128,0.0155561594293,0.0429686829448,,0.00994054940071,-0.0153525198631,0.0519394580282,-0.998482738486
99116000000,,211,,99,116000000,"""map""",,,0.0494079552591,0.0160008892417,0.0429556034505,,0.0101061832226,-0.0151978231483,0.0518308877464,-0.998489144807
99148000000,,212,,99,148000000,"""map""",,,0.0482657365501,0.0161895267665,0.042701292783,,0.0100965184234,-0.0151027820049,0.0517574679363,-0.99849445531
99180000000,,213,,99,180000000,"""map""",,,0.0469508990645,0.0163403600454,0.0424697734416,,0.0100779565233,-0.0150500367057,0.0516928568175,-0.998498796435
99216000000,,214,,99,216000000,"""map""",,,0.0456468388438,0.0165657736361,0.0423251725733,,0.0100176822494,-0.0148643340692,0.0515859302628,-0.998507689421
99248000000,,215,,99,248000000,"""map""",,,0.0448573753238,0.0168025530875,0.042259696871,,0.00994543975223,-0.0147935090891,0.0514677504996,-0.998515613028
99280000000,,216,,99,280000000,"""map""",,,0.0443054251373,0.0170615073293,0.0422669313848,,0.0099242598084,-0.0147188866121,0.0514447383203,-0.998518057545
99316000000,,217,,99,316000000,"""map""",,,0.0439852438867,0.017368292436,0.0423928685486,,0.0099195335991,-0.0145864880498,0.0513867021099,-0.99852307302
99348000000,,218,,99,348000000,"""map""",,,0.0426797047257,0.0171681921929,0.0416068099439,,0.00985690074804,-0.0144547607089,0.0512285671343,-0.998533694026
99380000000,,219,,99,380000000,"""map""",,,0.0412808395922,0.016852285713,0.0406948141754,,0.00987282122615,-0.0144333716772,0.0511976734944,-0.998535422047
99416000000,,220,,99,416000000,"""map""",,,0.0398953333497,0.0166106205434,0.0398522093892,,0.0097417063317,-0.0142516226126,0.0511289319844,-0.998542882039
99448000000,,221,,99,448000000,"""map""",,,0.0390634275973,0.0164987985045,0.0393626429141,,0.00963986703335,-0.0141545999088,0.0509864334896,-0.998552533667
99480000000,,222,,99,480000000,"""map""",,,0.0384657345712,0.016453133896,0.0390516929328,,0.00958918231993,-0.0140857772333,0.0509331177263,-0.998556706205
99516000000,,223,,99,516000000,"""map""",,,0.0380735881627,0.0164588969201,0.0387319028378,,0.00954465269276,-0.0140259828737,0.0507805461347,-0.998565725631
99548000000,,224,,99,548000000,"""map""",,,0.0368556007743,0.0161731429398,0.0378574691713,,0.00947570769258,-0.0138701745358,0.050731487203,-0.998571120428
99580000000,,225,,99,580000000,"""map""",,,0.0355546176434,0.0158460214734,0.0367492586374,,0.00945481520343,-0.0138330413513,0.0506834819425,-0.998574197147
99616000000,,226,,99,616000000,"""map""",,,0.0342972390354,0.0154569121078,0.0356567576528,,0.00943790048774,-0.013710370973,0.0506077862026,-0.998579929119
99648000000,,227,,99,648000000,"""map""",,,0.0335597246885,0.0151941468939,0.0350164659321,,0.00934757139494,-0.0135614534803,0.0505280865121,-0.998586883349
99680000000,,228,,99,680000000,"""map""",,,0.0330478288233,0.0149833038449,0.034536767751,,0.0093007159532,-0.0135370386012,0.0504799969579,-0.998590044362
99716000000,,229,,99,716000000,"""map""",,,0.0327375940979,0.0147990873083,0.0340361520648,,0.00921142851317,-0.013458091627,0.0504017724071,-0.998595860628
99748000000,,230,,99,748000000,"""map""",,,0.0315826721489,0.0141755202785,0.0331618599594,,0.00917192390986,-0.0134387803032,0.0502661017017,-0.99860332062
99780000000,,231,,99,780000000,"""map""",,,0.0303441025317,0.0134609751403,0.03228565678,,0.00914489823107,-0.0133952890361,0.0502458712144,-0.998605175081
99816000000,,232,,99,816000000,"""map""",,,0.0291374176741,0.0126453293487,0.0314665213227,,0.00914042539678,-0.0132866318265,0.0501248254655,-0.998612845808
99848000000,,233,,99,848000000,"""map""",,,0.0284474156797,0.0120756505057,0.030979430303,,0.00926537730245,-0.0132141869915,0.0499955189343,-0.998619083541
99880000000,,234,,99,880000000,"""map""",,,0.0280145891011,0.0115239005536,0.0307250190526,,0.00925197295826,-0.013193668391,0.0499306549344,-0.998622666023
99916000000,,235,,99,916000000,"""map""",,,0.0277788601816,0.0109871458262,0.0307004526258,,0.00920240826441,-0.0131348788057,0.0497710448191,-0.998631896183
99948000000,,236,,99,948000000,"""map""",,,0.0267619118094,0.0103035829961,0.0304678119719,,0.00916170560401,-0.0130650013065,0.0496486082242,-0.998639271882
99980000000,,237,,99,980000000,"""map""",,,0.0256534796208,0.00961546692997,0.0302686057985,,0.00913340399523,-0.0130641267594,0.0495866945037,-0.998642685776
100016000000,,238,,100,16000000,"""map""",,,0.0246258471161,0.00884614512324,0.0302416905761,,0.00905130670878,-0.0130001391176,0.0494715914605,-0.998649977181
100048000000,,239,,100,48000000,"""map""",,,0.024065265432,0.00827572401613,0.0303020495921,,0.00897851547941,-0.0129261078489,0.0493883514346,-0.998655667006
100080000000,,240,,100,80000000,"""map""",,,0.0237238090485,0.00774441938847,0.030409924686,,0.00893309550005,-0.0129148719272,0.0493489019844,-0.998658195817
100116000000,,241,,100,116000000,"""map""",,,0.0235576592386,0.00726386392489,0.0307537093759,,0.00895872720476,-0.0128286370056,0.0491951081342,-0.998666667333
100148000000,,242,,100,148000000,"""map""",,,0.0228417105973,0.00673158979043,0.0309126526117,,0.0089249912867,-0.0127839350044,0.0490587209324,-0.998674169472
100180000000,,243,,100,180000000,"""map""",,,0.0220903493464,0.00619206437841,0.0310631096363,,0.00891567485755,-0.0127444493342,0.0490026234771,-0.998677583367
100216000000,,244,,100,216000000,"""map""",,,0.0214420035481,0.00553092593327,0.0312955603004,,0.00889437472935,-0.0126025081327,0.0488382929147,-0.99868757217
100248000000,,245,,100,248000000,"""map""",,,0.0211452636868,0.00501630920917,0.031629178673,,0.00895374630337,-0.0126706808248,0.0486810430229,-0.998693936344
100280000000,,246,,100,280000000,"""map""",,,0.0210259016603,0.00454205367714,0.0320531949401,,0.00889720614146,-0.0126333099057,0.048590047977,-0.998699288994
100316000000,,247,,100,316000000,"""map""",,,0.0210602767766,0.00412908336148,0.0324743315578,,0.0089102425239,-0.0126011572933,0.0483609377085,-0.998710752937
100348000000,,248,,100,348000000,"""map""",,,0.0204156972468,0.00353074609302,0.0329019129276,,0.0088355225823,-0.0125487570714,0.0482738201726,-0.998716274174
100380000000,,249,,100,380000000,"""map""",,,0.019708737731,0.00289048720151,0.0333841890097,,0.00880005502146,-0.0125307297448,0.048211948599,-0.998719730215
100416000000,,250,,100,416000000,"""map""",,,0.0190654266626,0.00211045518517,0.0339860878885,,0.00878535713123,-0.0124401487587,0.0480961290593,-0.998726642299
100448000000,,251,,100,448000000,"""map""",,,0.0187395829707,0.00149678322487,0.0345806069672,,0.00879301205259,-0.0124766861251,0.0479553164384,-0.998732837885
100480000000,,252,,100,480000000,"""map""",,,0.0185762792826,0.000899420934729,0.0352456122637,,0.00880384510974,-0.012256991726,0.0478982496055,-0.998738232682
100516000000,,253,,100,516000000,"""map""",,,0.0185891445726,0.000355125026545,0.0360627062619,,0.00879462087682,-0.0121723733665,0.0478420678565,-0.998742068045
100548000000,,254,,100,548000000,"""map""",,,0.0179985016584,0.000163994671311,0.0362584106624,,0.0087802502832,-0.0121691081382,0.0477158380452,-0.998748263632
100580000000,,255,,100,580000000,"""map""",,,0.0173623021692,9.95943992166e-05,0.0362756922841,,0.00877564359973,-0.0121490760375,0.047633820278,-0.998752478317
100616000000,,256,,100,616000000,"""map""",,,0.0168572682887,1.9979193894e-05,0.0364279225469,,0.00876688084187,-0.0121184433458,0.0474764860925,-0.998760359777
100648000000,,257,,100,648000000,"""map""",,,0.0166406072676,-4.18777199229e-05,0.0366532430053,,0.00872122312795,-0.0120982149987,0.0473344933599,-0.99876781977
100680000000,,258,,100,680000000,"""map""",,,0.0165758542717,-0.00013341952581,0.0368344038725,,0.0087100500972,-0.012108788754,0.0472770050585,-0.998770432874
100716000000,,259,,100,716000000,"""map""",,,0.0166605487466,-0.00025604563416,0.0371096618474,,0.00868519926164,-0.0120830686397,0.0471601318476,-0.998776544167
100748000000,,260,,100,748000000,"""map""",,,0.015791207552,-0.000425504957093,0.0371789745986,,0.0087167195067,-0.0119907489315,0.0470850261635,-0.998780927439
100780000000,,261,,100,780000000,"""map""",,,0.0147526040673,-0.000601767387707,0.0370730608702,,0.0087686618755,-0.0119408256601,0.0469818928252,-0.998785858621
100816000000,,262,,100,816000000,"""map""",,,0.013749089092,-0.000818043714389,0.0370335057378,,0.00877932074763,-0.0118571855686,0.0468729432218,-0.998791969914
100848000000,,263,,100,848000000,"""map""",,,0.0131517881528,-0.000969509943388,0.0371669568121,,0.00870733854018,-0.0118172705274,0.0466911217173,-0.998801579395
100880000000,,264,,100,880000000,"""map""",,,0.0127461738884,-0.00113345740829,0.0373205207288,,0.00872672493805,-0.0118300026623,0.0466284493536,-0.998804150353
100916000000,,265,,100,916000000,"""map""",,,0.0124469297007,-0.00128770503215,0.0374393835664,,0.00872535384838,-0.0117514080094,0.0464772264611,-0.998812158254
100948000000,,266,,100,948000000,"""map""",,,0.0117746125907,-0.00136402633507,0.0380753576756,,0.00875184923421,-0.0117213182877,0.0464106765873,-0.998815319268
100980000000,,267,,100,980000000,"""map""",,,0.0110731739551,-0.00144545885269,0.0388734340668,,0.00871128766696,-0.0116584870501,0.0463553377753,-0.998818986044
101016000000,,268,,101,16000000,"""map""",,,0.0104285115376,-0.00155336665921,0.0397847220302,,0.00868136077034,-0.0116156013146,0.0461844323045,-0.998827710441
101048000000,,269,,101,48000000,"""map""",,,0.0100630670786,-0.00164419249631,0.0404910072684,,0.0086456653531,-0.0115982904844,0.0461301471637,-0.998830745014
101080000000,,270,,101,80000000,"""map""",,,0.00983143318444,-0.00178086035885,0.0410209484398,,0.00864898606378,-0.0115801169609,0.046062712206,-0.998834032469
101116000000,,271,,101,116000000,"""map""",,,0.00972507894039,-0.00195107667241,0.0417038202286,,0.00866807661053,-0.0115664409671,0.045908876209,-0.998841113139
101148000000,,272,,101,148000000,"""map""",,,0.00968253612518,-0.00207999581471,0.0419527329504,,0.00865298770949,-0.0115979921637,0.0457592548968,-0.998847772341
101180000000,,273,,101,180000000,"""map""",,,0.00974603556097,-0.00218733819202,0.0420100539923,,0.00866021144883,-0.0116200723379,0.0456925785824,-0.998850469739
101216000000,,274,,101,216000000,"""map""",,,0.00997074972838,-0.0023120730184,0.042234364897,,0.00866552211638,-0.0115851666802,0.0455120636302,-0.998859109843
101248000000,,275,,101,248000000,"""map""",,,0.0102543290704,-0.00241719209589,0.0425055734813,,0.00873094390344,-0.0116022697396,0.0453639174577,-0.998865052549
101280000000,,276,,101,280000000,"""map""",,,0.0106505742297,-0.00253399135545,0.0427647270262,,0.0087262940853,-0.011582953806,0.0452983791083,-0.998868297856
101316000000,,277,,101,316000000,"""map""",,,0.0111239915714,-0.00265875575133,0.0430115275085,,0.00876689911648,-0.0115672246351,0.0451271786096,-0.998875799995
101348000000,,278,,101,348000000,"""map""",,,0.0111961197108,-0.0028222668916,0.0427620783448,,0.00895910117572,-0.0115719484571,0.0449835000031,-0.998880562589
101380000000,,279,,101,380000000,"""map""",,,0.011273490265,-0.00301970285363,0.0427075028419,,0.00892361550491,-0.0115431259396,0.0449070877667,-0.998884650834
101416000000,,280,,101,416000000,"""map""",,,0.0115416040644,-0.00328406644985,0.0428634919226,,0.00892159673672,-0.0114305605976,0.0446944990628,-0.998895524721
101448000000,,281,,101,448000000,"""map""",,,0.0118571873754,-0.00351327611133,0.0429959818721,,0.00894147375024,-0.0114888317438,0.0445893848226,-0.998899317937
101480000000,,282,,101,480000000,"""map""",,,0.0122758150101,-0.00375401834026,0.0430288165808,,0.008982023546,-0.0115179243468,0.0445328658988,-0.998901130251
101516000000,,283,,101,516000000,"""map""",,,0.0127614950761,-0.00400181859732,0.0430941805243,,0.00894135842263,-0.0114834851032,0.0443880071805,-0.998908421656
101548000000,,284,,101,548000000,"""map""",,,0.0126145631075,-0.00398707762361,0.0425882488489,,0.00892085134665,-0.0114831571481,0.0443182541462,-0.998911666963
101580000000,,285,,101,580000000,"""map""",,,0.0123835997656,-0.00391947245225,0.0419396646321,,0.00884194240344,-0.0114501569889,0.044254865286,-0.998915544474
101616000000,,286,,101,616000000,"""map""",,,0.0122854569927,-0.00387280806899,0.0413420647383,,0.00888928204003,-0.011472990538,0.0441199110771,-0.998920854976
101648000000,,287,,101,648000000,"""map""",,,0.0123457983136,-0.00385879911482,0.0409085340798,,0.00889678459066,-0.0114462677073,0.043977496876,-0.998927387738
101680000000,,288,,101,680000000,"""map""",,,0.0125138079748,-0.00389355211519,0.0406979620457,,0.00887128311313,-0.0114756664512,0.0438970385422,-0.998930801633
101716000000,,289,,101,716000000,"""map""",,,0.0127975326031,-0.00395073881373,0.0407117828727,,0.0088220243132,-0.0114813664832,0.0437641916757,-0.998936955073
101748000000,,290,,101,748000000,"""map""",,,0.0131966797635,-0.00400945078582,0.0408447645605,,0.0088730721316,-0.0114766986374,0.0435996925259,-0.998943740715
101780000000,,291,,101,780000000,"""map""",,,0.0137048754841,-0.00405117543414,0.040803745389,,0.00887397055095,-0.0114493346314,0.0435269049185,-0.998947238904
101816000000,,292,,101,816000000,"""map""",,,0.0144654270262,-0.00409798324108,0.0413012430072,,0.00883657411324,-0.0113622964502,0.0433113237884,-0.99895798635
101848000000,,293,,101,848000000,"""map""",,,0.0141118941829,-0.00397879444063,0.0414603725076,,0.0087786238429,-0.0112716948846,0.0432190221902,-0.99896346544
101880000000,,294,,101,880000000,"""map""",,,0.0135622862726,-0.00384245510213,0.0414618477225,,0.00879797961845,-0.0112425847478,0.0431491005685,-0.998966626454
101916000000,,295,,101,916000000,"""map""",,,0.0131630292162,-0.00373893976212,0.0413046441972,,0.00877288051161,-0.0111726874922,0.0430049583466,-0.998973875712
101948000000,,296,,101,948000000,"""map""",,,0.0128817837685,-0.00366282463074,0.0410489849746,,0.00872551255761,-0.0112149372383,0.0428810044651,-0.998979144068
101980000000,,297,,101,976000000,"""map""",,,0.0127102127299,-0.00359823228791,0.0407919511199,,0.00873167867447,-0.0111656153828,0.042769188876,-0.998984496718
102016000000,,298,,102,16000000,"""map""",,,0.0126342028379,-0.00352553138509,0.0405735522509,,0.00875875390874,-0.0111793541029,0.0426425797431,-0.998989470046
102048000000,,299,,102,48000000,"""map""",,,0.0119717661291,-0.00318321050145,0.040196146816,,0.00886840634376,-0.0111448205228,0.0424290216617,-0.998997941562
102080000000,,300,,102,80000000,"""map""",,,0.0112302200869,-0.00279905833304,0.0400316044688,,0.00896407137576,-0.0111951864184,0.0423279956658,-0.999000849695
102116000000,,301,,102,116000000,"""map""",,,0.010578930378,-0.00244135921821,0.0398567728698,,0.00892342090501,-0.0110929854145,0.0421744968435,-0.999008857596
102148000000,,302,,102,148000000,"""map""",,,0.0100405532867,-0.00210192753002,0.0397610478103,,0.008992873643,-0.0111033298316,0.0420459068087,-0.999013535896
102180000000,,303,,102,180000000,"""map""",,,0.00963079556823,-0.00179116637446,0.0397721491754,,0.00902216627894,-0.011117291716,0.0420191435599,-0.999014252393
102216000000,,304,,102,216000000,"""map""",,,0.00934650562704,-0.00145711516961,0.039931923151,,0.0089885758169,-0.0111118660502,0.0418434333485,-0.999021965266
102248000000,,305,,102,248000000,"""map""",,,0.00873122084886,-0.00117839872837,0.0398919023573,,0.00900235544914,-0.0111172685023,0.0417287096268,-0.999026601419
102280000000,,306,,102,280000000,"""map""",,,0.00805058050901,-0.000898708531167,0.0398810915649,,0.00898481174113,-0.011013005184,0.0416313925536,-0.999031954069
102316000000,,307,,102,316000000,"""map""",,,0.00750950630754,-0.000626959488727,0.0400678887963,,0.00899462808788,-0.0110165849496,0.0414520577132,-0.999039329768
102348000000,,308,,102,348000000,"""map""",,,0.007078260649,-0.000364779087249,0.0400767661631,,0.00899191414365,-0.0109371810279,0.0413546563463,-0.999044260949
102380000000,,309,,102,380000000,"""map""",,,0.0067562609911,-0.000109025168058,0.0401229597628,,0.00896992279067,-0.0109235332692,0.0413212338954,-0.99904598897
102416000000,,310,,102,416000000,"""map""",,,0.00645310711116,0.000230758960242,0.0402870513499,,0.00898124127744,-0.0108331038307,0.041257929329,-0.999049445011
102448000000,,311,,102,448000000,"""map""",,,0.00577674014494,0.000668407243211,0.0399441160262,,0.00900221122789,-0.010824959693,0.0411423626703,-0.999054165458
102480000000,,312,,102,480000000,"""map""",,,0.00508086383343,0.00110459444113,0.0395764410496,,0.0089486551781,-0.0108275470321,0.0411164423585,-0.999055640598
102516000000,,313,,102,516000000,"""map""",,,0.00450262613595,0.00154963170644,0.0391831211746,,0.00900591109557,-0.0108365288383,0.041064011679,-0.999057157885
102548000000,,314,,102,548000000,"""map""",,,0.00403537182137,0.00196982221678,0.0388968661427,,0.00901430967832,-0.0108279985467,0.0409968296024,-0.99906002387
102580000000,,315,,102,580000000,"""map""",,,0.0036944069434,0.00236551044509,0.0386912226677,,0.00904023698719,-0.010802783783,0.0409623534803,-0.999061456863
102616000000,,316,,102,616000000,"""map""",,,0.00338053773157,0.00288119632751,0.0384717211127,,0.00904841520448,-0.0108286602193,0.040853656758,-0.999065545107
102648000000,,317,,102,644000000,"""map""",,,0.00288062077016,0.00323580601253,0.0387127958238,,0.00903797513376,-0.010833389392,0.0407611865724,-0.999069338324
102680000000,,318,,102,680000000,"""map""",,,0.00234322133474,0.00356360943988,0.039079323411,,0.0090188179917,-0.0108036482873,0.0407278905621,-0.999071192785
102716000000,,319,,102,716000000,"""map""",,,0.00190105871297,0.00387460598722,0.0394046828151,,0.00920458409547,-0.0108131524839,0.0406645859956,-0.999072035722
102748000000,,320,,102,748000000,"""map""",,,0.0015485547483,0.004153536167,0.0397391691804,,0.00918304326925,-0.0108280683524,0.0405872465286,-0.999075196736
102780000000,,321,,102,780000000,"""map""",,,0.00124229304492,0.0044067306444,0.040020685643,,0.00916046704642,-0.0107499188756,0.0405211181233,-0.999078863512
102816000000,,322,,102,816000000,"""map""",,,0.00095483509358,0.00474442029372,0.0403562225401,,0.00920741888262,-0.0107631013726,0.040451365089,-0.999081181588
102848000000,,323,,102,848000000,"""map""",,,0.000524621340446,0.00503498269245,0.040381077677,,0.0092103654577,-0.010768891049,0.0403654698117,-0.999084553336
102880000000,,324,,102,880000000,"""map""",,,9.94405709207e-05,0.00532059604302,0.0403773970902,,0.00912296762882,-0.0106375783442,0.0403028817417,-0.999089231636
102916000000,,325,,102,916000000,"""map""",,,-0.000254128768574,0.00562421884388,0.0404845476151,,0.00916368280157,-0.0106056916192,0.0402739268568,-0.999090453895
102948000000,,326,,102,948000000,"""map""",,,-0.000551985227503,0.00589668750763,0.0406995974481,,0.00914887287645,-0.0106079905157,0.0402098215002,-0.999093109146
102980000000,,327,,102,980000000,"""map""",,,-0.000808556273114,0.00610494567081,0.0409556403756,,0.00903706675393,-0.010487168425,0.0401538504854,-0.999097661006
103016000000,,328,,103,16000000,"""map""",,,-0.0010167384753,0.00637131277472,0.041170116514,,0.00904303958798,-0.0105237072731,0.0401001554004,-0.99909934688
103048000000,,329,,103,48000000,"""map""",,,-0.00130234705284,0.00624741055071,0.0410203300416,,0.00901336631331,-0.0105029386726,0.0399847573291,-0.999104488795
103080000000,,330,,103,80000000,"""map""",,,-0.00155538902618,0.00601906748489,0.0407212935388,,0.00901257037996,-0.0105020316099,0.039957530465,-0.999105584613
103116000000,,331,,103,116000000,"""map""",,,-0.00173502799589,0.00579865835607,0.0403473600745,,0.00888162102713,-0.0102784469414,0.039880738907,-0.999112159522
103148000000,,332,,103,148000000,"""map""",,,-0.0018466663314,0.00562092941254,0.0400498695672,,0.0088272946449,-0.0102882082997,0.0398692749642,-0.999113002459
103180000000,,333,,103,180000000,"""map""",,,-0.00192162697203,0.00550135085359,0.0397845283151,,0.00885761584505,-0.010292057657,0.039871002985,-0.999112623137
103216000000,,334,,103,216000000,"""map""",,,-0.00196012761444,0.00542698055506,0.0394450873137,,0.00888857608032,-0.0102926575087,0.0397805137012,-0.999115952738
103248000000,,335,,103,248000000,"""map""",,,-0.00230010226369,0.00530333025381,0.0390790291131,,0.00888236345375,-0.0103634417414,0.0396250761239,-0.999121431829
103280000000,,336,,103,280000000,"""map""",,,-0.00288953003474,0.0053678653203,0.038963444531,,0.00874180198528,-0.0103603140665,0.039320691584,-0.999134665939
103316000000,,337,,103,316000000,"""map""",,,-0.00368342129514,0.00560408458114,0.0397151298821,,0.00689006340307,-0.00997473724494,0.0379519305318,-0.9992060627
103348000000,,338,,103,348000000,"""map""",,,-0.00469936709851,0.00594712747261,0.0415809452534,,0.00369971325329,-0.00817374017561,0.0362651293607,-0.999301988928
103380000000,,339,,103,380000000,"""map""",,,-0.00624899659306,0.00648868270218,0.0453849099576,,0.00132164054633,-0.00648711878716,0.0351404407081,-0.999360446606
103416000000,,340,,103,416000000,"""map""",,,-0.0077132913284,0.00696215964854,0.0495137386024,,-0.00441778162371,-0.00148373271589,0.0326060664135,-0.999457468652
103448000000,,341,,103,448000000,"""map""",,,-0.00930063147098,0.00710374256596,0.053886141628,,-0.0112409148435,0.00544022696082,0.0298366391447,-0.999476814055
103480000000,,342,,103,480000000,"""map""",,,-0.0110050300136,0.00709978258237,0.0586910583079,,-0.0148058416521,0.00932076616393,0.0284164167904,-0.99944305443
103516000000,,343,,103,516000000,"""map""",,,-0.012836555019,0.0069939782843,0.063839815557,,-0.023252221065,0.0187590041557,0.0250327413514,-0.999240117354
103548000000,,344,,103,548000000,"""map""",,,-0.0147858290002,0.00670063681901,0.0695732235909,,-0.0309160174655,0.0273527592441,0.0223009933652,-0.998898770028
103580000000,,345,,103,580000000,"""map""",,,-0.0168955363333,0.00618428736925,0.0759715735912,,-0.0364640005824,0.0335968374061,0.0204706821749,-0.998560288687
103616000000,,346,,103,616000000,"""map""",,,-0.0197812058032,0.00518251769245,0.0849454626441,,-0.0455913797186,0.0438308511971,0.0177870237428,-0.997839661872
103648000000,,347,,103,648000000,"""map""",,,-0.0226803515106,0.00389989372343,0.0922296568751,,-0.0568650409348,0.0561567382855,0.0147729761653,-0.996691876746
103680000000,,348,,103,680000000,"""map""",,,-0.026084208861,0.00195954320952,0.0998709201813,,-0.0628252722551,0.0627017192626,0.0132575440802,-0.995964759316
103716000000,,349,,103,716000000,"""map""",,,-0.0305988937616,-0.00124987587333,0.107789516449,,-0.0746775843474,0.0761143881938,0.0100758784861,-0.994247696707
103748000000,,350,,103,748000000,"""map""",,,-0.0365236438811,-0.0059013729915,0.115401320159,,-0.0834095303909,0.0854595942615,0.00687461460746,-0.992820309389
103780000000,,351,,103,780000000,"""map""",,,-0.0454264841974,-0.0132595486939,0.120157569647,,-0.0851451751496,0.0836651441124,0.00495394057397,-0.992837294569
103816000000,,352,,103,816000000,"""map""",,,-0.0534323379397,-0.0201944243163,0.11886537075,,-0.0755206247091,0.0645318988263,0.000228183037838,-0.995053881626
103848000000,,353,,103,848000000,"""map""",,,-0.0625524893403,-0.0275905914605,0.113629691303,,-0.0532556810581,0.0418278199167,-0.00292570778308,-0.997700240097
103880000000,,354,,103,880000000,"""map""",,,-0.0721886008978,-0.0355741716921,0.106569252908,,-0.0393377426184,0.0295325469985,-0.00424637928117,-0.998780505971
103916000000,,355,,103,916000000,"""map""",,,-0.0818533673882,-0.043958697468,0.0994574353099,,-0.0124489070714,0.00620466114515,-0.00630795022923,-0.999883404703
103948000000,,356,,103,948000000,"""map""",,,-0.0911456421018,-0.0523444414139,0.0945934951305,,0.000299462413657,-0.00479827793908,-0.0072908990302,-0.999961882135
103980000000,,357,,103,980000000,"""map""",,,-0.0996690168977,-0.0603939890862,0.097387753427,,-0.00135218301743,-0.0030221198515,-0.00758259736875,-0.999965801792
104016000000,,358,,104,16000000,"""map""",,,-0.109465166926,-0.0702690109611,0.118444025517,,-0.0130065925245,0.00774413175111,-0.00780871521101,-0.999854997727
104048000000,,359,,104,48000000,"""map""",,,-0.116924375296,-0.0780334696174,0.148032158613,,-0.0338239009183,0.0273801983242,-0.00809666248003,-0.999019984364
104080000000,,360,,104,80000000,"""map""",,,-0.124728061259,-0.0863131135702,0.181677550077,,-0.0457098196069,0.0395037007735,-0.00833087251721,-0.998138651615
104116000000,,361,,104,116000000,"""map""",,,-0.133226394653,-0.0954031720757,0.214466005564,,-0.0664882774967,0.0629228832862,-0.00881404398854,-0.995762159415
104148000000,,362,,104,148000000,"""map""",,,-0.142550453544,-0.105402089655,0.24470359087,,-0.077601006837,0.0771727681439,-0.00905638836748,-0.993951952271
104180000000,,363,,104,180000000,"""map""",,,-0.152944639325,-0.11650159955,0.273016929626,,-0.0820246896986,0.0830040035808,-0.00913650952649,-0.993125831894
104216000000,,364,,104,216000000,"""map""",,,-0.167873099446,-0.132394969463,0.307980418205,,-0.0880068178297,0.0900132305715,-0.00919682166671,-0.992001986178
104248000000,,365,,104,248000000,"""map""",,,-0.182186499238,-0.146811917424,0.333863556385,,-0.0909100595315,0.0928327933276,-0.00920917069333,-0.991480081753
104280000000,,366,,104,280000000,"""map""",,,-0.198341369629,-0.162963300943,0.360919326544,,-0.0917645140336,0.0934395279165,-0.0091844726401,-0.991344537488
104316000000,,367,,104,316000000,"""map""",,,-0.216051101685,-0.180852815509,0.390197753906,,-0.092452423247,0.0933022462055,-0.00922746242558,-0.991293202627
104348000000,,368,,104,348000000,"""map""",,,-0.234913438559,-0.200101643801,0.41979777813,,-0.092544652858,0.0915604732374,-0.00940675511915,-0.991445268456
104380000000,,369,,104,380000000,"""map""",,,-0.254106342793,-0.219794511795,0.44358125329,,-0.0925707671112,0.0883853993446,-0.00959262272108,-0.991729169628
104416000000,,370,,104,412000000,"""map""",,,-0.278256863356,-0.244680956006,0.46203199029,,-0.0925495046847,0.0777784699087,-0.0102138251213,-0.992613115481
104448000000,,371,,104,448000000,"""map""",,,-0.297090530396,-0.263890028,0.466637253761,,-0.0916963089081,0.0612350060533,-0.010951184236,-0.993842159731
104480000000,,372,,104,480000000,"""map""",,,-0.315741866827,-0.283188343048,0.463744193316,,-0.0885387117987,0.0503868050075,-0.0115081969859,-0.994730952472
104516000000,,373,,104,516000000,"""map""",,,-0.334338635206,-0.303067743778,0.456239312887,,-0.0644796443074,0.0223633786035,-0.0134399556405,-0.997577887796
104548000000,,374,,104,548000000,"""map""",,,-0.352490246296,-0.323555260897,0.448745936155,,-0.0383110440716,0.00462385304188,-0.0147230321498,-0.999146719938
104580000000,,375,,104,580000000,"""map""",,,-0.369589149952,-0.34433093667,0.447749048471,,-0.0311921911112,0.0018355966685,-0.0150379534018,-0.999398589504
104616000000,,376,,104,616000000,"""map""",,,-0.389223515987,-0.370350241661,0.464281588793,,-0.026273181055,0.00328756481933,-0.0147868846253,-0.999540076475
104648000000,,377,,104,648000000,"""map""",,,-0.404488563538,-0.391692727804,0.497909009457,,-0.0215202519725,0.00616427425684,-0.013956465269,-0.999652060651
104680000000,,378,,104,680000000,"""map""",,,-0.419084489346,-0.412913888693,0.546281278133,,-0.0202437642011,0.00825979910118,-0.0134076711546,-0.99967106888
104716000000,,379,,104,716000000,"""map""",,,-0.432993203402,-0.43375480175,0.603311002254,,-0.027959636161,0.0212465249843,-0.0124260289059,-0.999305950731
104748000000,,380,,104,748000000,"""map""",,,-0.446687668562,-0.454452484846,0.663985431194,,-0.0418570078441,0.0398096076214,-0.0121181461775,-0.998256704938
104780000000,,381,,104,780000000,"""map""",,,-0.460567802191,-0.475232452154,0.724509954453,,-0.0489880442895,0.0507299768312,-0.011995330261,-0.997438128846
104816000000,,382,,104,816000000,"""map""",,,-0.478469610214,-0.501561582088,0.797405898571,,-0.0603025923115,0.0709591101489,-0.0114952157566,-0.995588472252
104848000000,,383,,104,848000000,"""map""",,,-0.495608836412,-0.52351552248,0.84763032198,,-0.065824085311,0.0802453117811,-0.0110652336081,-0.994537751319
104880000000,,384,,104,880000000,"""map""",,,-0.514305114746,-0.546194314957,0.896276473999,,-0.0678657866542,0.0833957755364,-0.0108140805378,-0.994144057607
104916000000,,385,,104,916000000,"""map""",,,-0.534025549889,-0.569598734379,0.94676566124,,-0.0704203749725,0.0881997846237,-0.0103057473979,-0.993557078448
104948000000,,386,,104,948000000,"""map""",,,-0.55480414629,-0.59380030632,0.999859809875,,-0.0718988146369,0.0897200405473,-0.0100114359547,-0.99331806367
104980000000,,387,,104,980000000,"""map""",,,-0.582277536392,-0.625129580498,1.06974208355,,-0.0724345932777,0.0893336198009,-0.00988120219283,-0.993315197684
105016000000,,388,,105,16000000,"""map""",,,-0.605338692665,-0.651022434235,1.1280798912,,-0.073057624456,0.0889435342543,-0.00971442711328,-0.993306220405
105048000000,,389,,105,48000000,"""map""",,,-0.630493402481,-0.677725255489,1.18796420097,,-0.0735533089315,0.0889810811694,-0.00953901192977,-0.993267951067
105080000000,,390,,105,80000000,"""map""",,,-0.65669721365,-0.705094516277,1.24909627438,,-0.0736800978471,0.0886974954407,-0.00944300140887,-0.9932848941
105116000000,,391,,105,116000000,"""map""",,,-0.683512210846,-0.733046889305,1.31149685383,,-0.0738194491577,0.0878839104577,-0.00931576007321,-0.993348072226
105148000000,,392,,105,148000000,"""map""",,,-0.7105858922,-0.761303305626,1.3725836277,,-0.0735514531531,0.0861042018274,-0.00927095797324,-0.993524203906
105180000000,,393,,105,180000000,"""map""",,,-0.73743480444,-0.789481163025,1.42667400837,,-0.0732656079582,0.0828705849742,-0.0092977633689,-0.993819990489
105216000000,,394,,105,216000000,"""map""",,,-0.770715773106,-0.82462143898,1.48267936707,,-0.0723849600952,0.0703817256539,-0.0093047175989,-0.994846898453
105248000000,,395,,105,248000000,"""map""",,,-0.799211800098,-0.852640986443,1.5181863308,,-0.0711563195336,0.0550502477696,-0.00918468337434,-0.995902592714
105280000000,,396,,105,280000000,"""map""",,,-0.827989757061,-0.880573511124,1.54492163658,,-0.0699270296471,0.0447713090601,-0.00919079466738,-0.996504576151
105316000000,,397,,105,312000000,"""map""",,,-0.856298565865,-0.908474683762,1.56301152706,,-0.0640041343429,0.0216834379845,-0.00957407810773,-0.997668166345
105348000000,,398,,105,348000000,"""map""",,,-0.883644521236,-0.936540305614,1.57858729362,,-0.046984508564,0.00164730693987,-0.01037499467,-0.998840396643
105380000000,,399,,105,380000000,"""map""",,,-0.915271162987,-0.972041130066,1.61003339291,,-0.0401626683963,0.000214183698687,-0.0104407016068,-0.999138585596
105416000000,,400,,105,416000000,"""map""",,,-0.938366293907,-1.00029075146,1.64965951443,,-0.0281563825889,0.000573825391209,-0.0100615907045,-0.999552762676
105448000000,,401,,105,448000000,"""map""",,,-0.961314201355,-1.0284538269,1.70686078072,,-0.0207061625444,0.00136519635082,-0.00947254634967,-0.99973981039
105480000000,,402,,105,480000000,"""map""",,,-0.983079731464,-1.05594444275,1.77683877945,,-0.0174002671387,0.00397300428502,-0.0192201430327,-0.999655980308
105516000000,,403,,105,516000000,"""map""",,,-1.00348877907,-1.08258318901,1.85364365578,,-0.0216366372842,0.020036148743,-0.0187291743944,-0.999389654372
105548000000,,404,,105,548000000,"""map""",,,-1.02316772938,-1.10856580734,1.93267941475,,-0.0307114332055,0.0408090344407,-0.0182688043681,-0.998527793467
105580000000,,405,,105,580000000,"""map""",,,-1.04257380962,-1.13418090343,2.00923848152,,-0.0362509173116,0.0544691836571,-0.0177680155141,-0.997699017838
105616000000,,406,,105,616000000,"""map""",,,-1.06659901142,-1.16586375237,2.09803700447,,-0.0429997229177,0.0725768402085,-0.0166691207329,-0.996296075692
105648000000,,407,,105,648000000,"""map""",,,-1.08858752251,-1.19143521786,2.15949225426,,-0.0482769245514,0.0856647274184,-0.015163382423,-0.995038160851
105680000000,,408,,105,680000000,"""map""",,,-1.11154699326,-1.21702122688,2.2156701088,,-0.0500030737569,0.089718112329,-0.0143274418296,-0.994608010115
105716000000,,409,,105,716000000,"""map""",,,-1.13470709324,-1.24252045155,2.26880574226,,-0.0521598109718,0.0952777676534,-0.0126615033486,-0.99400265493
105748000000,,410,,105,748000000,"""map""",,,-1.1582556963,-1.26806986332,2.31992769241,,-0.0530880110166,0.0966424088512,-0.0110556241266,-0.993840895325
105780000000,,411,,105,780000000,"""map""",,,-1.18851745129,-1.3002269268,2.38229012489,,-0.0539918870614,0.0967980097476,-0.0104283947271,-0.993783828493
105816000000,,412,,105,816000000,"""map""",,,-1.21346735954,-1.32615602016,2.43157672882,,-0.0581650519983,0.100182238364,-0.00963822561117,-0.993220746596
105848000000,,413,,105,848000000,"""map""",,,-1.24086582661,-1.35237812996,2.48158121109,,-0.0618342736531,0.103672512402,-0.009113834522,-0.992645694995
105880000000,,414,,105,880000000,"""map""",,,-1.26930510998,-1.37882995605,2.53059625626,,-0.0628918408151,0.104024915374,-0.00893386747885,-0.992544036797
105916000000,,415,,105,916000000,"""map""",,,-1.29814481735,-1.40550851822,2.57780456543,,-0.0633715773183,0.101885994422,-0.00848837529009,-0.992739260999
105948000000,,416,,105,948000000,"""map""",,,-1.32730185986,-1.43243062496,2.62301659584,,-0.0619567221018,0.0976287373026,-0.00818095617706,-0.993258847348
105980000000,,417,,105,980000000,"""map""",,,-1.35672771931,-1.45951592922,2.66628217697,,-0.0604816522096,0.0942782564581,-0.00799749094549,-0.993674794595
106016000000,,418,,106,16000000,"""map""",,,-1.3937715292,-1.49359405041,2.71806263924,,-0.0560065788601,0.0853146280358,-0.00756202970667,-0.994750044995
106048000000,,419,,106,48000000,"""map""",,,-1.42501854897,-1.52096319199,2.75954246521,,-0.0514061146849,0.0772000096812,-0.00721221086403,-0.995663367202
106080000000,,420,,106,80000000,"""map""",,,-1.45660340786,-1.54829621315,2.80015563965,,-0.048688323891,0.0726605873136,-0.00704084177799,-0.996142745457
106116000000,,421,,106,116000000,"""map""",,,-1.48785412312,-1.57552373409,2.83937335014,,-0.0426620305137,0.0628533212298,-0.00662818198422,-0.997088478591
106148000000,,422,,106,148000000,"""map""",,,-1.51866042614,-1.60255897045,2.87620329857,,-0.038005888376,0.0542583466816,-0.00632826501021,-0.997783311535
106180000000,,423,,106,180000000,"""map""",,,-1.54893994331,-1.6293656826,2.9067158699,,-0.0354397768459,0.0468363031225,-0.00609734242722,-0.998255145504
106216000000,,424,,106,216000000,"""map""",,,-1.58610367775,-1.66259670258,2.93415117264,,-0.0295748914104,0.0214754103598,-0.00554087758633,-0.99931652959
106248000000,,425,,106,248000000,"""map""",,,-1.61670851707,-1.68848073483,2.94876456261,,-0.0244722086811,-0.0087033775596,-0.004798966612,-0.999651133421
106280000000,,426,,106,280000000,"""map""",,,-1.64669454098,-1.71397292614,2.95820975304,,-0.0185589380049,-0.0314929418025,-0.0049332886182,-0.999319564163
106316000000,,427,,106,316000000,"""map""",,,-1.67472136021,-1.73899149895,2.96447134018,,0.0211229915835,-0.0932404588021,-0.00955941100445,-0.995373607618
106348000000,,428,,106,348000000,"""map""",,,-1.6996922493,-1.76286995411,2.96919679642,,0.0726241698023,-0.136518713119,-0.0166863166471,-0.987830965462
106380000000,,429,,106,380000000,"""map""",,,-1.72076916695,-1.78472471237,2.97309374809,,0.0896908406838,-0.146554699613,-0.0193807646724,-0.984937415724
106416000000,,430,,106,416000000,"""map""",,,-1.74157619476,-1.80835294724,2.97643637657,,0.118397009155,-0.155382217423,-0.0249819965458,-0.980415480348
106448000000,,431,,106,448000000,"""map""",,,-1.75570952892,-1.82378709316,2.97857761383,,0.129042690643,-0.145303874663,-0.0289323785099,-0.980508919911
106480000000,,432,,106,480000000,"""map""",,,-1.76695477962,-1.8362878561,2.97972035408,,0.128845633382,-0.134950374556,-0.0304034299635,-0.981968844596
106516000000,,433,,106,516000000,"""map""",,,-1.77524924278,-1.84610545635,2.97991013527,,0.118730943246,-0.107186216796,-0.0323020611952,-0.986595472745
106548000000,,434,,106,548000000,"""map""",,,-1.78023982048,-1.85237371922,2.98408174515,,0.0996189944659,-0.0821966515982,-0.032492691391,-0.991092330747
106580000000,,435,,106,580000000,"""map""",,,-1.78156268597,-1.85425400734,2.99982023239,,0.0840024932502,-0.0678761093393,-0.0319933776767,-0.993636188082
106616000000,,436,,106,616000000,"""map""",,,-1.77995538712,-1.85247755051,3.03495168686,,0.0551568404422,-0.0407066617213,-0.0309420666874,-0.997167672519
106648000000,,437,,106,648000000,"""map""",,,-1.77950954437,-1.84906959534,3.07243466377,,0.0139520049471,0.00270108944666,-0.0314105289086,-0.999405543734
106680000000,,438,,106,680000000,"""map""",,,-1.77992045879,-1.84568727016,3.11410117149,,-0.010514943939,0.0297728018157,-0.0321049825315,-0.998985634683
106716000000,,439,,106,716000000,"""map""",,,-1.7812308073,-1.84332561493,3.15529298782,,-0.0593377406429,0.0852402269944,-0.0335965173535,-0.994024402704
106748000000,,440,,106,748000000,"""map""",,,-1.78370428085,-1.84234368801,3.19330310822,,-0.103426978034,0.13662889025,-0.0348321365113,-0.984592401622
106780000000,,441,,106,780000000,"""map""",,,-1.78769266605,-1.84304714203,3.22700762749,,-0.124905889216,0.162601872474,-0.0352846250769,-0.978117718461
106816000000,,442,,106,816000000,"""map""",,,-1.79579627514,-1.84703576565,3.26356172562,,-0.147533583878,0.190222156369,-0.0359146361684,-0.969927658564
106848000000,,443,,106,848000000,"""map""",,,-1.80529725552,-1.8531383276,3.28901100159,,-0.152361025954,0.195502961559,-0.036509581082,-0.968107336177
106880000000,,444,,106,880000000,"""map""",,,-1.81754541397,-1.86196398735,3.31175017357,,-0.149264619483,0.191167403497,-0.0367507032023,-0.96944545647
106916000000,,445,,106,916000000,"""map""",,,-1.83238339424,-1.87337255478,3.3323097229,,-0.131574322758,0.167605123543,-0.036881569167,-0.97633836281
106948000000,,446,,106,948000000,"""map""",,,-1.85017764568,-1.88511562347,3.35415291786,,-0.110465533345,0.139728042851,-0.0364709745688,-0.983332800908
106980000000,,447,,106,980000000,"""map""",,,-1.86993789673,-1.89828670025,3.37591028214,,-0.0978934405847,0.123206840434,-0.0359641587154,-0.986885822384
107016000000,,448,,107,16000000,"""map""",,,-1.89625263214,-1.91700518131,3.40252327919,,-0.0715037175666,0.087969399413,-0.034237950241,-0.992963440086
107048000000,,449,,107,48000000,"""map""",,,-1.91789853573,-1.93316745758,3.42336940765,,-0.0529204483178,0.0629028003128,-0.0323120078514,-0.996091663476
107080000000,,450,,107,80000000,"""map""",,,-1.93953275681,-1.94994926453,3.4435532093,,-0.0440434639379,0.0511083149315,-0.0310859981751,-0.997237088378
107116000000,,451,,107,116000000,"""map""",,,-1.96084535122,-1.96702945232,3.46287870407,,-0.0285995650974,0.0307030896112,-0.0279490925341,-0.998728328172
107148000000,,452,,107,148000000,"""map""",,,-1.98094820976,-1.98079919815,3.4824283123,,-0.0200132612756,0.0201857284846,-0.0252943046933,-0.999275857881
107180000000,,453,,107,180000000,"""map""",,,-2.00017142296,-1.99357974529,3.50127410889,,-0.0165669883411,0.0164353954256,-0.0238530510616,-0.999443096576
107216000000,,454,,107,216000000,"""map""",,,-2.02326488495,-2.00968027115,3.52319383621,,-0.0123943455785,0.0126867592816,-0.0211652622384,-0.999618680347
107248000000,,455,,107,248000000,"""map""",,,-2.04097819328,-2.02257990837,3.53962182999,,-0.0108532667348,0.012607202238,-0.0186188760919,-0.999688264794
107280000000,,456,,107,280000000,"""map""",,,-2.05808281898,-2.03544592857,3.55517339706,,-0.0108851566703,0.0132829025712,-0.0174689836239,-0.999699939471
107316000000,,457,,107,316000000,"""map""",,,-2.07464766502,-2.04830598831,3.56982493401,,-0.0118488913651,0.0151152135142,-0.0152264762552,-0.999699644443
107348000000,,458,,107,348000000,"""map""",,,-2.09257411957,-2.06096124649,3.58280134201,,-0.0115821113629,0.00208229468518,-0.0135483573349,-0.999838981924
107380000000,,459,,107,380000000,"""map""",,,-2.11050748825,-2.07364368439,3.59260368347,,-0.00632019981562,-0.0142561023616,-0.0132131213019,-0.999791103105
107416000000,,460,,107,416000000,"""map""",,,-2.13149809837,-2.08937287331,3.59968066216,,0.0247529336925,-0.054782436816,-0.0147312929321,-0.998082764894
107448000000,,461,,107,448000000,"""map""",,,-2.14640688896,-2.10125899315,3.60195660591,,0.0634103352968,-0.0891891575264,-0.017636728081,-0.993837734312
107480000000,,462,,107,480000000,"""map""",,,-2.1590218544,-2.11178708076,3.60245037079,,0.0782039278564,-0.100205810306,-0.0190769701883,-0.991705103777
107516000000,,463,,107,516000000,"""map""",,,-2.16903972626,-2.12045145035,3.60206270218,,0.0958805927106,-0.108005081989,-0.0216078041477,-0.989280058408
107548000000,,464,,107,548000000,"""map""",,,-2.17859578133,-2.12674665451,3.60433793068,,0.091576128816,-0.096000022062,-0.0232264538648,-0.99088766565
107580000000,,465,,107,580000000,"""map""",,,-2.18563532829,-2.13034033775,3.611109972,,0.0741870738914,-0.0760866926106,-0.0241868962486,-0.994043284492
107616000000,,466,,107,616000000,"""map""",,,-2.19086003304,-2.1318833828,3.6286444664,,0.0398181659835,-0.0390420172802,-0.0252969177979,-0.998123478749
107648000000,,467,,107,648000000,"""map""",,,-2.19394731522,-2.13236379623,3.64777898788,,0.00466128306535,0.00255543224312,-0.0257430000425,-0.999654505168
107680000000,,468,,107,680000000,"""map""",,,-2.19704818726,-2.13309049606,3.66774082184,,-0.0117227672502,0.0233572717557,-0.0255948117232,-0.999330817372
107716000000,,469,,107,716000000,"""map""",,,-2.20059156418,-2.13447785378,3.68552350998,,-0.042961153283,0.0605381250354,-0.0248321644993,-0.996931692314
107748000000,,470,,107,748000000,"""map""",,,-2.20941400528,-2.13901996613,3.69898819923,,-0.0683396680381,0.0883190088385,-0.0236397037144,-0.993463976059
107780000000,,471,,107,780000000,"""map""",,,-2.22068810463,-2.14544987679,3.70933461189,,-0.0769766280914,0.0979932001995,-0.0229653541383,-0.99193977743
107816000000,,472,,107,816000000,"""map""",,,-2.23643708229,-2.15550923347,3.71945905685,,-0.0839715805124,0.105975098787,-0.0215060616554,-0.990583491845
107848000000,,473,,107,848000000,"""map""",,,-2.25053787231,-2.16525435448,3.72605872154,,-0.0793297169368,0.0972980630073,-0.0200472749348,-0.991886166638
107880000000,,474,,107,880000000,"""map""",,,-2.26592445374,-2.17644453049,3.73221373558,,-0.074133241006,0.0897082598446,-0.019298536171,-0.993017767374
107916000000,,475,,107,916000000,"""map""",,,-2.28224110603,-2.18887352943,3.73826909065,,-0.060780508927,0.0721170707748,-0.0177988248604,-0.995383427834
107948000000,,476,,107,948000000,"""map""",,,-2.29911231995,-2.20041513443,3.74538660049,,-0.0322417493842,0.0404106561724,-0.0174654432887,-0.998510133938
107980000000,,477,,107,980000000,"""map""",,,-2.31593680382,-2.21186161041,3.75088381767,,-0.00997302305358,0.0175872700714,-0.0179860411615,-0.999633768919
108016000000,,478,,108,16000000,"""map""",,,-2.33599281311,-2.22582793236,3.75466418266,,0.0350975549727,-0.0282239492554,-0.0196631064106,-0.998791717033
108048000000,,479,,108,48000000,"""map""",,,-2.3503806591,-2.23587703705,3.75610923767,,0.0673511402127,-0.0623359770608,-0.021458056395,-0.995548938508
108080000000,,480,,108,80000000,"""map""",,,-2.36283326149,-2.24440407753,3.75655269623,,0.0769942807062,-0.0742698840523,-0.0221207734409,-0.994015383278
108116000000,,481,,108,116000000,"""map""",,,-2.37315821648,-2.2512216568,3.75643825531,,0.0844166789739,-0.0858366851609,-0.0229892514014,-0.992460333156
108148000000,,482,,108,148000000,"""map""",,,-2.38118290901,-2.25438165665,3.75849437714,,0.0753002966255,-0.0783450070232,-0.0235834798185,-0.99379870633
108180000000,,483,,108,180000000,"""map""",,,-2.38657951355,-2.25492596626,3.76487755775,,0.060643173915,-0.0654788257366,-0.0237839723769,-0.995725533803
108216000000,,484,,108,216000000,"""map""",,,-2.39090561867,-2.25407075882,3.77757334709,,0.0242475844178,-0.0335170843735,-0.0241429370856,-0.99885219776
108248000000,,485,,108,248000000,"""map""",,,-2.3937189579,-2.25332689285,3.78926634789,,-0.00934375282461,0.000354119138278,-0.0238781705833,-0.99967119532
108280000000,,486,,108,280000000,"""map""",,,-2.39649820328,-2.2531080246,3.80052947998,,-0.0272067176152,0.0205419422883,-0.0232927508575,-0.999147309994
108316000000,,487,,108,316000000,"""map""",,,-2.39962053299,-2.25374603271,3.80989670753,,-0.0507653943426,0.0462501497781,-0.022006134013,-0.997396403466
108348000000,,488,,108,348000000,"""map""",,,-2.40633630753,-2.25714898109,3.8162586689,,-0.0637718538412,0.0584774194148,-0.0205067598772,-0.996038727035
108380000000,,489,,108,380000000,"""map""",,,-2.41714096069,-2.263859272,3.82185435295,,-0.067493149409,0.0628956391352,-0.01946518481,-0.995545060998
108416000000,,490,,108,416000000,"""map""",,,-2.42671179771,-2.27075910568,3.8256251812,,-0.0673197920947,0.064770896729,-0.0174759800008,-0.995473453503
108448000000,,491,,108,448000000,"""map""",,,-2.43703341484,-2.27898955345,3.82888698578,,-0.0603733423822,0.0546035132366,-0.0157465683659,-0.996556922537
108480000000,,492,,108,480000000,"""map""",,,-2.44811034203,-2.28837966919,3.83211684227,,-0.0555138216149,0.0480833216857,-0.0148602201417,-0.99718878809
108516000000,,493,,108,516000000,"""map""",,,-2.45965433121,-2.29870557785,3.83576345444,,-0.0435912562415,0.0365849465619,-0.0129934097806,-0.998294847836
108548000000,,494,,108,548000000,"""map""",,,-2.47078728676,-2.30769324303,3.84103965759,,-0.0338728041042,0.0259787184759,-0.0114955107845,-0.999022302441
108580000000,,495,,108,580000000,"""map""",,,-2.48181533813,-2.31659865379,3.84641695023,,-0.0289008217156,0.019279500942,-0.0106710341339,-0.999339415329
108616000000,,496,,108,616000000,"""map""",,,-2.49561882019,-2.32833075523,3.85269260406,,-0.0206354444132,0.00962844260323,-0.00911729056357,-0.999699138681
108648000000,,497,,108,648000000,"""map""",,,-2.50631213188,-2.33799433708,3.85738039017,,-0.0146962603399,0.0053747287826,-0.00770393814561,-0.999847917056
108680000000,,498,,108,680000000,"""map""",,,-2.51662135124,-2.34777712822,3.86150884628,,-0.0124041461305,0.00290687011743,-0.00699549176899,-0.99989440503
108716000000,,499,,108,716000000,"""map""",,,-2.52667689323,-2.35766148567,3.86517119408,,-0.00896956816445,-0.0026304733898,-0.00551234416989,-0.999941103738
108748000000,,500,,108,748000000,"""map""",,,-2.53597164154,-2.36601209641,3.86900663376,,-0.00761392449563,-0.00231876863374,-0.0044154724374,-0.99995859468
108780000000,,501,,108,780000000,"""map""",,,-2.54469656944,-2.37391972542,3.87290430069,,-0.00694153161982,-0.00146327437221,-0.00379334280653,-0.999967656253
108816000000,,502,,108,816000000,"""map""",,,-2.55511021614,-2.38394975662,3.876983881,,-0.00588720038082,-0.00306834967596,-0.00293717172588,-0.999973641105
108848000000,,503,,108,848000000,"""map""",,,-2.56328177452,-2.39207577705,3.87978029251,,-0.0056112375517,-0.00406201143204,-0.00197824662856,-0.999974062574
108880000000,,504,,108,880000000,"""map""",,,-2.57118391991,-2.40024757385,3.88281679153,,-0.0057494025767,-0.0025018446655,-0.00155281633969,-0.999979204489
108916000000,,505,,108,916000000,"""map""",,,-2.57867622375,-2.40846514702,3.88580441475,,-0.00580088264725,-0.000794615773036,-0.000839733809731,-0.99998253409
108948000000,,506,,108,948000000,"""map""",,,-2.58641242981,-2.41628026962,3.88829088211,,-0.00567681533149,-0.003523450523,-0.000219880108681,-0.999977687203
108980000000,,507,,108,980000000,"""map""",,,-2.59422469139,-2.42404389381,3.89068174362,,-0.00578587820454,-0.00340321346674,2.21270954683e-05,-0.999977518615
109016000000,,508,,109,16000000,"""map""",,,-2.60361766815,-2.43380618095,3.89404368401,,-0.00609716165676,8.18669605105e-06,0.000458094096465,-0.999981311832
109048000000,,509,,109,48000000,"""map""",,,-2.61077928543,-2.44166350365,3.89637160301,,-0.00567685649052,-0.00126010252551,0.000787893186063,-0.999982786972
109080000000,,510,,109,80000000,"""map""",,,-2.61791014671,-2.44962525368,3.89833855629,,-0.00550830037734,-0.00368250746093,0.00102517994318,-0.999977560762
109116000000,,511,,109,116000000,"""map""",,,-2.62498545647,-2.45763778687,3.9005484581,,-0.00580568623553,-0.00231449879579,0.00137306003079,-0.999979583811
109148000000,,512,,109,148000000,"""map""",,,-2.63118004799,-2.46515870094,3.90327310562,,-0.00388153854439,-0.00150428407899,0.00137786477152,-0.999990457698
109180000000,,513,,109,180000000,"""map""",,,-2.63694477081,-2.47257685661,3.90505385399,,0.00400904148685,-0.00840629792461,0.00112485723991,-0.999956023723
109216000000,,514,,109,216000000,"""map""",,,-2.64408564568,-2.48172903061,3.90544033051,,0.0245114129469,-0.0246461107351,0.000532525430935,-0.999395554931
109248000000,,515,,109,248000000,"""map""",,,-2.64924883842,-2.48842954636,3.90534758568,,0.0403379064314,-0.0324502646611,-0.000133605509779,-0.998659038754
109280000000,,516,,109,280000000,"""map""",,,-2.65346741676,-2.49423980713,3.90478205681,,0.0466561319305,-0.0362435791502,-0.000414303520862,-0.998253248896
109316000000,,517,,109,316000000,"""map""",,,-2.65692329407,-2.49911046028,3.90342855453,,0.0545254750539,-0.0471584015219,-0.000578086174175,-0.997398005046
109348000000,,518,,109,348000000,"""map""",,,-2.65935444832,-2.50217795372,3.90278792381,,0.0543272850964,-0.0472972276432,-0.000643582376761,-0.997402219731
109380000000,,519,,109,380000000,"""map""",,,-2.66064333916,-2.50393390656,3.90338635445,,0.0519754896324,-0.0424328504394,-0.000822074280205,-0.997746095868
109416000000,,520,,109,416000000,"""map""",,,-2.66096305847,-2.50494790077,3.90396237373,,0.047693980953,-0.0383671652346,-0.000908138144864,-0.998124490274
109448000000,,521,,109,448000000,"""map""",,,-2.66087985039,-2.50518655777,3.90347766876,,0.0416830986696,-0.0385478476217,-0.000464205389499,-0.9983869387
