rosbagTimestamp,header,seq,stamp,secs,nsecs,frame_id,pose,position,x,y,z,orientation,x,y,z,w
98924000000,,61,,98,916000000,"""map""",,,0.04337438941,0.01376922708,0.0406729131937,,0.00990138987473,-0.0163962389866,0.051980129737,-0.998464488901
98948000000,,62,,98,948000000,"""map""",,,0.0431166253984,0.0139289498329,0.0405782312155,,0.00986508201109,-0.0161883137656,0.0519204076526,-0.998471274543
98980000000,,63,,98,980000000,"""map""",,,0.0418829768896,0.0138700669631,0.0400236696005,,0.0098695571503,-0.0160901330113,0.0518967632706,-0.998474098382
99016000000,,64,,99,16000000,"""map""",,,0.0411760509014,0.0138950329274,0.0396819896996,,0.0098855650502,-0.0159617405398,0.0518734139165,-0.998477132955
99048000000,,65,,99,48000000,"""map""",,,0.0407277755439,0.0139631703496,0.0395066402853,,0.00982388972285,-0.0158079769827,0.0518292440193,-0.998482527752
99080000000,,66,,99,80000000,"""map""",,,0.0405223071575,0.0140569871292,0.0395016372204,,0.00982442248536,-0.0157599420877,0.0517963694775,-0.998484972269
99116000000,,67,,99,116000000,"""map""",,,0.0405281372368,0.0141947362572,0.0395243279636,,0.00970447979848,-0.015557661581,0.0517539697479,-0.998491547178
99148000000,,68,,99,148000000,"""map""",,,0.0398900955915,0.0143197719008,0.0390645675361,,0.00966681796734,-0.015441574343,0.0517012018935,-0.998496436212
99180000000,,69,,99,180000000,"""map""",,,0.0386754125357,0.0144226048142,0.0382969193161,,0.00963683805789,-0.015344834484,0.0516536602484,-0.99850073519
99216000000,,70,,99,216000000,"""map""",,,0.0375477969646,0.0146710369736,0.0374886840582,,0.00961626710309,-0.0152344894248,0.0515198861512,-0.998509417441
99248000000,,71,,99,248000000,"""map""",,,0.0368952192366,0.0149439070374,0.0370036549866,,0.00959292614546,-0.0150721129286,0.0514803524073,-0.998514222182
99280000000,,72,,99,280000000,"""map""",,,0.0364829078317,0.015278914012,0.0366893224418,,0.00959533674763,-0.01502764504,0.0514461713132,-0.998516624552
99316000000,,73,,99,316000000,"""map""",,,0.0362840555608,0.0156883578748,0.0364078246057,,0.00976726674896,-0.0148886132881,0.0513584215746,-0.998521597881
99348000000,,74,,99,348000000,"""map""",,,0.0354668274522,0.0156444869936,0.0357722453773,,0.00973001963623,-0.0147758360594,0.0512424334475,-0.998529605782
99380000000,,75,,99,380000000,"""map""",,,0.0340765789151,0.0151993110776,0.0344478935003,,0.00970766567218,-0.0147426194037,0.0511943017465,-0.998532724649
99416000000,,76,,99,416000000,"""map""",,,0.0326762497425,0.014691663906,0.0329872891307,,0.00961435271421,-0.014565302179,0.0510872487513,-0.998541744074
99448000000,,77,,99,448000000,"""map""",,,0.0318103097379,0.0143555318937,0.0321956835687,,0.00950907729525,-0.0145026592852,0.050968521079,-0.998549709828
99480000000,,78,,99,480000000,"""map""",,,0.0311772376299,0.0140492627397,0.0317681655288,,0.00947129149311,-0.0144318721714,0.0509472369205,-0.998552196493
99516000000,,79,,99,516000000,"""map""",,,0.0307751651853,0.0137908635661,0.0315387137234,,0.00943663789329,-0.0143192857559,0.0508978408141,-0.998556664058
99548000000,,80,,99,548000000,"""map""",,,0.0299312379211,0.0134250223637,0.0313139632344,,0.00934541680195,-0.0141904186385,0.0507373456149,-0.998567537945
99580000000,,81,,99,580000000,"""map""",,,0.028450762853,0.0128464158624,0.0310888178647,,0.009356387001,-0.0141774701717,0.0507013100595,-0.998569434554
99616000000,,82,,99,616000000,"""map""",,,0.0275452546775,0.0124961091205,0.0309652741998,,0.0092346692074,-0.0140235949913,0.0506364882064,-0.998576009462
99648000000,,83,,99,648000000,"""map""",,,0.0268757920712,0.0122099397704,0.0307925175875,,0.00910598467146,-0.0139279213159,0.0504740542523,-0.998586799055
99684000000,,84,,99,680000000,"""map""",,,0.0264396592975,0.0119867781177,0.0307650528848,,0.00906164141238,-0.0138678879046,0.050421539279,-0.998590676565
99716000000,,85,,99,716000000,"""map""",,,0.0262021888047,0.0118082324043,0.0308484062552,,0.00901932037885,-0.0138218507044,0.0502637414782,-0.998599611697
99748000000,,86,,99,748000000,"""map""",,,0.0254814792424,0.0115208737552,0.030813511461,,0.00895759648384,-0.0136832269209,0.0502074332886,-0.9986049222
99780000000,,87,,99,780000000,"""map""",,,0.0243184901774,0.0111246164888,0.0304283145815,,0.00894163781014,-0.013651312043,0.0501573206857,-0.99860799892
99816000000,,88,,99,816000000,"""map""",,,0.0232247747481,0.0106486277655,0.0301578789949,,0.00893487142996,-0.0135374172643,0.0500776209952,-0.998613604451
99848000000,,89,,99,848000000,"""map""",,,0.0226166751236,0.0103029357269,0.0301414299756,,0.00884332271273,-0.0133961652296,0.0499859094528,-0.998620938002
99880000000,,90,,99,880000000,"""map""",,,0.022229662165,0.0100088687614,0.0302485562861,,0.00881305798277,-0.0133740282559,0.0499443526602,-0.998623635401
99916000000,,91,,99,916000000,"""map""",,,0.0220336057246,0.00972924940288,0.0304996091872,,0.00872862220477,-0.0132975802936,0.0498607754596,-0.998629493813
99948000000,,92,,99,948000000,"""map""",,,0.0213417820632,0.00933381356299,0.0306313317269,,0.00870798671262,-0.0132878358105,0.0497161274755,-0.998637080245
99980000000,,93,,99,980000000,"""map""",,,0.0202074088156,0.00881796702743,0.0305757056922,,0.00869129919478,-0.0132452569568,0.0496932838836,-0.998638934707
100016000000,,94,,100,16000000,"""map""",,,0.0191275011748,0.00823794770986,0.0304163377732,,0.00871034528977,-0.0131359046534,0.0495774221971,-0.99864597323
100048000000,,95,,100,48000000,"""map""",,,0.0185270514339,0.00784090347588,0.0301477890462,,0.00885666630618,-0.0130606010767,0.0494058423768,-0.998654107572
100080000000,,96,,100,80000000,"""map""",,,0.0181821789593,0.00745162181556,0.0301136225462,,0.00884501681847,-0.0130442887646,0.0493625997102,-0.998656636383
100116000000,,97,,100,116000000,"""map""",,,0.018026933074,0.00697546312585,0.0302461143583,,0.00879690273354,-0.0129905194287,0.0492097330907,-0.998665276487
100148000000,,98,,100,148000000,"""map""",,,0.0174195040017,0.00649804901332,0.0302321594208,,0.00877493121921,-0.0129096816086,0.0490843883632,-0.998672694332
100180000000,,99,,100,180000000,"""map""",,,0.0163767449558,0.0057653170079,0.0303408186883,,0.00875961956549,-0.012916228035,0.0490032556798,-0.998676698283
100216000000,,100,,100,216000000,"""map""",,,0.0154188740999,0.00493623316288,0.0306430719793,,0.00868120271966,-0.0128506949539,0.0488817884624,-0.998684200422
100248000000,,101,,100,248000000,"""map""",,,0.0149141000584,0.00431414647028,0.0309791006148,,0.00859555456122,-0.012782591409,0.0487893182768,-0.998690353862
100280000000,,102,,100,280000000,"""map""",,,0.014627866447,0.00372094614431,0.0314169190824,,0.00856424291014,-0.01276319645,0.048753914924,-0.998692545498
100316000000,,103,,100,316000000,"""map""",,,0.0145144481212,0.00317259109579,0.03186622262,,0.0085881258499,-0.0126756256709,0.0485982666125,-0.998701101308
100348000000,,104,,100,348000000,"""map""",,,0.0141002843156,0.00265918276273,0.0321938805282,,0.00854251950245,-0.0126306676605,0.0484418596576,-0.998709657119
100380000000,,105,,100,380000000,"""map""",,,0.0133989220485,0.00215111463331,0.0323947779834,,0.00854286737859,-0.0125921663498,0.0484029159696,-0.998712017342
100416000000,,106,,100,416000000,"""map""",,,0.0128050381318,0.00152061472181,0.0324991568923,,0.00852093620011,-0.0124490623233,0.0482417464209,-0.998721795411
100448000000,,107,,100,448000000,"""map""",,,0.0125520192087,0.0010095158359,0.0327972471714,,0.00856555835279,-0.012498357837,0.0480608100002,-0.998729508284
100480000000,,108,,100,480000000,"""map""",,,0.0124760679901,0.000521915382706,0.0331723354757,,0.00852263261076,-0.0124784597501,0.0479961567346,-0.998733217207
100516000000,,109,,100,516000000,"""map""",,,0.0125536452979,8.95175908227e-05,0.0335144475102,,0.00854520224814,-0.0124269312765,0.0477780467936,-0.998744133241
100548000000,,110,,100,548000000,"""map""",,,0.0120115047321,-0.000309090071823,0.0336910001934,,0.00847650189725,-0.0123918226225,0.0476665683793,-0.998750497415
100580000000,,111,,100,580000000,"""map""",,,0.0109139168635,-0.000682038837112,0.0336556397378,,0.00843160908278,-0.0123671046483,0.0476327244599,-0.998752731198
100616000000,,112,,100,616000000,"""map""",,,0.00981367286295,-0.00116339023225,0.0336363501847,,0.0084257445793,-0.0122607689726,0.0475221311294,-0.9987593904
100648000000,,113,,100,648000000,"""map""",,,0.00913566537201,-0.00156085006893,0.0337125733495,,0.008464088004,-0.012289630015,0.0473807705995,-0.998765459546
100680000000,,114,,100,680000000,"""map""",,,0.00862917397171,-0.0019614151679,0.0337775759399,,0.00845753367515,-0.0120540651871,0.0473312480525,-0.998770727902
100716000000,,115,,100,716000000,"""map""",,,0.00831002835184,-0.00232426938601,0.0339073352516,,0.00845725609864,-0.0119538883844,0.0472754034782,-0.998774563265
100748000000,,116,,100,748000000,"""map""",,,0.00770822027698,-0.00244517577812,0.0337223820388,,0.00845012504944,-0.011938876533,0.0471473613525,-0.998780885293
100780000000,,117,,100,780000000,"""map""",,,0.00685247126967,-0.00231938320212,0.0332488790154,,0.00844990723584,-0.0119132122304,0.0470640791798,-0.998785099977
100816000000,,118,,100,816000000,"""map""",,,0.00608039135113,-0.0021857554093,0.0328219942749,,0.00844908537229,-0.0118725365703,0.0469021931347,-0.998793234319
100848000000,,119,,100,848000000,"""map""",,,0.00566152995452,-0.00209046085365,0.0326052568853,,0.00839780895663,-0.0118404280804,0.0467470505853,-0.998801284367
100880000000,,120,,100,880000000,"""map""",,,0.00539384363219,-0.00203737756237,0.032535046339,,0.0084020774775,-0.0118512981807,0.0466963057797,-0.998803560297
100916000000,,121,,100,916000000,"""map""",,,0.00528265954927,-0.00202953792177,0.0325082838535,,0.00838237086237,-0.0118201915015,0.046574374947,-0.998809755884
100948000000,,122,,100,948000000,"""map""",,,0.00484935706481,-0.002053900389,0.0321200340986,,0.00841860908492,-0.0117308284935,0.0464957289276,-0.998814139156
100980000000,,123,,100,980000000,"""map""",,,0.00411273632199,-0.00208957516588,0.0313418693841,,0.00847323831531,-0.011687042857,0.0463914154776,-0.998819070337
101016000000,,124,,101,16000000,"""map""",,,0.00346388947219,-0.00215136189945,0.0305110290647,,0.00848856610337,-0.0116165000632,0.0462818758183,-0.998824844456
101048000000,,125,,101,48000000,"""map""",,,0.00313521409407,-0.00219273520634,0.0300098899752,,0.00843148050196,-0.0115944233464,0.0460842913925,-0.998834706818
101080000000,,126,,101,80000000,"""map""",,,0.00298802298494,-0.0022550073918,0.0296107903123,,0.00844156314765,-0.0116107180424,0.0460366654537,-0.998836645573
101116000000,,127,,101,116000000,"""map""",,,0.00294604129158,-0.00232507009059,0.02922940813,,0.00844304783625,-0.0115473064625,0.0458864962324,-0.998844274153
101148000000,,128,,101,148000000,"""map""",,,0.00244817603379,-0.00243201316334,0.0286588910967,,0.00847031816432,-0.0115307532878,0.0458213793515,-0.998847182285
101180000000,,129,,101,180000000,"""map""",,,0.00153577560559,-0.00261663645506,0.0279269944876,,0.00842768679169,-0.0114685614969,0.0457669256232,-0.998850806914
101216000000,,130,,101,216000000,"""map""",,,0.000638270459604,-0.00286045786925,0.0270827207714,,0.00839324886519,-0.0114255888335,0.0456002769842,-0.998859236284
101248000000,,131,,101,248000000,"""map""",,,8.82539898157e-05,-0.00305788475089,0.0265621952713,,0.00835254916823,-0.011406504543,0.0455471719551,-0.998862186563
101280000000,,132,,101,280000000,"""map""",,,-0.000321681931382,-0.0033019722905,0.0260347165167,,0.00835319799921,-0.0113867131402,0.0454817600462,-0.998865389724
101316000000,,133,,101,316000000,"""map""",,,-0.000599871622398,-0.00358789367601,0.0256061907858,,0.00836653401941,-0.0113667350401,0.0453488710328,-0.998871501017
101348000000,,134,,101,348000000,"""map""",,,-0.000746908946894,-0.00381197966635,0.025149891153,,0.00834336856388,-0.0114016080999,0.0451729079403,-0.998879298184
101380000000,,135,,101,380000000,"""map""",,,-0.00077231542673,-0.00396258430555,0.0244883336127,,0.00835158044926,-0.0114142523191,0.0451166418975,-0.99888161626
101416000000,,136,,101,416000000,"""map""",,,-0.000656334566884,-0.0041494295001,0.0238499268889,,0.00835387860496,-0.0113745606892,0.0449381921409,-0.998890129924
101448000000,,137,,101,448000000,"""map""",,,-0.000457905756775,-0.00431072292849,0.0234680976719,,0.0084014609152,-0.0113614768915,0.0447818273329,-0.99889687342
101480000000,,138,,101,480000000,"""map""",,,-0.000144457648275,-0.00449157785624,0.0231465958059,,0.00841120095311,-0.0113656861434,0.0447266149614,-0.998899233643
101516000000,,139,,101,516000000,"""map""",,,0.000248294731136,-0.00468386057764,0.0229143314064,,0.00843949663499,-0.0113515531197,0.0445713459715,-0.998906061433
101548000000,,140,,101,548000000,"""map""",,,0.000318779144436,-0.00486819306388,0.0227253288031,,0.00864189493884,-0.0113480734528,0.0444137589049,-0.998911414082
101580000000,,141,,101,580000000,"""map""",,,0.000152613589307,-0.00507397623733,0.0227920003235,,0.0086066757316,-0.0113154968201,0.0443375995496,-0.998915502327
101616000000,,142,,101,616000000,"""map""",,,0.000140079093399,-0.00535801146179,0.022988749668,,0.00859897858107,-0.0112021021235,0.0441386242778,-0.998925659717
101648000000,,143,,101,648000000,"""map""",,,0.000236981722992,-0.00561152305454,0.0232543759048,,0.00863935196922,-0.0112522983616,0.0440110036205,-0.998930295871
101680000000,,144,,101,680000000,"""map""",,,0.000446013931651,-0.00588452722877,0.0234803687781,,0.00866743815163,-0.0112732355494,0.043964684234,-0.998931939598
101716000000,,145,,101,716000000,"""map""",,,0.000730134663172,-0.00617007398978,0.0237108599395,,0.008631599254,-0.0112359786409,0.0438350826748,-0.998938303772
101748000000,,146,,101,748000000,"""map""",,,0.000765150878578,-0.00636120187119,0.0236830208451,,0.00860707456262,-0.0112300851614,0.0437504096562,-0.998942307722
101780000000,,147,,101,780000000,"""map""",,,0.000619903439656,-0.00646976567805,0.023334030062,,0.00852703275821,-0.0111981243501,0.0436871472366,-0.998946143086
101816000000,,148,,101,816000000,"""map""",,,0.000619480269961,-0.00664474908262,0.0230171531439,,0.00857201538169,-0.0112235335491,0.0435547639854,-0.998951242854
101848000000,,149,,101,848000000,"""map""",,,0.000746687641367,-0.00680505577475,0.0228407457471,,0.0085695035283,-0.0112070055636,0.0434068285471,-0.998957902056
101880000000,,150,,101,880000000,"""map""",,,0.000980575568974,-0.00701527157798,0.0227607488632,,0.00855011943535,-0.0112315855728,0.0433346309956,-0.998960894483
101916000000,,151,,101,916000000,"""map""",,,0.00131694530137,-0.00725205009803,0.0227950289845,,0.00849582120589,-0.0112372634612,0.0432129951908,-0.998966626454
101948000000,,152,,101,948000000,"""map""",,,0.00117661105469,-0.00735608441755,0.0228442512453,,0.00854730547466,-0.0112368506361,0.0430436913004,-0.99897349639
101980000000,,153,,101,980000000,"""map""",,,0.000604719331022,-0.00730978883803,0.0228399448097,,0.00854951497381,-0.0111996236913,0.0429736010913,-0.998976910285
102016000000,,154,,102,16000000,"""map""",,,0.000103778918856,-0.00727042276412,0.023073008284,,0.00851480786724,-0.0110922089905,0.0427586943107,-0.998987573438
102048000000,,155,,102,48000000,"""map""",,,-0.000139061870868,-0.00725679798052,0.0232845656574,,0.00846081758966,-0.0109612865557,0.0426550973571,-0.998993895465
102080000000,,156,,102,80000000,"""map""",,,-0.000257152365521,-0.007282292936,0.0234836339951,,0.00847837364538,-0.0109607538755,0.042599758545,-0.998996129248
102116000000,,157,,102,116000000,"""map""",,,-0.000261655019131,-0.00733498064801,0.0235682539642,,0.00845386270111,-0.0108973478109,0.042469271902,-0.999002619863
102148000000,,158,,102,148000000,"""map""",,,-0.000182671938092,-0.00742092030123,0.0236108545214,,0.00840695177699,-0.0109439320969,0.0423328425534,-0.999008309687
102180000000,,159,,102,180000000,"""map""",,,-4.10009160987e-05,-0.00752065097913,0.0234905034304,,0.00842504240622,-0.010724455923,0.0422199732931,-0.999015306064
102216000000,,160,,102,216000000,"""map""",,,0.000271703087492,-0.00765468133613,0.0236000996083,,0.00846073271974,-0.0107499141012,0.0420952607683,-0.999019984364
102248000000,,161,,102,248000000,"""map""",,,7.40499672247e-05,-0.00772814266384,0.0233313776553,,0.00848493999267,-0.010801621205,0.0418676256395,-0.999028793055
102280000000,,162,,102,280000000,"""map""",,,-0.000183688651305,-0.00780273368582,0.022930726409,,0.00846932244503,-0.0108499578779,0.0417853549912,-0.999031827629
102316000000,,163,,102,316000000,"""map""",,,-0.000371500122128,-0.00789137743413,0.0225270017982,,0.00845173873044,-0.0108064958337,0.0416438258739,-0.999038402537
102348000000,,164,,102,348000000,"""map""",,,-0.000480622315081,-0.00799110438675,0.0221788920462,,0.00852485248198,-0.0108408460092,0.0415080708749,-0.999042996543
102380000000,,165,,102,380000000,"""map""",,,-0.000495350803249,-0.00810895394534,0.0219055637717,,0.00854583626187,-0.0108517924183,0.0414818555351,-0.99904383948
102416000000,,166,,102,416000000,"""map""",,,-0.000308885821141,-0.00830245111138,0.0215657353401,,0.00854254559728,-0.0109013313466,0.0413111186518,-0.999050372242
102448000000,,167,,102,448000000,"""map""",,,-0.000618627411313,-0.00826261751354,0.0213421173394,,0.00851172612589,-0.0108757096024,0.0411989658879,-0.999055556304
102480000000,,168,,102,480000000,"""map""",,,-0.00101933837868,-0.00816288776696,0.0211154986173,,0.00853015944522,-0.0108161449102,0.0411050627094,-0.999059855283
102516000000,,169,,102,516000000,"""map""",,,-0.0013097783085,-0.008090977557,0.0210110675544,,0.00850001415877,-0.0107878522741,0.0409341150918,-0.999067526009
102548000000,,170,,102,548000000,"""map""",,,-0.00149537913967,-0.00803040806204,0.0210146419704,,0.00852947694615,-0.010738463247,0.0408443001577,-0.999071445666
102580000000,,171,,102,580000000,"""map""",,,-0.00159343797714,-0.00798823777586,0.0210270620883,,0.00853799365532,-0.0107183745937,0.0408166096782,-0.999072752218
102616000000,,172,,102,616000000,"""map""",,,-0.00162270956207,-0.00792215950787,0.0210548080504,,0.00850992862866,-0.0106660379214,0.0407702902917,-0.99907540747
102648000000,,173,,102,648000000,"""map""",,,-0.00214784778655,-0.00770505564287,0.0210367571563,,0.00851233824301,-0.0106052180433,0.0406380334811,-0.999081392322
102680000000,,174,,102,680000000,"""map""",,,-0.00270332535729,-0.0074832784012,0.0210347417742,,0.00848837899441,-0.0106518338572,0.0406276653563,-0.99908156091
102716000000,,175,,102,716000000,"""map""",,,-0.00315400050022,-0.00727674551308,0.0209938958287,,0.00853171237549,-0.0106459347801,0.040574054565,-0.999083415371
102748000000,,176,,102,748000000,"""map""",,,-0.00349787808955,-0.00708766328171,0.0210782550275,,0.00856801958057,-0.0106392251994,0.0405026578036,-0.999086112769
102780000000,,177,,102,780000000,"""map""",,,-0.00373098440468,-0.0069432691671,0.0212809573859,,0.00856208897569,-0.0106060632852,0.0404659478986,-0.999087925084
102816000000,,178,,102,816000000,"""map""",,,-0.00390736525878,-0.00674748374149,0.0214819330722,,0.00859066832561,-0.0106471210658,0.0403620980639,-0.999091465419
102848000000,,179,,102,848000000,"""map""",,,-0.00433613080531,-0.00661733979359,0.0221514385194,,0.00857377180221,-0.0106069731468,0.0402404201122,-0.999096986656
102880000000,,180,,102,880000000,"""map""",,,-0.004800374154,-0.00650848494843,0.0229599177837,,0.00856287140888,-0.01062490021,0.0402178294014,-0.9990977453
102916000000,,181,,102,916000000,"""map""",,,-0.00519399996847,-0.00643961364403,0.0237142927945,,0.00853823295393,-0.0105598172441,0.0401530075484,-0.999101285635
102948000000,,182,,102,948000000,"""map""",,,-0.00548886368051,-0.00639823032543,0.0242280196398,,0.00851264603025,-0.0105777242217,0.0400695567883,-0.999104657383
102980000000,,183,,102,980000000,"""map""",,,-0.00574677577242,-0.00639241049066,0.0247079208493,,0.00856066223901,-0.0105217975763,0.0400011946001,-0.999107607662
103016000000,,184,,103,16000000,"""map""",,,-0.0059816702269,-0.00638364814222,0.0252243950963,,0.00858001077056,-0.0105017444022,0.039932200209,-0.999110347207
103048000000,,185,,103,48000000,"""map""",,,-0.00639718398452,-0.00615506712347,0.0254408158362,,0.00858061053997,-0.010433011618,0.0398297833672,-0.999115151948
103080000000,,186,,103,80000000,"""map""",,,-0.006811180152,-0.00587500398979,0.0257485155016,,0.00859606978998,-0.0103633357157,0.0397737280586,-0.999118017934
103116000000,,187,,103,116000000,"""map""",,,-0.007160352543,-0.0056156325154,0.0261425767094,,0.00858989165468,-0.0102876738908,0.0397395048176,-0.99912020957
103148000000,,188,,103,148000000,"""map""",,,-0.00745735457167,-0.00538919493556,0.0265974849463,,0.00878481621923,-0.0102921263102,0.039670679014,-0.999121178947
103180000000,,189,,103,180000000,"""map""",,,-0.00769814196974,-0.00525574805215,0.0271540470421,,0.0087908748287,-0.0102865431699,0.0396136121811,-0.999123454877
103216000000,,190,,103,216000000,"""map""",,,-0.00791089516133,-0.0051386798732,0.0276915114373,,0.00876227168886,-0.010282244109,0.0395557445581,-0.999126025835
103248000000,,191,,103,248000000,"""map""",,,-0.00811223499477,-0.00505236303434,0.0280752964318,,0.00870130923594,-0.0102974456212,0.0394288403973,-0.999131462778
103280000000,,192,,103,280000000,"""map""",,,-0.00824848469347,-0.00501414109021,0.0282960627228,,0.00866930660703,-0.0102589102308,0.0394175871887,-0.999132600743
103316000000,,193,,103,316000000,"""map""",,,-0.00835829693824,-0.00497788796201,0.0286352112889,,0.00864316724683,-0.010212904723,0.0393279829888,-0.999136815428
103348000000,,194,,103,348000000,"""map""",,,-0.0084018567577,-0.00496366620064,0.0288009960204,,0.0085816779583,-0.0101995438428,0.0393079210889,-0.999138248421
103380000000,,195,,103,380000000,"""map""",,,-0.00840769521892,-0.00492799934,0.0290278941393,,0.00857546302683,-0.0102121848515,0.0393061930681,-0.999138290568
103416000000,,196,,103,416000000,"""map""",,,-0.00837489310652,-0.00488087674603,0.0292834155262,,0.00857204765037,-0.0102080994061,0.0392129642392,-0.999141999491
103448000000,,197,,103,448000000,"""map""",,,-0.00842288322747,-0.00481843110174,0.0293846968561,,0.00850346410882,-0.010275223613,0.0391048154259,-0.999146129882
103480000000,,198,,103,480000000,"""map""",,,-0.00854831561446,-0.00473991082981,0.0291522704065,,0.00854635264308,-0.0102737588454,0.0390272230778,-0.999148785133
103516000000,,199,,103,516000000,"""map""",,,-0.00863288994879,-0.00465614302084,0.0289556384087,,0.00850730951483,-0.0103160077683,0.038914227377,-0.999153126259
103548000000,,200,,103,548000000,"""map""",,,-0.00864515919238,-0.00460046483204,0.0289055816829,,0.00850103531435,-0.0103140870409,0.0388250446455,-0.999156666594
103580000000,,201,,103,580000000,"""map""",,,-0.00859697442502,-0.00452399114147,0.0289124827832,,0.00851985305903,-0.010359673632,0.0387736676372,-0.99915805744
103616000000,,202,,103,616000000,"""map""",,,-0.00850303750485,-0.00442693755031,0.0287901312113,,0.00851189207911,-0.0103647817971,0.0386563308109,-0.9991626093
103648000000,,203,,103,648000000,"""map""",,,-0.00846132729203,-0.00436681509018,0.0284141022712,,0.0085259380926,-0.0103756774983,0.0385974516635,-0.999164674495
103680000000,,204,,103,680000000,"""map""",,,-0.00844670180231,-0.00435585295781,0.0278372373432,,0.00851011524371,-0.0103975457858,0.0385807615115,-0.999165180257
103716000000,,205,,103,716000000,"""map""",,,-0.00837379693985,-0.00438125012442,0.0271203983575,,0.00850196740178,-0.0101774579063,0.0384131013482,-0.999173946802
103748000000,,206,,103,748000000,"""map""",,,-0.00822511967272,-0.00446238182485,0.0264717377722,,0.00851271015603,-0.0102893809205,0.0383375741956,-0.999175632676
103780000000,,207,,103,780000000,"""map""",,,-0.00803733617067,-0.00457536336035,0.0259325820953,,0.00855177279365,-0.0103443176089,0.038291844865,-0.999176433466
103816000000,,208,,103,816000000,"""map""",,,-0.00780204124749,-0.00469368742779,0.0254478864372,,0.00860843091735,-0.0103071484513,0.0382353259411,-0.999178582955
103848000000,,209,,103,848000000,"""map""",,,-0.00765165220946,-0.00471545755863,0.0247961673886,,0.00864961299816,-0.0103206426868,0.0381198014294,-0.999182418318
103880000000,,210,,103,880000000,"""map""",,,-0.00752648990601,-0.00466520758346,0.0239408630878,,0.00867403108765,-0.0103511814536,0.0380696045328,-0.999183893458
103916000000,,211,,103,916000000,"""map""",,,-0.00725668016821,-0.0046457615681,0.0228557493538,,0.00863109999495,-0.0103585550942,0.0379020286631,-0.99919055266
103948000000,,212,,103,948000000,"""map""",,,-0.00700152060017,-0.00466678198427,0.0219406913966,,0.00865457718898,-0.0103835665323,0.0377612581891,-0.999195357401
103980000000,,213,,103,980000000,"""map""",,,-0.00674125691876,-0.00475789373741,0.0210771970451,,0.00864786851375,-0.0103536127176,0.0377170039982,-0.99919738045
104016000000,,214,,104,16000000,"""map""",,,-0.0064706960693,-0.00489515066147,0.0203980151564,,0.00864287946288,-0.0104366037313,0.0376008051368,-0.999200962932
104048000000,,215,,104,48000000,"""map""",,,-0.00659277103841,-0.00494907703251,0.0197910089046,,0.00863010567506,-0.0104302784113,0.0375039938258,-0.999204798295
104080000000,,216,,104,80000000,"""map""",,,-0.00704161915928,-0.00493554305285,0.0192480627447,,0.00865530265807,-0.0104148660826,0.0374830468421,-0.999205514791
104116000000,,217,,104,116000000,"""map""",,,-0.00752339372411,-0.00495380349457,0.0185489282012,,0.00859490367229,-0.0103610286697,0.0374334400014,-0.999208507218
104148000000,,218,,104,148000000,"""map""",,,-0.00784568302333,-0.00501410895959,0.0180273931473,,0.00859642252288,-0.0103852062258,0.0373504528567,-0.999211331056
104180000000,,219,,104,180000000,"""map""",,,-0.00810878816992,-0.00510158855468,0.0174735747278,,0.00858614782915,-0.0103929363035,0.0373405904941,-0.999211668231
104216000000,,220,,104,216000000,"""map""",,,-0.00834990106523,-0.00520570809022,0.0168506931514,,0.0085272737855,-0.0103204175469,0.0372806576755,-0.999215124273
104248000000,,221,,104,248000000,"""map""",,,-0.00866202544421,-0.00524084735662,0.0164076238871,,0.0084741993787,-0.0103199694074,0.0371836356303,-0.999219254664
104284000000,,222,,104,284000000,"""map""",,,-0.00900168437511,-0.00521183665842,0.0161000099033,,0.00851990582491,-0.0102829109677,0.0371343238175,-0.999221024832
104316000000,,223,,104,316000000,"""map""",,,-0.00933279562742,-0.00519564794376,0.0158534739166,,0.00854729633736,-0.0103035810334,0.0370833682776,-0.999222499971
104348000000,,224,,104,348000000,"""map""",,,-0.00951536372304,-0.00521120103076,0.0157302524894,,0.00859287140394,-0.0102207297135,0.0370491450367,-0.999224270139
104380000000,,225,,104,380000000,"""map""",,,-0.0096493512392,-0.00522760488093,0.0156986434013,,0.00858999002476,-0.0102554965007,0.0370123929848,-0.999225281663
104416000000,,226,,104,416000000,"""map""",,,-0.00973311718553,-0.00528080714867,0.0156387742609,,0.00851493192056,-0.0102079876181,0.0369675487379,-0.999228063355
104448000000,,227,,104,448000000,"""map""",,,-0.00969276484102,-0.00526355206966,0.015520109795,,0.00853590302346,-0.0102176375178,0.0368956462144,-0.999230507872
104480000000,,228,,104,480000000,"""map""",,,-0.00954550784081,-0.00520661054179,0.0153161650524,,0.00848256207077,-0.0101872432192,0.0368925273476,-0.999231350809
104516000000,,229,,104,516000000,"""map""",,,-0.00934493541718,-0.00523557001725,0.0151340132579,,0.00855270883235,-0.0101834408655,0.0368336482002,-0.999232910243
104548000000,,230,,104,548000000,"""map""",,,-0.00916125252843,-0.00531665887684,0.0150121599436,,0.00857991799811,-0.010139574475,0.0367680677039,-0.999235523347
104580000000,,231,,104,580000000,"""map""",,,-0.00894735567272,-0.00541290687397,0.0150573505089,,0.00857525303345,-0.0101812153967,0.0367659182147,-0.999235312613
104616000000,,232,,104,616000000,"""map""",,,-0.00871579535306,-0.00550306914374,0.0149866575375,,0.00876333243943,-0.0101670589123,0.0366271707894,-0.999238937242
104648000000,,233,,104,648000000,"""map""",,,-0.00847650319338,-0.00551082799211,0.0149754611775,,0.0087952838665,-0.0102135585754,0.0365679544672,-0.999240243794
104680000000,,234,,104,680000000,"""map""",,,-0.00812317896634,-0.00543361669406,0.0151748936623,,0.00883905209275,-0.0101612648319,0.0365881006608,-0.999239738032
104716000000,,235,,104,716000000,"""map""",,,-0.00781120033935,-0.00543730380014,0.0153642259538,,0.00881523031531,-0.0101921211818,0.0364658326533,-0.999244079158
104748000000,,236,,104,748000000,"""map""",,,-0.00747354095802,-0.00549396546558,0.015440701507,,0.00884753126488,-0.010190237086,0.0364118846872,-0.999245765032
104780000000,,237,,104,780000000,"""map""",,,-0.0070969783701,-0.00557499891147,0.0154978586361,,0.00884042223576,-0.0101983892496,0.0363761441596,-0.999247029437
104816000000,,238,,104,812000000,"""map""",,,-0.00669027725235,-0.00565914111212,0.0155688729137,,0.00884133168572,-0.0102711314174,0.0363363575346,-0.99924778808
104848000000,,239,,104,848000000,"""map""",,,-0.00625816965476,-0.0056715356186,0.0156359598041,,0.00880810408171,-0.0102941647524,0.0362907124977,-0.999249431807
104880000000,,240,,104,880000000,"""map""",,,-0.00579179497436,-0.00560910115018,0.0156483016908,,0.00878187590032,-0.0102912628761,0.0362716199753,-0.999250401185
104916000000,,241,,104,916000000,"""map""",,,-0.00517332181334,-0.0055406591855,0.0158145148307,,0.00869429038626,-0.010275525391,0.0362142159677,-0.999253435758
104948000000,,242,,104,948000000,"""map""",,,-0.00465188268572,-0.00551615608856,0.0160911884159,,0.00868737994946,-0.0103162784301,0.0360938867152,-0.999257439709
104980000000,,243,,104,980000000,"""map""",,,-0.00411124527454,-0.00551504036412,0.0164494663477,,0.00865488637562,-0.0102856992451,0.036041624623,-0.999259884226
105016000000,,244,,105,16000000,"""map""",,,-0.00358803360723,-0.00552906189114,0.0168233234435,,0.00868060632529,-0.0103201755318,0.036026325317,-0.999259842079
105048000000,,245,,105,48000000,"""map""",,,-0.00321309757419,-0.00546916387975,0.0171689018607,,0.00870171572254,-0.0102898636336,0.0359440968155,-0.999262918799
105080000000,,246,,105,80000000,"""map""",,,-0.00296863075346,-0.00534135196358,0.0175635404885,,0.00873277490412,-0.010296134706,0.0359051531275,-0.999264014617
105116000000,,247,,105,116000000,"""map""",,,-0.00263071223162,-0.00519986217842,0.0178308729082,,0.0087650339538,-0.0102495615329,0.035849940756,-0.999266206253
105148000000,,248,,105,148000000,"""map""",,,-0.00231392821297,-0.00510419299826,0.0180314444005,,0.00872236076359,-0.0102982169414,0.0357699881843,-0.999268945798
105180000000,,249,,105,180000000,"""map""",,,-0.00199415697716,-0.00499674119055,0.0183102078736,,0.00878950398599,-0.0102758850386,0.0357273355737,-0.99927012591
105216000000,,250,,105,216000000,"""map""",,,-0.00164734909777,-0.00491081457585,0.018584266305,,0.00879766228231,-0.0102886539697,0.0356855680468,-0.999271432462
105248000000,,251,,105,248000000,"""map""",,,-0.00144351925701,-0.00476590637118,0.0183857660741,,0.00878651509942,-0.0102764820915,0.0356876332424,-0.999271558903
105280000000,,252,,105,280000000,"""map""",,,-0.00134427414741,-0.00457105739042,0.0177429132164,,0.00876595690393,-0.0102572062468,0.0357182740012,-0.999270842406
105316000000,,253,,105,316000000,"""map""",,,-0.00118832429871,-0.00437631318346,0.0168920625001,,0.0087573619926,-0.0102525051445,0.035723626651,-0.99927080026
105348000000,,254,,105,348000000,"""map""",,,-0.00099775090348,-0.00421116035432,0.0161819197237,,0.0089730840101,-0.0102151064431,0.0357346269784,-0.999268819358
105380000000,,255,,105,380000000,"""map""",,,-0.000727404025383,-0.00405530072749,0.0155613524839,,0.00897583322763,-0.010226241978,0.0357213507212,-0.999269198679
105416000000,,256,,105,416000000,"""map""",,,-0.000441821146524,-0.0039166114293,0.0149409826845,,0.00889642020975,-0.0102242101624,0.035686073809,-0.999271179581
105448000000,,257,,105,448000000,"""map""",,,-0.000277189246845,-0.00391631666571,0.0145556982607,,0.00889555899817,-0.0102308836878,0.0356556016375,-0.999272233252
105480000000,,258,,105,480000000,"""map""",,,-0.000223741561058,-0.00403329636902,0.014181653969,,0.00889275730288,-0.0102663992401,0.0356330952204,-0.999272654721
105516000000,,259,,105,516000000,"""map""",,,-7.89405967225e-05,-0.00418729614466,0.0136732086539,,0.0088381903461,-0.0102508535972,0.0356052783004,-0.999274340595
105548000000,,260,,105,548000000,"""map""",,,9.92012137431e-05,-0.00432959385216,0.0132971359417,,0.0088716448187,-0.0102137099583,0.035552805474,-0.999276237203
105580000000,,261,,105,580000000,"""map""",,,0.000322813168168,-0.00448068184778,0.0130346110091,,0.00886957254377,-0.0101619870495,0.0355168120653,-0.999278091664
105616000000,,262,,105,616000000,"""map""",,,0.000577490078285,-0.00462790718302,0.0127030657604,,0.00884613704384,-0.0101296109024,0.0354497985762,-0.999281041944
105648000000,,263,,105,648000000,"""map""",,,0.000703621655703,-0.00469099031761,0.012372312136,,0.00879920924452,-0.0101162265615,0.0354228245932,-0.999282474937
105680000000,,264,,105,680000000,"""map""",,,0.000682750949636,-0.0046870438382,0.0120750563219,,0.00882060514979,-0.0100831559791,0.0353975364841,-0.999283570755
105716000000,,265,,105,716000000,"""map""",,,0.000711934873834,-0.00472271069884,0.0116411671042,,0.00879227139581,-0.0101095483439,0.0353340633302,-0.999285762391
105748000000,,266,,105,748000000,"""map""",,,0.000808628799859,-0.00475053535774,0.0110984556377,,0.00879194035372,-0.0100395902965,0.0352403287391,-0.999289808488
105780000000,,267,,105,780000000,"""map""",,,0.000962315476499,-0.00480713741854,0.0104954391718,,0.00880971339985,-0.0100286858696,0.035195020877,-0.999291367922
105816000000,,268,,105,816000000,"""map""",,,0.001252905,-0.0048959958367,0.00953644886613,,0.00879502263013,-0.0100388563898,0.0351682154813,-0.999292295152
105848000000,,269,,105,848000000,"""map""",,,0.00115127884783,-0.00491491146386,0.00890411157161,,0.00878236919132,-0.00993095930516,0.0351322220727,-0.99929473967
105880000000,,270,,105,880000000,"""map""",,,0.00102425389923,-0.00490819802508,0.00846796482801,,0.00880069759627,-0.00992616003858,0.0351215167732,-0.999295076844
105916000000,,271,,105,916000000,"""map""",,,0.000985720660537,-0.0048664920032,0.00799324922264,,0.00878160441535,-0.00972026939088,0.0350491927811,-0.999299797291
105948000000,,272,,105,948000000,"""map""",,,0.00103800557554,-0.00484151346609,0.00766632938758,,0.00877438009978,-0.00978370179729,0.0350427864601,-0.999299460117
105980000000,,273,,105,980000000,"""map""",,,0.0011111398926,-0.00486817769706,0.00730981817469,,0.00878868385113,-0.0097956397275,0.0350159389176,-0.999300092319
106016000000,,274,,106,16000000,"""map""",,,0.00124537304509,-0.00493644690141,0.00686820689589,,0.00872073066014,-0.00979226201156,0.0349411282615,-0.99930342192
106048000000,,275,,106,48000000,"""map""",,,0.00113405415323,-0.00491938227788,0.00661615841091,,0.00876830132238,-0.00975586684962,0.0348912263929,-0.999305107794
106080000000,,276,,106,80000000,"""map""",,,0.0010064028902,-0.00486397556961,0.00643278378993,,0.00878468549815,-0.00980443491868,0.0348509761526,-0.999305824291
106116000000,,277,,106,116000000,"""map""",,,0.000936290074605,-0.00482179922983,0.00635404186323,,0.00881587918745,-0.00985096660347,0.0348154885061,-0.999306330053
106148000000,,278,,106,148000000,"""map""",,,0.000938046956435,-0.00483351526782,0.00628479383886,,0.00876245834507,-0.00992360772586,0.0347016077214,-0.999310038976
106180000000,,279,,106,180000000,"""map""",,,0.000977069954388,-0.00485430285335,0.00617032265291,,0.00878574526089,-0.00997065599767,0.0346723156617,-0.999310418297
106216000000,,280,,106,216000000,"""map""",,,0.00108673493378,-0.00491744233295,0.0060354960151,,0.00871020864179,-0.00995779618747,0.0346017618373,-0.999313621458
106248000000,,281,,106,248000000,"""map""",,,0.00096153607592,-0.00508266733959,0.00650749029592,,0.00869733570186,-0.00995361150755,0.0345346640545,-0.999316150269
106280000000,,282,,106,280000000,"""map""",,,0.000791473779827,-0.00525519112125,0.0070829205215,,0.00870054828776,-0.00997309499957,0.0345116518752,-0.999316656031
106316000000,,283,,106,316000000,"""map""",,,0.000693102949299,-0.00541705684736,0.00758631620556,,0.00872747160404,-0.00999074460977,0.0344756163197,-0.999317541115
106348000000,,284,,106,348000000,"""map""",,,0.000654100091197,-0.00557597912848,0.00799112021923,,0.00866086493078,-0.00997073424099,0.0344433318338,-0.999319395576
106380000000,,285,,106,380000000,"""map""",,,0.000667380576488,-0.0057272692211,0.00833182875067,,0.00869631252949,-0.00991271832199,0.0344690835582,-0.999318763373
106416000000,,286,,106,416000000,"""map""",,,0.0007406368386,-0.00589669169858,0.00873621366918,,0.00864975931851,-0.00986285534864,0.0344195188644,-0.999321376478
106448000000,,287,,106,448000000,"""map""",,,0.000600747647695,-0.00589531753212,0.00910677853972,,0.00860314642695,-0.00981420846004,0.0343930927903,-0.999323188792
106480000000,,288,,106,480000000,"""map""",,,0.000441149109975,-0.00585898896679,0.00952189322561,,0.00855205444491,-0.00977895208619,0.0343371217755,-0.999325886191
106516000000,,289,,106,516000000,"""map""",,,0.00036967737833,-0.00581654626876,0.00990256108344,,0.00859837667139,-0.00980977571464,0.0342863769699,-0.999326897715
106548000000,,290,,106,548000000,"""map""",,,0.00036422337871,-0.0057833972387,0.0102647021413,,0.00856420677251,-0.00974254688145,0.0342405633456,-0.999329468673
106580000000,,291,,106,580000000,"""map""",,,0.000429567822721,-0.0057809362188,0.010621744208,,0.00857032148174,-0.00975925337359,0.0342520694352,-0.99932883647
106616000000,,292,,106,616000000,"""map""",,,0.000561894441489,-0.00582061288878,0.0109318327159,,0.00855377007683,-0.00967719564097,0.0341900292742,-0.999331955337
106648000000,,293,,106,648000000,"""map""",,,0.00051611487288,-0.00591581966728,0.0110775996,,0.00850681420705,-0.0097108844731,0.0341879219318,-0.999332039631
106680000000,,294,,106,680000000,"""map""",,,0.000467572972411,-0.00603787740692,0.0112164672464,,0.00852250773426,-0.00967302565483,0.0341963091546,-0.999331997484
106716000000,,295,,106,716000000,"""map""",,,0.000496724271215,-0.00618853000924,0.0112655600533,,0.00848567003041,-0.0096347734797,0.034206213664,-0.999332376805
106744000000,,296,,106,748000000,"""map""",,,0.00060607062187,-0.00634979316965,0.0112995132804,,0.00848061508393,-0.00952413532702,0.0341544994809,-0.999335200644
106780000000,,297,,106,780000000,"""map""",,,0.000806739728432,-0.00653435895219,0.0114631159231,,0.00848105458007,-0.00950765632084,0.034177848835,-0.999334610588
106816000000,,298,,106,816000000,"""map""",,,0.00109559390694,-0.00672934250906,0.0117750847712,,0.00845088640921,-0.00946162825796,0.0341645304309,-0.999335706406
106848000000,,299,,106,848000000,"""map""",,,0.00110341375694,-0.00657874532044,0.0120643442497,,0.00867802923483,-0.00945865529993,0.0341063256331,-0.999335832847
106880000000,,300,,106,880000000,"""map""",,,0.00101671309676,-0.00638064276427,0.0124566126615,,0.00867644872802,-0.00944647090945,0.0341041761438,-0.999335959287
106916000000,,301,,106,916000000,"""map""",,,0.000921903701965,-0.00621095532551,0.0128081925213,,0.00863581525594,-0.0094501152536,0.034098275585,-0.999336549343
106948000000,,302,,106,948000000,"""map""",,,0.000878464838024,-0.00607454311103,0.0131697617471,,0.00866545947233,-0.00943690567395,0.0340474043389,-0.999338108777
106980000000,,303,,106,980000000,"""map""",,,0.000890640832949,-0.00597435189411,0.0136164100841,,0.00860825282222,-0.00940149725864,0.0340340859347,-0.999339457476
107016000000,,304,,107,16000000,"""map""",,,0.000943180464674,-0.0058820862323,0.0141973076388,,0.0085887558712,-0.00941717333442,0.0340222848171,-0.999339794651
107048000000,,305,,107,48000000,"""map""",,,0.000667509506457,-0.00561466487125,0.0147332549095,,0.00852083099763,-0.00938803006461,0.0339978817919,-0.999341522671
107080000000,,306,,107,80000000,"""map""",,,0.000395691546146,-0.00530443713069,0.0152746681124,,0.00852096068973,-0.00940032579027,0.0339703177529,-0.999342365608
107116000000,,307,,107,116000000,"""map""",,,0.000217902837903,-0.00500958226621,0.0157419871539,,0.00852778139984,-0.0094033937845,0.0339542176568,-0.999342787077
107148000000,,308,,107,144000000,"""map""",,,0.000108158135845,-0.00471279025078,0.0161914750934,,0.008542689942,-0.00934402031716,0.0339423743924,-0.999343587867
107180000000,,309,,107,180000000,"""map""",,,5.7375014876e-05,-0.00443563424051,0.0165437776595,,0.00859723393203,-0.00933219742645,0.0339476006016,-0.999343082105
107216000000,,310,,107,216000000,"""map""",,,2.46048075496e-05,-0.00414896709844,0.0168448351324,,0.00857949521253,-0.00929064343263,0.0339960694774,-0.999341986287
107248000000,,311,,107,248000000,"""map""",,,2.46122799581e-05,-0.0039478414692,0.0170019660145,,0.00861683087892,-0.0092522567292,0.0339452825249,-0.999343714308
107280000000,,312,,107,280000000,"""map""",,,7.34801069484e-05,-0.00377773097716,0.0170166585594,,0.00861519081499,-0.00919965775038,0.0338962235933,-0.999345905944
107316000000,,313,,107,316000000,"""map""",,,0.000168989077793,-0.00362821412273,0.0168713107705,,0.00863086569716,-0.00916977542899,0.0338975722924,-0.999345990237
107348000000,,314,,107,348000000,"""map""",,,-0.00014541298151,-0.003500882769,0.0163707993925,,0.00867240877354,-0.00891493373773,0.0338768781898,-0.999348645489
107380000000,,315,,107,380000000,"""map""",,,-0.00075709936209,-0.0033749344293,0.0160003527999,,0.00873081209164,-0.00889170986726,0.0338652456596,-0.999348729783
107416000000,,316,,107,416000000,"""map""",,,-0.0014097149251,-0.00326014519669,0.0155816115439,,0.00867656301636,-0.00893774162417,0.0337909407657,-0.99935130074
107448000000,,317,,107,448000000,"""map""",,,-0.00182810728438,-0.00320278177969,0.0152489356697,,0.00873835591448,-0.00894472711446,0.0338099911412,-0.999350036335
107480000000,,318,,107,480000000,"""map""",,,-0.00217237113975,-0.00314560183324,0.0149107621983,,0.0087400295539,-0.00898463265818,0.0337948604226,-0.999350162775
107516000000,,319,,107,516000000,"""map""",,,-0.00245347851887,-0.00311435223557,0.0146775916219,,0.00878001618092,-0.00900260189913,0.0337137277392,-0.999352480852
107548000000,,320,,107,548000000,"""map""",,,-0.00275291409343,-0.00294509832747,0.0145868910477,,0.00881499264248,-0.00904525334708,0.0336576302838,-0.999353618817
107580000000,,321,,107,580000000,"""map""",,,-0.0030717770569,-0.00266835326329,0.0146112693474,,0.00879903343372,-0.00904029981645,0.0336787458549,-0.999353155202
107616000000,,322,,107,616000000,"""map""",,,-0.00341099081561,-0.00232587987557,0.0145788434893,,0.00875549686079,-0.00897315086266,0.0336750790791,-0.999354208873
107648000000,,323,,107,648000000,"""map""",,,-0.00363611197099,-0.00205432507209,0.0143893463537,,0.0087146485077,-0.00898061232628,0.0336612970597,-0.999355009663
107680000000,,324,,107,680000000,"""map""",,,-0.00382128614001,-0.00178561662324,0.0141445565969,,0.00868344114331,-0.00900517629367,0.0336272845529,-0.999356147628
107716000000,,325,,107,716000000,"""map""",,,-0.00395084358752,-0.00150506175123,0.0137838842347,,0.00871407074808,-0.00900926383827,0.0336222269311,-0.999356063334
107748000000,,326,,107,748000000,"""map""",,,-0.00406492687762,-0.00132418749854,0.0134176434949,,0.00875281478908,-0.00891594489681,0.0335789842645,-0.999358002089
107780000000,,327,,107,780000000,"""map""",,,-0.00415982212871,-0.00125776091591,0.0130768930539,,0.00870971045287,-0.00891712233838,0.0335547076798,-0.999359182201
107816000000,,328,,107,816000000,"""map""",,,-0.00422194460407,-0.00117035512812,0.01247139927,,0.00874157648524,-0.00895871958005,0.0335455618136,-0.999358802879
107848000000,,329,,107,848000000,"""map""",,,-0.00422939611599,-0.00112475047354,0.011974375695,,0.00869017897971,-0.0089800295041,0.0334822572472,-0.999361247397
107880000000,,330,,107,880000000,"""map""",,,-0.00419527245685,-0.00108470686246,0.0114721441641,,0.00868053721928,-0.00896239830228,0.0334361064481,-0.999362975417
107916000000,,331,,107,916000000,"""map""",,,-0.004138185177,-0.00104287173599,0.0109218172729,,0.00871936388188,-0.00895421898398,0.0333886490966,-0.999364324116
107948000000,,332,,107,948000000,"""map""",,,-0.00411984790117,-0.000974945607595,0.0102363592014,,0.00874033685752,-0.00901637408159,0.0333326780818,-0.999365504228
107980000000,,333,,107,980000000,"""map""",,,-0.00415168795735,-0.000904888496734,0.00935568660498,,0.00876057796384,-0.00896383268424,0.0332811746329,-0.999367442983
108016000000,,334,,108,16000000,"""map""",,,-0.00411378405988,-0.000828958698548,0.00806583743542,,0.00878200902921,-0.00904254384802,0.0332134446474,-0.999368833829
108048000000,,335,,108,48000000,"""map""",,,-0.00405315216631,-0.000741341849789,0.00691597210243,,0.00881703215482,-0.00896381312341,0.033176271127,-0.99937043541
108080000000,,336,,108,80000000,"""map""",,,-0.00397466076538,-0.000645581632853,0.00587775604799,,0.00883048047229,-0.00899794069538,0.0331556191712,-0.999370772584
108116000000,,337,,108,116000000,"""map""",,,-0.00384947517887,-0.000572883756831,0.00487846368924,,0.0088448333881,-0.00896312811879,0.0331186142382,-0.999372121283
108148000000,,338,,108,148000000,"""map""",,,-0.003948608879,-0.000496165012009,0.00394011475146,,0.00888330805867,-0.00897825106864,0.0331250205592,-0.999371446934
108180000000,,339,,108,180000000,"""map""",,,-0.00425416370854,-0.000459570379462,0.00309804547578,,0.00889163888593,-0.00896793143696,0.0331270014611,-0.999371404787
108216000000,,340,,108,216000000,"""map""",,,-0.00457259546965,-0.000400717515731,0.00193064974155,,0.00893357710639,-0.00892217629254,0.03311671763,-0.999371741962
108248000000,,341,,108,248000000,"""map""",,,-0.00477982033044,-0.000354816846084,0.00102924543899,,0.00892894085401,-0.00891910230582,0.0330403053937,-0.999374397213
108280000000,,342,,108,280000000,"""map""",,,-0.00495041394606,-0.000271836819593,0.000119940843433,,0.00894649931432,-0.00890915398584,0.033031328115,-0.999374607948
108316000000,,343,,108,316000000,"""map""",,,-0.00504259392619,-0.000186598757864,-0.000871776428539,,0.00891183368126,-0.00889063029608,0.0329988328948,-0.999376167381
108348000000,,344,,108,348000000,"""map""",,,-0.00540735991672,5.85278576182e-05,-0.00160285271704,,0.00893803569773,-0.00889103479482,0.0329897713223,-0.999376209528
108380000000,,345,,108,380000000,"""map""",,,-0.00607429211959,0.000431645661592,-0.00217047170736,,0.00896294772905,-0.00887778295257,0.0330063771806,-0.999375535178
108416000000,,346,,108,416000000,"""map""",,,-0.00677662342787,0.000910693954211,-0.00289964745753,,0.0091154408664,-0.0088550573276,0.032965663325,-0.999375703766
108448000000,,347,,108,448000000,"""map""",,,-0.00724678952247,0.00129989895504,-0.00339494249783,,0.00906746530218,-0.00887782249096,0.0328904733472,-0.999378401164
108480000000,,348,,108,480000000,"""map""",,,-0.00764065189287,0.00168855313677,-0.00383362593129,,0.00910011923161,-0.00891749650485,0.0329014736747,-0.999377431786
108516000000,,349,,108,516000000,"""map""",,,-0.00798888504505,0.00209034490399,-0.0042360983789,,0.00905043420419,-0.00893658818861,0.0328646794759,-0.999378906926
108548000000,,350,,108,548000000,"""map""",,,-0.00827880017459,0.00235568382777,-0.00445209769532,,0.00907913994835,-0.00889256469919,0.032779795723,-0.999381857205
108580000000,,351,,108,580000000,"""map""",,,-0.00851190183312,0.00249908561818,-0.00458343233913,,0.00909872731548,-0.00886786834377,0.0327964437282,-0.999381309296
108616000000,,352,,108,616000000,"""map""",,,-0.00878645014018,0.00266612158157,-0.00475729303434,,0.00915155530316,-0.0089275974663,0.0327564042221,-0.999381646471
108648000000,,353,,108,648000000,"""map""",,,-0.00895875040442,0.00276615633629,-0.00483506312594,,0.00911307787494,-0.00889478218318,0.0327359208537,-0.999382910877
108680000000,,354,,108,680000000,"""map""",,,-0.00906916055828,0.00285769882612,-0.00504708569497,,0.00910144030277,-0.00892427421405,0.0327314532878,-0.999382910877
108716000000,,355,,108,716000000,"""map""",,,-0.00913474522531,0.0029344658833,-0.00531850755215,,0.00900595748695,-0.00887878240705,0.0326586235336,-0.999386535506
108748000000,,356,,108,748000000,"""map""",,,-0.00917234923691,0.00295398943126,-0.00527179567143,,0.00896546431058,-0.00891220413249,0.0326090166929,-0.999388263526
108780000000,,357,,108,780000000,"""map""",,,-0.00920076295733,0.00293895765208,-0.00488354824483,,0.00893129325152,-0.00891530111039,0.032600924498,-0.999388769289
108816000000,,358,,108,816000000,"""map""",,,-0.00924645643681,0.00295031745918,-0.00446585193276,,0.00888817932397,-0.00890494912643,0.0325021744319,-0.999392520358
108848000000,,359,,108,848000000,"""map""",,,-0.00924383755773,0.00294805318117,-0.00418488727883,,0.00882631958744,-0.00892635183966,0.032403382219,-0.999396060693
108880000000,,360,,108,880000000,"""map""",,,-0.00921869557351,0.00297462125309,-0.00393154053017,,0.00884331694789,-0.00890198009781,0.0323950792898,-0.999396440015
108916000000,,361,,108,916000000,"""map""",,,-0.00917793251574,0.00300877494738,-0.0035938648507,,0.00877388279578,-0.00887512714032,0.0323598023776,-0.999398420917
108948000000,,362,,108,948000000,"""map""",,,-0.0090395770967,0.00306576467119,-0.00318501680158,,0.00881610737826,-0.0088929209872,0.0323219966545,-0.999399137413
108980000000,,363,,108,980000000,"""map""",,,-0.00882404204458,0.00319343060255,-0.00267976080067,,0.00879493461154,-0.00888562487484,0.0322972986013,-0.999400148938
109016000000,,364,,109,16000000,"""map""",,,-0.00862592551857,0.00329230586067,-0.002283585025,,0.00882556671672,-0.0086415137136,0.0322848231341,-0.999402424868
109048000000,,365,,109,48000000,"""map""",,,-0.00842653773725,0.00340838776901,-0.00192590570077,,0.00882455074718,-0.00864245329198,0.0323024826637,-0.999401876959
109080000000,,366,,109,80000000,"""map""",,,-0.00820831209421,0.00352767552249,-0.00167504220735,,0.00883111935822,-0.00863823305066,0.0323283186818,-0.999400991875
109116000000,,367,,109,116000000,"""map""",,,-0.00795091874897,0.00363218900748,-0.00146005873103,,0.00877964575478,-0.00865882355085,0.0323461467987,-0.999400696847
109148000000,,368,,109,148000000,"""map""",,,-0.00772970030084,0.00379299349152,-0.00115999090485,,0.00876797853267,-0.00867947990549,0.0323516680359,-0.999400401819
109180000000,,369,,109,180000000,"""map""",,,-0.00752882147208,0.0040090251714,-0.000733915832825,,0.00879076710523,-0.00867911740761,0.032353016735,-0.999400148938
109216000000,,370,,109,216000000,"""map""",,,-0.00727121764794,0.00429658452049,-0.000227540585911,,0.0088044091634,-0.00864836899729,0.0323281500944,-0.999401160462
109248000000,,371,,109,248000000,"""map""",,,-0.00705419527367,0.00454515963793,4.93135303259e-07,,0.00883908284369,-0.0086857730134,0.0323208586896,-0.99940078114
109280000000,,372,,109,280000000,"""map""",,,-0.00681339250877,0.0047966055572,6.6259985033e-05,,0.00886485529171,-0.00871885732224,0.0323239775564,-0.999400106791
109316000000,,373,,109,316000000,"""map""",,,-0.00654595857486,0.00506575684994,-1.11576373456e-05,,0.00890288018152,-0.00875939152388,0.0323282765349,-0.999399263854
109348000000,,374,,109,348000000,"""map""",,,-0.00631238287315,0.00528059899807,-0.000153916684212,,0.00883918863269,-0.00879455492462,0.0322899229028,-0.99940078114
109380000000,,375,,109,380000000,"""map""",,,-0.00609493628144,0.00546519411728,-0.000345356791513,,0.0088627683693,-0.00880989121716,0.0322747500373,-0.999400949728
109416000000,,376,,109,416000000,"""map""",,,-0.00579469045624,0.00571599276736,-0.000494113657624,,0.00884987022461,-0.00874510218333,0.0322495040751,-0.999402424868
109448000000,,377,,109,448000000,"""map""",,,-0.00552492775023,0.0059709046036,-0.000590342038777,,0.00891761693617,-0.00873040254898,0.0322452050965,-0.999402087693
109480000000,,378,,109,480000000,"""map""",,,-0.00522649800405,0.00626281509176,-0.000625014188699,,0.0088773487608,-0.00868924828139,0.0322476917606,-0.999402719895
109516000000,,379,,109,516000000,"""map""",,,-0.00489264028147,0.00661559170112,-0.000588110997342,,0.00884570670558,-0.00869550212873,0.0322390516567,-0.999403267805
109548000000,,380,,109,548000000,"""map""",,,-0.00463849678636,0.00691412482411,-0.000387621694244,,0.00881052640392,-0.00862340684714,0.0321735976009,-0.999406260231
109580000000,,381,,109,580000000,"""map""",,,-0.00442851707339,0.00714164413512,-5.79699408263e-05,,0.00878177899652,-0.00862565969188,0.0321370141364,-0.999407693224
109616000000,,382,,109,616000000,"""map""",,,-0.00413403427228,0.00743488734588,0.000368332664948,,0.00879610631656,-0.00861865802095,0.0321085228668,-0.999408536161
109648000000,,383,,109,648000000,"""map""",,,-0.00389218144119,0.00766817247495,0.000655166048091,,0.00876531828554,-0.00871449181012,0.0321039288603,-0.999408156839
109680000000,,384,,109,680000000,"""map""",,,-0.00365682831034,0.00791899394244,0.000966530642472,,0.00880110237991,-0.0087108367852,0.0320497280131,-0.999409589832
109716000000,,385,,109,716000000,"""map""",,,-0.0034075002186,0.00819946173579,0.00128485646565,,0.0087887397348,-0.00866983888592,0.0320312676935,-0.99941068565
109748000000,,386,,109,748000000,"""map""",,,-0.00327939540148,0.00852664746344,0.00160082580987,,0.00883675866005,-0.00865426513149,0.0320555864251,-0.999409547685
109780000000,,387,,109,780000000,"""map""",,,-0.0032354015857,0.00890752859414,0.00184739532415,,0.0088326988978,-0.00865667062994,0.0320225432958,-0.999410643503
109816000000,,388,,109,816000000,"""map""",,,-0.00312041677535,0.00943973846734,0.00207428843714,,0.00890114648078,-0.00862243048287,0.0319859176845,-0.999411528587
109848000000,,389,,109,848000000,"""map""",,,-0.0029715676792,0.00990515202284,0.00217274297029,,0.00890301927847,-0.00857056098615,0.031955740541,-0.999412877286
109880000000,,390,,109,880000000,"""map""",,,-0.00278579373844,0.0103979092091,0.00207113591023,,0.00892259310427,-0.0085793506723,0.0319405676755,-0.999413130167
109916000000,,391,,109,916000000,"""map""",,,-0.00259403814562,0.0109042366967,0.00186084699817,,0.00894058821367,-0.00836426636255,0.0319361844033,-0.999414984628
109948000000,,392,,109,948000000,"""map""",,,-0.00233114371076,0.011207931675,0.00186626415234,,0.00896290883891,-0.008337102801,0.0319202528945,-0.999415490391
109980000000,,393,,109,980000000,"""map""",,,-0.00205767247826,0.0113703701645,0.00193054811098,,0.00898846878284,-0.00832963307471,0.0319166282655,-0.999415406097
110016000000,,394,,110,16000000,"""map""",,,-0.00170896400232,0.0116321202368,0.0019254158251,,0.00897705791462,-0.00837573870179,0.0318610787192,-0.999416923383
110048000000,,395,,110,48000000,"""map""",,,-0.001384345931,0.0118785034865,0.00176953978371,,0.00900168017349,-0.00844235383323,0.0318728798368,-0.999415743272
110080000000,,396,,110,80000000,"""map""",,,-0.00103905634023,0.0121848657727,0.00156561296899,,0.00898827988346,-0.00844852330456,0.0318215871221,-0.999417471292
110116000000,,397,,110,116000000,"""map""",,,-0.000707910396159,0.0125476829708,0.00125719211064,,0.00896096508305,-0.00848902875146,0.0317528877591,-0.999419578635
110148000000,,398,,110,148000000,"""map""",,,-0.000482581410324,0.0129239652306,0.000920626334846,,0.00902057587337,-0.00849315189863,0.0317267988598,-0.999419789369
110176000000,,399,,110,176000000,"""map""",,,-0.000363089697203,0.0133367246017,0.000672562979162,,0.00898392569007,-0.00844979419256,0.031666107398,-0.999422402474
110216000000,,400,,110,216000000,"""map""",,,-0.000223244001972,0.0138849280775,0.000478623260278,,0.00897460961077,-0.00847027128418,0.0316161212357,-0.99942391976
110248000000,,401,,110,248000000,"""map""",,,-0.000137204639032,0.0143374167383,0.000448419828899,,0.00892373081194,-0.00850577438585,0.0316038143559,-0.999424509816
110280000000,,402,,110,280000000,"""map""",,,-3.17248122883e-05,0.0148279936984,0.000416143593611,,0.0089221316395,-0.00853609663555,0.0316362674292,-0.999423161117
110316000000,,403,,110,316000000,"""map""",,,0.000102893609437,0.0153375407681,0.000396511808503,,0.00898241344551,-0.0085529567332,0.0315922661194,-0.99942391976
110348000000,,404,,110,348000000,"""map""",,,0.000134562957101,0.0156132644042,0.00054948363686,,0.00892304452624,-0.00852474581835,0.0315798327991,-0.999425057725
110380000000,,405,,110,380000000,"""map""",,,8.79291474121e-05,0.0157128442079,0.000611349008977,,0.00898051459416,-0.00851000738647,0.0316010326639,-0.999424004054
110416000000,,406,,110,416000000,"""map""",,,7.48024322093e-05,0.0159245226532,0.000877383514307,,0.00897268906861,-0.00845376575101,0.0315105012333,-0.999427375802
110448000000,,407,,110,448000000,"""map""",,,9.45685533225e-05,0.0161479189992,0.0011543056462,,0.00902439277676,-0.00841713744374,0.0314469437857,-0.999429314557
110480000000,,408,,110,480000000,"""map""",,,0.000108696513053,0.0163872856647,0.00145803927444,,0.0090016286218,-0.00839773894512,0.0314421811919,-0.999429778172
110516000000,,409,,110,516000000,"""map""",,,0.000125102844322,0.0166629422456,0.0017828552518,,0.0089968481649,-0.00834672882839,0.0313343274065,-0.999433613535
110548000000,,410,,110,548000000,"""map""",,,0.00016093213344,0.0167817529291,0.00184172205627,,0.00905103061399,-0.00831028229999,0.0312825710765,-0.999435046528
110580000000,,411,,110,580000000,"""map""",,,0.000249986187555,0.0168002620339,0.00190622452646,,0.00903783099483,-0.00831280954685,0.0312286652573,-0.999436858843
110612000000,,412,,110,612000000,"""map""",,,0.000387014209991,0.0169415473938,0.00186408241279,,0.00902200534712,-0.00814311266995,0.0312054844906,-0.999439134773
110648000000,,413,,110,648000000,"""map""",,,0.000565528112929,0.0171641595662,0.00190942059271,,0.00901283540296,-0.00817905903381,0.0311446665882,-0.9994407785
110680000000,,414,,110,680000000,"""map""",,,0.00074853701517,0.0174464993179,0.00182131654583,,0.00899946159878,-0.00822854741881,0.0311539810417,-0.999440230591
110716000000,,415,,110,716000000,"""map""",,,0.000948089698795,0.0177472215146,0.00178444338962,,0.00898807721639,-0.00825429992527,0.0311546553913,-0.999440062003
110748000000,,416,,110,744000000,"""map""",,,0.00108894694131,0.0179285462946,0.00185553799383,,0.00895464151231,-0.00827259964238,0.0311190413043,-0.999441368556
110780000000,,417,,110,780000000,"""map""",,,0.00119005376473,0.018087266013,0.00202634348534,,0.0089567706896,-0.00828967889129,0.0310769787495,-0.999442548667
110816000000,,418,,110,816000000,"""map""",,,0.00130285404157,0.018309013918,0.00212776940316,,0.00899400082424,-0.0082802867501,0.0310422497463,-0.999443391604
110848000000,,419,,110,848000000,"""map""",,,0.00146248447709,0.0185663364828,0.00245953723788,,0.0090323725252,-0.00832069146027,0.0309912942065,-0.999444276688
110880000000,,420,,110,880000000,"""map""",,,0.00160940177739,0.018858006224,0.00276134954765,,0.00904596154996,-0.00832027727694,0.0310129155398,-0.999443475898
110916000000,,421,,110,916000000,"""map""",,,0.00173727865331,0.0191874969751,0.00301768025383,,0.00905230246923,-0.00829475427324,0.030996436122,-0.999444108101
110948000000,,422,,110,948000000,"""map""",,,0.00175363221206,0.0193079933524,0.00315708015114,,0.00905293388994,-0.00834148142228,0.0309154298792,-0.999446215443
110980000000,,423,,110,980000000,"""map""",,,0.0016926752869,0.0192528944463,0.00327419117093,,0.00902494282606,-0.00834517482799,0.0309159777882,-0.999446426177
111016000000,,424,,111,16000000,"""map""",,,0.00164456223138,0.0193010307848,0.00328815472312,,0.00906742643777,-0.00830965466591,0.0309017743002,-0.999446805499
111048000000,,425,,111,48000000,"""map""",,,0.0016492693685,0.019402757287,0.00323340855539,,0.00906182407616,-0.00831142034721,0.0309060311319,-0.999446679058
