rosbagTimestamp,header,seq,stamp,secs,nsecs,frame_id,pose,position,x,y,z,orientation,x,y,z,w
102924000000,,319,,102,916000000,"""map""",,,-0.00519080646336,-0.00674021523446,0.0119442008436,,0.00866791864216,-0.0107937587598,0.0406427539281,-0.999077851987
102952000000,,320,,102,952000000,"""map""",,,-0.00548864668235,-0.00670437980443,0.0123309008777,,0.00865849215376,-0.0107935138635,0.0406131246936,-0.999079158539
102984000000,,321,,102,984000000,"""map""",,,-0.00574923818931,-0.00670479657128,0.0127102322876,,0.00870666394365,-0.0107118590367,0.0404928797348,-0.999084511189
103020000000,,322,,103,20000000,"""map""",,,-0.00598997157067,-0.00670622428879,0.0130128348246,,0.00876158260435,-0.0106973249594,0.040407405926,-0.999087630056
103052000000,,323,,103,52000000,"""map""",,,-0.0063988044858,-0.00646983971819,0.0132256122306,,0.00874186899219,-0.0106967119367,0.0403684200911,-0.999089358077
103084000000,,324,,103,84000000,"""map""",,,-0.00680614588782,-0.00617849128321,0.0134032499045,,0.00875125185202,-0.0105538157634,0.0402620835923,-0.999095132195
103120000000,,325,,103,120000000,"""map""",,,-0.00715959491208,-0.00589792290702,0.0135825509205,,0.00895404742285,-0.0105373658978,0.0402212011493,-0.999095132195
103152000000,,326,,103,152000000,"""map""",,,-0.00745526747778,-0.0056856428273,0.0138662653044,,0.00893904495578,-0.0105288372525,0.0401804451468,-0.999097028803
103184000000,,327,,103,184000000,"""map""",,,-0.00769887166098,-0.00555595709011,0.0142257474363,,0.00893759829813,-0.0104990781201,0.0400824115771,-0.999101243488
103220000000,,328,,103,220000000,"""map""",,,-0.00791632011533,-0.00543830590323,0.0146483667195,,0.00889010077549,-0.0105004867468,0.0400359236032,-0.999103477271
103252000000,,329,,103,252000000,"""map""",,,-0.00812267139554,-0.00533837499097,0.0149373132735,,0.00885295606643,-0.0105034885573,0.0399656648068,-0.999106638285
103284000000,,330,,103,284000000,"""map""",,,-0.00828089378774,-0.00527007924393,0.0151280108839,,0.00882116499494,-0.0104249721066,0.0398794323547,-0.999111190144
103320000000,,331,,103,320000000,"""map""",,,-0.00834297481924,-0.00522506143898,0.0155277810991,,0.00879278625414,-0.0104512922373,0.0398274231436,-0.999113297487
103352000000,,332,,103,352000000,"""map""",,,-0.00837147701532,-0.00519471941516,0.0159144252539,,0.00873984816605,-0.0103992056472,0.0398258215634,-0.999114309011
103384000000,,333,,103,384000000,"""map""",,,-0.00836345460266,-0.00514633860439,0.0162358041853,,0.00873777622039,-0.0104565597702,0.0398017135661,-0.99911473048
103420000000,,334,,103,420000000,"""map""",,,-0.00829958543181,-0.00507433293387,0.0165926907212,,0.0087034969208,-0.0104491782271,0.0396925532284,-0.999119450927
103452000000,,335,,103,452000000,"""map""",,,-0.00838854257017,-0.00499152671546,0.0166075527668,,0.00867141987636,-0.0104807178992,0.0396405440173,-0.999121473975
103484000000,,336,,103,484000000,"""map""",,,-0.00849668402225,-0.00490016117692,0.016620747745,,0.00868269522847,-0.0104802940435,0.0395370313574,-0.999125435779
103520000000,,337,,103,520000000,"""map""",,,-0.00855010095984,-0.00482006324455,0.0166385900229,,0.00869517925671,-0.0105147418482,0.0394278288729,-0.999129271142
103552000000,,338,,103,552000000,"""map""",,,-0.00855652242899,-0.00475538754836,0.0166087634861,,0.00866395371032,-0.0105272094128,0.0393828581855,-0.999131167751
103584000000,,339,,103,584000000,"""map""",,,-0.00850303657353,-0.0046727959998,0.0163177773356,,0.00869243633651,-0.0105724864057,0.0392652263314,-0.999135087407
103620000000,,340,,103,620000000,"""map""",,,-0.00838038232177,-0.0045485063456,0.0159656815231,,0.00867828512054,-0.0105555977848,0.03917684439,-0.999138838477
103652000000,,341,,103,652000000,"""map""",,,-0.00836132653058,-0.00449728313833,0.0154124908149,,0.00868332850133,-0.0105911892343,0.0391647060977,-0.999138922771
103684000000,,342,,103,684000000,"""map""",,,-0.00835198629647,-0.00448481692001,0.0146802002564,,0.00866155825467,-0.0103926144399,0.0391158579002,-0.999143095309
103720000000,,343,,103,720000000,"""map""",,,-0.00827043503523,-0.0044996640645,0.013868114911,,0.00865650565425,-0.0104237019389,0.0389649721826,-0.999148742986
103752000000,,344,,103,752000000,"""map""",,,-0.0081227645278,-0.00457691354677,0.0129968775436,,0.0086564534646,-0.0104841900751,0.0389149860202,-0.999150091686
103784000000,,345,,103,784000000,"""map""",,,-0.00793726462871,-0.00468870671466,0.0122700445354,,0.00871781178508,-0.0105506842196,0.0388683294589,-0.999150639595
103820000000,,346,,103,820000000,"""map""",,,-0.00764896580949,-0.00484202709049,0.0118123413995,,0.00876841245176,-0.0105223252351,0.038815182283,-0.999152536203
103852000000,,347,,103,852000000,"""map""",,,-0.00753713259473,-0.00480671972036,0.0111998841166,,0.00880067446489,-0.0105221870231,0.0387534371499,-0.999154685692
103884000000,,348,,103,884000000,"""map""",,,-0.00739395897835,-0.00476098107174,0.0105716204271,,0.00881237013303,-0.0105596398487,0.0386353416804,-0.999158731789
103920000000,,349,,103,920000000,"""map""",,,-0.00717573147267,-0.00474625313655,0.00990867521614,,0.00879736025734,-0.0105645937497,0.0384532672948,-0.999165896754
103952000000,,350,,103,952000000,"""map""",,,-0.00692766718566,-0.00476688239723,0.00919350981712,,0.00878618788512,-0.0105822422486,0.0384162623618,-0.999167161159
103984000000,,351,,103,984000000,"""map""",,,-0.00667579146102,-0.00486007332802,0.00861689727753,,0.00880720903741,-0.010609584605,0.0382924349209,-0.999171460138
104020000000,,352,,104,20000000,"""map""",,,-0.00634871516377,-0.00503208348528,0.00790811423212,,0.00883262292852,-0.0106368819334,0.0382062867625,-0.99917424183
104052000000,,353,,104,52000000,"""map""",,,-0.00666547613218,-0.00505135767162,0.00757819134742,,0.0087817978628,-0.0105914014503,0.0381540246704,-0.999177192109
104084000000,,354,,104,84000000,"""map""",,,-0.00710508320481,-0.00503460410982,0.00728287920356,,0.00877470130486,-0.0106443221693,0.0381264184846,-0.999177740018
104120000000,,355,,104,120000000,"""map""",,,-0.00749376509339,-0.00505441846326,0.00674465438351,,0.00873811372445,-0.0105741228065,0.0380128327279,-0.999183092668
104152000000,,356,,104,152000000,"""map""",,,-0.00782584492117,-0.00511642405763,0.00618151016533,,0.00871388126219,-0.0105921043642,0.0379864909475,-0.999184146339
104184000000,,357,,104,184000000,"""map""",,,-0.00809984374791,-0.00520795863122,0.00567248417065,,0.008672393946,-0.0105764142121,0.0379192245773,-0.999187265206
104220000000,,358,,104,220000000,"""map""",,,-0.00841442495584,-0.0053499196656,0.00509982835501,,0.00866796795068,-0.0105234414681,0.0378820932038,-0.999189246108
104252000000,,359,,104,252000000,"""map""",,,-0.00876994524151,-0.00535246124491,0.00501119019464,,0.00864720256062,-0.0105382799576,0.0378417165229,-0.999190763394
104284000000,,360,,104,284000000,"""map""",,,-0.00909809675068,-0.00531622953713,0.00497906841338,,0.00867017144061,-0.0104833361075,0.0377416177577,-0.999194935932
104320000000,,361,,104,320000000,"""map""",,,-0.00936384964734,-0.00530692562461,0.00493150064722,,0.00869744399127,-0.0104822736283,0.0377042335031,-0.999196158191
104352000000,,362,,104,352000000,"""map""",,,-0.00955646019429,-0.00532542029396,0.00485510565341,,0.00871659002039,-0.0104409280638,0.0376968578046,-0.9991967061
104384000000,,363,,104,384000000,"""map""",,,-0.00970158353448,-0.00534701440483,0.00489213643596,,0.00874324749048,-0.0104181902506,0.0376113418489,-0.999199951407
104420000000,,364,,104,420000000,"""map""",,,-0.0098134689033,-0.00542512303218,0.00495332852006,,0.00867497140689,-0.0104577169152,0.0376040504441,-0.999200330729
104452000000,,365,,104,452000000,"""map""",,,-0.00973278284073,-0.00537365395576,0.00485650310293,,0.00868531022639,-0.0104297238345,0.0375925865014,-0.999201005079
104484000000,,366,,104,484000000,"""map""",,,-0.00958656147122,-0.00532953906804,0.00471622589976,,0.00866456870857,-0.0103939200867,0.0375356882559,-0.999203702477
104520000000,,367,,104,520000000,"""map""",,,-0.00943434517831,-0.00536388065666,0.00461815111339,,0.00871444234211,-0.010385591392,0.0374853649187,-0.999205219763
104552000000,,368,,104,552000000,"""map""",,,-0.00926002953202,-0.00544858537614,0.00442937575281,,0.00868307035188,-0.0103374954993,0.0374604982781,-0.999206905637
104584000000,,369,,104,584000000,"""map""",,,-0.00905671808869,-0.00555064855143,0.00432703644037,,0.00872470230091,-0.0103746886937,0.0373770475181,-0.999209350155
104620000000,,370,,104,620000000,"""map""",,,-0.00877918861806,-0.00568036688492,0.00410659844056,,0.00895024992594,-0.010381591475,0.0372722704527,-0.999211204616
104652000000,,371,,104,652000000,"""map""",,,-0.0085451323539,-0.00563438003883,0.00400894647464,,0.00894359385196,-0.0104088389186,0.0372420511623,-0.9992120897
104684000000,,372,,104,684000000,"""map""",,,-0.00826201215386,-0.00558138033375,0.00378152937628,,0.008944641267,-0.0103259976415,0.0372048354951,-0.999214323483
104720000000,,373,,104,720000000,"""map""",,,-0.00796293187886,-0.00558827677742,0.00351842003874,,0.00897429602011,-0.0103995499837,0.0371115223724,-0.999216768
104752000000,,374,,104,752000000,"""map""",,,-0.00763981463388,-0.00565052032471,0.00316492188722,,0.00900714068049,-0.010395627281,0.0370733373277,-0.999217863818
104784000000,,375,,104,784000000,"""map""",,,-0.00727923959494,-0.00573934894055,0.00275415345095,,0.00899482647442,-0.0104078729985,0.0370176613408,-0.999219929013
104820000000,,376,,104,820000000,"""map""",,,-0.00679004192352,-0.00585770513862,0.00225360016339,,0.00898846419361,-0.0105058230153,0.0369673380037,-0.999220856244
104852000000,,377,,104,852000000,"""map""",,,-0.0063567222096,-0.00583349075168,0.00194328348152,,0.00896411237015,-0.0104731857141,0.036928014994,-0.999222837146
104884000000,,378,,104,884000000,"""map""",,,-0.00589019060135,-0.00576949259266,0.0016492891591,,0.00892162176141,-0.0105016045438,0.0368879754879,-0.999224438726
104920000000,,379,,104,920000000,"""map""",,,-0.0054014804773,-0.00572110665962,0.00149597111158,,0.00883572689574,-0.0105274915168,0.0368219735232,-0.999227389006
104952000000,,380,,104,952000000,"""map""",,,-0.00489095365629,-0.0057016229257,0.00144218234345,,0.0088552559508,-0.0105002667106,0.036746362077,-0.999230254991
104984000000,,381,,104,984000000,"""map""",,,-0.00436309818178,-0.00570774730295,0.00150590180419,,0.00881405905274,-0.0105107253852,0.0366741645255,-0.999233163124
105020000000,,382,,105,16000000,"""map""",,,-0.00372707215138,-0.00573992589489,0.00166801712476,,0.00883747294418,-0.010519865983,0.0366639228413,-0.999233205271
105052000000,,383,,105,52000000,"""map""",,,-0.00343016418628,-0.00564071442932,0.00187373044901,,0.00883278937564,-0.0104891896627,0.0366232511325,-0.999235101879
105084000000,,384,,105,84000000,"""map""",,,-0.00318556604907,-0.00551413884386,0.00213056337088,,0.00892190254832,-0.0105101377166,0.0364971899086,-0.999238684361
105120000000,,385,,105,120000000,"""map""",,,-0.00291611254215,-0.00540604023263,0.00220255670138,,0.00890723001205,-0.0104758422003,0.0364440005857,-0.999241128878
105152000000,,386,,105,152000000,"""map""",,,-0.00260783173144,-0.00531484931707,0.00225737551227,,0.00887947655926,-0.0105031346719,0.0364008422129,-0.999242646165
105184000000,,387,,105,184000000,"""map""",,,-0.00229861750267,-0.00521413097158,0.00235432269983,,0.00891652009942,-0.0104545363098,0.0363517411343,-0.999244627067
105220000000,,388,,105,220000000,"""map""",,,-0.00188164855354,-0.0051224664785,0.00244385958649,,0.00894815180314,-0.0104702368341,0.0363166749564,-0.999245470004
105252000000,,389,,105,252000000,"""map""",,,-0.00174694880843,-0.00494313240051,0.00186864030547,,0.00893468185146,-0.0105014031938,0.0363291082767,-0.999244753507
105284000000,,390,,105,284000000,"""map""",,,-0.00164398504421,-0.00475634541363,0.00107332074549,,0.00896337982171,-0.0104235277539,0.0363497602325,-0.99924458492
105320000000,,391,,105,320000000,"""map""",,,-0.00151781411842,-0.00460599921644,0.00020148679323,,0.0088719269227,-0.0104268186654,0.0363705386288,-0.999244627067
105352000000,,392,,105,352000000,"""map""",,,-0.0013341952581,-0.00444518448785,-0.000667808053549,,0.00912653249488,-0.0104438310926,0.0363586953643,-0.999242561871
105384000000,,393,,105,384000000,"""map""",,,-0.00107312621549,-0.00429600570351,-0.00140565179754,,0.00913116700186,-0.0104311636598,0.0363551971759,-0.999242772605
105420000000,,394,,105,420000000,"""map""",,,-0.000723628385458,-0.00413363426924,-0.0022881757468,,0.00908855633222,-0.0104321990975,0.0363088356426,-0.999244879948
105452000000,,395,,105,452000000,"""map""",,,-0.000629322836176,-0.00420016655698,-0.00279699917883,,0.00905167376502,-0.0104391284263,0.0363020921468,-0.99924538571
105484000000,,396,,105,484000000,"""map""",,,-0.000561772147194,-0.00431028613821,-0.00323836598545,,0.00896685397326,-0.0104334642027,0.0362552248513,-0.999247914521
105520000000,,397,,105,520000000,"""map""",,,-0.000443924946012,-0.00443938514218,-0.00376877561212,,0.00902733659419,-0.0104652476186,0.036215775401,-0.999248420283
105552000000,,398,,105,552000000,"""map""",,,-0.000271574623184,-0.00458577694371,-0.00431158300489,,0.00903065639937,-0.0104348392436,0.0361951234453,-0.999249516101
105584000000,,399,,105,584000000,"""map""",,,-5.63044122828e-05,-0.0047433222644,-0.00469871144742,,0.00898781017659,-0.0103505310586,0.0361294165084,-0.999253098583
105620000000,,400,,105,620000000,"""map""",,,0.000256133906078,-0.00493858661503,-0.00495538907126,,0.00898688525083,-0.0103183232931,0.0360859209608,-0.999255037338
105652000000,,401,,105,652000000,"""map""",,,0.000299914507195,-0.00496691418812,-0.00509132118896,,0.00897604651373,-0.0103553457598,0.0360717174728,-0.999255248073
105684000000,,402,,105,684000000,"""map""",,,0.000282600522041,-0.00497153541073,-0.00524180196226,,0.0089463870685,-0.0102936769356,0.0360170530103,-0.999258156205
105720000000,,403,,105,720000000,"""map""",,,0.000316949182888,-0.00501483306289,-0.00551212206483,,0.0089945951195,-0.0103071968955,0.0359440125218,-0.999260221401
105752000000,,404,,105,752000000,"""map""",,,0.00041680468712,-0.00505120493472,-0.00589698646218,,0.00896614529705,-0.0103132087895,0.0358858920178,-0.999262455184
105784000000,,405,,105,784000000,"""map""",,,0.00057031493634,-0.00511947739869,-0.00637084105983,,0.00896149490269,-0.0102749800338,0.0358376760231,-0.99926464682
105820000000,,406,,105,820000000,"""map""",,,0.000853460049257,-0.00523004122078,-0.00712210405618,,0.00894980298002,-0.0102404289612,0.0358170662141,-0.999265869078
105852000000,,407,,105,852000000,"""map""",,,0.000753517611884,-0.00524413771927,-0.00761298090219,,0.00894894460841,-0.0101499946247,0.0357964564052,-0.999267512805
105884000000,,408,,105,884000000,"""map""",,,0.000629038491752,-0.00522424606606,-0.00783784873784,,0.00894493205556,-0.0101582205453,0.0357407382715,-0.99926945156
105920000000,,409,,105,920000000,"""map""",,,0.000588805472944,-0.00517665827647,-0.0081253843382,,0.00894243115048,-0.00996364542095,0.0356751156283,-0.999273792686
105952000000,,410,,105,952000000,"""map""",,,0.00063001725357,-0.00515412539244,-0.00836623553187,,0.00893149268504,-0.0100044765387,0.0356722917895,-0.999273581952
105984000000,,411,,105,984000000,"""map""",,,0.000689895823598,-0.00518730096519,-0.00875548366457,,0.00892875914911,-0.00999483470623,0.0356355818844,-0.999275057091
106020000000,,412,,106,20000000,"""map""",,,0.000805826159194,-0.00526309432462,-0.00914621632546,,0.00890169708573,-0.0100055293044,0.0355662081718,-0.999277585902
106052000000,,413,,106,52000000,"""map""",,,0.000691471388564,-0.00524117704481,-0.00939987879246,,0.0089163996681,-0.00999556955958,0.0355617406059,-0.99927775449
106084000000,,414,,106,84000000,"""map""",,,0.000563342939131,-0.00518135726452,-0.00958776753396,,0.00897479684321,-0.0100402701614,0.0354637913299,-0.999280199007
106120000000,,415,,106,120000000,"""map""",,,0.000490775390062,-0.00514142401516,-0.00970138702542,,0.00894512011118,-0.0100668372462,0.035393111065,-0.999282769965
106152000000,,416,,106,152000000,"""map""",,,0.000483618874568,-0.00516010960564,-0.00977248139679,,0.00890587061155,-0.0100933017628,0.0353514278318,-0.999284329398
106184000000,,417,,106,184000000,"""map""",,,0.000511254300363,-0.00518403714523,-0.00981909874827,,0.00891280874837,-0.0101568634497,0.0352393593616,-0.999287574705
106220000000,,418,,106,220000000,"""map""",,,0.000602227635682,-0.00526632135734,-0.00978486612439,,0.00888027623809,-0.0101566439074,0.0352074541973,-0.999288965551
106252000000,,419,,106,252000000,"""map""",,,0.000471721694339,-0.00543309515342,-0.00925790797919,,0.00885700953135,-0.0101781062022,0.0351896682272,-0.999289555607
106284000000,,420,,106,284000000,"""map""",,,0.000302877422655,-0.00560313276947,-0.00880650803447,,0.00885179303567,-0.0101913740631,0.0350721628136,-0.999293601705
106324000000,,421,,106,324000000,"""map""",,,0.000203263756703,-0.00576693797484,-0.00853935535997,,0.0088421810435,-0.0101523828364,0.0350607410176,-0.999294571082
106352000000,,422,,106,352000000,"""map""",,,0.000157037138706,-0.00592992594466,-0.00841570179909,,0.00882265606318,-0.0101891932929,0.0350451466837,-0.999294908257
106384000000,,423,,106,384000000,"""map""",,,0.000161008283612,-0.00608685705811,-0.0084178680554,,0.00885515490538,-0.0101198686419,0.0350256748396,-0.999296004075
106420000000,,424,,106,420000000,"""map""",,,0.000215267704334,-0.00626840768382,-0.00811350718141,,0.00884006122989,-0.0100607588393,0.0349835279911,-0.999298195711
106452000000,,425,,106,452000000,"""map""",,,7.40731484257e-05,-0.00627193972468,-0.0079045696184,,0.00880827834905,-0.0100495032023,0.03499022934,-0.999298322152
106484000000,,426,,106,484000000,"""map""",,,-7.92020291556e-05,-0.00623140996322,-0.00773689895868,,0.00874357075351,-0.00996276531737,0.0348942188191,-0.999303126892
106520000000,,427,,106,520000000,"""map""",,,-0.000148021208588,-0.00619494216517,-0.00765929697081,,0.00870896535091,-0.0100114148401,0.0348390907413,-0.99930489706
106552000000,,428,,106,552000000,"""map""",,,-0.000155657297,-0.00617099087685,-0.00743824243546,,0.00871056717811,-0.0099563391989,0.0348022965425,-0.999306709375
106584000000,,429,,106,584000000,"""map""",,,-9.57071242738e-05,-0.00618301099166,-0.00707368180156,,0.00874933771009,-0.00996263945305,0.034779073629,-0.999307088696
106620000000,,430,,106,620000000,"""map""",,,2.25564617722e-05,-0.00624003587291,-0.00669129192829,,0.00867742329157,-0.00990778668796,0.0347521417928,-0.999309238185
106652000000,,431,,106,652000000,"""map""",,,-1.49756015162e-05,-0.00634618429467,-0.00643483176827,,0.00863796030004,-0.00991688024096,0.0347689583854,-0.999308858864
106684000000,,432,,106,684000000,"""map""",,,-5.64332258364e-05,-0.00648122001439,-0.00618329131976,,0.00865625162071,-0.00984883193145,0.03474067785,-0.999310334004
106720000000,,433,,106,720000000,"""map""",,,-2.04297539312e-05,-0.00664321379736,-0.00605787150562,,0.00864684307764,-0.00982401196517,0.0347292139072,-0.999311092647
106752000000,,434,,106,752000000,"""map""",,,9.55914292717e-05,-0.00682141212747,-0.0058997804299,,0.00865357080949,-0.00976099316587,0.0347418579618,-0.999311176941
106784000000,,435,,106,784000000,"""map""",,,0.000297088874504,-0.00702162226662,-0.00558474101126,,0.00866063802104,-0.00971593188748,0.0347313212496,-0.999311935584
106820000000,,436,,106,820000000,"""map""",,,0.000581733474974,-0.00722727598622,-0.0053342259489,,0.00868587410513,-0.00966693024918,0.0347192251041,-0.99931265208
106852000000,,437,,106,852000000,"""map""",,,0.000592833792325,-0.00708188628778,-0.00497914711013,,0.0088083979572,-0.0096641732526,0.0346687753265,-0.999313368577
106884000000,,438,,106,884000000,"""map""",,,0.00050813058624,-0.00688151735812,-0.00452591199428,,0.00880899011219,-0.00971121625605,0.0346434450705,-0.999313747898
106920000000,,439,,106,920000000,"""map""",,,0.000415385438828,-0.00671311933547,-0.00411586370319,,0.00880374011305,-0.00967665328841,0.0346008767535,-0.99931560236
106952000000,,440,,106,948000000,"""map""",,,0.00037860305747,-0.00658165244386,-0.00379745080136,,0.00879891573946,-0.00964047272967,0.0346098961791,-0.999315686653
106984000000,,441,,106,984000000,"""map""",,,0.000390239409171,-0.00648972066119,-0.0035599572584,,0.00874408252492,-0.0096211195883,0.0346066930186,-0.999316445297
107020000000,,442,,107,20000000,"""map""",,,0.000437294860603,-0.00641089119017,-0.00330904126167,,0.00875242550181,-0.00964146149309,0.0345955241037,-0.999316571737
107052000000,,443,,107,52000000,"""map""",,,0.000520800822414,-0.00635137222707,-0.00311258155853,,0.00868254713827,-0.00959458386662,0.0345550631292,-0.999319016254
107084000000,,444,,107,84000000,"""map""",,,0.000697779003531,-0.00630430085585,-0.00285248155706,,0.00867234159171,-0.00962678216557,0.0345160772943,-0.999320154219
107120000000,,445,,107,120000000,"""map""",,,0.000927374698222,-0.00625315215439,-0.0024301065132,,0.00863640193678,-0.00958766223457,0.0345112304067,-0.999321039303
107152000000,,446,,107,152000000,"""map""",,,0.000832636025734,-0.0059409593232,-0.00188184925355,,0.00865083817905,-0.0095895578961,0.0344923064717,-0.999321587212
107184000000,,447,,107,184000000,"""map""",,,0.000676637981087,-0.00557670462877,-0.00144577422179,,0.00874558528232,-0.00958014762435,0.034515613679,-0.999320027779
107220000000,,448,,107,220000000,"""map""",,,0.000530326738954,-0.0051957317628,-0.000896057405043,,0.00877449637404,-0.00951458853077,0.0345327674463,-0.999319732751
107252000000,,449,,107,252000000,"""map""",,,0.000452667823993,-0.00492832623422,-0.000520130561199,,0.00877849295718,-0.00951267294827,0.0345280469993,-0.999319985632
107284000000,,450,,107,284000000,"""map""",,,0.000432902132161,-0.00470324605703,-0.000334438926075,,0.00877758607966,-0.00940877641862,0.0344362090164,-0.999324073876
107320000000,,451,,107,320000000,"""map""",,,0.000459934846731,-0.00450302520767,-0.000322500971379,,0.00877869916393,-0.00938777397311,0.0344469564627,-0.999323947436
107352000000,,452,,107,352000000,"""map""",,,-0.000104175356682,-0.00431587034836,-0.000579743878916,,0.00881130771553,-0.00912471567348,0.0344469564627,-0.999326054778
107384000000,,453,,107,384000000,"""map""",,,-0.000728827901185,-0.00413774978369,-0.000783389667049,,0.00887907596869,-0.00915775346233,0.0343852956234,-0.999327277037
107420000000,,454,,107,420000000,"""map""",,,-0.00140378321521,-0.00396945187822,-0.00102596287616,,0.00882088573091,-0.00919759138177,0.0343290295806,-0.999329342232
107452000000,,455,,107,452000000,"""map""",,,-0.00183952320367,-0.00387290283106,-0.00126524013467,,0.00888116733113,-0.00917545531363,0.0343529268437,-0.999328204267
107484000000,,456,,107,484000000,"""map""",,,-0.00220661074854,-0.00378721463494,-0.00149289111141,,0.00891746728193,-0.00920994231199,0.034293879109,-0.999329595113
107520000000,,457,,107,520000000,"""map""",,,-0.00250798766501,-0.00373243959621,-0.00168878468685,,0.0089447148079,-0.00923611723359,0.0342321339759,-0.99933123884
107552000000,,458,,107,552000000,"""map""",,,-0.00286566396244,-0.00347337918356,-0.00163979805075,,0.00897702245611,-0.00925968840398,0.0342055814613,-0.999331660309
107584000000,,459,,107,584000000,"""map""",,,-0.00318424962461,-0.00317137129605,-0.00151403190102,,0.00897687105261,-0.00927016710245,0.0342186469844,-0.999331154547
107620000000,,460,,107,620000000,"""map""",,,-0.00353568093851,-0.00280573777854,-0.00150424579624,,0.00891289737406,-0.00920995245769,0.0341980793223,-0.999332924714
107652000000,,461,,107,652000000,"""map""",,,-0.00376786757261,-0.00252043199725,-0.00127342168707,,0.00889721503181,-0.00921876749781,0.0341777223945,-0.999333641211
107684000000,,462,,107,684000000,"""map""",,,-0.00396184436977,-0.00223969155923,-0.00123023346532,,0.00882356106797,-0.00920046889199,0.0341405488741,-0.999335832847
107720000000,,463,,107,720000000,"""map""",,,-0.00409964518622,-0.00195427192375,-0.00136022723746,,0.00889010311126,-0.00921984715066,0.0341328781476,-0.999335242791
107752000000,,464,,107,752000000,"""map""",,,-0.00422888156027,-0.00179665314499,-0.0012996714795,,0.00894106460888,-0.00915814479211,0.0341038811159,-0.999336338609
107784000000,,465,,107,784000000,"""map""",,,-0.00431796256453,-0.00170996016823,-0.00120669614989,,0.00886630002002,-0.00916926500554,0.0340715544831,-0.99933806663
107820000000,,466,,107,820000000,"""map""",,,-0.00438124220818,-0.00160510942806,-0.00120555469766,,0.00888317451305,-0.00916057358658,0.034049300947,-0.999338740979
107852000000,,467,,107,852000000,"""map""",,,-0.00438605388626,-0.0015476194676,-0.00122866523452,,0.0088433382091,-0.0091997526631,0.0340085870914,-0.999340089679
107884000000,,468,,107,884000000,"""map""",,,-0.00435701897368,-0.00150241877418,-0.00136792752892,,0.00885888635233,-0.00920248703251,0.0339459990213,-0.99934207058
107920000000,,469,,107,920000000,"""map""",,,-0.00430384045467,-0.00145487254485,-0.00160796975251,,0.00890252887889,-0.00919184417124,0.0339047794035,-0.999343166399
107952000000,,470,,107,952000000,"""map""",,,-0.00431859958917,-0.00137019867543,-0.00208123074844,,0.00893553502674,-0.00925624465866,0.0338756137843,-0.999343250692
107984000000,,471,,107,984000000,"""map""",,,-0.00434157019481,-0.00126312766224,-0.00263760983944,,0.00893216794012,-0.00918923836207,0.0337874425772,-0.999346875321
108020000000,,472,,108,20000000,"""map""",,,-0.00430220225826,-0.0011956813978,-0.00315085076727,,0.00897083833217,-0.00924943393991,0.0337144020888,-0.999348434755
108052000000,,473,,108,52000000,"""map""",,,-0.00424213754013,-0.00110018858686,-0.00372492778115,,0.00897711857274,-0.00920273223744,0.0336953517132,-0.999349530573
108084000000,,474,,108,84000000,"""map""",,,-0.00416412157938,-0.00100391404703,-0.00424376642331,,0.00901126941499,-0.0092246129961,0.0336608334443,-0.999350162775
108120000000,,475,,108,120000000,"""map""",,,-0.00403949711472,-0.000935346004553,-0.00471095182002,,0.00904736417774,-0.00921356663226,0.0336305720071,-0.999350921419
108152000000,,476,,108,152000000,"""map""",,,-0.0042604948394,-0.000856708211359,-0.00525067793205,,0.00906194982215,-0.00919718184426,0.033638664202,-0.999350668538
108184000000,,477,,108,184000000,"""map""",,,-0.0045450036414,-0.000822646194138,-0.00580018432811,,0.00907144072444,-0.00918071827272,0.0336366411533,-0.999350837125
108220000000,,478,,108,220000000,"""map""",,,-0.00484439870343,-0.000762880372349,-0.00639441097155,,0.00911858608268,-0.00917591074089,0.0336149776731,-0.9993511743
108252000000,,479,,108,252000000,"""map""",,,-0.00504157692194,-0.000718289404176,-0.00682380469516,,0.0090910473437,-0.00914076394525,0.0335948736264,-0.999352396558
108284000000,,480,,108,284000000,"""map""",,,-0.00519996555522,-0.00064007518813,-0.00729260873049,,0.0091365823619,-0.0091165657691,0.0335254577669,-0.999354546048
108320000000,,481,,108,320000000,"""map""",,,-0.00527921970934,-0.000562715926208,-0.00779157783836,,0.00908328120421,-0.00910951527391,0.0334947748612,-0.999356147628
108352000000,,482,,108,352000000,"""map""",,,-0.00579633098096,-0.000237314088736,-0.00816485565156,,0.0090899595002,-0.00912167398502,0.0335009283011,-0.999355726159
108384000000,,483,,108,384000000,"""map""",,,-0.0064348615706,0.000133773268317,-0.00847979076207,,0.00910124271497,-0.00906246716931,0.0334821729535,-0.999356779831
108420000000,,484,,108,420000000,"""map""",,,-0.00710089597851,0.000612525152974,-0.0089862877503,,0.00927887384287,-0.00905606815021,0.0334431449718,-0.99935652695
108452000000,,485,,108,452000000,"""map""",,,-0.00755129894242,0.000996947055683,-0.00940501410514,,0.00925992808331,-0.00905687232566,0.0333954347392,-0.999358297117
108484000000,,486,,108,484000000,"""map""",,,-0.00792771950364,0.0013778929133,-0.00984978396446,,0.00920511218128,-0.00910656343433,0.0333551423521,-0.99935973011
108520000000,,487,,108,520000000,"""map""",,,-0.00826625246555,0.00176990940236,-0.0103535829112,,0.00923482953727,-0.00915641932833,0.0333154400208,-0.999360320166
108552000000,,488,,108,552000000,"""map""",,,-0.00853984523565,0.00196800637059,-0.0106383860111,,0.00925417485327,-0.00912781092528,0.0332681512567,-0.99936200604
108584000000,,489,,108,584000000,"""map""",,,-0.00876776501536,0.00210740067996,-0.0108999609947,,0.00926485564259,-0.00908669352589,0.0332625878727,-0.999362427508
108620000000,,490,,108,620000000,"""map""",,,-0.00904436595738,0.00226268148981,-0.0111528420821,,0.00931878478872,-0.00912481704818,0.0332606069709,-0.999361626718
108652000000,,491,,108,652000000,"""map""",,,-0.00920851528645,0.0023510644678,-0.0113351596519,,0.00928194015986,-0.00911249474406,0.033223559891,-0.999363354739
108684000000,,492,,108,684000000,"""map""",,,-0.00931737665087,0.00242932117544,-0.0115711437538,,0.00927320115591,-0.00916132857184,0.0331929191321,-0.999363986942
108720000000,,493,,108,720000000,"""map""",,,-0.00938579440117,0.00249062827788,-0.0117074325681,,0.00915010626858,-0.00910691410414,0.0331380439354,-0.999367442983
108752000000,,494,,108,752000000,"""map""",,,-0.00942541006953,0.0024793529883,-0.011401347816,,0.00913594396796,-0.00912023478487,0.033117012658,-0.99936815948
108784000000,,495,,108,784000000,"""map""",,,-0.00945817865431,0.00246394379064,-0.0109549127519,,0.00902906615072,-0.0091109097895,0.0330558997276,-0.999371194053
108820000000,,496,,108,820000000,"""map""",,,-0.00950749497861,0.00246465881355,-0.0104372138157,,0.00906342433932,-0.00914844095357,0.0329820163022,-0.999373006367
108852000000,,497,,108,852000000,"""map""",,,-0.00950676202774,0.00245644990355,-0.0100832823664,,0.00900132688494,-0.00915717391229,0.0329053511848,-0.999375998794
108884000000,,498,,108,884000000,"""map""",,,-0.00948761589825,0.00247373012826,-0.00972301978618,,0.00899775885992,-0.00911154734547,0.032884404201,-0.999377136758
108920000000,,499,,108,920000000,"""map""",,,-0.00945207104087,0.00248868949711,-0.00934773031622,,0.00897308981352,-0.00908640935364,0.0328480314708,-0.999378780486
108952000000,,500,,108,952000000,"""map""",,,-0.00928635522723,0.00256964587606,-0.00888291560113,,0.00897278425402,-0.00908804780723,0.0328365253811,-0.999379159807
108984000000,,501,,108,984000000,"""map""",,,-0.00913066137582,0.00267148390412,-0.00853359512985,,0.00897015375972,-0.0088896536392,0.0328094671044,-0.999381857205
109020000000,,502,,109,20000000,"""map""",,,-0.00889529753476,0.00279266457073,-0.00820326898247,,0.00901197409877,-0.00887703184654,0.0328261994033,-0.999381056415
109052000000,,503,,109,52000000,"""map""",,,-0.00870575848967,0.00290347868577,-0.00804087147117,,0.00899897930753,-0.00887064962418,0.0328232912707,-0.999381351443
109084000000,,504,,109,84000000,"""map""",,,-0.00849786400795,0.00301426229998,-0.00787186250091,,0.00897638403322,-0.00886802396092,0.0328569244558,-0.999380424213
109120000000,,505,,109,120000000,"""map""",,,-0.0082523394376,0.00310613610782,-0.00767048774287,,0.00894917289184,-0.00889509812505,0.0328535527079,-0.9993805928
109152000000,,506,,109,152000000,"""map""",,,-0.00809052586555,0.00328820594586,-0.00736166769639,,0.00893854513336,-0.00890280458009,0.0328811167469,-0.999379665569
109184000000,,507,,109,184000000,"""map""",,,-0.00794141180813,0.00349977612495,-0.00701214279979,,0.00896263283158,-0.00887629738934,0.0328890825012,-0.999379454835
109220000000,,508,,109,220000000,"""map""",,,-0.00774634582922,0.0037807575427,-0.00656481971964,,0.0090129145878,-0.00890183913069,0.0328502652538,-0.999380002744
109252000000,,509,,109,252000000,"""map""",,,-0.00757778109983,0.00402097823098,-0.0062701003626,,0.00903285850018,-0.00892936047227,0.0328364410874,-0.999380002744
109284000000,,510,,109,284000000,"""map""",,,-0.00738377217203,0.00426122779027,-0.00599379884079,,0.00905261604704,-0.00898052290057,0.0328234177113,-0.999379876304
109320000000,,511,,109,320000000,"""map""",,,-0.00715718092397,0.00451560085639,-0.00586076965556,,0.00906175156938,-0.00897985889477,0.0328183600894,-0.999379960597
109352000000,,512,,109,352000000,"""map""",,,-0.00698649697006,0.00470214430243,-0.00588533002883,,0.00902434984274,-0.0089805573018,0.0328167585092,-0.999380297772
109384000000,,513,,109,384000000,"""map""",,,-0.00679479073733,0.00488994503394,-0.0059955958277,,0.00904722193984,-0.00899623244893,0.032763400599,-0.999381730765
109420000000,,514,,109,420000000,"""map""",,,-0.00652488926426,0.0051415162161,-0.00613375939429,,0.00908228546562,-0.00895538558529,0.0327775197932,-0.999381351443
109452000000,,515,,109,452000000,"""map""",,,-0.00628026342019,0.00539529230446,-0.00626537390053,,0.00908176417619,-0.00894624470969,0.0327441816361,-0.999382489408
109484000000,,516,,109,484000000,"""map""",,,-0.00601017801091,0.00568435015157,-0.00635042367503,,0.00904220152836,-0.00890240796395,0.0327512201598,-0.999383037317
109520000000,,517,,109,520000000,"""map""",,,-0.00570178823546,0.00602885009721,-0.00644756993279,,0.00902242659952,-0.0088941460189,0.0327026669903,-0.999384891779
109552000000,,518,,109,552000000,"""map""",,,-0.00550570525229,0.00628791796044,-0.00636240141466,,0.00898601651744,-0.00886080570088,0.0326878734464,-0.99938594545
109584000000,,519,,109,584000000,"""map""",,,-0.00529353739694,0.00651441514492,-0.00610860437155,,0.00897360684814,-0.00886755978994,0.032611208329,-0.999388516408
109620000000,,520,,109,620000000,"""map""",,,-0.00500774430111,0.00680263713002,-0.00590972509235,,0.00893187458683,-0.00886533025407,0.03261453793,-0.999388811435
109652000000,,521,,109,652000000,"""map""",,,-0.00477940961719,0.00703134760261,-0.00585245201364,,0.0089115799487,-0.00890143654584,0.0325754256546,-0.999389991547
109684000000,,522,,109,684000000,"""map""",,,-0.00455359695479,0.00727391801775,-0.00582861807197,,0.00892914030489,-0.0088933908407,0.0325111938575,-0.999391930302
109720000000,,523,,109,720000000,"""map""",,,-0.00431842543185,0.00754455989227,-0.00573328463361,,0.0090081946501,-0.00887337369354,0.0325336159809,-0.999390665897
109752000000,,524,,109,752000000,"""map""",,,-0.00425119278952,0.00788977649063,-0.00566042587161,,0.00901826779835,-0.00889181025413,0.0325348382395,-0.999390370869
109784000000,,525,,109,784000000,"""map""",,,-0.00419915141538,0.00827458780259,-0.00566391833127,,0.00904344321403,-0.00884008759225,0.0325108145358,-0.999391382393
109820000000,,526,,109,820000000,"""map""",,,-0.00407675933093,0.0088102966547,-0.00570350466296,,0.00907747041455,-0.00882316410969,0.0324648323241,-0.999392773239
109852000000,,527,,109,852000000,"""map""",,,-0.00392498727888,0.00927443057299,-0.0058419816196,,0.0090968955019,-0.008793287921,0.0324513453326,-0.999393279001
109884000000,,528,,109,884000000,"""map""",,,-0.00374901783653,0.00976032391191,-0.00605476414785,,0.00909871644949,-0.00878344853547,0.0324036351001,-0.999394880582
109920000000,,529,,109,920000000,"""map""",,,-0.0035520424135,0.0102567104623,-0.006325438153,,0.00912873073703,-0.00858653931328,0.0324282488596,-0.999395554931
109952000000,,530,,109,952000000,"""map""",,,-0.0032832629513,0.0104648107663,-0.0063490876928,,0.00913907731501,-0.00856144792377,0.0324120223229,-0.999396187134
109984000000,,531,,109,984000000,"""map""",,,-0.00300695793703,0.0106466589496,-0.00631422409788,,0.0091482928428,-0.00856504898919,0.0323619097201,-0.999397662274
110020000000,,532,,110,20000000,"""map""",,,-0.00265360972844,0.0109191043302,-0.0062946639955,,0.00915138933965,-0.00859417507511,0.0323488863439,-0.999397788714
110052000000,,533,,110,52000000,"""map""",,,-0.0023264309857,0.011172035709,-0.00628403620794,,0.00916096721098,-0.00861186226351,0.032367220223,-0.999396987924
110084000000,,534,,110,84000000,"""map""",,,-0.00198551616631,0.0114856278524,-0.00627252599224,,0.00917038769016,-0.00865599857498,0.0322798076592,-0.999399348148
110120000000,,535,,110,120000000,"""map""",,,-0.00166696170345,0.011846720241,-0.00632615108043,,0.00914663246688,-0.00872407779492,0.0322543088158,-0.999399811763
110152000000,,536,,110,152000000,"""map""",,,-0.00147612043656,0.0122285392135,-0.00627236207947,,0.00917097465912,-0.00870865624659,0.032247860348,-0.999399938203
110184000000,,537,,110,184000000,"""map""",,,-0.00135352369398,0.0126607948914,-0.00622386066243,,0.00913845001021,-0.00867568205873,0.0321356654373,-0.999404068595
110220000000,,538,,110,220000000,"""map""",,,-0.00121265894268,0.0132198790088,-0.00620715739205,,0.00913025403279,-0.00872071438174,0.0321107987966,-0.999404658651
110252000000,,539,,110,252000000,"""map""",,,-0.00112701801118,0.0136790284887,-0.00621201144531,,0.00910326739334,-0.00871173395434,0.0321017793711,-0.999405164413
110284000000,,540,,110,284000000,"""map""",,,-0.00102307356428,0.0141740264371,-0.00622497452423,,0.00912171738207,-0.00876139722407,0.0321189752852,-0.999404068595
110320000000,,541,,110,320000000,"""map""",,,-0.000892710697372,0.0146824074909,-0.00629589660093,,0.00911739053886,-0.00874588870671,0.0320993348538,-0.999404827238
110352000000,,542,,110,352000000,"""map""",,,-0.000903560197912,0.0148642547429,-0.00614366913214,,0.00911118116386,-0.00875236413369,0.0320849206316,-0.999405333
110384000000,,543,,110,384000000,"""map""",,,-0.000931703776587,0.0149946212769,-0.00601606816053,,0.00916856848154,-0.00873680888025,0.0321047717973,-0.999404279329
110420000000,,544,,110,420000000,"""map""",,,-0.000924154010136,0.015239784494,-0.00580065138638,,0.00916218802902,-0.00865343893595,0.031996622984,-0.999408578307
110452000000,,545,,110,452000000,"""map""",,,-0.000899602891877,0.0154765443876,-0.00570208299905,,0.00920901593537,-0.00862659917251,0.0319682160081,-0.999409252657
110484000000,,546,,110,484000000,"""map""",,,-0.000882961554453,0.015729572624,-0.00559262186289,,0.00917618535138,-0.00856993092369,0.0319299888165,-0.999411233559
110520000000,,547,,110,520000000,"""map""",,,-0.000863128923811,0.0160144157708,-0.00546828936785,,0.00919555353637,-0.00858708430002,0.031832208128,-0.999414099545
110552000000,,548,,110,552000000,"""map""",,,-0.0008136741817,0.0160606764257,-0.00537410844117,,0.00921165484669,-0.00855916738414,0.0318330089181,-0.999414141691
110584000000,,549,,110,584000000,"""map""",,,-0.000703100755345,0.0161090679467,-0.00532534485683,,0.00920129509782,-0.00855519720451,0.0317389371522,-0.999417260558
110620000000,,550,,110,620000000,"""map""",,,-0.000546880241018,0.0162790957838,-0.00542186899111,,0.00917965040678,-0.00838048763087,0.0317098136799,-0.999419831516
110652000000,,551,,110,652000000,"""map""",,,-0.000358500110451,0.0165214110166,-0.00540865911171,,0.00916754479468,-0.00839514049313,0.0316803108859,-0.999420758747
110684000000,,552,,110,684000000,"""map""",,,-0.000171273888554,0.0168108250946,-0.00547248264775,,0.00915879177093,-0.00846921059536,0.0317036180932,-0.999419536488
110720000000,,553,,110,720000000,"""map""",,,3.23475906043e-05,0.017111832276,-0.00555230211467,,0.00915786966457,-0.00844939776935,0.0316728087469,-0.999420674453
110752000000,,554,,110,752000000,"""map""",,,0.000151747022755,0.0172487013042,-0.00547647289932,,0.00916252121138,-0.00848492534005,0.0316894146052,-0.999419747222
110784000000,,555,,110,784000000,"""map""",,,0.000247389514698,0.0173918027431,-0.00545657379553,,0.00915572560828,-0.00852195472151,0.0316420415475,-0.999421011628
110820000000,,556,,110,820000000,"""map""",,,0.000405555707403,0.0176818706095,-0.00544130662456,,0.00920787294906,-0.00851879123833,0.0315820244352,-0.999422444621
110852000000,,557,,110,852000000,"""map""",,,0.000574198900722,0.0179528463632,-0.00539222918451,,0.00919217985401,-0.00853099141331,0.0315507093268,-0.999423498292
110884000000,,558,,110,884000000,"""map""",,,0.000722742173821,0.0182527527213,-0.00539053697139,,0.00920933036979,-0.00853133315675,0.031592940469,-0.999421981005
110920000000,,559,,110,920000000,"""map""",,,0.000850141397677,0.018588911742,-0.00543825095519,,0.00923640976112,-0.00854925079456,0.0315450616491,-0.999423161117
110952000000,,560,,110,952000000,"""map""",,,0.000829760218039,0.0186111107469,-0.0055115846917,,0.00924136755171,-0.00857623109552,0.0314932631722,-0.999424467669
110984000000,,561,,110,984000000,"""map""",,,0.000796154839918,0.0185862723738,-0.00552398478612,,0.00925284112572,-0.00859275619981,0.0314544037779,-0.999425479194
111020000000,,562,,111,20000000,"""map""",,,0.000772706465796,0.018661711365,-0.00560859823599,,0.00923851535429,-0.00852467961405,0.031463549644,-0.999425858515
111052000000,,563,,111,52000000,"""map""",,,0.000798267545179,0.0187849197537,-0.00563092902303,,0.00922697341512,-0.00853389557401,0.0314705460209,-0.999425689928
111084000000,,564,,111,84000000,"""map""",,,0.000867971044499,0.0189744606614,-0.00558452354744,,0.00929242796477,-0.00852772978641,0.031446859492,-0.999425858515
111120000000,,565,,111,120000000,"""map""",,,0.000935488264076,0.0192108601332,-0.00554289296269,,0.0092071945659,-0.00852197340771,0.0314673850073,-0.99942606925
111152000000,,566,,111,152000000,"""map""",,,0.000858252053149,0.0190489832312,-0.0053624054417,,0.00924825687392,-0.00854418273892,0.0314291999625,-0.999426659305
111184000000,,567,,111,184000000,"""map""",,,0.000749369384721,0.0188291389495,-0.00508517865092,,0.00918431388971,-0.00849066904177,0.0314431927162,-0.999427333655
111220000000,,568,,111,220000000,"""map""",,,0.000708069070242,0.0186993908137,-0.00468233879656,,0.00924374308638,-0.00852627440305,0.0314380086539,-0.999426617159
111252000000,,569,,111,252000000,"""map""",,,0.00073286605766,0.0186887905002,-0.00436752615497,,0.00922533277496,-0.00847571403107,0.0314069042797,-0.999428218739
111284000000,,570,,111,284000000,"""map""",,,0.0007864193758,0.0187364537269,-0.00416500354186,,0.00924477737169,-0.0084944768696,0.0314026895948,-0.999427965858
111320000000,,571,,111,320000000,"""map""",,,0.000837590836454,0.0188712570816,-0.00396234728396,,0.00915804022759,-0.00837152422273,0.0313935437287,-0.999430115347
111352000000,,572,,111,352000000,"""map""",,,0.000806303287391,0.0187448486686,-0.00370190385729,,0.00912246590023,-0.00838600932078,0.0313589833129,-0.999431379752
111384000000,,573,,111,384000000,"""map""",,,0.000756264314987,0.01860207133,-0.00346500775777,,0.00906170150457,-0.0083521817004,0.0313684663538,-0.999431927661
111420000000,,574,,111,420000000,"""map""",,,0.000742695410736,0.0185188055038,-0.00323149934411,,0.00906724871307,-0.00832107637954,0.0313423353077,-0.999432939186
111452000000,,575,,111,452000000,"""map""",,,0.000740952265915,0.0185054894537,-0.00314652873203,,0.00904441541093,-0.00837692515204,0.0313473086359,-0.999432517717
111484000000,,576,,111,484000000,"""map""",,,0.000763644697145,0.0185492951423,-0.00301105086692,,0.00899531009304,-0.00828492677239,0.0313021693611,-0.999435172969
111520000000,,577,,111,520000000,"""map""",,,0.000788523408119,0.0186817441136,-0.00283129350282,,0.00897490550305,-0.0082552780285,0.0313070583955,-0.99943542585
111552000000,,578,,111,552000000,"""map""",,,0.000643792911433,0.0186756495386,-0.00256009818986,,0.00893996984038,-0.00822251399866,0.0313168364644,-0.999435678731
111584000000,,579,,111,584000000,"""map""",,,0.000497664615978,0.0186587180942,-0.00218144874088,,0.00918311859027,-0.00821987755688,0.0312734252104,-0.999434920088
111620000000,,580,,111,620000000,"""map""",,,0.000334716576617,0.0187423620373,-0.00169351289514,,0.00915257755974,-0.00824515154844,0.0312631413794,-0.999435341556
111652000000,,581,,111,652000000,"""map""",,,0.000210905098356,0.0188518296927,-0.00125119031873,,0.00906867059298,-0.00822854881822,0.0312385276199,-0.999436943136
111684000000,,582,,111,684000000,"""map""",,,0.000115480914246,0.0190075486898,-0.000895202625543,,0.00914485040428,-0.00833155633336,0.0311894265413,-0.999436985283
111720000000,,583,,111,720000000,"""map""",,,2.29075267271e-05,0.0192148163915,-0.000629142741673,,0.0091225427853,-0.00832058111291,0.0311624104114,-0.999438123248
111752000000,,584,,111,752000000,"""map""",,,-0.000264712434728,0.0190405044705,-0.000178029353265,,0.00910719816319,-0.00835242227494,0.0311876142268,-0.999437196018
111784000000,,585,,111,784000000,"""map""",,,-0.000635574513581,0.0187902972102,0.000176245433977,,0.00897901235124,-0.00829149517763,0.0311919553522,-0.999438755451
111820000000,,586,,111,820000000,"""map""",,,-0.0010629988974,0.0185705982149,0.000477418041555,,0.00900229605666,-0.00829050583798,0.0311728628299,-0.999439134773
111852000000,,587,,111,852000000,"""map""",,,-0.00138643581886,0.018497928977,0.000562248402275,,0.00901440358265,-0.00836050827542,0.0311707976343,-0.99943850257
111884000000,,588,,111,884000000,"""map""",,,-0.00173863128293,0.0184864979237,0.000406543258578,,0.00902866405528,-0.00827636964505,0.0311482069235,-0.999439766975
111920000000,,589,,111,920000000,"""map""",,,-0.00206946837716,0.018572198227,0.00022782770975,,0.00902305074537,-0.00833809621539,0.031115795997,-0.999440314884
111952000000,,590,,111,952000000,"""map""",,,-0.00242315838113,0.0184138137847,-1.87850382645e-05,,0.00898332462415,-0.00839598104287,0.0311061022218,-0.999440483472
111984000000,,591,,111,984000000,"""map""",,,-0.00279201054946,0.0182147324085,-0.000262511603069,,0.00892599618446,-0.00833155513975,0.0310795075604,-0.99944238008
112020000000,,592,,112,20000000,"""map""",,,-0.00322708161548,0.0180822852999,-0.000474673841381,,0.00899903362716,-0.00833969779564,0.0310395944949,-0.999442843695
112052000000,,593,,112,52000000,"""map""",,,-0.0035488451831,0.0180462859571,-0.000554763653781,,0.00900449777674,-0.00836389317361,0.0310038539673,-0.999443686632
112084000000,,594,,112,84000000,"""map""",,,-0.00388171244413,0.0180535241961,-0.000578416511416,,0.00901865452861,-0.00834287307088,0.0309775543339,-0.999444613863
112120000000,,595,,112,120000000,"""map""",,,-0.00419442541897,0.0180737450719,-0.000628778012469,,0.00886580661584,-0.00813914547436,0.0309448483794,-0.99944865996
112152000000,,596,,112,152000000,"""map""",,,-0.00447453092784,0.0181642528623,-0.00075515784556,,0.00886547302189,-0.00815267103189,0.0308918697908,-0.999450219394
112184000000,,597,,112,184000000,"""map""",,,-0.00475855311379,0.0183126963675,-0.000930531416088,,0.00896177433136,-0.00814535884179,0.0309355760728,-0.999448069904
112220000000,,598,,112,220000000,"""map""",,,-0.00512815779075,0.0185545962304,-0.00122183107305,,0.00905379810613,-0.00814903738909,0.0309104986979,-0.999447943464
112252000000,,599,,112,252000000,"""map""",,,-0.00535645708442,0.0185970552266,-0.00118852546439,,0.00909504649414,-0.00813344589512,0.0308930499026,-0.999448280639
112284000000,,600,,112,284000000,"""map""",,,-0.00576551165432,0.0187787301838,-0.000768826110289,,0.00861188195811,-0.00805275013544,0.0304768076267,-0.999465982315
112320000000,,601,,112,320000000,"""map""",,,-0.0064701475203,0.0191400796175,0.00050932407612,,0.0064862287231,-0.00734170182889,0.0293247235227,-0.999521995477
112352000000,,602,,112,352000000,"""map""",,,-0.00747915077955,0.0196332260966,0.00291168643162,,0.00431441022157,-0.00604421171486,0.0283810555845,-0.999569621416
112384000000,,603,,112,384000000,"""map""",,,-0.00874371919781,0.0202056448907,0.00639984384179,,-0.00056474463867,-0.00219779063258,0.0263780687559,-0.999649447547
112420000000,,604,,112,420000000,"""map""",,,-0.0106500759721,0.0209463108331,0.0119672259316,,-0.00683037243496,0.00356341841237,0.0240533328857,-0.999681057683
112452000000,,605,,112,452000000,"""map""",,,-0.0123734911904,0.0211896356195,0.0172673277557,,-0.0103173764707,0.00715283336311,0.0228414002568,-0.999660279287
112484000000,,606,,112,484000000,"""map""",,,-0.0142714157701,0.0212822519243,0.0231386702508,,-0.0177566333955,0.0151149871396,0.020300113879,-0.99952195333
112520000000,,607,,112,520000000,"""map""",,,-0.0163596589118,0.0212872307748,0.0294670835137,,-0.0251976829607,0.0231411329206,0.0179531666196,-0.999253351464
112552000000,,608,,112,552000000,"""map""",,,-0.0185405611992,0.0212352704257,0.0349885188043,,-0.02891878895,0.0274476581419,0.0166408823444,-0.999066303751
112584000000,,609,,112,584000000,"""map""",,,-0.0210928209126,0.0207934100181,0.0370429456234,,-0.030846230547,0.0311763604935,0.0138720451315,-0.998941506932
112620000000,,610,,112,620000000,"""map""",,,-0.0249078627676,0.0195627566427,0.0346286445856,,-0.0253118668405,0.0267912474004,0.0112698987044,-0.99925701824
112652000000,,611,,112,652000000,"""map""",,,-0.0281011741608,0.0178335309029,0.0296223443002,,-0.0213485660442,0.0229227312444,0.0101928359907,-0.999457342211
112684000000,,612,,112,684000000,"""map""",,,-0.0315794013441,0.0156759228557,0.0239069536328,,-0.0127998328862,0.013988329974,0.00840728475356,-0.999784949665
112720000000,,613,,112,720000000,"""map""",,,-0.0353427045047,0.0132401902229,0.0187693946064,,-0.00753920587112,0.00834243787586,0.00730497607761,-0.999910125805
112752000000,,614,,112,752000000,"""map""",,,-0.038940820843,0.0109187019989,0.0170986261219,,-0.0104330904375,0.0108082982289,0.00652702954779,-0.999865871614
112784000000,,615,,112,784000000,"""map""",,,-0.0401995442808,0.0107445446774,0.0258788522333,,-0.0254409233718,0.0238356862307,0.00397630227591,-0.999384217429
112820000000,,616,,112,820000000,"""map""",,,-0.0429998077452,0.00918061751872,0.0484888367355,,-0.0465107225867,0.0448913670745,0.00187557690558,-0.997906843948
112852000000,,617,,112,852000000,"""map""",,,-0.0456905439496,0.00714368699118,0.0723874270916,,-0.0585714225274,0.0577896620371,0.000654835585314,-0.996608973895
112884000000,,618,,112,884000000,"""map""",,,-0.0492674186826,0.00414360174909,0.0961033552885,,-0.0706043636235,0.0716317775966,-0.00094476375622,-0.994928705486
112920000000,,619,,112,920000000,"""map""",,,-0.0540715381503,-1.25837323139e-05,0.117404580116,,-0.0793880861238,0.0805553370017,-0.00230796142446,-0.993580933564
112952000000,,620,,112,952000000,"""map""",,,-0.0602256394923,-0.00552598247305,0.136783614755,,-0.0826739163986,0.0831249473171,-0.00286168672019,-0.993099785141
112984000000,,621,,112,984000000,"""map""",,,-0.0679454356432,-0.0126578193158,0.15594522655,,-0.0867940107771,0.0856727267174,-0.00385997697402,-0.992528189582
113020000000,,622,,113,20000000,"""map""",,,-0.0800437778234,-0.0241216421127,0.181905940175,,-0.0885899822875,0.0857887259163,-0.00474586158287,-0.992355598237
113052000000,,623,,113,52000000,"""map""",,,-0.0908838063478,-0.0347616448998,0.203057661653,,-0.0890481295614,0.0855422190421,-0.00524437450706,-0.992333344701
113084000000,,624,,113,84000000,"""map""",,,-0.10317222774,-0.0469666346908,0.225708320737,,-0.089894857937,0.0852156881443,-0.00621931540681,-0.992279481029
113120000000,,625,,113,120000000,"""map""",,,-0.117018729448,-0.0608467906713,0.250023335218,,-0.0906951238573,0.0854444059203,-0.00683626097532,-0.992182880452
113152000000,,626,,113,152000000,"""map""",,,-0.132270395756,-0.0762812271714,0.275442093611,,-0.0911499744574,0.0854976145055,-0.00709036432499,-0.992134875191
113184000000,,627,,113,184000000,"""map""",,,-0.148847997189,-0.0932186543941,0.30174934864,,-0.0916864393016,0.0855710672428,-0.00745607252952,-0.992076417513
113220000000,,628,,113,220000000,"""map""",,,-0.171360820532,-0.116411492229,0.336298078299,,-0.0915031110473,0.0854171574888,-0.0076660481288,-0.99210507737
113252000000,,629,,113,252000000,"""map""",,,-0.189424812794,-0.135570317507,0.364065587521,,-0.0913125220105,0.0851973837351,-0.00780521702258,-0.992140396429
113284000000,,630,,113,284000000,"""map""",,,-0.208272308111,-0.1557828933,0.392897814512,,-0.0910699267261,0.0843222129868,-0.00799209614888,-0.992235985481
113320000000,,631,,113,320000000,"""map""",,,-0.228333935142,-0.177319467068,0.423339188099,,-0.0909853966116,0.0842544876111,-0.00800726901434,-0.992249388179
113352000000,,632,,113,352000000,"""map""",,,-0.249549865723,-0.200139582157,0.455421179533,,-0.090797847087,0.0847797071492,-0.00799066315603,-0.992221908434
113384000000,,633,,113,384000000,"""map""",,,-0.27746206522,-0.230306237936,0.497741401196,,-0.0902969367315,0.0851002711399,-0.00791602108732,-0.992240748075
113420000000,,634,,113,420000000,"""map""",,,-0.300832331181,-0.255682915449,0.533253908157,,-0.0896016092201,0.084148373371,-0.00792963451939,-0.992384932444
113452000000,,635,,113,452000000,"""map""",,,-0.32484215498,-0.281808108091,0.569737911224,,-0.0891439849951,0.0839003645215,-0.0079574514394,-0.992446888311
113484000000,,636,,113,484000000,"""map""",,,-0.349634110928,-0.308813452721,0.607574820518,,-0.0880712813521,0.0841287930318,-0.00798413039451,-0.99252313196
113520000000,,637,,113,520000000,"""map""",,,-0.375238120556,-0.336739033461,0.646923184395,,-0.0873179854604,0.0837671572665,-0.00798632203063,-0.992620238299
113552000000,,638,,113,552000000,"""map""",,,-0.401635587215,-0.365500509739,0.687713801861,,-0.0868501669664,0.0835114934956,-0.00796807244523,-0.992682910663
113584000000,,639,,113,584000000,"""map""",,,-0.428739786148,-0.395051151514,0.730007350445,,-0.0858958027837,0.0834384018053,-0.00798071649978,-0.9927720091
113620000000,,640,,113,620000000,"""map""",,,-0.46355471015,-0.433005750179,0.784987866879,,-0.0850383965205,0.0833519610063,-0.00794990715352,-0.992853310371
113652000000,,641,,113,652000000,"""map""",,,-0.492403715849,-0.464559733868,0.83008313179,,-0.0845969738076,0.083131699271,-0.00797114916517,-0.99290936568
113684000000,,642,,113,684000000,"""map""",,,-0.521907806396,-0.496830970049,0.876554012299,,-0.0835951199224,0.082950617559,-0.00794801054534,-0.993009548739
113720000000,,643,,113,720000000,"""map""",,,-0.551922857761,-0.529614210129,0.924612522125,,-0.0826632587921,0.0829756787069,-0.00806635889595,-0.993084485835
113752000000,,644,,113,752000000,"""map""",,,-0.582156121731,-0.562668919563,0.971207678318,,-0.0821454330727,0.0817404484094,-0.00811588144295,-0.993229513141
113784000000,,645,,113,784000000,"""map""",,,-0.612295567989,-0.59562253952,1.01070523262,,-0.0809177328097,0.0752952938275,-0.00814930389382,-0.993839335892
113820000000,,646,,113,820000000,"""map""",,,-0.649805247784,-0.636643052101,1.04826426506,,-0.078971203331,0.0609792932209,-0.00804107078685,-0.994977637977
113852000000,,647,,113,852000000,"""map""",,,-0.680599868298,-0.670056939125,1.06805217266,,-0.0781182854602,0.0540452752646,-0.00793856965127,-0.995446479519
113884000000,,648,,113,884000000,"""map""",,,-0.711474895477,-0.703542411327,1.07895600796,,-0.0735161880947,0.0306448589655,-0.00784892330449,-0.996792186246
113920000000,,649,,113,920000000,"""map""",,,-0.741991221905,-0.736851811409,1.08193397522,,-0.0616538956781,0.00943195893456,-0.00848972398925,-0.998016973663
113952000000,,650,,113,952000000,"""map""",,,-0.771387636662,-0.770122647285,1.08492219448,,-0.0509150103865,0.00126093887704,-0.00897415986603,-0.998661904739
113984000000,,651,,113,984000000,"""map""",,,-0.798839271069,-0.80327886343,1.09630179405,,-0.0340724527378,-0.00150942089079,-0.00922885327158,-0.999375661619
114020000000,,652,,114,20000000,"""map""",,,-0.830211222172,-0.843906402588,1.12887620926,,-0.0254149276566,-0.000770553709167,-0.00874585038765,-0.999638489366
114052000000,,653,,114,52000000,"""map""",,,-0.854283332825,-0.876510322094,1.17625880241,,-0.0221602703064,5.91135892146e-05,-0.00848858602434,-0.999718399791
114084000000,,654,,114,84000000,"""map""",,,-0.876852691174,-0.908204734325,1.23867714405,,-0.0160399236024,0.0027811664832,-0.00776762203371,-0.999837338197
114120000000,,655,,114,120000000,"""map""",,,-0.897857964039,-0.938526511192,1.31109130383,,-0.017742720161,0.0105860206478,-0.00714401726314,-0.999761052402
114152000000,,656,,114,152000000,"""map""",,,-0.917825937271,-0.967683970928,1.3890324831,,-0.0229387627696,0.0203998247615,-0.00711063695912,-0.999503450863
114184000000,,657,,114,184000000,"""map""",,,-0.937316000462,-0.996025919914,1.46865296364,,-0.0348612487883,0.0447426050806,-0.00726173341103,-0.998363673639
114220000000,,658,,114,220000000,"""map""",,,-0.961502730846,-1.03074741364,1.56642758846,,-0.0438901600448,0.0647344068602,-0.00736225364473,-0.996909733806
114252000000,,659,,114,252000000,"""map""",,,-0.983965814114,-1.05997478962,1.6365956068,,-0.0471627067566,0.0716268581456,-0.00725170246109,-0.99628954293
114284000000,,660,,114,284000000,"""map""",,,-1.00776529312,-1.0895550251,1.70434963703,,-0.0522248804375,0.0823216736388,-0.00692320992379,-0.99521243807
114320000000,,661,,114,320000000,"""map""",,,-1.03205561638,-1.11900043488,1.7723056078,,-0.0546518487571,0.0872185315749,-0.00668866271183,-0.994666509941
114352000000,,662,,114,352000000,"""map""",,,-1.05680203438,-1.14833962917,1.83972203732,,-0.055774736949,0.0884101270323,-0.00648302823795,-0.994500324917
114384000000,,663,,114,384000000,"""map""",,,-1.08198404312,-1.17755293846,1.90572941303,,-0.0570659649221,0.0886705247504,-0.00629012211231,-0.994405115186
114420000000,,664,,114,420000000,"""map""",,,-1.1139998436,-1.21395516396,1.98568737507,,-0.057507804823,0.0895600827205,0.00235714679667,-0.994317028273
114452000000,,665,,114,452000000,"""map""",,,-1.1415207386,-1.24368417263,2.04838824272,,-0.0580509459914,0.0895197745282,0.00236182509685,-0.994289084913
114484000000,,666,,114,484000000,"""map""",,,-1.16973423958,-1.27351105213,2.10917806625,,-0.0590794739749,0.0888452800723,0.00212293675949,-0.994289506381
114520000000,,667,,114,520000000,"""map""",,,-1.19815278053,-1.30323839188,2.16794729233,,-0.0598980355787,0.0884596719698,0.00139881175523,-0.994276230124
114552000000,,668,,114,552000000,"""map""",,,-1.22677505016,-1.33286511898,2.2247979641,,-0.0602008883441,0.0883777108374,0.00100671962353,-0.994265651265
114584000000,,669,,114,584000000,"""map""",,,-1.25560569763,-1.362454772,2.27993273735,,-0.0606609304152,0.0879002831913,9.81178633335e-05,-0.994280571249
114620000000,,670,,114,620000000,"""map""",,,-1.29193270206,-1.39940130711,2.34643983841,,-0.0606748257043,0.0872498440491,-0.000745746337552,-0.994336710851
114652000000,,671,,114,652000000,"""map""",,,-1.3226338625,-1.42912638187,2.39964175224,,-0.0601638254592,0.0864509623894,-0.00140749400602,-0.994436809617
114684000000,,672,,114,684000000,"""map""",,,-1.35383725166,-1.45883882046,2.45170688629,,-0.0581413549327,0.0836335101038,-0.00238643885638,-0.9947961115
114720000000,,673,,114,720000000,"""map""",,,-1.38500201702,-1.48845422268,2.50189685822,,-0.0548182076366,0.0790724782567,-0.00331459675429,-0.995354978711
114752000000,,674,,114,752000000,"""map""",,,-1.41612708569,-1.51795625687,2.55026292801,,-0.0531967077389,0.0769093913557,-0.00365885221293,-0.99561123155
114784000000,,675,,114,784000000,"""map""",,,-1.44714808464,-1.54728198051,2.5968914032,,-0.0488730423328,0.070922251742,-0.00430492125375,-0.996274580799
114820000000,,676,,114,820000000,"""map""",,,-1.48564004898,-1.58359444141,2.65291142464,,-0.0442170575873,0.0642144978249,-0.00478408877447,-0.99694458925
114852000000,,677,,114,852000000,"""map""",,,-1.51742553711,-1.61271512508,2.69710206985,,-0.0418549493163,0.0608177028622,-0.00499246279351,-0.997258498977
114884000000,,678,,114,884000000,"""map""",,,-1.54912877083,-1.64163184166,2.73984360695,,-0.0369152030106,0.053833673719,-0.00536432443792,-0.997852895982
114920000000,,679,,114,920000000,"""map""",,,-1.580270648,-1.67014861107,2.78109574318,,-0.0332026978595,0.0486558490857,-0.00556262536016,-0.998248106981
114952000000,,680,,114,952000000,"""map""",,,-1.61082434654,-1.69823932648,2.82090306282,,-0.0309162892797,0.0455816263452,-0.00561054632692,-0.998466385509
114984000000,,681,,114,984000000,"""map""",,,-1.64072704315,-1.72587895393,2.85926294327,,-0.0273937419505,0.0411011140765,-0.00575860820574,-0.998762804295
115020000000,,682,,115,20000000,"""map""",,,-1.67715024948,-1.75972211361,2.90532541275,,-0.0243287414673,0.0373212872375,-0.00579906918031,-0.998990312983
