rosbagTimestamp,header,seq,stamp,secs,nsecs,frame_id,pose,position,x,y,z,orientation,x,y,z,w
103948000000,,350,,103,948000000,"""map""",,,-0.00449336506426,-0.00592606328428,0.0266370866448,,0.0111093903344,-0.00608478925181,0.0322194533721,-0.999400612553
103980000000,,351,,103,980000000,"""map""",,,-0.00416710413992,-0.00604019127786,0.0260858796537,,0.0110821081525,-0.00605718570021,0.0321448113034,-0.999403436392
104016000000,,352,,104,16000000,"""map""",,,-0.00369046861306,-0.00627314671874,0.0254380498081,,0.0110903276112,-0.00613866000356,0.0319978030958,-0.999407566783
104048000000,,353,,104,48000000,"""map""",,,-0.00404630135745,-0.00625978084281,0.0249080043286,,0.0110954290262,-0.00609034489792,0.0318628488868,-0.999412118643
104080000000,,354,,104,80000000,"""map""",,,-0.0045369095169,-0.00620429916307,0.0240307059139,,0.0110961420653,-0.00611353439031,0.0318357063164,-0.999412792992
104116000000,,355,,104,116000000,"""map""",,,-0.00492680072784,-0.0062045911327,0.0231051761657,,0.0110722556681,-0.00606825517485,0.0317591676395,-0.999415827565
104148000000,,356,,104,148000000,"""map""",,,-0.00521921273321,-0.00626966962591,0.0221148245037,,0.0110461321953,-0.00607545076142,0.0316542219867,-0.999419367901
104180000000,,357,,104,180000000,"""map""",,,-0.00540682626888,-0.00638577528298,0.021009363234,,0.0110505289677,-0.0060704072983,0.0316230333188,-0.999420379425
104216000000,,358,,104,216000000,"""map""",,,-0.00556011684239,-0.00658873468637,0.0197230279446,,0.0109931088257,-0.00599188541462,0.0315469161104,-0.99942391976
104248000000,,359,,104,248000000,"""map""",,,-0.00595188094303,-0.00655758054927,0.0191490054131,,0.0109796447186,-0.0060166119499,0.0314250695714,-0.999427755123
104280000000,,360,,104,280000000,"""map""",,,-0.00633880263194,-0.00648745661601,0.0187140163034,,0.0109819471549,-0.00597342707061,0.0313616807112,-0.99942994676
104316000000,,361,,104,316000000,"""map""",,,-0.00661422032863,-0.00646061450243,0.0181992128491,,0.0110055640426,-0.00597390369219,0.0312867857614,-0.999432011955
104348000000,,362,,104,348000000,"""map""",,,-0.0067759025842,-0.00648617325351,0.0177985355258,,0.0110471629821,-0.00591142230636,0.0312161054964,-0.999434161444
104380000000,,363,,104,380000000,"""map""",,,-0.00684298109263,-0.00653383973986,0.017492800951,,0.0110603753606,-0.00590005121835,0.0311809128779,-0.999435215116
104416000000,,364,,104,416000000,"""map""",,,-0.00680994149297,-0.00666759908199,0.0171647332609,,0.010992145869,-0.00585213453213,0.031105217138,-0.999438586864
104448000000,,365,,104,448000000,"""map""",,,-0.00676286360249,-0.00658365199342,0.0168814938515,,0.011017554821,-0.00588488823105,0.0310354641037,-0.999440230591
104480000000,,366,,104,480000000,"""map""",,,-0.00666588637978,-0.00649788416922,0.0165763180703,,0.010966722429,-0.00584177924901,0.0309809260818,-0.999442759402
104516000000,,367,,104,516000000,"""map""",,,-0.00651455763727,-0.00651139812544,0.0162617880851,,0.0110349863295,-0.00583018573759,0.0309039659364,-0.999444445276
104548000000,,368,,104,548000000,"""map""",,,-0.00629791337997,-0.00660022720695,0.0158777888864,,0.0110387757593,-0.00578065907468,0.0308216531412,-0.999447269114
104580000000,,369,,104,580000000,"""map""",,,-0.00601573241875,-0.00672802980989,0.0154421431944,,0.0110524234356,-0.00581960407979,0.0307949741861,-0.99944773273
104616000000,,370,,104,616000000,"""map""",,,-0.00558356195688,-0.00691387336701,0.0148327546194,,0.0111397582912,-0.00580007955222,0.0306461115172,-0.999451441652
104648000000,,371,,104,648000000,"""map""",,,-0.00538334343582,-0.00684752454981,0.0144547726959,,0.0112880909965,-0.0058478679869,0.030545717724,-0.99945253747
104680000000,,372,,104,680000000,"""map""",,,-0.00515092397109,-0.00675958488137,0.0142643516883,,0.0113150895103,-0.00580469430286,0.0305612699111,-0.999451989561
104716000000,,373,,104,716000000,"""map""",,,-0.00484543992206,-0.00675925239921,0.0141751468182,,0.0113081130544,-0.00580905765414,0.0303935676009,-0.999457173624
104748000000,,374,,104,748000000,"""map""",,,-0.00447844108567,-0.00682786479592,0.013939967379,,0.0113531304984,-0.00581233391306,0.030321749371,-0.999458859498
104780000000,,375,,104,780000000,"""map""",,,-0.00405123829842,-0.00694979354739,0.0137408021837,,0.0113330634948,-0.0058200835002,0.0302656097688,-0.999460713959
104816000000,,376,,104,816000000,"""map""",,,-0.00343177164905,-0.0071320803836,0.0136184226722,,0.0113201691933,-0.00588358563001,0.0302011672375,-0.99946244198
104848000000,,377,,104,848000000,"""map""",,,-0.00305088190362,-0.00709068402648,0.0134630091488,,0.0113097762086,-0.00590591802673,0.0301192337639,-0.999464886497
104880000000,,378,,104,880000000,"""map""",,,-0.0026541466359,-0.00700906990096,0.0131774330512,,0.0112800562595,-0.00590898931368,0.0301011949128,-0.999465813728
104916000000,,379,,104,916000000,"""map""",,,-0.00218812003732,-0.00696101412177,0.0128724388778,,0.011185348175,-0.00588733916907,0.0300079660839,-0.999469775531
104948000000,,380,,104,948000000,"""map""",,,-0.00166172883473,-0.00695529161021,0.0125067187473,,0.0112057640426,-0.00592411262367,0.0298694715397,-0.999473484454
104980000000,,381,,104,980000000,"""map""",,,-0.00107111327816,-0.00699746934697,0.0121207507327,,0.011154835997,-0.00590001927894,0.0298063777074,-0.999476055412
105016000000,,382,,105,16000000,"""map""",,,-0.000309187773382,-0.00709260907024,0.0117265498266,,0.0111739609527,-0.00592058743492,0.0297501538115,-0.999477404111
105048000000,,383,,105,48000000,"""map""",,,-4.90023667226e-05,-0.00697583891451,0.0117490924895,,0.0112014153439,-0.00588500397025,0.0296538904095,-0.999480185803
105080000000,,384,,105,80000000,"""map""",,,0.000141294120112,-0.00683094607666,0.0118344603106,,0.0112161204782,-0.00589340847989,0.0295819035923,-0.999482124558
105116000000,,385,,105,116000000,"""map""",,,0.000394690723624,-0.00672005023807,0.0118477474898,,0.0112799222457,-0.00586618490848,0.02949406956,-0.999484063313
105148000000,,386,,105,148000000,"""map""",,,0.000734681088943,-0.00665026297793,0.0118638826534,,0.0112326171827,-0.0058946503302,0.0293803573627,-0.999487856529
105180000000,,387,,105,180000000,"""map""",,,0.00110905361362,-0.00658394908533,0.0119348699227,,0.0112795903393,-0.00586200578503,0.0293163784467,-0.999489373816
105216000000,,388,,105,216000000,"""map""",,,0.00165828492027,-0.00655327085406,0.0119281644002,,0.0113079859553,-0.0058797780903,0.0292710705845,-0.9994902589
105248000000,,389,,105,248000000,"""map""",,,0.00175199029036,-0.00635708263144,0.0112024629489,,0.0112953279067,-0.00586533834951,0.0292299774072,-0.99949173404
105280000000,,390,,105,280000000,"""map""",,,0.00180512922816,-0.00614465028048,0.0102704577148,,0.0112538112853,-0.00584161164943,0.0292546333136,-0.999491607599
105316000000,,391,,105,316000000,"""map""",,,0.00192255317234,-0.00598922045901,0.00951348710805,,0.0112688990339,-0.00583896117243,0.029229471645,-0.999492155508
105348000000,,392,,105,348000000,"""map""",,,0.00213063834235,-0.00584501074627,0.00875812768936,,0.0114856108849,-0.00581184165104,0.029220030751,-0.999490132459
105380000000,,393,,105,380000000,"""map""",,,0.00245533138514,-0.00572747038677,0.00810806732625,,0.0114820142441,-0.00580935334062,0.0292006010538,-0.999490764662
105416000000,,394,,105,416000000,"""map""",,,0.00293626636267,-0.00562343047932,0.00722726713866,,0.0114078588398,-0.00580686074966,0.0291345147953,-0.999493546354
105452000000,,395,,105,452000000,"""map""",,,0.00298222177662,-0.00566842826083,0.0068265250884,,0.0114134462606,-0.0058126384899,0.029102061722,-0.999494473585
105480000000,,396,,105,480000000,"""map""",,,0.00298005761579,-0.00575483823195,0.00634040823206,,0.0114080939401,-0.00583898257512,0.0290530449372,-0.999495780137
105516000000,,397,,105,516000000,"""map""",,,0.00307294772938,-0.00587251456454,0.00578952208161,,0.0113341291845,-0.00580870105228,0.0290125418157,-0.999497929626
105548000000,,398,,105,548000000,"""map""",,,0.00326080806553,-0.00602619722486,0.00519379368052,,0.0113941166622,-0.00579608399806,0.0289379418939,-0.999499531207
105580000000,,399,,105,580000000,"""map""",,,0.00352902174927,-0.00621152995154,0.00476332427934,,0.0113806411952,-0.00572958977127,0.028891158892,-0.999501385668
105616000000,,400,,105,616000000,"""map""",,,0.00395387690514,-0.00646104291081,0.00417951634154,,0.0113789079061,-0.00571884627617,0.0288059801112,-0.999503956626
105648000000,,401,,105,648000000,"""map""",,,0.00395261729136,-0.00647530099377,0.00378189142793,,0.0113322552961,-0.00571376099547,0.0287670364232,-0.9995056425
105680000000,,402,,105,680000000,"""map""",,,0.00387788703665,-0.00645000068471,0.00343132461421,,0.0113212704444,-0.00567133261919,0.0287247631341,-0.999507201933
105716000000,,403,,105,716000000,"""map""",,,0.00389209226705,-0.00648520374671,0.00307057145983,,0.0113019922125,-0.00567804977317,0.0286478451356,-0.999509604303
105748000000,,404,,105,748000000,"""map""",,,0.00400945544243,-0.00653159245849,0.00257960800081,,0.0113301607953,-0.00563533130802,0.0285302975751,-0.999512849611
105780000000,,405,,105,780000000,"""map""",,,0.00421723164618,-0.00662423018366,0.00202971394174,,0.0113249293177,-0.0055965311827,0.0284809857623,-0.999514535485
105816000000,,406,,105,816000000,"""map""",,,0.00461808452383,-0.00678024999797,0.00128306029364,,0.0113328911208,-0.00559727797217,0.0284258576845,-0.999516052771
105848000000,,407,,105,848000000,"""map""",,,0.00448325602338,-0.00678170658648,0.000832249119412,,0.0113187044257,-0.00549085487478,0.0283801283538,-0.999518033673
105880000000,,408,,105,880000000,"""map""",,,0.00431101769209,-0.00674898410216,0.000591694726609,,0.0113251133809,-0.00548756215224,0.0283447250011,-0.999519045197
105916000000,,409,,105,916000000,"""map""",,,0.00426548346877,-0.00670197885484,0.00036798871588,,0.0113159240508,-0.00527042949125,0.0282429825088,-0.999523175589
105948000000,,410,,105,948000000,"""map""",,,0.00434464449063,-0.0066894646734,0.00029725235072,,0.0113036441714,-0.00533692207167,0.0282183266024,-0.999523639204
105980000000,,411,,105,980000000,"""map""",,,0.00447769695893,-0.00674650492147,0.000165089411894,,0.0113056520736,-0.00535065206612,0.0281810266415,-0.999524608581
106016000000,,412,,106,16000000,"""map""",,,0.00472881225869,-0.00687565328553,-6.92289468134e-05,,0.0112539026583,-0.00534241861341,0.0280840045962,-0.999527980329
106048000000,,413,,106,48000000,"""map""",,,0.00459018396214,-0.00683893216774,-0.000120547600091,,0.0112899161526,-0.00531094907628,0.0280393710836,-0.999528949707
106080000000,,414,,106,80000000,"""map""",,,0.00442243041471,-0.00675624934956,-9.42877522903e-05,,0.0112922990959,-0.00533495137723,0.0279620316166,-0.999531014902
106116000000,,415,,106,116000000,"""map""",,,0.00434894813225,-0.00670710764825,-5.3354742704e-06,,0.011344986937,-0.00538627142147,0.0279026888539,-0.999531773546
106148000000,,416,,106,148000000,"""map""",,,0.00438196631148,-0.00673047965392,-4.05616228818e-05,,0.0112903102914,-0.00543798988513,0.0277690411973,-0.99953586179
106180000000,,417,,106,180000000,"""map""",,,0.00448344647884,-0.00678040180355,-0.000117421950563,,0.0113041255674,-0.00550242813596,0.0277283273416,-0.999536451846
106216000000,,418,,106,216000000,"""map""",,,0.00471170945093,-0.0069022201933,-0.000149727828102,,0.0112522569556,-0.00548123123461,0.027625573325,-0.999539992181
106244000000,,419,,106,244000000,"""map""",,,0.00456142285839,-0.00704826135188,0.000469909457024,,0.0112453810924,-0.00549779560462,0.0275665255902,-0.999541635908
106280000000,,420,,106,280000000,"""map""",,,0.00435370532796,-0.00719515513629,0.00119206286035,,0.011235443985,-0.00550280284779,0.0275012401218,-0.999543532516
106316000000,,421,,106,316000000,"""map""",,,0.00425404589623,-0.00735134398565,0.00183363026008,,0.0112495789844,-0.00551112553328,0.0274228469836,-0.999545471271
106348000000,,422,,106,348000000,"""map""",,,0.00424746889621,-0.00752318557352,0.00237000687048,,0.0112061858404,-0.00549601753445,0.0273816695126,-0.999547199292
106380000000,,423,,106,380000000,"""map""",,,0.00432389136404,-0.00770420581102,0.00282826484181,,0.0112271420437,-0.00543998856771,0.0274013942377,-0.99954669353
106416000000,,424,,106,416000000,"""map""",,,0.0045153927058,-0.00793234817684,0.00335620343685,,0.0111897541671,-0.00537520984937,0.0273290280988,-0.999549433075
106448000000,,425,,106,448000000,"""map""",,,0.00435078889132,-0.00791279692203,0.00382225564681,,0.0111906567023,-0.0053440801212,0.0272832566213,-0.999550866068
106480000000,,426,,106,480000000,"""map""",,,0.00415400136262,-0.0078514078632,0.00431640353054,,0.0110990897105,-0.00529651246357,0.02722576832,-0.99955364776
106516000000,,427,,106,516000000,"""map""",,,0.00408134609461,-0.00780322821811,0.00473895529285,,0.0111365115021,-0.00530306432288,0.0271385664904,-0.999555628662
106548000000,,428,,106,548000000,"""map""",,,0.0041078128852,-0.00778210163116,0.00520391203463,,0.0110972056146,-0.00525004490454,0.0270611427297,-0.999558452501
106580000000,,429,,106,580000000,"""map""",,,0.00423578266054,-0.00780773116276,0.00575988134369,,0.0111164038334,-0.00525876370456,0.0270651888271,-0.999558031032
106616000000,,430,,106,616000000,"""map""",,,0.00448625441641,-0.00790369696915,0.00636650016531,,0.0110886063405,-0.00518238604179,0.0269783241724,-0.999561107752
106648000000,,431,,106,648000000,"""map""",,,0.00441692909226,-0.00797993130982,0.00678981235251,,0.0110383722361,-0.00521419802207,0.0269757110678,-0.999561613514
106680000000,,432,,106,680000000,"""map""",,,0.00433292612433,-0.00807628314942,0.00721999304369,,0.0110723725598,-0.00520948185558,0.0269528674759,-0.999561866395
106716000000,,433,,106,716000000,"""map""",,,0.00436274101958,-0.00822004023939,0.00765983806923,,0.0110230926864,-0.0051295381743,0.0269545533498,-0.999562793626
106748000000,,434,,106,748000000,"""map""",,,0.0045058936812,-0.00839157868177,0.00806318502873,,0.0110375190917,-0.00502362413181,0.0268834516164,-0.999565027409
106780000000,,435,,106,780000000,"""map""",,,0.00477524986491,-0.00860285479575,0.00853443425149,,0.0110246073388,-0.00500740714403,0.0268836202038,-0.99956528029
106816000000,,436,,106,816000000,"""map""",,,0.00518995849416,-0.00885250605643,0.00925832893699,,0.0110065968051,-0.00495156454539,0.0268481747042,-0.999566671136
106848000000,,437,,106,848000000,"""map""",,,0.00517985364422,-0.00868303328753,0.00978648010641,,0.0112087834692,-0.00493366234221,0.0267917822209,-0.999565996787
106880000000,,438,,106,880000000,"""map""",,,0.00506268069148,-0.00846006534994,0.0104174017906,,0.0112159642385,-0.00492671996601,0.0267657776153,-0.999566713283
106916000000,,439,,106,916000000,"""map""",,,0.00497336825356,-0.00828532222658,0.01099749282,,0.0111748262802,-0.00493696955273,0.0267453785406,-0.999567640514
106948000000,,440,,106,948000000,"""map""",,,0.00496823713183,-0.00816095806658,0.0115654198453,,0.011215102533,-0.00490434163581,0.026673223136,-0.999569326388
106980000000,,441,,106,980000000,"""map""",,,0.00504909642041,-0.00808852165937,0.0122063839808,,0.0111781680643,-0.00489967979924,0.0266489886981,-0.999570380059
107016000000,,442,,107,16000000,"""map""",,,0.00522597972304,-0.00805172882974,0.0130917942151,,0.0111386501254,-0.0048997561904,0.0266216353934,-0.999571518024
107048000000,,443,,107,48000000,"""map""",,,0.00492916116491,-0.00776668544859,0.0138596491888,,0.0110771509587,-0.00485440519358,0.0265735879861,-0.99957370966
107080000000,,444,,107,80000000,"""map""",,,0.00462286081165,-0.00743133295327,0.0145948380232,,0.0110715434523,-0.00487137522701,0.0265413877939,-0.999574552597
107116000000,,445,,107,116000000,"""map""",,,0.00444552721456,-0.00712936697528,0.015420272015,,0.0110695026228,-0.00488017272309,0.0265042985672,-0.999575479828
107148000000,,446,,107,148000000,"""map""",,,0.00436859577894,-0.00684237619862,0.016161089763,,0.0110753962669,-0.00481743746836,0.0264628260682,-0.999576828527
107180000000,,447,,107,180000000,"""map""",,,0.00438070390373,-0.00659053120762,0.0167749095708,,0.011141004422,-0.00479491919745,0.0264694852703,-0.999576069883
107216000000,,448,,107,216000000,"""map""",,,0.00446572853252,-0.00635600229725,0.0174512006342,,0.0111366662601,-0.0047598421535,0.0264947312326,-0.999575606268
107248000000,,449,,107,248000000,"""map""",,,0.00458950176835,-0.00621192762628,0.0176638420671,,0.0111789230855,-0.00473505519677,0.0264493812236,-0.999576449205
107280000000,,450,,107,280000000,"""map""",,,0.00478614633903,-0.00611090054736,0.0177526660264,,0.0111562095562,-0.00467623828185,0.0263763407351,-0.999578935869
107316000000,,451,,107,316000000,"""map""",,,0.00505175394937,-0.00604161480442,0.0177218317986,,0.011174235895,-0.00464311415165,0.0263617157787,-0.999579230897
107348000000,,452,,107,348000000,"""map""",,,0.00481272581965,-0.00594691140577,0.0173866469413,,0.011223280668,-0.00436706645261,0.0263181359373,-0.999581085358
107380000000,,453,,107,380000000,"""map""",,,0.00419110571966,-0.00581001164392,0.0171902980655,,0.0112732078906,-0.00435878031634,0.0262917098633,-0.999581296093
107416000000,,454,,107,416000000,"""map""",,,0.0035745492205,-0.0057065715082,0.0170024242252,,0.0112540630139,-0.00439852973357,0.0262046766211,-0.999583614169
107448000000,,455,,107,448000000,"""map""",,,0.00321990065277,-0.00567631563172,0.0168949086219,,0.0112841324854,-0.00439851096505,0.0261979331253,-0.999583445582
107472000000,,456,,107,472000000,"""map""",,,0.00296729477122,-0.00566091295332,0.0167963188142,,0.0112814920512,-0.00443263509509,0.0261881129096,-0.999583572022
107516000000,,457,,107,516000000,"""map""",,,0.00280402973294,-0.00568487355486,0.0166099742055,,0.0113401100857,-0.00444462488567,0.0260871712075,-0.999585468631
107548000000,,458,,107,548000000,"""map""",,,0.00253391312435,-0.00552547862753,0.0165160372853,,0.0113785331943,-0.00449562026747,0.0260049848529,-0.999586985917
107580000000,,459,,107,580000000,"""map""",,,0.00209256261587,-0.00514372112229,0.0165461078286,,0.0113355407746,-0.00449508026097,0.0260102110621,-0.999587323092
107616000000,,460,,107,616000000,"""map""",,,0.00182074366603,-0.00486586708575,0.0164901632816,,0.0113341107452,-0.00444183397405,0.025986018771,-0.999588166029
107648000000,,461,,107,648000000,"""map""",,,0.00162728538271,-0.00460532447323,0.0161480605602,,0.0112835476979,-0.00443568316835,0.0259575696483,-0.999589556875
107680000000,,462,,107,680000000,"""map""",,,0.00150425336324,-0.00436288351193,0.0157755129039,,0.0112518944268,-0.00444120671041,0.0259217026802,-0.999590779134
107716000000,,463,,107,716000000,"""map""",,,0.00146498612594,-0.00412212498486,0.0152811715379,,0.0112721413777,-0.00443567954635,0.0258926213547,-0.999591369189
107748000000,,464,,107,748000000,"""map""",,,0.00135861895978,-0.00394012825564,0.0148006752133,,0.0113323152236,-0.0043799759006,0.0258315505712,-0.999592507154
107780000000,,465,,107,780000000,"""map""",,,0.00120007875375,-0.00383705412969,0.0143811339512,,0.0112766184926,-0.00435195186833,0.0258270830053,-0.999593350091
107816000000,,466,,107,816000000,"""map""",,,0.00111199310049,-0.00373003212735,0.0136843118817,,0.0113110630045,-0.00437984386242,0.0257816065558,-0.999594066588
107848000000,,467,,107,848000000,"""map""",,,0.00112328771502,-0.00368727720343,0.013115840964,,0.0112415131312,-0.00441637167992,0.0256984508236,-0.999596806133
107880000000,,468,,107,880000000,"""map""",,,0.00120786938351,-0.00366497389041,0.0125409774482,,0.0112434983136,-0.00439862357616,0.0256571890589,-0.999597944098
107916000000,,469,,107,916000000,"""map""",,,0.00134387845173,-0.00365516822785,0.0118842525408,,0.0112566557036,-0.0043838909477,0.0255892483391,-0.999599545678
107948000000,,470,,107,948000000,"""map""",,,0.00132856389973,-0.00355487549677,0.0108613092452,,0.0113294956653,-0.00447096008055,0.0255212654725,-0.999600093587
107980000000,,471,,107,980000000,"""map""",,,0.00124861462973,-0.00344571052119,0.0100778769702,,0.0113099922112,-0.00440611583703,0.025464915136,-0.999602074489
108016000000,,472,,108,16000000,"""map""",,,0.00126343464945,-0.00337094138376,0.00925678107888,,0.0113499451186,-0.00446161895598,0.0253816751102,-0.999603465335
108048000000,,473,,108,48000000,"""map""",,,0.00133497233037,-0.00328311068006,0.00830440688878,,0.0113932799814,-0.00440141218288,0.0253153781175,-0.999604940475
108080000000,,474,,108,80000000,"""map""",,,0.00145577639341,-0.00320257944986,0.00745385838673,,0.0113967574257,-0.00441763048775,0.0252886148687,-0.999605488384
108116000000,,475,,108,116000000,"""map""",,,0.0016521718353,-0.00315915211104,0.00665492936969,,0.0114145022368,-0.00438158340774,0.0252336975251,-0.99960687923
108148000000,,476,,108,148000000,"""map""",,,0.00154679035768,-0.00307407951914,0.00586557760835,,0.0114650573815,-0.00439424326736,0.0252187775407,-0.999606542055
108180000000,,477,,108,180000000,"""map""",,,0.00109000026714,-0.00298201455735,0.00497453659773,,0.0114783866517,-0.00439976154107,0.0252273754978,-0.99960620488
108216000000,,478,,108,216000000,"""map""",,,0.000813465856481,-0.00291080516763,0.00412162765861,,0.0115075437097,-0.00431796043501,0.0252032675005,-0.999606794936
108248000000,,479,,108,248000000,"""map""",,,0.000614875170868,-0.00286252680235,0.00338573404588,,0.011490447565,-0.00432534041404,0.0251098700842,-0.999609323747
108280000000,,480,,108,280000000,"""map""",,,0.00048313557636,-0.00279275747016,0.002659678692,,0.0115063797323,-0.00432104341112,0.0250965516801,-0.999609492334
108316000000,,481,,108,316000000,"""map""",,,0.000458269671071,-0.00273407506756,0.00187429809012,,0.011495606932,-0.00427837269046,0.0250488835944,-0.999611051768
108348000000,,482,,108,348000000,"""map""",,,8.51953518577e-05,-0.00247898884118,0.00130834116135,,0.0114963053184,-0.00431009971849,0.0250173998986,-0.99961168397
108380000000,,483,,108,380000000,"""map""",,,-0.000654942297842,-0.00206496752799,0.000863951747306,,0.0115327336957,-0.0042699084179,0.0250198022689,-0.999611388942
108416000000,,484,,108,416000000,"""map""",,,-0.0013961463701,-0.00155983259901,0.000222152419155,,0.0115783800497,-0.00423954424772,0.02496829882,-0.999612231879
108448000000,,485,,108,448000000,"""map""",,,-0.00186058483087,-0.00116736476775,-0.00027004617732,,0.0116506730902,-0.00424522682828,0.0248717825369,-0.999613749166
108480000000,,486,,108,480000000,"""map""",,,-0.00221760268323,-0.000789450772572,-0.000741945346817,,0.0116763622529,-0.00431160350487,0.024866767062,-0.999613285551
108516000000,,487,,108,516000000,"""map""",,,-0.00250102672726,-0.000412078603404,-0.00116539443843,,0.0116308963401,-0.00432211124104,0.0248152214662,-0.999615097865
108548000000,,488,,108,548000000,"""map""",,,-0.00280054751784,-0.000136926857522,-0.00127000384964,,0.0116667106246,-0.00430130518586,0.0247110766036,-0.999617331648
108580000000,,489,,108,580000000,"""map""",,,-0.0031072339043,4.60792944068e-05,-0.00123423454352,,0.0116778680149,-0.00424609511921,0.0247181151273,-0.999617289501
108616000000,,490,,108,616000000,"""map""",,,-0.00342168146744,0.000237769607338,-0.00108518847264,,0.0117259552642,-0.0042992195754,0.0246657687414,-0.999617795263
108648000000,,491,,108,648000000,"""map""",,,-0.0035881458316,0.000340144353686,-0.000872474862263,,0.0116933889212,-0.0042820012707,0.02461831139,-0.999619396844
108680000000,,492,,108,680000000,"""map""",,,-0.00366208865307,0.000420104333898,-0.00081873848103,,0.0116800896148,-0.00430589524108,0.0246266143192,-0.999619270403
108716000000,,493,,108,716000000,"""map""",,,-0.00366285559721,0.000472688669106,-0.000825901341159,,0.0115943510712,-0.00427621332301,0.0245405083077,-0.99962251571
108748000000,,494,,108,748000000,"""map""",,,-0.0037073136773,0.000501980364788,-0.000636775628664,,0.0115530497938,-0.00427892784348,0.0244610614982,-0.999624918081
108780000000,,495,,108,780000000,"""map""",,,-0.0038059046492,0.000525567040313,-6.02494110353e-05,,0.0115402147613,-0.0042953769682,0.0244448349615,-0.999625381696
108816000000,,496,,108,816000000,"""map""",,,-0.0038898405619,0.000560576329008,0.00061547831865,,0.0114840027192,-0.00427705889416,0.024342586707,-0.999628584857
108848000000,,497,,108,848000000,"""map""",,,-0.00388121558353,0.000560035638046,0.00112252123654,,0.0114161597933,-0.00430960910283,0.0242157668399,-0.999632335926
108880000000,,498,,108,880000000,"""map""",,,-0.00382076972164,0.00057455105707,0.00161880627275,,0.0114385723678,-0.00427689162386,0.0242084754351,-0.999632378073
108916000000,,499,,108,916000000,"""map""",,,-0.00371722481214,0.000584328663535,0.00218320125714,,0.0113600033982,-0.00424751592899,0.0241607652026,-0.999634569709
108948000000,,500,,108,948000000,"""map""",,,-0.00358644220978,0.00064917630516,0.0027603879571,,0.0113902770185,-0.00424492883689,0.0240999051533,-0.999635665527
108980000000,,501,,108,980000000,"""map""",,,-0.00348921865225,0.000787582364865,0.00325199216604,,0.0113961630893,-0.00426283993042,0.024076345065,-0.999636044849
109016000000,,502,,109,16000000,"""map""",,,-0.00329033029266,0.000939689925872,0.00380084291101,,0.0114167077023,-0.00400709219511,0.0240409417123,-0.999637730723
109048000000,,503,,109,48000000,"""map""",,,-0.00310060125776,0.00106412742753,0.00419514859095,,0.0114066132028,-0.00400714915921,0.0240373592301,-0.999638025751
109080000000,,504,,109,80000000,"""map""",,,-0.00286327977665,0.00117841025349,0.00452156923711,,0.0114334910384,-0.00400823839183,0.0240409417123,-0.999637562135
109116000000,,505,,109,116000000,"""map""",,,-0.00255991448648,0.00126586167607,0.00482092471793,,0.0113711028366,-0.00401869640789,0.024065766206,-0.999637688576
109148000000,,506,,109,148000000,"""map""",,,-0.00236331601627,0.00144223868847,0.00512304482982,,0.011345168366,-0.00404066248922,0.0240711610026,-0.999637688576
109180000000,,507,,109,180000000,"""map""",,,-0.00224856613204,0.00170257641003,0.00552524672821,,0.0113827314155,-0.0040353496814,0.0240479380891,-0.99963789931
109216000000,,508,,109,216000000,"""map""",,,-0.00204987218603,0.00202267081477,0.00608570873737,,0.0113919177821,-0.0039952617723,0.0240111017435,-0.999638826541
109248000000,,509,,109,248000000,"""map""",,,-0.00184424943291,0.00228110724129,0.00643954798579,,0.0114496313057,-0.00405713334591,0.0239803345441,-0.999638657953
109280000000,,510,,109,280000000,"""map""",,,-0.0015859932173,0.00252996408381,0.00680466555059,,0.0114465855374,-0.00405712346774,0.0239856871939,-0.999638531513
109316000000,,511,,109,316000000,"""map""",,,-0.00127442297526,0.00278509641066,0.00711796851829,,0.0115034413067,-0.00410863119716,0.0239622113992,-0.999638236485
109348000000,,512,,109,348000000,"""map""",,,-0.00105986662675,0.00301426276565,0.0072634415701,,0.0114427659792,-0.0041070108484,0.023930011207,-0.999639753772
109380000000,,513,,109,380000000,"""map""",,,-0.000916387594771,0.00323773850687,0.00729814870283,,0.0114433336446,-0.00412906550397,0.0239111715657,-0.999640133093
109416000000,,514,,109,416000000,"""map""",,,-0.000661467434838,0.00351570779458,0.00728208897635,,0.011426143328,-0.00407004905007,0.0238507751318,-0.999641945408
109448000000,,515,,109,448000000,"""map""",,,-0.000394494156353,0.00377722666599,0.00731432437897,,0.0115011792064,-0.00406687486554,0.0238284794489,-0.99964165038
109480000000,,516,,109,480000000,"""map""",,,-7.11563770892e-05,0.00406368402764,0.00737423216924,,0.0114946072614,-0.00404564964678,0.0238244333515,-0.999641903261
109516000000,,517,,109,516000000,"""map""",,,0.000312225689413,0.00439978949726,0.00739771220833,,0.011441124557,-0.00402469443126,0.0238093869265,-0.999642956932
109548000000,,518,,109,548000000,"""map""",,,0.00055168592371,0.00470929173753,0.00755178323016,,0.011405780144,-0.00396468950206,0.02372829639,-0.999645570037
109580000000,,519,,109,580000000,"""map""",,,0.00069179199636,0.0049722995609,0.00792574230582,,0.0113792908497,-0.00395394995822,0.0236802068358,-0.999647045176
109616000000,,520,,109,616000000,"""map""",,,0.000945764477365,0.00528951641172,0.00826687552035,,0.0114075983854,-0.00396526177724,0.0236309793168,-0.99964780382
109648000000,,521,,109,648000000,"""map""",,,0.00118947029114,0.00552678015083,0.00841957796365,,0.0113326481179,-0.00401401514425,0.023596418901,-0.999649321106
109680000000,,522,,109,680000000,"""map""",,,0.00145368254744,0.00576902087778,0.00852596014738,,0.0113954959837,-0.00403341817036,0.023568306953,-0.999649194666
109716000000,,523,,109,716000000,"""map""",,,0.00175680802204,0.00603000819683,0.00859002303332,,0.0113738799188,-0.00400038689493,0.0235122516445,-0.99965088054
109748000000,,524,,109,748000000,"""map""",,,0.00187672383618,0.00636445218697,0.00869530532509,,0.0114394646956,-0.00399929601595,0.0235278459785,-0.999649784721
109780000000,,525,,109,780000000,"""map""",,,0.00185901811346,0.00677591469139,0.0087423613295,,0.0114389763848,-0.00398892229359,0.0234939177654,-0.999650585512
109816000000,,526,,109,816000000,"""map""",,,0.00194179709069,0.00732715893537,0.00875797867775,,0.0114901143415,-0.0039369466683,0.0234620968948,-0.999650964833
109848000000,,527,,109,848000000,"""map""",,,0.00209753145464,0.00779411382973,0.00863257888705,,0.0115033191467,-0.00389256373191,0.0234074324323,-0.999652271386
109880000000,,528,,109,880000000,"""map""",,,0.00231608515605,0.00827726442367,0.00841329898685,,0.0115164821344,-0.00389947976633,0.0233853053368,-0.999652650707
109916000000,,529,,109,916000000,"""map""",,,0.00256585213356,0.00876273494214,0.00798818934709,,0.0115352318843,-0.0036784751929,0.023353526613,-0.999653999406
109948000000,,530,,109,948000000,"""map""",,,0.00282358564436,0.00907337199897,0.00770621187985,,0.0115637926304,-0.0036554620258,0.0233370471953,-0.999654125847
109980000000,,531,,109,980000000,"""map""",,,0.00303741032258,0.00926508847624,0.00757292471826,,0.0115624221992,-0.00365216337636,0.0233368786079,-0.999654125847
110016000000,,532,,110,16000000,"""map""",,,0.00335548329167,0.00954399351031,0.00733502581716,,0.0115742704027,-0.00368873663343,0.0232576846795,-0.999655769574
110048000000,,533,,110,48000000,"""map""",,,0.00368756381795,0.00979056954384,0.00706839421764,,0.0115906246971,-0.00371807742544,0.0232482016386,-0.999655643133
110080000000,,534,,110,80000000,"""map""",,,0.00406567705795,0.0100855985656,0.00676220888272,,0.0115848680302,-0.00375886997717,0.0231986790916,-0.999656696805
110116000000,,535,,110,116000000,"""map""",,,0.00445277104154,0.0104260835797,0.00636877352372,,0.011568739946,-0.00379639680668,0.0231183050515,-0.999658593413
110148000000,,536,,110,148000000,"""map""",,,0.00467653525993,0.0108022149652,0.00602668570355,,0.0115892970713,-0.00379697105749,0.0231047759131,-0.999658719853
110180000000,,537,,110,180000000,"""map""",,,0.00475697871298,0.0112309250981,0.00585595611483,,0.0115846273322,-0.00377714820926,0.023033589886,-0.999660447874
110216000000,,538,,110,216000000,"""map""",,,0.00486881751567,0.0116633763537,0.00571903958917,,0.0115452651392,-0.00376959832575,0.0229534265801,-0.999662808098
110248000000,,539,,110,248000000,"""map""",,,0.00498220976442,0.0120934760198,0.00557686341926,,0.0115049276417,-0.00377894340159,0.0229243452547,-0.999663903916
110280000000,,540,,110,280000000,"""map""",,,0.00513888010755,0.0125492671505,0.00543569913134,,0.0114933774296,-0.00381973694113,0.0229429320148,-0.9996634403
110316000000,,541,,110,316000000,"""map""",,,0.00540401507169,0.0131329549477,0.00521897850558,,0.0115680679013,-0.00382068162323,0.0228811447349,-0.999663946063
110348000000,,542,,110,348000000,"""map""",,,0.00536296609789,0.0133111793548,0.00523922685534,,0.0115049579347,-0.00380830526702,0.0228683742398,-0.999664999734
110380000000,,543,,110,380000000,"""map""",,,0.00528974132612,0.0134434141219,0.00527626089752,,0.0115315637914,-0.00378630263646,0.0228811868818,-0.999664493972
110416000000,,544,,110,416000000,"""map""",,,0.00527592236176,0.0136249540374,0.00535268383101,,0.0115536467644,-0.00373898028666,0.0227805402075,-0.999666769901
110448000000,,545,,110,448000000,"""map""",,,0.00531712220982,0.0138457240537,0.00540141295642,,0.0116068601241,-0.0036969621836,0.0227063617542,-0.999667950013
110480000000,,546,,110,480000000,"""map""",,,0.0053780968301,0.0140679571778,0.0053935344331,,0.0115749003006,-0.00367426281296,0.0227007983701,-0.999668540069
110516000000,,547,,110,516000000,"""map""",,,0.00548464804888,0.014383864589,0.00537749147043,,0.0116040293705,-0.00363203924401,0.0225860325017,-0.999671026733
110548000000,,548,,110,548000000,"""map""",,,0.00548705179244,0.0144359897822,0.00534678529948,,0.0116369661448,-0.00359849002333,0.022532253123,-0.999671953964
110580000000,,549,,110,580000000,"""map""",,,0.00553725706413,0.0144955478609,0.00523369433358,,0.0116285298604,-0.00359036259628,0.0224732896819,-0.999673429103
110616000000,,550,,110,616000000,"""map""",,,0.00562570523471,0.0146209122613,0.00497323879972,,0.0116041429694,-0.00341741267414,0.0224123453389,-0.99967562074
110648000000,,551,,110,648000000,"""map""",,,0.00580961396918,0.0148340119049,0.00483890948817,,0.0115828390546,-0.00344631224133,0.0223554470935,-0.999677053732
110680000000,,552,,110,680000000,"""map""",,,0.00602805614471,0.0151052046567,0.00473086489365,,0.0115980540669,-0.00350187759274,0.0223524968141,-0.999676716558
110716000000,,553,,110,716000000,"""map""",,,0.00635362928733,0.0154547421262,0.00463791377842,,0.0115871139963,-0.0035402025782,0.0223304118654,-0.999677306614
110748000000,,554,,110,748000000,"""map""",,,0.00642088195309,0.0156039157882,0.00476893410087,,0.0115589582551,-0.00355403761049,0.0223098863502,-0.99967802311
110780000000,,555,,110,780000000,"""map""",,,0.00645291758701,0.0157629009336,0.00493099121377,,0.0115414445932,-0.00356515153688,0.0222554326219,-0.999679371809
110816000000,,556,,110,816000000,"""map""",,,0.00654182769358,0.0159963071346,0.00504232896492,,0.0115906184409,-0.00355983938761,0.0222156459969,-0.999679708984
110848000000,,557,,110,848000000,"""map""",,,0.00670817913488,0.0162571500987,0.00518788443878,,0.0115938064548,-0.00358379526117,0.0221319002089,-0.999681437005
110880000000,,558,,110,880000000,"""map""",,,0.00689392210916,0.0165414642543,0.00533519592136,,0.0116289997319,-0.00359158650125,0.022165828422,-0.999680214746
110916000000,,559,,110,916000000,"""map""",,,0.0071298009716,0.0169290024787,0.00532401632518,,0.0116433997954,-0.00357434152549,0.0221190454202,-0.99968122627
110948000000,,560,,110,948000000,"""map""",,,0.0070598423481,0.016963230446,0.00515279639512,,0.0116573961711,-0.00362220355251,0.0220477750993,-0.999682448529
110980000000,,561,,110,980000000,"""map""",,,0.00696601998061,0.0169542711228,0.00508360471576,,0.0116122973968,-0.00360760131587,0.0220344145483,-0.999683333613
111016000000,,562,,111,16000000,"""map""",,,0.0069161276333,0.017015138641,0.00501362141222,,0.0116542954143,-0.00359670108717,0.0220133832709,-0.999683291466
111048000000,,563,,111,48000000,"""map""",,,0.0069312537089,0.0171150211245,0.00490883504972,,0.0116384827728,-0.00357614626671,0.0220013292723,-0.999683797228
111080000000,,564,,111,80000000,"""map""",,,0.00702446047217,0.0172841940075,0.00494280923158,,0.0116955578375,-0.0035648677042,0.021971362863,-0.999683839375
111116000000,,565,,111,116000000,"""map""",,,0.00718730269,0.0175478048623,0.00500986911356,,0.0115968795528,-0.00354130695734,0.0219417757753,-0.99968577813
111148000000,,566,,111,148000000,"""map""",,,0.00706118158996,0.0173996146768,0.00521199032664,,0.0116592822426,-0.00358183082291,0.0219299746577,-0.999685103781
111180000000,,567,,111,180000000,"""map""",,,0.00689233280718,0.0171963814646,0.00544462818652,,0.0116299717436,-0.0035468304994,0.0219080582965,-0.999686115305
111216000000,,568,,111,216000000,"""map""",,,0.00682439375669,0.0170910600573,0.00560268526897,,0.0116228762558,-0.00352923451942,0.0219218824628,-0.999685946717
111248000000,,569,,111,248000000,"""map""",,,0.00683914171532,0.017058365047,0.0057110353373,,0.0116358159968,-0.00350719369328,0.0218807892855,-0.999686747508
111280000000,,570,,111,280000000,"""map""",,,0.00691848853603,0.0170808974653,0.00573139404878,,0.0116427590316,-0.00349978836029,0.0218555433233,-0.999687211123
111316000000,,571,,111,316000000,"""map""",,,0.00705503346398,0.01721149683,0.00576578173786,,0.0116027099766,-0.003437562819,0.021854236771,-0.999687927619
111348000000,,572,,111,348000000,"""map""",,,0.00697391340509,0.0170992333442,0.00601579062641,,0.0115324646803,-0.00341491909536,0.02180998258,-0.999689782081
111380000000,,573,,111,380000000,"""map""",,,0.00686171278358,0.0169725716114,0.0062967739068,,0.0115238466376,-0.00341229183205,0.0218227109283,-0.999689697787
111416000000,,574,,111,416000000,"""map""",,,0.0068167517893,0.016907081008,0.00658427597955,,0.0114872104895,-0.00332022599274,0.021806652979,-0.999690751458
111448000000,,575,,111,448000000,"""map""",,,0.00682235648856,0.0168817918748,0.00678155850619,,0.0114658519155,-0.00340891284018,0.0217709967452,-0.999691425808
111480000000,,576,,111,480000000,"""map""",,,0.00686276750639,0.0168991181999,0.00679722009227,,0.0114726988027,-0.00332678377896,0.0217425476224,-0.999692310892
111516000000,,577,,111,516000000,"""map""",,,0.00696267792955,0.0170250609517,0.00692101381719,,0.0113771196285,-0.00333487663241,0.0217212634639,-0.999693786031
111548000000,,578,,111,548000000,"""map""",,,0.0067703477107,0.0170325748622,0.0071973213926,,0.0113409928646,-0.00325486512106,0.0217156157862,-0.999694628968
111580000000,,579,,111,580000000,"""map""",,,0.00656282901764,0.0170357786119,0.00748031307012,,0.01157907218,-0.00324790858615,0.0216772621541,-0.999692690213
111616000000,,580,,111,616000000,"""map""",,,0.00640893867239,0.017109086737,0.00776453828439,,0.0116051419815,-0.00325798234148,0.0216619207012,-0.999692690213
111648000000,,581,,111,648000000,"""map""",,,0.00627287523821,0.0172087214887,0.0080793062225,,0.011492518029,-0.00325548217726,0.0216339773406,-0.999694671115
111680000000,,582,,111,680000000,"""map""",,,0.00620140787214,0.017347548157,0.0083856638521,,0.0115224933286,-0.00328769060133,0.0216037580503,-0.999694797556
111716000000,,583,,111,716000000,"""map""",,,0.00615147408098,0.0175791978836,0.00873838830739,,0.0115494231892,-0.0033237202299,0.0215725693824,-0.99969513473
111748000000,,584,,111,748000000,"""map""",,,0.00581363262609,0.0174195915461,0.00909595843405,,0.0115312789709,-0.00336200405633,0.0215623276982,-0.999695345465
111780000000,,585,,111,780000000,"""map""",,,0.00539784599096,0.0172046981752,0.00935581047088,,0.0114739625497,-0.00335181439716,0.0215677224948,-0.999695935521
111816000000,,586,,111,816000000,"""map""",,,0.00504563655704,0.0170552395284,0.00956861395389,,0.0114177027631,-0.00333733069852,0.0215665845299,-0.999696652017
111848000000,,587,,111,848000000,"""map""",,,0.00473995367065,0.0169826690108,0.00978804100305,,0.0114172859044,-0.0033611772537,0.0215403270433,-0.999697115632
111880000000,,588,,111,880000000,"""map""",,,0.00438153324649,0.0169817041606,0.00961878243834,,0.0114483184972,-0.00336512259385,0.0215282308977,-0.999697073485
111916000000,,589,,111,916000000,"""map""",,,0.00412218738347,0.0170748569071,0.00930843222886,,0.0114931637319,-0.00339435176256,0.0214853254059,-0.99969741066
111948000000,,590,,111,948000000,"""map""",,,0.00372689403594,0.0169435981661,0.00890517793596,,0.0113971008567,-0.0034331528757,0.0214582249824,-0.9996988858
111980000000,,591,,111,980000000,"""map""",,,0.00331729324535,0.016768598929,0.008464820683,,0.0114250168876,-0.00345306956653,0.0214270363145,-0.999699222975
112016000000,,592,,112,16000000,"""map""",,,0.00294477702118,0.0166708044708,0.0079997824505,,0.0114144311139,-0.00341844099139,0.0213616665524,-0.999700782408
112048000000,,593,,112,48000000,"""map""",,,0.00263136415742,0.0166296996176,0.00749250734225,,0.0114169875837,-0.00343382063983,0.0213182974453,-0.999701667492
112080000000,,594,,112,80000000,"""map""",,,0.00233260239474,0.0166298206896,0.00702626770362,,0.0113845644741,-0.00338969848707,0.0213127762081,-0.999702299695
112116000000,,595,,112,116000000,"""map""",,,0.00204280833714,0.0166686046869,0.00637962808833,,0.0114233645995,-0.00333219174645,0.0212789744356,-0.999702805457
112148000000,,596,,112,148000000,"""map""",,,0.00176757841837,0.0165712870657,0.0058520953171,,0.0114742160893,-0.00310989346234,0.0211810251597,-0.999704997093
112180000000,,597,,112,180000000,"""map""",,,0.00151251547504,0.0164810083807,0.00544629711658,,0.0114744920194,-0.00310620363746,0.0211902974664,-0.999704828506
112216000000,,598,,112,216000000,"""map""",,,0.00127629062627,0.0164350811392,0.00504749175161,,0.011524104787,-0.00312812592559,0.0212267123435,-0.999703395513
112248000000,,599,,112,248000000,"""map""",,,0.00108086504042,0.0164442770183,0.00469683576375,,0.0115788594702,-0.00310683715728,0.021197631018,-0.999703479806
112280000000,,600,,112,280000000,"""map""",,,0.00090248795459,0.0165025684983,0.00443286681548,,0.0115618492655,-0.00307995668755,0.0212534755923,-0.999702594723
112316000000,,601,,112,316000000,"""map""",,,0.000661111145746,0.0166389793158,0.00427770381793,,0.0115485716911,-0.00313894383622,0.0212114551843,-0.999703395513
112348000000,,602,,112,348000000,"""map""",,,0.000456850510091,0.0168148744851,0.00419014319777,,0.0115042457189,-0.00324927704163,0.0212671733181,-0.999702383988
112380000000,,603,,112,380000000,"""map""",,,0.00027767723077,0.0170450694859,0.00410903757438,,0.0115072302426,-0.00327819504807,0.0212481229425,-0.999702636869
112416000000,,604,,112,416000000,"""map""",,,0.000121206408949,0.0173059348017,0.00408116448671,,0.0114721828331,-0.00328049567331,0.0212084627581,-0.999703859128
112448000000,,605,,112,448000000,"""map""",,,-0.000152036183863,0.0174502115697,0.00415648380294,,0.011494149573,-0.00336578212617,0.0211744081045,-0.999704112009
112480000000,,606,,112,480000000,"""map""",,,-0.000523713417351,0.0174856502563,0.00429524993524,,0.011499154182,-0.00334673603119,0.0211661473222,-0.999704280597
112516000000,,607,,112,516000000,"""map""",,,-0.000951548398007,0.0175803657621,0.00432657264173,,0.011452188434,-0.00328473637067,0.0211540511766,-0.999705249974
112548000000,,608,,112,548000000,"""map""",,,-0.00128497800324,0.0176958404481,0.00428158836439,,0.011512052764,-0.00326000802439,0.0211455796601,-0.999704870652
112580000000,,609,,112,580000000,"""map""",,,-0.00161402812228,0.0178471133113,0.00419369479641,,0.011498429783,-0.0032816718338,0.0211113142723,-0.999705671443
112616000000,,610,,112,616000000,"""map""",,,-0.0019279649714,0.0180180333555,0.00418284768239,,0.0115773517325,-0.00333066425247,0.0210721177031,-0.999705418561
112648000000,,611,,112,648000000,"""map""",,,-0.00220699911006,0.018073854968,0.00428032502532,,0.0115543573339,-0.00328850489161,0.0210341855395,-0.999706598673
112680000000,,612,,112,680000000,"""map""",,,-0.00243896082975,0.0180669687688,0.00447150273249,,0.0115536085688,-0.00333481176578,0.0210503699293,-0.999706177205
112716000000,,613,,112,716000000,"""map""",,,-0.00272756605409,0.0181428715587,0.00450905971229,,0.0115420741618,-0.00334525298895,0.0209596699113,-0.99970811596
112748000000,,614,,112,748000000,"""map""",,,-0.0029383818619,0.0182731077075,0.00454811891541,,0.0115710313516,-0.00340668366702,0.0208811081857,-0.999709211778
112780000000,,615,,112,780000000,"""map""",,,-0.00316171604209,0.0184414852411,0.0045872121118,,0.0115807965788,-0.00340216703951,0.0208946794709,-0.999708874603
112816000000,,616,,112,816000000,"""map""",,,-0.00337818521075,0.0186793264002,0.004569189623,,0.0116030580174,-0.00345511533504,0.0208846906678,-0.999708579575
112848000000,,617,,112,848000000,"""map""",,,-0.00347481830977,0.0188401956111,0.00467989780009,,0.0115740395829,-0.00344566028227,0.0208387927498,-0.999709970421
112880000000,,618,,112,880000000,"""map""",,,-0.00346613186412,0.0189427137375,0.00502874795347,,0.0115880441904,-0.00344013641094,0.0207742659247,-0.999711108386
112916000000,,619,,112,916000000,"""map""",,,-0.00350341829471,0.0191545300186,0.00557378632948,,0.0116035048398,-0.00349411927989,0.0207265978391,-0.999711824882
112948000000,,620,,112,948000000,"""map""",,,-0.00351960281841,0.019368108362,0.00599940959364,,0.01161449035,-0.00351639290151,0.0207301381743,-0.999711487708
112980000000,,621,,112,980000000,"""map""",,,-0.00353562179953,0.0196040701121,0.00627718726173,,0.011586292462,-0.0034867139469,0.0206946926747,-0.999712625673
113016000000,,622,,113,16000000,"""map""",,,-0.00355861196294,0.0198629964143,0.00656000524759,,0.0115799012876,-0.00348049926238,0.0206406182681,-0.999713847931
113048000000,,623,,113,48000000,"""map""",,,-0.00359184271656,0.0199276544154,0.00682405102998,,0.0117531327375,-0.00348137907784,0.0205970805736,-0.999712709966
113080000000,,624,,113,80000000,"""map""",,,-0.00364719307981,0.0198129992932,0.00726167671382,,0.0117883833079,-0.00349881470223,0.0205502975717,-0.999713215728
113116000000,,625,,113,116000000,"""map""",,,-0.00377789512277,0.019760299474,0.00784563086927,,0.0117504415953,-0.0035211541783,0.0205608342839,-0.999713384316
113148000000,,626,,113,148000000,"""map""",,,-0.0039022907149,0.0197769999504,0.00817592069507,,0.0116829430882,-0.00354748575118,0.0205538800539,-0.999714185106
113180000000,,627,,113,180000000,"""map""",,,-0.00403320882469,0.0198345407844,0.00836274866015,,0.0116924995568,-0.00353264643851,0.0205815283865,-0.99971359505
113216000000,,628,,113,216000000,"""map""",,,-0.00419331900775,0.0199166703969,0.00852928031236,,0.0116605710142,-0.00352755292602,0.0205421210831,-0.999714817309
113248000000,,629,,113,248000000,"""map""",,,-0.00435272511095,0.0197534635663,0.0087693054229,,0.0117002690649,-0.00358423418109,0.0204541184634,-0.999715913127
113280000000,,630,,113,280000000,"""map""",,,-0.00450272066519,0.0193832684308,0.00897688325495,,0.0116819411127,-0.00356428752649,0.0204303897877,-0.999716713917
113316000000,,631,,113,316000000,"""map""",,,-0.00473827682436,0.0190734285861,0.00910488516092,,0.0116353174786,-0.0035671034628,0.0204024464272,-0.999717851882
113348000000,,632,,113,348000000,"""map""",,,-0.00496094115078,0.0189042482525,0.00902183353901,,0.0115999381628,-0.00355472381387,0.0203336206235,-0.999719664196
113380000000,,633,,113,380000000,"""map""",,,-0.00516550568864,0.0188333503902,0.00892994366586,,0.0116015611457,-0.00358532473079,0.0203347585884,-0.999719537756
113416000000,,634,,113,416000000,"""map""",,,-0.00536748627201,0.0188077837229,0.00875689648092,,0.0116175084595,-0.00359094211545,0.0203040335359,-0.999719917077
113448000000,,635,,113,448000000,"""map""",,,-0.00551174394786,0.0186438541859,0.00878265872598,,0.0115623777475,-0.0035795203195,0.0202451122417,-0.999721771539
113480000000,,636,,113,480000000,"""map""",,,-0.00562799582258,0.0183721855283,0.00888380873948,,0.0115652927947,-0.00359921969064,0.0202128277557,-0.999722361595
113516000000,,637,,113,516000000,"""map""",,,-0.00583944888785,0.0181268975139,0.00913295522332,,0.0114984462466,-0.00355658453138,0.0201140355428,-0.999725311874
113548000000,,638,,113,548000000,"""map""",,,-0.00608038716018,0.018012996763,0.00931807234883,,0.0115153711698,-0.00356684827681,0.0201035409775,-0.999725269727
113580000000,,639,,113,580000000,"""map""",,,-0.00633160816506,0.0179508440197,0.00950347352773,,0.0114489401633,-0.00354602740437,0.0200796858613,-0.999726534133
113616000000,,640,,113,616000000,"""map""",,,-0.00662259990349,0.0179493427277,0.00970097165555,,0.0114827791435,-0.00354377485288,0.020051658207,-0.999726744867
113648000000,,641,,113,648000000,"""map""",,,-0.00688214367256,0.0176995620131,0.0100693982095,,0.0114472588991,-0.00355974422793,0.0200454626203,-0.999727208482
113680000000,,642,,113,680000000,"""map""",,,-0.00710874795914,0.0172585137188,0.0104679754004,,0.0114554482294,-0.00353519665212,0.0200495087177,-0.999727124188
113716000000,,643,,113,716000000,"""map""",,,-0.00743133155629,0.0168520789593,0.0109823215753,,0.0114134502119,-0.00353235569111,0.0199952235768,-0.999728725769
113748000000,,644,,113,748000000,"""map""",,,-0.00768845621496,0.0165973696858,0.0113803353161,,0.0114405842213,-0.00350539422041,0.0198936496719,-0.999730495936
113780000000,,645,,113,780000000,"""map""",,,-0.00796452909708,0.0164179876447,0.0116861611605,,0.0116160349662,-0.0034443734863,0.0198920480917,-0.999728725769
113816000000,,646,,113,816000000,"""map""",,,-0.00822494458407,0.0163046773523,0.0120020322502,,0.0116067132687,-0.00344629446063,0.0198953355459,-0.999728725769
113848000000,,647,,113,848000000,"""map""",,,-0.00844119489193,0.0160844158381,0.0121854571626,,0.0115372664576,-0.00341279100879,0.0198670971574,-0.999730243055
113880000000,,648,,113,880000000,"""map""",,,-0.00859778746963,0.015803091228,0.0122026819736,,0.0115594880542,-0.00345921214043,0.0198679822412,-0.999729863734
113916000000,,649,,113,916000000,"""map""",,,-0.00883563421667,0.0155682833865,0.0121217817068,,0.0116298173149,-0.0035484824583,0.0198751893523,-0.999728557181
113948000000,,650,,113,948000000,"""map""",,,-0.00903207249939,0.0154972681776,0.0119953835383,,0.0115578881203,-0.00354631749323,0.0198740513874,-0.999729442265
113980000000,,651,,113,980000000,"""map""",,,-0.0092421527952,0.0154607547447,0.0118332095444,,0.0115836092224,-0.00355819401415,0.0198521350261,-0.999729526559
114016000000,,652,,114,16000000,"""map""",,,-0.00944164954126,0.0154852429405,0.0115698780864,,0.01156925394,-0.00349204223051,0.0198095667092,-0.999730790964
114048000000,,653,,114,48000000,"""map""",,,-0.0095430277288,0.0152507573366,0.0117720887065,,0.0115359322464,-0.00352836161867,0.0197876503479,-0.999731465314
114080000000,,654,,114,80000000,"""map""",,,-0.00957816001028,0.0147736854851,0.0121977170929,,0.0115300698832,-0.00346727503011,0.0197677991823,-0.999732097517
114116000000,,655,,114,116000000,"""map""",,,-0.00964208506048,0.0143265360966,0.0125122908503,,0.0115365868396,-0.00346705112498,0.0197103108809,-0.999733193335
114148000000,,656,,114,148000000,"""map""",,,-0.00973329506814,0.0140712615103,0.0126880807802,,0.0115261528605,-0.00343863097819,0.0196562786211,-0.99973445774
114180000000,,657,,114,180000000,"""map""",,,-0.00987219065428,0.0138950180262,0.0129614844918,,0.0115620800854,-0.00344278013786,0.0196631907043,-0.999733867684
114216000000,,658,,114,216000000,"""map""",,,-0.0100482059643,0.013770353049,0.01308184769,,0.0115418074512,-0.00343614069213,0.0196456576153,-0.999734542034
114248000000,,659,,114,248000000,"""map""",,,-0.00996930431575,0.0137137863785,0.0132347354665,,0.0115883803774,-0.00354501192874,0.0196753711435,-0.999733066894
114280000000,,660,,114,280000000,"""map""",,,-0.00965233054012,0.0137272309512,0.0133340731263,,0.0115742868664,-0.00348552889605,0.0196598189564,-0.999733699097
114316000000,,661,,114,316000000,"""map""",,,-0.00928486231714,0.0138158164918,0.0134296296164,,0.0115821824857,-0.00346108800446,0.0196030471514,-0.999734837062
114348000000,,662,,114,348000000,"""map""",,,-0.00902754254639,0.0139324804768,0.0136049007997,,0.0115139954703,-0.00344607582385,0.0196096642067,-0.999735553558
114380000000,,663,,114,380000000,"""map""",,,-0.0087975692004,0.014118373394,0.0136886546388,,0.0115326879269,-0.0034707511573,0.0196005604874,-0.999735384971
114416000000,,664,,114,416000000,"""map""",,,-0.00861103180796,0.0143456757069,0.0136245442554,,0.0117451627026,-0.0033910652962,0.0195532717234,-0.999734120565
114448000000,,665,,114,448000000,"""map""",,,-0.00844120979309,0.0143832843751,0.0138020627201,,0.0117529710648,-0.00350087298309,0.0195351907253,-0.999733994125
114480000000,,666,,114,480000000,"""map""",,,-0.00827324576676,0.0142817972228,0.0139755662531,,0.0117395571717,-0.0035481584544,0.0195744294413,-0.999733193335
114516000000,,667,,114,516000000,"""map""",,,-0.00813087169081,0.0142200002447,0.0140912700444,,0.0117142871726,-0.00352934548417,0.019516646112,-0.999734752768
114548000000,,668,,114,548000000,"""map""",,,-0.00805973727256,0.0142437256873,0.0141514251009,,0.011697233504,-0.00359160823322,0.0195189220418,-0.999734668474
114580000000,,669,,114,580000000,"""map""",,,-0.00802663061768,0.0142965298146,0.0139956120402,,0.0116817685741,-0.00358782522429,0.0195075423927,-0.999735089943
114616000000,,670,,114,616000000,"""map""",,,-0.00801149569452,0.0143887549639,0.0138320531696,,0.0116933553354,-0.00357213704775,0.0195131057767,-0.999734837062
114648000000,,671,,114,648000000,"""map""",,,-0.00798758398741,0.01440957468,0.0138734318316,,0.0116396125059,-0.0035087195409,0.0194667020965,-0.999736649376
114680000000,,672,,114,680000000,"""map""",,,-0.00794272869825,0.0143846254796,0.0140476459637,,0.01160958123,-0.00353969516965,0.0194468930777,-0.999737239432
114716000000,,673,,114,716000000,"""map""",,,-0.00789080373943,0.0144277196378,0.0141578214243,,0.011603670793,-0.00353373995167,0.0194197926541,-0.999737871635
114748000000,,674,,114,748000000,"""map""",,,-0.00788179319352,0.0145089514554,0.0143256532028,,0.0116317540943,-0.00350954601426,0.019327743937,-0.999739388921
114780000000,,675,,114,780000000,"""map""",,,-0.00791878625751,0.0146382171661,0.0145075535402,,0.011661412634,-0.00348537710155,0.0193121074562,-0.999739431068
114816000000,,676,,114,816000000,"""map""",,,-0.00797086022794,0.0148355457932,0.0146534536034,,0.0116090566993,-0.00347690986553,0.0193046896108,-0.999740274005
114848000000,,677,,114,848000000,"""map""",,,-0.00793840456754,0.0149035649374,0.0148156834766,,0.0115919276274,-0.00348202445146,0.0192956701853,-0.99974061118
114880000000,,678,,114,880000000,"""map""",,,-0.00778119312599,0.0148069588467,0.014967543073,,0.0115729516674,-0.00350022991438,0.0192782635368,-0.999741074795
114916000000,,679,,114,916000000,"""map""",,,-0.00761843053624,0.0147437658161,0.0150666348636,,0.0115944182427,-0.00351629115638,0.01924345024,-0.99974141197
114948000000,,680,,114,948000000,"""map""",,,-0.00752785243094,0.0147381834686,0.0149765284732,,0.0116020221269,-0.00351285454187,0.0192533968962,-0.999741159089
114980000000,,681,,114,980000000,"""map""",,,-0.00744013814256,0.014760332182,0.0148060228676,,0.0115973402047,-0.00353575443932,0.0192010926572,-0.999742128467
115016000000,,682,,115,16000000,"""map""",,,-0.00734207918867,0.0148472571746,0.0145806074142,,0.0116026632199,-0.00346113278548,0.0191252704767,-0.999743772194
115048000000,,683,,115,48000000,"""map""",,,-0.00723544461653,0.0147802243009,0.0141631979495,,0.011534276007,-0.00349992369118,0.0190482681845,-0.999745921683
115080000000,,684,,115,80000000,"""map""",,,-0.00710790697485,0.0146183092147,0.0135542470962,,0.0115257485141,-0.00345990986833,0.0190601114489,-0.99974596383
115116000000,,685,,115,116000000,"""map""",,,-0.00697571784258,0.0144879976287,0.0126717714593,,0.0115296872688,-0.00347172613244,0.0190068378324,-0.99974689106
115148000000,,686,,115,148000000,"""map""",,,-0.0069019687362,0.0144226411358,0.0120215639472,,0.0115801172902,-0.00345747522929,0.0189706758364,-0.999746975354
115180000000,,687,,115,180000000,"""map""",,,-0.00685642194003,0.0144199151546,0.0114150093868,,0.0115675367852,-0.00344235735229,0.0189455141678,-0.999747691851
115216000000,,688,,115,216000000,"""map""",,,-0.00683416938409,0.014492710121,0.0106781860813,,0.0117450912505,-0.00340085686521,0.018909310025,-0.999746469592
115248000000,,689,,115,248000000,"""map""",,,-0.00683197239414,0.0145304547623,0.0102810738608,,0.011746393193,-0.00337349895072,0.018874243847,-0.999747228235
115280000000,,690,,115,280000000,"""map""",,,-0.00687305955216,0.0145315378904,0.00990885961801,,0.0117084702489,-0.00328606926475,0.0188475648919,-0.999748450494
115316000000,,691,,115,316000000,"""map""",,,-0.00693981163204,0.0146392341703,0.00947307329625,,0.0117003764077,-0.00330929645882,0.0188590709815,-0.99974823976
115348000000,,692,,115,348000000,"""map""",,,-0.00701679475605,0.0148015301675,0.00918795634061,,0.0116309101695,-0.00332773603431,0.0187999389531,-0.999750052074
115380000000,,693,,115,380000000,"""map""",,,-0.0071101365611,0.0150182768703,0.00887213647366,,0.0116533066097,-0.00337461715929,0.0188048701343,-0.999749588459
115416000000,,694,,115,416000000,"""map""",,,-0.00723235495389,0.015282439068,0.00852857343853,,0.0116160817228,-0.00340224046722,0.0187855668777,-0.999750347102
115448000000,,695,,115,448000000,"""map""",,,-0.00735053652897,0.0152778886259,0.0079589439556,,0.0116188825126,-0.00338960629084,0.0187914674365,-0.999750178515
115480000000,,696,,115,480000000,"""map""",,,-0.00748939532787,0.015005748719,0.00723836384714,,0.0116536065767,-0.00344102906802,0.0188299053624,-0.999748914109
115516000000,,697,,115,516000000,"""map""",,,-0.00768615072593,0.0147660057992,0.00647314451635,,0.011615983929,-0.0033624660253,0.018847817773,-0.999749293431
115548000000,,698,,115,548000000,"""map""",,,-0.0078665567562,0.0146933170035,0.00580039992929,,0.0116286958136,-0.00334811173066,0.0188073989453,-0.999749925634
115580000000,,699,,115,580000000,"""map""",,,-0.00805653259158,0.014708314091,0.00519538484514,,0.0116000432006,-0.00334520820793,0.0188093798471,-0.999750220661
115616000000,,700,,115,616000000,"""map""",,,-0.00826037861407,0.0147825628519,0.00465937284753,,0.0115395186798,-0.00337975709918,0.0187798349063,-0.999751358626
115648000000,,701,,115,648000000,"""map""",,,-0.00847685243934,0.014593411237,0.0043855602853,,0.0115152839126,-0.00335859312505,0.0187357914496,-0.999752580885
115680000000,,702,,115,680000000,"""map""",,,-0.00859910342842,0.0144283417612,0.00430444302037,,0.0115520853554,-0.00334300866927,0.0187627232858,-0.999751695801
115716000000,,703,,115,716000000,"""map""",,,-0.00884629320353,0.0142771909013,0.00417033210397,,0.0114530195172,-0.00336192305536,0.0187285843385,-0.999753381675
115748000000,,704,,115,748000000,"""map""",,,-0.00903678033501,0.0142406402156,0.00406567566097,,0.0114739273175,-0.00336803006785,0.0187552211468,-0.999752623032
115780000000,,705,,115,780000000,"""map""",,,-0.00925550144166,0.014285732992,0.00402260990813,,0.0114574749001,-0.00338177981863,0.0187655049778,-0.999752538738
115816000000,,706,,115,816000000,"""map""",,,-0.00949760805815,0.0144132655114,0.00387879717164,,0.0114961008404,-0.00335371429806,0.0187775168297,-0.999751990829
115848000000,,707,,115,848000000,"""map""",,,-0.00983166880906,0.0143730957061,0.00420875148848,,0.0114621828348,-0.00329370805177,0.0187539567413,-0.9997530445
115880000000,,708,,115,880000000,"""map""",,,-0.0102253919467,0.0141787771136,0.004711444024,,0.0116919756847,-0.00329754176862,0.0187516808115,-0.999750431396
115916000000,,709,,115,916000000,"""map""",,,-0.0107053117827,0.0140081755817,0.00538790086284,,0.0116295868243,-0.00331677884152,0.0187555583216,-0.999751021452
115948000000,,710,,115,948000000,"""map""",,,-0.0110937068239,0.0139253800735,0.00586112309247,,0.0116251910397,-0.00332222039479,0.018728457898,-0.999751485067
115980000000,,711,,115,980000000,"""map""",,,-0.0114677837119,0.0138964019716,0.00626757927239,,0.0116206991076,-0.00333421314882,0.018730396653,-0.999751485067
116016000000,,712,,116,16000000,"""map""",,,-0.0118678351864,0.0139503926039,0.00660742865875,,0.0115884603905,-0.00340852364038,0.0187163617525,-0.999751864389
116048000000,,713,,116,48000000,"""map""",,,-0.0120915463194,0.0138887967914,0.00701814191416,,0.0115722200244,-0.00342911435151,0.0187338526946,-0.999751653654
116080000000,,714,,116,80000000,"""map""",,,-0.0121573014185,0.0137164751068,0.00746858306229,,0.0115188710046,-0.00339894939105,0.0187615431741,-0.999751864389
116116000000,,715,,116,116000000,"""map""",,,-0.0122766159475,0.0136339776218,0.00785313174129,,0.0115468581583,-0.0034650155639,0.0187651678031,-0.999751274333
