rosbagTimestamp,header,seq,stamp,secs,nsecs,frame_id,pose,position,x,y,z,orientation,x,y,z,w
102288000000,,299,,102,224000000,"""map""",,,0.000114070149721,-0.00774985086173,0.013988904655,,0.00850139858397,-0.0107770177352,0.0412963251079,-0.999052690319
102288000000,,300,,102,224000000,"""map""",,,-0.000143857207149,-0.00782305374742,0.0137149030343,,0.00848900732819,-0.0108403790188,0.0411729191355,-0.999057157885
102316000000,,301,,102,316000000,"""map""",,,-0.000331315677613,-0.00791056919843,0.0134633928537,,0.00846888187875,-0.0107879183755,0.0410488809603,-0.999063016296
102348000000,,302,,102,348000000,"""map""",,,-0.000439600029495,-0.0080093909055,0.0132898949087,,0.00853798814001,-0.0108119526982,0.0409096699197,-0.999067863184
102380000000,,303,,102,380000000,"""map""",,,-0.00045292681898,-0.00812649913132,0.013135811314,,0.0085594723314,-0.0108378902968,0.0408780597833,-0.999068706121
102416000000,,304,,102,416000000,"""map""",,,-0.000264205067651,-0.00831920001656,0.0130216889083,,0.00856008288448,-0.010882146381,0.0407106946479,-0.999075070295
102448000000,,305,,102,448000000,"""map""",,,-0.000575342215598,-0.00827812589705,0.0129098761827,,0.00854123846875,-0.0108460128671,0.0405755297047,-0.999081097294
102480000000,,306,,102,480000000,"""map""",,,-0.000978124560788,-0.00817712489516,0.0128500312567,,0.00854784679825,-0.0107966044129,0.0405016884261,-0.99908463763
102516000000,,307,,102,516000000,"""map""",,,-0.00127011095174,-0.00810412876308,0.0129869049415,,0.0085178217785,-0.0107680663866,0.0403288863472,-0.999092139769
102548000000,,308,,102,548000000,"""map""",,,-0.00145667186007,-0.00804262422025,0.0131989819929,,0.00855120068311,-0.0107340144495,0.0402392400004,-0.999095806545
102580000000,,309,,102,580000000,"""map""",,,-0.00155523128342,-0.00799967348576,0.0134464791045,,0.00855595060001,-0.0106982167933,0.0402092735912,-0.999097365978
102616000000,,310,,102,616000000,"""map""",,,-0.00158448144794,-0.00793282035738,0.013737176545,,0.00852797447686,-0.0106456911187,0.0401621112677,-0.999100105523
102648000000,,311,,102,648000000,"""map""",,,-0.00211205449887,-0.0077145928517,0.0138489808887,,0.00852291142204,-0.0105883504959,0.0400432993017,-0.999105542467
102680000000,,312,,102,680000000,"""map""",,,-0.00267024058849,-0.00749156903476,0.0138902673498,,0.00850659680504,-0.010631195237,0.0400193177449,-0.999106174669
102716000000,,313,,102,716000000,"""map""",,,-0.00312308478169,-0.00728394510224,0.0139396628365,,0.00855004436127,-0.0106250687151,0.0399659176878,-0.999107986984
102748000000,,314,,102,748000000,"""map""",,,-0.00346859055571,-0.00709389150143,0.0141205508262,,0.00858646541224,-0.0106181570435,0.0398946895139,-0.999110600088
102780000000,,315,,102,780000000,"""map""",,,-0.00370271224529,-0.00694860704243,0.014367794618,,0.00856274216952,-0.0105645987711,0.0398475271904,-0.99911325534
102816000000,,316,,102,816000000,"""map""",,,-0.00387934991159,-0.00675180833787,0.0143418386579,,0.00860930217173,-0.0106258161631,0.0397529496623,-0.999115952738
102848000000,,317,,102,848000000,"""map""",,,-0.00431046215817,-0.00662056496367,0.0147848995402,,0.00858728439465,-0.0105670384316,0.039644547968,-0.999121094654
102880000000,,318,,102,880000000,"""map""",,,-0.00477731274441,-0.00651059579104,0.0153392720968,,0.00857721598999,-0.0106092069297,0.0396080066503,-0.999122148325
102916000000,,319,,102,916000000,"""map""",,,-0.00517283147201,-0.00644072471187,0.0157539714128,,0.00855710544012,-0.0105382052128,0.0395433112378,-0.999125730807
102948000000,,320,,102,948000000,"""map""",,,-0.00546940974891,-0.00639844220132,0.0162542052567,,0.00853164742653,-0.0105559898657,0.0394587225129,-0.999129060408
102980000000,,321,,102,980000000,"""map""",,,-0.00572857819498,-0.00639184936881,0.0167602729052,,0.00856643668653,-0.0104664676546,0.0393738809068,-0.999133064359
103016000000,,322,,103,16000000,"""map""",,,-0.00596460374072,-0.00638223299757,0.0174152385443,,0.00859914379343,-0.010479766467,0.0393189635632,-0.999134792379
103048000000,,323,,103,48000000,"""map""",,,-0.00638281321153,-0.00615282868966,0.0179692972451,,0.00859916001008,-0.0104281282635,0.0392244703288,-0.999139007064
103080000000,,324,,103,80000000,"""map""",,,-0.00679960288107,-0.00587190035731,0.0185764059424,,0.00860766165505,-0.0103451123074,0.0391679092581,-0.999142041637
103116000000,,325,,103,116000000,"""map""",,,-0.00715108029544,-0.00561173306778,0.019244696945,,0.00860919375884,-0.0102652595053,0.0391210419626,-0.999144654742
103148000000,,326,,103,148000000,"""map""",,,-0.00744992680848,-0.00538456672803,0.0199544876814,,0.00880423900168,-0.0102694200249,0.0390497294949,-0.99914575056
103180000000,,327,,103,180000000,"""map""",,,-0.00769202550873,-0.00525042787194,0.0207159910351,,0.00881257765687,-0.0102675733014,0.0389822945373,-0.999148279371
103216000000,,328,,103,216000000,"""map""",,,-0.00790594704449,-0.00513253407553,0.0215318594128,,0.0087818521104,-0.0102593354035,0.0389321819344,-0.999150681741
103248000000,,329,,103,248000000,"""map""",,,-0.00810943543911,-0.00504549592733,0.0220548268408,,0.00872041937438,-0.0102618797726,0.0388134542622,-0.99915578151
103280000000,,330,,103,280000000,"""map""",,,-0.00827115029097,-0.00499073509127,0.0224581006914,,0.00868691312372,-0.0102039655575,0.0387756485391,-0.999158099587
103316000000,,331,,103,316000000,"""map""",,,-0.0083289956674,-0.0049547329545,0.0228573381901,,0.0086737195961,-0.0101912084803,0.0386959488485,-0.999161429188
103348000000,,332,,103,348000000,"""map""",,,-0.00834907405078,-0.00493137864396,0.0232155323029,,0.00860990934977,-0.0101785156111,0.0386763927108,-0.999162862181
103380000000,,333,,103,380000000,"""map""",,,-0.00833061151206,-0.00488834269345,0.0235966015607,,0.00860189181734,-0.0101913681773,0.0386685955438,-0.999163157209
103416000000,,334,,103,416000000,"""map""",,,-0.00825545191765,-0.00481903273612,0.0239995848387,,0.00860135016448,-0.0101859565878,0.0385837960846,-0.999166444663
103448000000,,335,,103,448000000,"""map""",,,-0.00834060832858,-0.00474713230506,0.0241884123534,,0.00853434704743,-0.0102533074164,0.0384803677184,-0.999170322173
103480000000,,336,,103,480000000,"""map""",,,-0.00844225939363,-0.00466319732368,0.0242637395859,,0.00858126151122,-0.0102423178726,0.0384092659849,-0.999172808837
103516000000,,337,,103,516000000,"""map""",,,-0.00848870165646,-0.00458865053952,0.0243608206511,,0.00853620702407,-0.0102907994254,0.0382843005791,-0.999177487137
103548000000,,338,,103,548000000,"""map""",,,-0.00848654191941,-0.00452489266172,0.0244263447821,,0.00852943858594,-0.0102868111975,0.038194738526,-0.999180985325
103580000000,,339,,103,580000000,"""map""",,,-0.00842789653689,-0.00444548623636,0.0245468616486,,0.00854802238268,-0.0103313607457,0.0381443730421,-0.999182291878
103616000000,,340,,103,616000000,"""map""",,,-0.00828662142158,-0.00431626848876,0.0245631542057,,0.0085395562168,-0.0103344057731,0.038028089887,-0.999186801591
103648000000,,341,,103,648000000,"""map""",,,-0.0082732765004,-0.00429193256423,0.0243659727275,,0.00855494738977,-0.0103513623064,0.0379623829502,-0.99918895108
103680000000,,342,,103,680000000,"""map""",,,-0.00826347060502,-0.00430416734889,0.0239665359259,,0.00852957918519,-0.0103717927443,0.0379414359665,-0.99918975187
103716000000,,343,,103,716000000,"""map""",,,-0.00819530244917,-0.0043411385268,0.0235932674259,,0.0085282795476,-0.0101417904772,0.0377841439278,-0.999198096946
103748000000,,344,,103,748000000,"""map""",,,-0.00804945267737,-0.00443533388898,0.0232154577971,,0.00853873163676,-0.0102520034983,0.0377056243491,-0.999199824967
103780000000,,345,,103,780000000,"""map""",,,-0.00786487199366,-0.00456368271261,0.0228227060288,,0.00857767754737,-0.0103061494393,0.0376578298228,-0.999200752197
103816000000,,346,,103,816000000,"""map""",,,-0.00757942721248,-0.00473867589608,0.0224571600556,,0.00863342226984,-0.0102720234159,0.0376083494227,-0.999202522365
103848000000,,347,,103,848000000,"""map""",,,-0.0074766469188,-0.00472057936713,0.0218461919576,,0.00867279401179,-0.0102776065563,0.0374990626445,-0.999206189141
103880000000,,348,,103,880000000,"""map""",,,-0.00734727829695,-0.0046953111887,0.0212037470192,,0.0086924667942,-0.0103075300779,0.0374346201131,-0.999208085749
103916000000,,349,,103,916000000,"""map""",,,-0.00713676353917,-0.00469977175817,0.0205507352948,,0.00866465785903,-0.0103160989767,0.0372540630141,-0.999214997832
103948000000,,350,,103,948000000,"""map""",,,-0.00689056888223,-0.00473086256534,0.0198385864496,,0.00868324988758,-0.0103372184991,0.0371437225647,-0.999218791049
103980000000,,351,,103,980000000,"""map""",,,-0.00663819164038,-0.0048336009495,0.0191682148725,,0.00867350392277,-0.0103106799786,0.0370918397942,-0.999221024832
104016000000,,352,,104,16000000,"""map""",,,-0.00630790460855,-0.00502104684711,0.018479462713,,0.00866860822058,-0.0103933300308,0.0369784226249,-0.999224438726
104048000000,,353,,104,48000000,"""map""",,,-0.00662269350141,-0.00504990853369,0.0179779194295,,0.00865907669433,-0.0103694114473,0.0368847301806,-0.999228274089
104080000000,,354,,104,80000000,"""map""",,,-0.00705569656566,-0.00504316482693,0.0175148397684,,0.00868139328598,-0.0103700951812,0.0368641625185,-0.999228779852
104116000000,,355,,104,116000000,"""map""",,,-0.00743565987796,-0.00506545929238,0.0169640555978,,0.00861896968743,-0.0103193597598,0.0367953367149,-0.999232362334
104148000000,,356,,104,148000000,"""map""",,,-0.00776217784733,-0.00512805022299,0.0164075382054,,0.0086230272271,-0.0103406351103,0.0367370897703,-0.999234301089
104180000000,,357,,104,180000000,"""map""",,,-0.00802461989224,-0.0052191875875,0.0158513113856,,0.00861288778194,-0.0103484577959,0.0367292083096,-0.999234596117
104216000000,,358,,104,216000000,"""map""",,,-0.00832353159785,-0.00536142522469,0.0150342779234,,0.00855424134774,-0.010276172411,0.0366737009101,-0.999237841424
104248000000,,359,,104,248000000,"""map""",,,-0.00867634825408,-0.00535989319906,0.0146036092192,,0.00852572916936,-0.0102779108038,0.0365857404373,-0.999241339613
104280000000,,360,,104,280000000,"""map""",,,-0.00900764204562,-0.00532666733488,0.0142885865644,,0.00854759078907,-0.0102388888313,0.0365331411703,-0.999243446955
104316000000,,361,,104,316000000,"""map""",,,-0.00927407667041,-0.00531158037484,0.014041993767,,0.00857539700774,-0.0102597911987,0.0364854730847,-0.999244753507
104348000000,,362,,104,348000000,"""map""",,,-0.0094697913155,-0.00532576162368,0.0137787796557,,0.00861223401188,-0.0101943786312,0.0364559281439,-0.999246144353
104380000000,,363,,104,380000000,"""map""",,,-0.00961023848504,-0.00534076010808,0.0136273773387,,0.00861862419852,-0.0102120253191,0.0364178273928,-0.999247324465
104416000000,,364,,104,416000000,"""map""",,,-0.009720351547,-0.00540597271174,0.013360160403,,0.00854390722037,-0.0101647377076,0.0363731938802,-0.99925006401
104448000000,,365,,104,448000000,"""map""",,,-0.00963690131903,-0.00534474663436,0.013083608821,,0.00856880662358,-0.010178627893,0.0363136825301,-0.999251918472
104480000000,,366,,104,480000000,"""map""",,,-0.00948785338551,-0.00528920814395,0.0127222994342,,0.00851512512105,-0.0101372274223,0.0362888158895,-0.999253688639
104516000000,,367,,104,516000000,"""map""",,,-0.00933048408478,-0.0053085484542,0.0124268066138,,0.00858295183034,-0.0101407935232,0.0362320019377,-0.999255121632
104548000000,,368,,104,548000000,"""map""",,,-0.00915009342134,-0.00538090197369,0.0121808638796,,0.00861460806483,-0.0100891254382,0.0361695403082,-0.999257650443
104580000000,,369,,104,580000000,"""map""",,,-0.00894305855036,-0.00547155644745,0.011933687143,,0.00860608896844,-0.010138754834,0.0361570648411,-0.999257650443
104616000000,,370,,104,616000000,"""map""",,,-0.00865560490638,-0.00558366766199,0.0115354778245,,0.00879453110897,-0.0101245859608,0.0360128383255,-0.999261359366
104648000000,,371,,104,648000000,"""map""",,,-0.00842185132205,-0.00553545309231,0.0114096729085,,0.0088280998802,-0.0101736737449,0.0359519782762,-0.999262792358
104680000000,,372,,104,680000000,"""map""",,,-0.00813993997872,-0.00547398487106,0.0113779976964,,0.00887388806825,-0.010117662312,0.0359371004387,-0.999263508855
104716000000,,373,,104,716000000,"""map""",,,-0.00782997906208,-0.00547671457753,0.0113640474156,,0.0088475238151,-0.0101497414143,0.0358377181699,-0.999266964896
104748000000,,374,,104,748000000,"""map""",,,-0.00750031322241,-0.00552666001022,0.0113215483725,,0.00889825557329,-0.0101513283831,0.0357895864689,-0.999268229302
104780000000,,375,,104,780000000,"""map""",,,-0.00713338842615,-0.00560890277848,0.0112330056727,,0.00886425360326,-0.0101633125761,0.0357334468667,-0.999270420938
104816000000,,376,,104,816000000,"""map""",,,-0.00662912288681,-0.00571558158845,0.0112043293193,,0.00887404381402,-0.0102287452703,0.0356964419337,-0.9992709267
104848000000,,377,,104,848000000,"""map""",,,-0.00619440944865,-0.00568884098902,0.0111275408417,,0.00884114712863,-0.0102517664222,0.0356451492191,-0.999272823308
104880000000,,378,,104,880000000,"""map""",,,-0.00572864012793,-0.00562956416979,0.011030588299,,0.00879768524905,-0.0102516576801,0.0356102094816,-0.999274467035
104916000000,,379,,104,916000000,"""map""",,,-0.00523745361716,-0.00558105483651,0.0109884301201,,0.00872739451317,-0.0102331766163,0.0355608133752,-0.99927708014
104948000000,,380,,104,948000000,"""map""",,,-0.00472664972767,-0.00555382529274,0.0109044117853,,0.00873267068945,-0.0102722349734,0.0354482391428,-0.999280578328
104980000000,,381,,104,980000000,"""map""",,,-0.00418886961415,-0.00555538246408,0.0108334422112,,0.00868804392696,-0.0102433602662,0.0353816049753,-0.999283655048
105016000000,,382,,105,16000000,"""map""",,,-0.00354081531987,-0.00557434000075,0.0107274157926,,0.00871778108045,-0.0102741170113,0.0353682865712,-0.999283486461
105048000000,,383,,105,48000000,"""map""",,,-0.00323707377538,-0.0054711215198,0.0106852902099,,0.00873437500264,-0.0102385346167,0.0352866481256,-0.999286647475
105080000000,,384,,105,80000000,"""map""",,,-0.00299022905529,-0.00534751685336,0.010650425218,,0.00878204786275,-0.0102599417584,0.035223933615,-0.999288249055
105116000000,,385,,105,116000000,"""map""",,,-0.00272266590036,-0.00523531157523,0.0105393286794,,0.00879855444548,-0.0102068556624,0.0351762655294,-0.999290314251
105148000000,,386,,105,148000000,"""map""",,,-0.00240786839277,-0.00514372112229,0.0104960752651,,0.00875598365895,-0.010255582523,0.0350927726225,-0.999293138089
105180000000,,387,,105,180000000,"""map""",,,-0.00200925045647,-0.00501079671085,0.0105622373521,,0.00882313461924,-0.0102332283943,0.035049234928,-0.999294276054
105216000000,,388,,105,216000000,"""map""",,,-0.00166770047508,-0.00492968177423,0.0105565600097,,0.00883137218786,-0.0102460379082,0.0350054864992,-0.999295624753
105248000000,,389,,105,248000000,"""map""",,,-0.00154045142699,-0.00474550621584,0.00981163885444,,0.00882047920315,-0.0102336223686,0.0350053600587,-0.999295835488
105280000000,,390,,105,280000000,"""map""",,,-0.00144118699245,-0.00455269496888,0.00881558004767,,0.00882603933559,-0.0101879660952,0.0350283722379,-0.999295414019
105316000000,,391,,105,316000000,"""map""",,,-0.00131917465478,-0.00439454754815,0.00794267933816,,0.0087915141931,-0.0102097286452,0.0350374759572,-0.999295161138
105348000000,,392,,105,348000000,"""map""",,,-0.00114507111721,-0.00422697514296,0.00707039562985,,0.00900735310225,-0.0101722091008,0.0350462003549,-0.999293348824
105380000000,,393,,105,380000000,"""map""",,,-0.000888556125574,-0.00406843889505,0.00636097835377,,0.00900111211711,-0.0101897243679,0.0350225981197,-0.999294023173
105416000000,,394,,105,416000000,"""map""",,,-0.00053804932395,-0.00388905149885,0.00554376654327,,0.00893091090213,-0.0101813822965,0.0349949497871,-0.999295709047
105448000000,,395,,105,448000000,"""map""",,,-0.000460943672806,-0.00394648406655,0.00514226267114,,0.00893419415809,-0.0101901385513,0.0349758151179,-0.999296299103
105480000000,,396,,105,480000000,"""map""",,,-0.000415786926169,-0.00405227160081,0.00483931135386,,0.00889448841059,-0.0102160082786,0.0349335839756,-0.999297900683
105516000000,,397,,105,516000000,"""map""",,,-0.000309714989271,-0.00416709668934,0.00454440619797,,0.00887256711028,-0.0102075127252,0.0349154186839,-0.999298785767
105548000000,,398,,105,548000000,"""map""",,,-0.000144902995089,-0.00429784785956,0.00423064734787,,0.00890610089633,-0.0101701949424,0.0348641259693,-0.999300682375
105580000000,,399,,105,580000000,"""map""",,,6.58331482555e-05,-0.00444196723402,0.00401715422049,,0.0089040390758,-0.0101184023102,0.0348289754976,-0.999302452543
105616000000,,400,,105,616000000,"""map""",,,0.000374520866899,-0.00461623258889,0.00370907969773,,0.00888065053832,-0.010085910712,0.0347664295745,-0.999305149941
105648000000,,401,,105,648000000,"""map""",,,0.000410707260016,-0.00464305048808,0.00352519284934,,0.00883621504185,-0.0100966840474,0.0347533640514,-0.999305908584
105680000000,,402,,105,680000000,"""map""",,,0.000386476604035,-0.00463767535985,0.00336155551486,,0.0088486102489,-0.0100651344148,0.0347214588871,-0.999307215137
105716000000,,403,,105,716000000,"""map""",,,0.000410905515309,-0.00467140087858,0.00321038602851,,0.00882574278477,-0.0100828705001,0.0346708826689,-0.999308985304
105748000000,,404,,105,748000000,"""map""",,,0.000501683098264,-0.00469669606537,0.00297197909094,,0.00882548562314,-0.0100128873045,0.0345828379023,-0.999312736374
105780000000,,405,,105,780000000,"""map""",,,0.000648664368782,-0.00475019915029,0.00265743280761,,0.00883995606857,-0.0100166084926,0.0345365185158,-0.999314211514
105816000000,,406,,105,816000000,"""map""",,,0.000929489498958,-0.00483441539109,0.00221564667299,,0.00882864285014,-0.0100117979073,0.0345176788745,-0.99931492801
105848000000,,407,,105,848000000,"""map""",,,0.000824235088658,-0.00485033541918,0.00192839570809,,0.00881510478026,-0.00989616378899,0.0344887661365,-0.999317288234
105880000000,,408,,105,880000000,"""map""",,,0.000694344576914,-0.00484045036137,0.00179216149263,,0.00883370240644,-0.00989676668648,0.0344755741729,-0.999317498968
105916000000,,409,,105,916000000,"""map""",,,0.000652047921903,-0.00479503022507,0.00157858524472,,0.00881405213803,-0.00968918090406,0.0344061161665,-0.999322135121
105948000000,,410,,105,948000000,"""map""",,,0.000699693220668,-0.00476583419368,0.00147512275726,,0.00880524097715,-0.00974895682442,0.0344055682575,-0.999321671506
105980000000,,411,,105,980000000,"""map""",,,0.000767298741266,-0.00478785391897,0.00133330526296,,0.008812898615,-0.00974511347635,0.0343876558469,-0.999322219415
106016000000,,412,,106,16000000,"""map""",,,0.000893265125342,-0.00484980968758,0.00115012621973,,0.00875216743468,-0.00975700963014,0.0343028142408,-0.999325549016
106048000000,,413,,106,48000000,"""map""",,,0.000780481030233,-0.00482918368652,0.00109368131962,,0.00879449081428,-0.00972028914721,0.0342657250141,-0.999326813421
106080000000,,414,,106,80000000,"""map""",,,0.000651838898193,-0.00477032829076,0.00109062425327,,0.00881560836102,-0.00976709124685,0.0342127885724,-0.999327993533
106116000000,,415,,106,116000000,"""map""",,,0.00057464040583,-0.00472080335021,0.00119070534129,,0.00884656324561,-0.00981252093973,0.0341755307583,-0.999328583589
106148000000,,416,,106,148000000,"""map""",,,0.000576770980842,-0.00473164161667,0.00126431544777,,0.00878997463952,-0.00986731040223,0.0340753476994,-0.999331997484
106180000000,,417,,106,180000000,"""map""",,,0.000610197079368,-0.00474768830463,0.00130944687407,,0.00881620306787,-0.00993099173847,0.0340310513616,-0.999332629686
106216000000,,418,,106,216000000,"""map""",,,0.000710896158125,-0.00480434345081,0.00140700663906,,0.00874054140762,-0.00991758261984,0.0339585166353,-0.999335874994
106248000000,,419,,106,248000000,"""map""",,,0.000584135588724,-0.00496720802039,0.0020439538639,,0.00873230626739,-0.00992013320388,0.0339047372566,-0.999337729455
106276000000,,420,,106,276000000,"""map""",,,0.000413034373196,-0.00513783330098,0.00271272729151,,0.00872313286587,-0.00993355421747,0.0338550882691,-0.999339331035
106316000000,,421,,106,316000000,"""map""",,,0.000311851501465,-0.00529717840254,0.00327751622535,,0.00875766130108,-0.00994985488156,0.0338273556428,-0.999339752504
106348000000,,422,,106,348000000,"""map""",,,0.000268401228823,-0.00545297004282,0.00372656085528,,0.00869102194755,-0.00992985743672,0.0337942282199,-0.999341691259
106380000000,,423,,106,380000000,"""map""",,,0.000275729456916,-0.00560048688203,0.00406880723312,,0.00872644028218,-0.00987182731785,0.0338188419794,-0.999341185497
106416000000,,424,,106,416000000,"""map""",,,0.000339529418852,-0.00576444063336,0.00453505245969,,0.0086799036583,-0.00982203863655,0.033765526216,-0.999343840748
106448000000,,425,,106,448000000,"""map""",,,0.000198295761948,-0.00576094491407,0.00485166767612,,0.00866811311859,-0.00978805243043,0.0337409546033,-0.9993451473
106480000000,,426,,106,480000000,"""map""",,,3.80905621569e-05,-0.00572266755626,0.005141264759,,0.00859496162421,-0.00972286084584,0.0336695999888,-0.999348814076
106516000000,,427,,106,516000000,"""map""",,,-3.57642638846e-05,-0.00567752076313,0.00539238937199,,0.00862862580207,-0.00976949168274,0.0336251350636,-0.999349530573
106548000000,,428,,106,548000000,"""map""",,,-4.52436433989e-05,-0.00564094539732,0.00566651113331,,0.00859447915804,-0.0097025280372,0.033576624041,-0.99935210153
106580000000,,429,,106,580000000,"""map""",,,1.45984595292e-05,-0.00563436513767,0.00597531488165,,0.00860064202334,-0.00971935364358,0.0335871607531,-0.999351595768
106616000000,,430,,106,616000000,"""map""",,,0.000138166971738,-0.00566801987588,0.00626781210303,,0.00858411914164,-0.00963753343973,0.0335228446623,-0.999354630341
106648000000,,431,,106,648000000,"""map""",,,9.20252277865e-05,-0.00576167879626,0.00644486257806,,0.00853270430815,-0.00967951001333,0.0335231818371,-0.999354714635
106680000000,,432,,106,680000000,"""map""",,,4.39801369794e-05,-0.00588259333745,0.00660128798336,,0.00852695196303,-0.00961042931183,0.0335367952691,-0.999354925369
106716000000,,433,,106,716000000,"""map""",,,7.18455266906e-05,-0.00603114627302,0.00669199507684,,0.0085160788993,-0.00959583514235,0.0335372167376,-0.999355093957
106748000000,,434,,106,748000000,"""map""",,,0.000178303482244,-0.00618941802531,0.00671581691131,,0.00852264705758,-0.0094905524794,0.033494269099,-0.999357496327
106780000000,,435,,106,780000000,"""map""",,,0.000379071338102,-0.00637135701254,0.0068595232442,,0.00851142154906,-0.00946908125311,0.0335078403842,-0.999357412033
106816000000,,436,,106,816000000,"""map""",,,0.000667390238959,-0.00656241737306,0.00708681577817,,0.00848124671043,-0.00942328771438,0.0334950698891,-0.999358465705
106848000000,,437,,106,848000000,"""map""",,,0.000681490113493,-0.00641148071736,0.00729372724891,,0.00869948354477,-0.00941350129025,0.0334443672304,-0.999358423558
106880000000,,438,,106,880000000,"""map""",,,0.000601883686613,-0.00621332414448,0.00761836208403,,0.0087065495627,-0.00942061636975,0.0334333669029,-0.999358634292
106916000000,,439,,106,916000000,"""map""",,,0.000512315193191,-0.00604274589568,0.00789986364543,,0.00866616481466,-0.00941228594636,0.0334324818191,-0.999359097907
106948000000,,440,,106,948000000,"""map""",,,0.000472495768918,-0.00590459676459,0.00814358703792,,0.00869951503143,-0.00939035620844,0.0333832543,-0.999360699488
106980000000,,441,,106,980000000,"""map""",,,0.00048672631965,-0.00580179691315,0.00845814310014,,0.0086385555008,-0.00936404542088,0.0333730126158,-0.999361753159
107016000000,,442,,107,16000000,"""map""",,,0.000539770931937,-0.00570527277887,0.00892482697964,,0.00861907221458,-0.0093799435908,0.0333641196308,-0.99936213248
107048000000,,443,,107,48000000,"""map""",,,0.000623254221864,-0.00563250714913,0.00930479448289,,0.0085455787298,-0.00934359448582,0.0333383679064,-0.999363944795
107080000000,,444,,107,80000000,"""map""",,,0.000798390072305,-0.00556538067758,0.00965597853065,,0.00854909840325,-0.00936811563753,0.0333167044262,-0.999364366263
107116000000,,445,,107,116000000,"""map""",,,0.00103461556137,-0.00549542158842,0.00994865316898,,0.00855323175785,-0.00937720190537,0.0333019530292,-0.999364787732
107148000000,,446,,107,148000000,"""map""",,,0.00105414865538,-0.00525630963966,0.0102685112506,,0.00855823159239,-0.00931828571488,0.033285600052,-0.99936588355
107180000000,,447,,107,180000000,"""map""",,,0.000880371779203,-0.00488848425448,0.0105291949585,,0.00860964778412,-0.00932171179268,0.0333074321196,-0.999364619144
107216000000,,448,,107,216000000,"""map""",,,0.000710907159373,-0.00449952902272,0.0106921996921,,0.00860329678089,-0.00926933511378,0.0333492417933,-0.999363776207
107248000000,,449,,107,248000000,"""map""",,,0.000612782780081,-0.00422392459586,0.0107363974676,,0.00864682373289,-0.00924182396421,0.0333143020559,-0.999364829879
107280000000,,450,,107,280000000,"""map""",,,0.000571220880374,-0.00398440286517,0.0106530776247,,0.00865381903961,-0.00916275754654,0.0332423995323,-0.999367864452
107316000000,,451,,107,316000000,"""map""",,,0.000582224922255,-0.00376945850439,0.0104367854074,,0.00865653185197,-0.00914630486156,0.0332525990696,-0.999367695864
107348000000,,452,,107,348000000,"""map""",,,0.000198905385332,-0.00358616909944,0.00985999125987,,0.00869910954294,-0.00888964488776,0.0332318206733,-0.999370266822
107380000000,,453,,107,380000000,"""map""",,,-0.000467775797006,-0.00341266812757,0.00943575706333,,0.00875804141503,-0.00886556582522,0.0332205674648,-0.999370393263
107416000000,,454,,107,416000000,"""map""",,,-0.00118507340085,-0.00324120861478,0.0089842909947,,0.00870488837389,-0.00891000237124,0.0331471476547,-0.99937283778
107448000000,,455,,107,448000000,"""map""",,,-0.00165242736693,-0.00314066745341,0.00865653622895,,0.0087677044804,-0.0089153587922,0.0331657765617,-0.999371657668
107480000000,,456,,107,480000000,"""map""",,,-0.00204333360307,-0.00304248789325,0.00833734683692,,0.00877367744308,-0.00897065812764,0.0331301203279,-0.999372332018
107516000000,,457,,107,516000000,"""map""",,,-0.00237205671147,-0.00297861825675,0.00813237018883,,0.00881073292965,-0.00897109621408,0.0330688388101,-0.999374017892
107548000000,,458,,107,548000000,"""map""",,,-0.00271122017875,-0.00278597464785,0.00808017794043,,0.00884644169785,-0.00901259125273,0.0330118984178,-0.999375155857
107580000000,,459,,107,580000000,"""map""",,,-0.00306233321317,-0.00249647349119,0.00814509950578,,0.0088443154943,-0.00901442506252,0.0330380716107,-0.999374355066
107616000000,,460,,107,616000000,"""map""",,,-0.00344064924866,-0.00213839695789,0.00815007928759,,0.00878758947363,-0.00893931969231,0.0330269448427,-0.999375872353
107648000000,,461,,107,648000000,"""map""",,,-0.00369624444284,-0.00185465312097,0.00799556728452,,0.00874706819079,-0.00894624335145,0.0330120670052,-0.999376673143
107680000000,,462,,107,680000000,"""map""",,,-0.00391135783866,-0.00157403107733,0.00783647689968,,0.00871632581027,-0.00898168115431,0.0329631345141,-0.999378232576
107716000000,,463,,107,716000000,"""map""",,,-0.00407011434436,-0.00128173839767,0.00752781191841,,0.00874682931406,-0.00897430309946,0.0329686978981,-0.999377811108
107748000000,,464,,107,748000000,"""map""",,,-0.00420720363036,-0.00109119713306,0.0071881567128,,0.00878563728018,-0.00888076481637,0.0329227578332,-0.999379834157
107780000000,,465,,107,780000000,"""map""",,,-0.00431949831545,-0.00101690192241,0.00687036337331,,0.00874256944174,-0.00888194922411,0.0328966267871,-0.999381098562
107816000000,,466,,107,816000000,"""map""",,,-0.00440372619778,-0.000919433194213,0.0063000372611,,0.00877450312412,-0.00892355125566,0.0328846149353,-0.999380887828
107848000000,,467,,107,848000000,"""map""",,,-0.00442914804444,-0.000865608744789,0.00583481602371,,0.00874556452788,-0.00893983526063,0.0328115323,-0.999383332345
107880000000,,468,,107,880000000,"""map""",,,-0.00441302452236,-0.000817176478449,0.00533388461918,,0.00872458932966,-0.00893533532311,0.0327623047809,-0.999385186807
107916000000,,469,,107,916000000,"""map""",,,-0.00437406590208,-0.000766823184676,0.0047632525675,,0.00875230879538,-0.00891935770597,0.032720537254,-0.999386409065
107948000000,,470,,107,948000000,"""map""",,,-0.0043681319803,-0.000693174370099,0.00401151040569,,0.00878812601248,-0.00899806137881,0.0326627960716,-0.999387336296
107980000000,,471,,107,980000000,"""map""",,,-0.00440738210455,-0.000619815604296,0.00320530007593,,0.00879350161354,-0.0089292824296,0.0326093538677,-0.999389612226
108016000000,,472,,108,16000000,"""map""",,,-0.00438016606495,-0.000538859807421,0.00215771934018,,0.00881495198765,-0.00900822189738,0.0325386314559,-0.999391045218
108048000000,,473,,108,48000000,"""map""",,,-0.00432912586257,-0.000446597870905,0.00125466741156,,0.0088510975252,-0.00893912542683,0.0325064312636,-0.999392393918
108080000000,,474,,108,80000000,"""map""",,,-0.00426093675196,-0.000345700071193,0.000387157808291,,0.0088569751687,-0.0089592589743,0.0324807638329,-0.99939302612
108116000000,,475,,108,116000000,"""map""",,,-0.00414665229619,-0.000267348455964,-0.00042945027235,,0.00889506652006,-0.0089387151999,0.03243452874,-0.999394332673
108148000000,,476,,108,148000000,"""map""",,,-0.00425037741661,-0.00018757590442,-0.00123632291798,,0.00891616468733,-0.00894459760113,0.0324435481656,-0.99939382691
108180000000,,477,,108,180000000,"""map""",,,-0.00455493386835,-0.000150185223902,-0.00205860473216,,0.00892383893961,-0.00892656444374,0.0324418622917,-0.999393911204
108216000000,,478,,108,216000000,"""map""",,,-0.00487446552143,-8.90878000064e-05,-0.00305791781284,,0.008966368734,-0.00888888548819,0.0324336436562,-0.999394206232
108248000000,,479,,108,248000000,"""map""",,,-0.00508426688612,-4.04613019782e-05,-0.00374782877043,,0.00895118936541,-0.00888348007255,0.0323640592093,-0.999396608602
108280000000,,480,,108,280000000,"""map""",,,-0.00525875622407,4.60082846985e-05,-0.00441428599879,,0.00898484362909,-0.00888011095371,0.0323361158488,-0.999397240805
108316000000,,481,,108,316000000,"""map""",,,-0.00535618280992,0.000135541631607,-0.00504413759336,,0.0089446344912,-0.00885777680258,0.0323106591523,-0.999398673798
108348000000,,482,,108,348000000,"""map""",,,-0.00572041142732,0.000381342979381,-0.00553735718131,,0.00897086273947,-0.00885827492462,0.0322985630067,-0.999398800239
108380000000,,483,,108,380000000,"""map""",,,-0.00638183671981,0.000751945830416,-0.00595546606928,,0.00899577009667,-0.00884509361094,0.03231323011,-0.999398210183
108416000000,,484,,108,416000000,"""map""",,,-0.00707984296605,0.00122966431081,-0.00657267030329,,0.00914826343467,-0.00882243890813,0.0322697345624,-0.999398463064
108448000000,,485,,108,448000000,"""map""",,,-0.0075484723784,0.00161914108321,-0.00700741633773,,0.00909567233779,-0.00882623053987,0.0321983799478,-0.999401202609
108480000000,,486,,108,480000000,"""map""",,,-0.00794234499335,0.00200916966423,-0.00735172908753,,0.00911493184236,-0.00887648831066,0.0322008244651,-0.999400443966
108516000000,,487,,108,516000000,"""map""",,,-0.00829208828509,0.00241331779398,-0.00770417181775,,0.0090833747291,-0.00890442342912,0.0321672334268,-0.999401581931
108548000000,,488,,108,548000000,"""map""",,,-0.00858030933887,0.00267903413624,-0.00778638757765,,0.00911207534382,-0.00886053546096,0.032082602555,-0.999404447916
108580000000,,489,,108,580000000,"""map""",,,-0.0088089639321,0.00282112834975,-0.00775717478245,,0.00911858045676,-0.00884120585227,0.0320990819727,-0.999404068595
108616000000,,490,,108,616000000,"""map""",,,-0.00908043049276,0.0029882423114,-0.00774285150692,,0.00918449934202,-0.00889579139235,0.032058663145,-0.999404195035
108648000000,,491,,108,648000000,"""map""",,,-0.00925201736391,0.00308964517899,-0.00774350622669,,0.00914149799085,-0.00886405189313,0.0320243134635,-0.99940600735
108680000000,,492,,108,680000000,"""map""",,,-0.00936322938651,0.00318368221633,-0.00784275773913,,0.00913008798697,-0.00888690740056,0.0320223325616,-0.999405965203
108716000000,,493,,108,716000000,"""map""",,,-0.00943102221936,0.00326398597099,-0.00800408329815,,0.00903888368852,-0.00884745251736,0.0319603766943,-0.99940908407
108748000000,,494,,108,748000000,"""map""",,,-0.00946740154177,0.00328440684825,-0.00786669086665,,0.00899842736492,-0.00888102836794,0.0319095897418,-0.99941081209
108780000000,,495,,108,780000000,"""map""",,,-0.0094915991649,0.00326797296293,-0.00743556534871,,0.00894074150791,-0.00887350251359,0.0318982522396,-0.999411781468
108816000000,,496,,108,816000000,"""map""",,,-0.00953452195972,0.00327943195589,-0.00697537139058,,0.00892109901084,-0.00887411044021,0.0318019888376,-0.999414984628
108848000000,,497,,108,848000000,"""map""",,,-0.00953144114465,0.00327867199667,-0.00671606883407,,0.00884784697781,-0.00891004539015,0.0316951044298,-0.999418777845
108880000000,,498,,108,880000000,"""map""",,,-0.00950731243938,0.00330790854059,-0.00643706135452,,0.00887300412338,-0.00887757971763,0.0316874758502,-0.999419072873
108916000000,,499,,108,916000000,"""map""",,,-0.00946893543005,0.00334581709467,-0.00606360239908,,0.00880676061104,-0.00884477286761,0.031659153168,-0.99942084304
108944000000,,500,,108,944000000,"""map""",,,-0.00932982098311,0.00340336258523,-0.00565671082586,,0.00884301826323,-0.00885093601845,0.0316194086898,-0.999421728124
108980000000,,501,,108,980000000,"""map""",,,-0.00916138477623,0.00350533053279,-0.00529556209221,,0.00882779381135,-0.00885551443981,0.0315961857763,-0.999422528914
109016000000,,502,,109,16000000,"""map""",,,-0.00891084130853,0.00362697686069,-0.00481265410781,,0.00885821670517,-0.00861158614814,0.0315835417218,-0.999424804844
109048000000,,503,,109,48000000,"""map""",,,-0.00871165748686,0.00374409882352,-0.00445114774629,,0.00885919432478,-0.00860861313867,0.031602381363,-0.999424256935
109080000000,,504,,109,80000000,"""map""",,,-0.00849505886436,0.00386574259028,-0.00413119513541,,0.00884405698985,-0.00861166618188,0.0316334435904,-0.999423371851
109116000000,,505,,109,116000000,"""map""",,,-0.00824052467942,0.00397385004908,-0.00381805561483,,0.00881226565083,-0.00862934096083,0.0316441910368,-0.999423076823
109148000000,,506,,109,148000000,"""map""",,,-0.00801867526025,0.00413501774892,-0.00346044171602,,0.00879449793994,-0.00864683998557,0.0316563293291,-0.999422739649
109180000000,,507,,109,180000000,"""map""",,,-0.00781426113099,0.00434869155288,-0.00299005303532,,0.00882335189777,-0.00864990304585,0.0316529154344,-0.999422528914
109216000000,,508,,109,216000000,"""map""",,,-0.00755458977073,0.00463555241004,-0.00244989502244,,0.00883692108388,-0.00861935526524,0.0316295239335,-0.999423498292
109248000000,,509,,109,248000000,"""map""",,,-0.00733765913174,0.00488524558023,-0.00210443185642,,0.008886300346,-0.00866928583201,0.0316170484663,-0.99942299253
109280000000,,510,,109,280000000,"""map""",,,-0.00709841772914,0.00513923633844,-0.00175407598726,,0.00891000498484,-0.00870227397278,0.0316185657529,-0.999422402474
109316000000,,511,,109,316000000,"""map""",,,-0.00683383503929,0.00541223911569,-0.00147965829819,,0.00893538609278,-0.00873070253658,0.0316334435904,-0.99942151739
109348000000,,512,,109,348000000,"""map""",,,-0.00659964233637,0.00562785658985,-0.00136590795591,,0.00888228911025,-0.00875397930671,0.0315976187692,-0.999422950383
109380000000,,513,,109,380000000,"""map""",,,-0.00637861527503,0.00581060396507,-0.00134949339554,,0.00888576475896,-0.00876605321092,0.0315913388887,-0.99942299253
109416000000,,514,,109,416000000,"""map""",,,-0.00607619062066,0.00606141006574,-0.00132468342781,,0.00888222145509,-0.0087168352459,0.0315578321442,-0.999424467669
109448000000,,515,,109,448000000,"""map""",,,-0.00580645771697,0.00631806300953,-0.0012629556004,,0.00894764860311,-0.00870411931739,0.0315515522637,-0.999424172641
109480000000,,516,,109,480000000,"""map""",,,-0.0055094435811,0.00661312742159,-0.00119400129188,,0.00891874917998,-0.00866492260421,0.0315532802845,-0.99942472055
109516000000,,517,,109,516000000,"""map""",,,-0.00517823873088,0.00697034318,-0.00117234699428,,0.00887791666283,-0.0086675832475,0.0315478854879,-0.999425226313
109548000000,,518,,109,548000000,"""map""",,,-0.0049233706668,0.00727003021166,-0.00102504075039,,0.00884266154433,-0.00859567210113,0.0314825578727,-0.999428260886
109580000000,,519,,109,580000000,"""map""",,,-0.00470976019278,0.00749592948705,-0.00069125770824,,0.00881387392971,-0.00859804681262,0.0314458058208,-0.999429609585
109616000000,,520,,109,616000000,"""map""",,,-0.00441298726946,0.00778951775283,-0.000341214356013,,0.0088281262014,-0.00859122687425,0.0314170616701,-0.999430452522
109648000000,,521,,109,648000000,"""map""",,,-0.00417095562443,0.00802480615675,-0.000119702250231,,0.00878446223612,-0.00867664256133,0.0314100652933,-0.999430368228
109680000000,,522,,109,680000000,"""map""",,,-0.00393676944077,0.00827902462333,0.000100962519355,,0.00883775858272,-0.00868480949076,0.0313442319159,-0.999431885515
109716000000,,523,,109,716000000,"""map""",,,-0.00368987140246,0.00856421142817,0.000332012830768,,0.00882068583178,-0.00864283582402,0.0313387106788,-0.999432517717
109748000000,,524,,109,748000000,"""map""",,,-0.00356083759107,0.00889241602272,0.000625084037893,,0.0088686645035,-0.00862738398264,0.0313622286202,-0.999431506193
109780000000,,525,,109,780000000,"""map""",,,-0.00351304397918,0.00927116815001,0.000839566113427,,0.00886456415844,-0.00862989591834,0.0313290590505,-0.999432559864
109816000000,,526,,109,816000000,"""map""",,,-0.00339566683397,0.00980328023434,0.00105754530523,,0.00893291877346,-0.008595789569,0.0312914640616,-0.999433402801
109848000000,,527,,109,848000000,"""map""",,,-0.00324653740972,0.0102704828605,0.00108255818486,,0.00893470428313,-0.00854408638563,0.0312603175405,-0.999434877941
109880000000,,528,,109,880000000,"""map""",,,-0.0030618919991,0.0107665853575,0.00100383581594,,0.00895308508353,-0.00854623241755,0.0312333857043,-0.999435510144
109916000000,,529,,109,916000000,"""map""",,,-0.00287245120853,0.011277618818,0.000708442472387,,0.0089720741321,-0.0083379750432,0.0312395391442,-0.999436858843
109948000000,,530,,109,948000000,"""map""",,,-0.00260870577767,0.0115825748071,0.000546738505363,,0.00899434536649,-0.00831096097126,0.0312228068454,-0.999437406752
109980000000,,531,,109,980000000,"""map""",,,-0.00233180401847,0.0117432782426,0.000527386087924,,0.00901984721445,-0.00830358095107,0.0312190557758,-0.999437364605
110016000000,,532,,110,16000000,"""map""",,,-0.00198104651645,0.0120054101571,0.000465550227091,,0.00900837608941,-0.00834989171477,0.0311631690547,-0.999438881892
110048000000,,533,,110,48000000,"""map""",,,-0.00165636022575,0.0122540006414,0.000323003216181,,0.00903127864161,-0.00840126112926,0.0311706711937,-0.999438038955
110080000000,,534,,110,80000000,"""map""",,,-0.0013123039389,0.0125640928745,0.000117563446111,,0.00902378747146,-0.00841741479387,0.0311149109132,-0.999439682682
110116000000,,535,,110,116000000,"""map""",,,-0.000983660924248,0.0129320509732,-0.000161896226928,,0.00899218957989,-0.00846356651907,0.0310530393396,-0.999441452849
110148000000,,536,,110,148000000,"""map""",,,-0.000757680332754,0.0133095020428,-0.000362670049071,,0.00904275694891,-0.00846508870354,0.0310382879426,-0.999441452849
110180000000,,537,,110,180000000,"""map""",,,-0.000634854950476,0.0137200001627,-0.000447950442322,,0.00900136102635,-0.00842253732349,0.0309456070227,-0.999445035331
110216000000,,538,,110,216000000,"""map""",,,-0.000492912193295,0.0142679633573,-0.000552830228116,,0.00900082571199,-0.00844931695359,0.0309110466069,-0.999445878268
110248000000,,539,,110,244000000,"""map""",,,-0.000406698032748,0.0147221367806,-0.00056311103981,,0.00895055942128,-0.00848654538012,0.030911594516,-0.999446004709
110280000000,,540,,110,280000000,"""map""",,,-0.000302218744764,0.0152159361169,-0.000526568503119,,0.00895302406526,-0.00851124438001,0.0309350703106,-0.999445119625
110316000000,,541,,110,316000000,"""map""",,,-0.000169718376128,0.0157301928848,-0.000514197978191,,0.00901324538808,-0.00852820183935,0.0308924176999,-0.999445709681
110348000000,,542,,110,348000000,"""map""",,,-0.000137028400786,0.0160068310797,-0.000339432386681,,0.00895378361403,-0.00850017597551,0.0308809537571,-0.999446805499
110380000000,,543,,110,380000000,"""map""",,,-0.000179998460226,0.0161040816456,-0.000185000768397,,0.00901116930594,-0.00848548372406,0.0309026593841,-0.999445751828
110416000000,,544,,110,416000000,"""map""",,,-0.000190629565623,0.0163155309856,8.69227515068e-05,,0.00900318037903,-0.00842942261211,0.0308131816247,-0.999449081429
110448000000,,545,,110,448000000,"""map""",,,-0.000170366969542,0.0165407061577,0.000297808641335,,0.00905397241463,-0.00839156043939,0.0307473482473,-0.999451020184
110480000000,,546,,110,480000000,"""map""",,,-0.000156845213496,0.0167833566666,0.000451081781648,,0.00903571463858,-0.00837323079967,0.0307445244085,-0.999451399506
110516000000,,547,,110,516000000,"""map""",,,-0.000142164732097,0.017063755542,0.000617188226897,,0.00902704066075,-0.00832278591992,0.0306397051962,-0.999455150575
110548000000,,548,,110,548000000,"""map""",,,-0.000105222054117,0.0171834696084,0.000686923798639,,0.00908239280837,-0.00828835178005,0.0305967575576,-0.999456204246
110580000000,,549,,110,580000000,"""map""",,,-1.24933139887e-05,0.017199523747,0.000661615631543,,0.00906784189704,-0.00828908642761,0.0305355603335,-0.999458227295
110616000000,,550,,110,616000000,"""map""",,,0.000127065868583,0.0173404738307,0.000546464696527,,0.00905176464417,-0.00811960296029,0.0305142340282,-0.999460418931
110648000000,,551,,110,648000000,"""map""",,,0.000306056608679,0.0175649225712,0.000572883582208,,0.0090336325678,-0.00814109097947,0.0304585158945,-0.999462104805
110680000000,,552,,110,680000000,"""map""",,,0.000488337303977,0.0178507342935,0.000516906147823,,0.0090096984262,-0.00821448181362,0.0304610868522,-0.99946164119
110716000000,,553,,110,716000000,"""map""",,,0.000686113431584,0.018156459555,0.000478713191114,,0.00901766442752,-0.00823121518261,0.0304663973551,-0.999461219721
110748000000,,554,,110,748000000,"""map""",,,0.000828067131806,0.0183386914432,0.00051750021521,,0.00898415830034,-0.00824967751905,0.0304311625898,-0.999462484127
110780000000,,555,,110,780000000,"""map""",,,0.000907589448616,0.0184523127973,0.000651289126836,,0.00898622728255,-0.00826684593901,0.0303892686224,-0.999463579945
110816000000,,556,,110,816000000,"""map""",,,0.00104783871211,0.0187161173671,0.000797951535787,,0.00902332132485,-0.00825758330471,0.0303542024444,-0.999464422882
110848000000,,557,,110,848000000,"""map""",,,0.00120806065388,0.0189751479775,0.000938327866606,,0.00904559115984,-0.00829141224218,0.0303012660027,-0.9994655187
110880000000,,558,,110,880000000,"""map""",,,0.00135440402664,0.019270202145,0.00112914177589,,0.00907516087838,-0.00829776612654,0.0303242360351,-0.999464465029
110916000000,,559,,110,916000000,"""map""",,,0.00148069870193,0.0196045599878,0.00127325067297,,0.00908141425239,-0.00827237018077,0.0303065765056,-0.999465181525
110948000000,,560,,110,948000000,"""map""",,,0.00149819033686,0.0197257939726,0.00135186233092,,0.00910261716296,-0.00832950377361,0.0302318501432,-0.999466825252
110980000000,,561,,110,980000000,"""map""",,,0.00144076242577,0.01966785267,0.00144266756251,,0.00905394306824,-0.00832301291198,0.0302240529762,-0.999467541748
111016000000,,562,,111,16000000,"""map""",,,0.0013951814035,0.0197152700275,0.00141957774758,,0.00909627052258,-0.00828760149206,0.0302082057612,-0.999467878923
111048000000,,563,,111,48000000,"""map""",,,0.00140058912802,0.0198185220361,0.00138466327917,,0.00909055678464,-0.00828949962313,0.0302114932153,-0.99946779463
111080000000,,564,,111,80000000,"""map""",,,0.00145633879583,0.0199998449534,0.00144784303848,,0.00913895659557,-0.0082587382683,0.0301787029672,-0.999468637567
111116000000,,565,,111,116000000,"""map""",,,0.00151860818733,0.0202296674252,0.00146783341188,,0.00903515615168,-0.00826194340442,0.0301812317781,-0.999469480504
111148000000,,566,,111,148000000,"""map""",,,0.00147572695278,0.0201971903443,0.00161375815514,,0.00910377994677,-0.00828783655129,0.0301558172285,-0.999469438357
111180000000,,567,,111,180000000,"""map""",,,0.00134603341576,0.0199377704412,0.0018254306633,,0.00902463030553,-0.00823607676396,0.0301612963188,-0.999470449881
111216000000,,568,,111,216000000,"""map""",,,0.00126287213061,0.0197741575539,0.0020573164802,,0.00907271315076,-0.00824751185428,0.030171242975,-0.99946952265
111248000000,,569,,111,248000000,"""map""",,,0.00125829083845,0.0197449959815,0.00229966873303,,0.00908066264731,-0.00823764467612,0.0301398435729,-0.999470492028
111280000000,,570,,111,280000000,"""map""",,,0.00128927314654,0.019780870527,0.00242854026146,,0.00908777443409,-0.00820956483221,0.0301120266529,-0.999471503552
111316000000,,571,,111,316000000,"""map""",,,0.00132000120357,0.0199085250497,0.00256368983537,,0.00902395311598,-0.00813184517921,0.0301205403163,-0.999472515077
111348000000,,572,,111,348000000,"""map""",,,0.00129138317425,0.0198653247207,0.00279608508572,,0.00898716821917,-0.00812208546729,0.0300854319914,-0.999473905923
111380000000,,573,,111,380000000,"""map""",,,0.00120221846737,0.0196882989258,0.00302151846699,,0.00895442069411,-0.00812768120229,0.0301076012338,-0.999473568748
111416000000,,574,,111,416000000,"""map""",,,0.00113692530431,0.0195747241378,0.00329879322089,,0.00891358183847,-0.00804638507639,0.0300747688388,-0.99947554965
111448000000,,575,,111,448000000,"""map""",,,0.00110040791333,0.0195483267307,0.00349821336567,,0.00889357883715,-0.00811254282809,0.0300553812885,-0.999475802531
111480000000,,576,,111,480000000,"""map""",,,0.00107578455936,0.0195907931775,0.00369636225514,,0.00888164189476,-0.00804050085774,0.0300283651586,-0.99947727767
111516000000,,577,,111,516000000,"""map""",,,0.00106339587364,0.0197218004614,0.00399140221998,,0.00881269458968,-0.00805532502388,0.0300238132989,-0.999477867726
111548000000,,578,,111,548000000,"""map""",,,0.000871812051628,0.0197723116726,0.00451691728085,,0.00888656542046,-0.00799048152122,0.03001015772,-0.999478120607
111580000000,,579,,111,580000000,"""map""",,,0.000734615023248,0.0197510551661,0.00499601429328,,0.00902226283803,-0.00796601490523,0.0299777467935,-0.999478162754
111616000000,,580,,111,616000000,"""map""",,,0.00052755640354,0.0198298785836,0.00576933892444,,0.0090343993194,-0.00799523501896,0.029979559108,-0.999477699139
111648000000,,581,,111,648000000,"""map""",,,0.000363313825801,0.0199436731637,0.00655668787658,,0.00891774021776,-0.00800322374007,0.0299574741594,-0.999479385013
111680000000,,582,,111,680000000,"""map""",,,0.000233945815125,0.0201080106199,0.00723394704983,,0.00896373432445,-0.00804626748504,0.0299106068638,-0.999480059362
111716000000,,583,,111,716000000,"""map""",,,0.000107042382297,0.0203257910907,0.00782762095332,,0.00897450803028,-0.00805620895525,0.0299007866481,-0.999480101509
111748000000,,584,,111,748000000,"""map""",,,-0.000136468210258,0.0202970709652,0.00842282548547,,0.00895061035558,-0.00809172203798,0.0298960240542,-0.99948022795
111780000000,,585,,111,780000000,"""map""",,,-0.000524099741597,0.0200396440923,0.00894682016224,,0.00886083131208,-0.00807527521816,0.0299117869756,-0.999480649418
111816000000,,586,,111,816000000,"""map""",,,-0.000962656049524,0.0198364146054,0.00936771463603,,0.00885206752525,-0.00806411803363,0.0299276763375,-0.99948035439
111848000000,,587,,111,848000000,"""map""",,,-0.00129348353948,0.0197780746967,0.00970343966037,,0.00887936983389,-0.00809061354293,0.0299157487793,-0.999480312244
111880000000,,588,,111,880000000,"""map""",,,-0.0016347526107,0.0197935458273,0.0100251557305,,0.0088749300503,-0.00810817021604,0.0298891119711,-0.999480986593
111916000000,,589,,111,916000000,"""map""",,,-0.00197537266649,0.0199086740613,0.0103300856426,,0.00889070445501,-0.00812598421541,0.0298498732551,-0.999481871677
111948000000,,590,,111,948000000,"""map""",,,-0.00232671457343,0.019858835265,0.0105163222179,,0.00883728079324,-0.00817562914879,0.0298380299907,-0.999482250999
111980000000,,591,,111,980000000,"""map""",,,-0.00278822821565,0.0195986758918,0.0106310164556,,0.00884881063165,-0.0082129014097,0.0298183052656,-0.999482419586
112016000000,,592,,112,16000000,"""map""",,,-0.00314805167727,0.0194914080203,0.0108049474657,,0.00885847656272,-0.00816560492835,0.0297603954957,-0.999484526928
112048000000,,593,,112,48000000,"""map""",,,-0.00347757572308,0.0194542389363,0.0111280493438,,0.0088360362676,-0.00817609659192,0.029724992143,-0.999485622747
112080000000,,594,,112,80000000,"""map""",,,-0.00381856737658,0.0194719135761,0.0113764861599,,0.00880417185072,-0.00813839895242,0.0297011791736,-0.999486929299
112116000000,,595,,112,116000000,"""map""",,,-0.00411384692416,0.0195277426392,0.0116199245676,,0.00885748236631,-0.00808924516976,0.0296954050553,-0.999487055739
112148000000,,596,,112,148000000,"""map""",,,-0.00437482120469,0.0194760859013,0.0117716034874,,0.00889951396953,-0.00786084942205,0.0295921452765,-0.999491607599
112180000000,,597,,112,180000000,"""map""",,,-0.00457327486947,0.019341763109,0.0121424132958,,0.0089212284457,-0.00787183299778,0.0296161268333,-0.999490638221
112216000000,,598,,112,216000000,"""map""",,,-0.00483935791999,0.019264023751,0.0124558936805,,0.00893918036899,-0.00788966770015,0.0296332806006,-0.999489753138
112248000000,,599,,112,248000000,"""map""",,,-0.00504034385085,0.0192792546004,0.0126721197739,,0.00899802383148,-0.00785268264697,0.029645123865,-0.999489120935
112280000000,,600,,112,280000000,"""map""",,,-0.00525285536423,0.0193558707833,0.0129610458389,,0.00896775124015,-0.00784688938977,0.0296728143445,-0.99948865732
112316000000,,601,,112,316000000,"""map""",,,-0.00550222396851,0.0194889940321,0.0132603831589,,0.00896649247348,-0.00791198350978,0.0296348821809,-0.999489247375
112348000000,,602,,112,348000000,"""map""",,,-0.00578218186274,0.019698690623,0.0135642327368,,0.00893051091866,-0.00802639244715,0.0297036658376,-0.999486634271
112380000000,,603,,112,380000000,"""map""",,,-0.00606454303488,0.0199698191136,0.0137743651867,,0.00891866588439,-0.00805387527931,0.0296794735466,-0.999487224327
112416000000,,604,,112,416000000,"""map""",,,-0.00640683341771,0.0203731525689,0.0138645460829,,0.0088887774303,-0.00806182629874,0.029639855509,-0.99948865732
112448000000,,605,,112,448000000,"""map""",,,-0.00672599533573,0.0204545389861,0.0141041148454,,0.00890140913714,-0.00812467301214,0.029628433713,-0.999488362292
112480000000,,606,,112,480000000,"""map""",,,-0.00706299720332,0.0204885527492,0.014131818898,,0.00886532180361,-0.00807543668504,0.0296286444473,-0.999489078788
112516000000,,607,,112,516000000,"""map""",,,-0.00740165403113,0.0205736700445,0.0140259452164,,0.00886672141648,-0.00806240717616,0.0296306253492,-0.999489120935
112548000000,,608,,112,548000000,"""map""",,,-0.00775539316237,0.0207096375525,0.0138884140179,,0.00891570296917,-0.00802480395548,0.0296119964421,-0.999489542403
112580000000,,609,,112,580000000,"""map""",,,-0.00811924412847,0.0208998955786,0.0137316053733,,0.00891549124711,-0.00805995936622,0.029593662563,-0.999489753138
112616000000,,610,,112,616000000,"""map""",,,-0.00858322624117,0.0211822651327,0.0136493630707,,0.00899780963988,-0.00809614078931,0.0295583013571,-0.999489795285
112648000000,,611,,112,648000000,"""map""",,,-0.008794458583,0.0211724340916,0.0137146348134,,0.00897493805984,-0.00806819248966,0.0295403046528,-0.999490764662
112680000000,,612,,112,680000000,"""map""",,,-0.00895821209997,0.0211638901383,0.0137602724135,,0.00897223391146,-0.00812775010251,0.0295633589789,-0.999489626697
112716000000,,613,,112,716000000,"""map""",,,-0.00915458705276,0.0212277919054,0.0136753441766,,0.0089611613499,-0.00813133501302,0.0294754406529,-0.999492239802
112748000000,,614,,112,748000000,"""map""",,,-0.0093520861119,0.0213693231344,0.0138200242072,,0.00899288701968,-0.00819415526115,0.0293982697733,-0.999493799235
112780000000,,615,,112,780000000,"""map""",,,-0.00959016662091,0.0215621683747,0.0139048062265,,0.00901033157558,-0.00821315455832,0.0294214926868,-0.999492745564
112816000000,,616,,112,816000000,"""map""",,,-0.00990650057793,0.0219150837511,0.0139299919829,,0.00903428847813,-0.008230215759,0.0294174044425,-0.99949253483
112848000000,,617,,112,848000000,"""map""",,,-0.00988400541246,0.0220057126135,0.0140856551006,,0.00897540200445,-0.00822941044139,0.029367755455,-0.999494557878
112880000000,,618,,112,880000000,"""map""",,,-0.00980161968619,0.022100508213,0.0144004402682,,0.0090328810862,-0.00822196757136,0.0293065160841,-0.999495864431
112916000000,,619,,112,916000000,"""map""",,,-0.00978758186102,0.0222673583776,0.0146784074605,,0.0090067278554,-0.00828590940311,0.0292914275123,-0.999496033018
112948000000,,620,,112,948000000,"""map""",,,-0.00978598184884,0.022488521412,0.0148958386853,,0.00901947081511,-0.00830923097484,0.0292933241205,-0.999495653696
112980000000,,621,,112,980000000,"""map""",,,-0.00980696547776,0.0227474551648,0.0150771532208,,0.00898817077087,-0.00827461334801,0.0292529895865,-0.999497381717
113016000000,,622,,113,16000000,"""map""",,,-0.00987468194216,0.0231174454093,0.0152769749984,,0.00898628099509,-0.00827155218618,0.0292143409264,-0.999498519682
113048000000,,623,,113,48000000,"""map""",,,-0.00983590260148,0.0230567548424,0.0153162442148,,0.00916449729765,-0.00827644023279,0.0291741749798,-0.999498140361
113080000000,,624,,113,80000000,"""map""",,,-0.0098231639713,0.0229386594146,0.0155420126393,,0.00918899342467,-0.00832351735708,0.029132660334,-0.99949868827
113116000000,,625,,113,116000000,"""map""",,,-0.00988216511905,0.0228975303471,0.0158223379403,,0.00915516563966,-0.00832147027147,0.0291537759051,-0.999498393242
113148000000,,626,,113,148000000,"""map""",,,-0.00998434517533,0.0229210332036,0.0160403624177,,0.00908718367851,-0.00834038144715,0.0291580327368,-0.999498772563
113180000000,,627,,113,180000000,"""map""",,,-0.0101190228015,0.0230010226369,0.0161923952401,,0.00910448656502,-0.00834425998619,0.0291735427771,-0.999498098214
113216000000,,628,,113,216000000,"""map""",,,-0.0103552928194,0.0231566391885,0.0163585171103,,0.00907456662428,-0.00833148253522,0.0291549981637,-0.999499025444
113248000000,,629,,113,248000000,"""map""",,,-0.0104332007468,0.022843901068,0.016535481438,,0.0091006532186,-0.00839132941374,0.0290799346265,-0.999500500584
113280000000,,630,,113,280000000,"""map""",,,-0.0105180628598,0.0224715471268,0.016663942486,,0.00905819796547,-0.00833375965865,0.0290621486564,-0.999501849283
113316000000,,631,,113,316000000,"""map""",,,-0.0106621589512,0.0222271606326,0.016839876771,,0.00903728849821,-0.00837808960278,0.029033067331,-0.999502523633
113348000000,,632,,113,348000000,"""map""",,,-0.0108640538529,0.0220611225814,0.0168827939779,,0.00900111913472,-0.00836409236274,0.0289824911128,-0.999504462388
113380000000,,633,,113,380000000,"""map""",,,-0.0110782943666,0.0220074355602,0.0168295241892,,0.00899895342879,-0.00838938878598,0.0290084114246,-0.99950349301
113416000000,,634,,113,416000000,"""map""",,,-0.0113653140143,0.0220219958574,0.0167311616242,,0.00899132894453,-0.00839072812145,0.0289574558847,-0.99950496815
113448000000,,635,,113,448000000,"""map""",,,-0.0114124920219,0.021765191108,0.0168526228517,,0.00896281162127,-0.00839234521865,0.0289294282305,-0.999506106115
113472000000,,636,,113,472000000,"""map""",,,-0.0114609859884,0.0214902665466,0.0170876625925,,0.00895337280574,-0.00840567339805,0.0288995461149,-0.999506906905
113516000000,,637,,113,516000000,"""map""",,,-0.0115812635049,0.0212996322662,0.0174132790416,,0.00889678251212,-0.00836874642026,0.0288098154744,-0.9995103208
113548000000,,638,,113,548000000,"""map""",,,-0.0117941061035,0.0211959853768,0.0176100414246,,0.00888696980794,-0.00836678303155,0.0287998688182,-0.999510657975
113580000000,,639,,113,580000000,"""map""",,,-0.0120475469157,0.0211536325514,0.0178201645613,,0.00885896308305,-0.00834715196382,0.0287864661203,-0.999511500911
113616000000,,640,,113,616000000,"""map""",,,-0.0124416016042,0.0212034229189,0.0180392023176,,0.0088769789469,-0.0083569161415,0.0287838530157,-0.999511332324
113648000000,,641,,113,648000000,"""map""",,,-0.0126137239859,0.0208135768771,0.0183304622769,,0.00884545658215,-0.00836202428603,0.0287905543646,-0.999511374471
113680000000,,642,,113,680000000,"""map""",,,-0.0127744767815,0.0203704480082,0.0186997558922,,0.00887760841255,-0.00838407198573,0.0288081717473,-0.99951044724
113716000000,,643,,113,716000000,"""map""",,,-0.0129899978638,0.0200485605747,0.0190664138645,,0.00882093473074,-0.00834174535457,0.0287347519372,-0.99951339752
113748000000,,644,,113,748000000,"""map""",,,-0.013224308379,0.0198014304042,0.0193864684552,,0.00882495827304,-0.00832676626583,0.0286646617281,-0.999515462715
113780000000,,645,,113,776000000,"""map""",,,-0.0135032096878,0.0196394436061,0.0195511691272,,0.00898525691722,-0.00827695163376,0.0286768843142,-0.999514114016
113816000000,,646,,113,816000000,"""map""",,,-0.0138654271141,0.0195429176092,0.0198714137077,,0.00899523835285,-0.00826919739565,0.0286801717684,-0.999514029722
113848000000,,647,,113,848000000,"""map""",,,-0.0139831714332,0.0192357283086,0.020026486367,,0.00893416361809,-0.00825997645545,0.0286671062454,-0.999515041247
113880000000,,648,,113,880000000,"""map""",,,-0.0140763483942,0.0189443770796,0.0202033855021,,0.00895999603481,-0.0082815236819,0.0286401322623,-0.999515294128
113916000000,,649,,113,916000000,"""map""",,,-0.0142263723537,0.018750410527,0.02025792934,,0.00898871557239,-0.00835418707132,0.0286789916566,-0.999513355373
113948000000,,650,,113,948000000,"""map""",,,-0.0144031010568,0.018677694723,0.0201492682099,,0.00893991106528,-0.00837431196511,0.0286743976501,-0.999513818988
113980000000,,651,,113,980000000,"""map""",,,-0.0146137522534,0.018658561632,0.019834799692,,0.00898379618318,-0.00836935341308,0.028668328504,-0.999513566107
114016000000,,652,,114,16000000,"""map""",,,-0.0148961246014,0.0187287870795,0.0194288063794,,0.0089564833584,-0.00830058722832,0.0286233156697,-0.999515757743
114048000000,,653,,114,48000000,"""map""",,,-0.0149027537555,0.0183221455663,0.0195334106684,,0.00892793817048,-0.00836965265982,0.0286117674333,-0.999515673449
114080000000,,654,,114,80000000,"""map""",,,-0.0148734021932,0.0178349986672,0.019653512165,,0.00891758165259,-0.00829620938907,0.0285869850863,-0.999517106442
114116000000,,655,,114,116000000,"""map""",,,-0.0148859154433,0.0174713749439,0.0196675918996,,0.00893039421222,-0.00829036027906,0.0285405814061,-0.999518412995
114148000000,,656,,114,148000000,"""map""",,,-0.0149556929246,0.0172089785337,0.0196003559977,,0.00893653466643,-0.00827001633691,0.0285082547733,-0.999519466666
114180000000,,657,,114,180000000,"""map""",,,-0.0150934970006,0.0170415490866,0.0193175151944,,0.00894832362152,-0.00827609764559,0.02851445036,-0.999519087344
114216000000,,658,,114,216000000,"""map""",,,-0.0153428195044,0.0169269982725,0.0188159048557,,0.00894141981133,-0.0082762000081,0.0284907638312,-0.999519845987
114248000000,,659,,114,248000000,"""map""",,,-0.0150851747021,0.0168529562652,0.0184991564602,,0.00898222547221,-0.00838415823448,0.0285292860507,-0.999517485764
114284000000,,660,,114,284000000,"""map""",,,-0.0147094503045,0.0168420448899,0.0183040238917,,0.00897166186266,-0.00830006660773,0.0285237648136,-0.999518455141
114316000000,,661,,114,316000000,"""map""",,,-0.0143762445077,0.0168913286179,0.0180765148252,,0.00895306771442,-0.0083170499561,0.028472177071,-0.999519888134
