rosbagTimestamp,header,seq,stamp,secs,nsecs,frame_id,pose,position,x,y,z,orientation,x,y,z,w
101980000000,,172,,101,980000000,"""map""",,,0.0105606429279,-0.00357365352102,0.052363242954,,0.00872281812275,-0.0109388842709,0.0425878731337,-0.998994780549
102016000000,,173,,102,16000000,"""map""",,,0.0108239250258,-0.0035812407732,0.0524233058095,,0.0087702956421,-0.0109701976507,0.0424356808637,-0.999000470373
102048000000,,174,,102,48000000,"""map""",,,0.0103845475242,-0.00329825724475,0.0521395653486,,0.00877996875543,-0.0109800767238,0.0423372679725,-0.999004474324
102080000000,,175,,102,80000000,"""map""",,,0.00983552262187,-0.00294800591655,0.0516752824187,,0.00874720987047,-0.0110648751129,0.042135679596,-0.999012355785
102116000000,,176,,102,116000000,"""map""",,,0.00936843827367,-0.00262212846428,0.0511587820947,,0.00875792504816,-0.0109980005766,0.0420092811974,-0.999018382784
102148000000,,177,,102,148000000,"""map""",,,0.00899795629084,-0.00231818528846,0.0505795367062,,0.00882119108976,-0.0110056848032,0.0419159680748,-0.999021585944
102180000000,,178,,102,180000000,"""map""",,,0.00874388404191,-0.00204372988082,0.0502775907516,,0.00887612547321,-0.0110570750648,0.041853590739,-0.999023187525
102216000000,,179,,102,216000000,"""map""",,,0.0086405435577,-0.00175388844218,0.0501186400652,,0.00886101014808,-0.0110827481755,0.0416809993943,-0.999030226048
102248000000,,180,,102,248000000,"""map""",,,0.00813058391213,-0.00150640658103,0.0500867366791,,0.00884469264994,-0.011046500651,0.041614870989,-0.999033555649
102280000000,,181,,102,280000000,"""map""",,,0.00754814734682,-0.00124959181994,0.0500528588891,,0.00887846725748,-0.0109791073463,0.041418719556,-0.999042153606
102316000000,,182,,102,316000000,"""map""",,,0.00708791147918,-0.00100957567338,0.0501188673079,,0.00883650142639,-0.0109334248546,0.0412765160891,-0.999048897102
102348000000,,183,,102,348000000,"""map""",,,0.00673828180879,-0.000774308748078,0.0501858256757,,0.00885759172585,-0.0109205821666,0.0412266142205,-0.999050920151
102380000000,,184,,102,380000000,"""map""",,,0.00648049032316,-0.000552455312572,0.0502150505781,,0.00882323266006,-0.0108303274893,0.0411832029665,-0.999053954724
102416000000,,185,,102,416000000,"""map""",,,0.00629894295707,-0.00031189393485,0.0502598583698,,0.0088683513553,-0.010793374746,0.0411176224703,-0.999056652122
102448000000,,186,,102,448000000,"""map""",,,0.00583539623767,4.14901951444e-05,0.0498915575445,,0.00880849739742,-0.0107697397482,0.041037290577,-0.999060782514
102480000000,,187,,102,480000000,"""map""",,,0.0051639713347,0.000468848185847,0.0491391196847,,0.00883832699409,-0.0107967873236,0.0409458319157,-0.999063985674
102516000000,,188,,102,516000000,"""map""",,,0.0044816355221,0.000989641761407,0.0482830740511,,0.00881018335368,-0.0107987143072,0.0409195322823,-0.999065250079
102548000000,,189,,102,548000000,"""map""",,,0.00406137714162,0.00138256174978,0.0478250309825,,0.00887609353381,-0.0107927382627,0.0408935276767,-0.999065797988
102580000000,,190,,102,580000000,"""map""",,,0.00375244487077,0.0017433646135,0.0473862662911,,0.00885940115921,-0.0107536268928,0.0408145023358,-0.999069633352
102616000000,,191,,102,616000000,"""map""",,,0.00352445105091,0.00212401454337,0.0469624511898,,0.00891281339934,-0.0108248112736,0.0406840578396,-0.999073721596
102648000000,,192,,102,648000000,"""map""",,,0.0030251799617,0.00246217637323,0.0469259358943,,0.00887979809362,-0.0107511673937,0.0406347881737,-0.999076798316
102680000000,,193,,102,680000000,"""map""",,,0.00249902252108,0.00277975294739,0.047148309648,,0.00888726220171,-0.010809299587,0.040559303168,-0.999079200686
102716000000,,194,,102,716000000,"""map""",,,0.00195065978914,0.00313113047741,0.0474726110697,,0.00884737062118,-0.0107350482821,0.0404948606367,-0.999082951756
102748000000,,195,,102,748000000,"""map""",,,0.0016066263197,0.00338684627786,0.0477219447494,,0.00882989960002,-0.0107362427172,0.0404497213619,-0.999084932658
102780000000,,196,,102,780000000,"""map""",,,0.00130790029652,0.00361673138104,0.0479376800358,,0.00888900380498,-0.0106572135896,0.0403496225967,-0.999089273783
102816000000,,197,,102,816000000,"""map""",,,0.00107024924364,0.0038578833919,0.0482044443488,,0.00894725832288,-0.0106501793464,0.0402745590595,-0.999091844741
102848000000,,198,,102,848000000,"""map""",,,0.000619708909653,0.00413115369156,0.0482589304447,,0.00892420128025,-0.0106369176595,0.040216269968,-0.999094584286
102880000000,,199,,102,880000000,"""map""",,,0.000177129535587,0.00441211042926,0.0482953488827,,0.00893247934935,-0.0105067601241,0.0401251906284,-0.999099515467
102916000000,,200,,102,916000000,"""map""",,,-0.000288945331704,0.00477817002684,0.0483357682824,,0.00913451866413,-0.0104898956224,0.0400870055836,-0.999099431174
102948000000,,201,,102,948000000,"""map""",,,-0.000598725862801,0.00501053826883,0.048600140959,,0.00911402611729,-0.010472402005,0.0400357971627,-0.999101833544
102980000000,,202,,102,980000000,"""map""",,,-0.000856613740325,0.00518913054839,0.0488494373858,,0.00910721363899,-0.0104578618361,0.0399469094592,-0.999105584613
103016000000,,203,,103,16000000,"""map""",,,-0.00104772578925,0.00535549689084,0.0489964149892,,0.00906462881722,-0.0104566007646,0.0399013487159,-0.999107818396
103048000000,,204,,103,48000000,"""map""",,,-0.00134541140869,0.00520913721994,0.0488787256181,,0.00901356568766,-0.0104570995297,0.0398110280196,-0.999111906641
103080000000,,205,,103,80000000,"""map""",,,-0.00162089022342,0.0049613812007,0.0485764704645,,0.00898357721713,-0.0103799480771,0.0397430872998,-0.999115615563
103116000000,,206,,103,116000000,"""map""",,,-0.00182527513243,0.0046784481965,0.0482362061739,,0.00894709829656,-0.010404905103,0.0396914995572,-0.9991178072
103148000000,,207,,103,148000000,"""map""",,,-0.001947051147,0.0044773593545,0.0480510555208,,0.00888976993919,-0.010351968085,0.0396906987671,-0.999118860871
103180000000,,208,,103,180000000,"""map""",,,-0.00203087343834,0.00432712305337,0.0479415841401,,0.00887924236437,-0.0104074307858,0.0396632190218,-0.999119450927
103216000000,,209,,103,216000000,"""map""",,,-0.00207423605025,0.00421720463783,0.0476985499263,,0.00883692561138,-0.0103979727696,0.0395471887479,-0.999124550695
103248000000,,210,,103,248000000,"""map""",,,-0.00236895284615,0.00403025606647,0.0472677908838,,0.00880107518922,-0.0104278620469,0.0394910912925,-0.999126784478
103280000000,,211,,103,280000000,"""map""",,,-0.00270476285368,0.00384923187084,0.0467509664595,,0.00880280930155,-0.0104224295486,0.0393786435007,-0.999131252044
103316000000,,212,,103,316000000,"""map""",,,-0.00303683965467,0.00365290767513,0.046303331852,,0.00880849064734,-0.0104529141501,0.0392625289331,-0.999135424582
103348000000,,213,,103,348000000,"""map""",,,-0.00324072199874,0.00351762142964,0.0458778776228,,0.00876023135334,-0.0104524806632,0.0392189912385,-0.999137574071
103380000000,,214,,103,380000000,"""map""",,,-0.00337526365183,0.00343380402774,0.0456281416118,,0.00879133885563,-0.0104885130905,0.0391060798314,-0.999141409435
103416000000,,215,,103,416000000,"""map""",,,-0.00346846249886,0.0033877810929,0.0453808456659,,0.00876630165198,-0.0104798578401,0.0390013449128,-0.99914575056
103448000000,,216,,103,448000000,"""map""",,,-0.00357757299207,0.00321291573346,0.0447337627411,,0.00878125390503,-0.0105202101548,0.0389736544334,-0.999146298469
103480000000,,217,,103,480000000,"""map""",,,-0.00366737693548,0.00299779325724,0.0438656061888,,0.00875247616858,-0.0103164070932,0.0389204651105,-0.999150766035
103516000000,,218,,103,516000000,"""map""",,,-0.00369575014338,0.00272788736038,0.0427603498101,,0.00874369274888,-0.0103461598871,0.0387631730719,-0.999156666594
103548000000,,219,,103,548000000,"""map""",,,-0.00364296790212,0.00248053926043,0.0418938286602,,0.00874186438238,-0.0104060429033,0.0387090565184,-0.999158099587
103580000000,,220,,103,580000000,"""map""",,,-0.00355322635733,0.00222638435662,0.0410979688168,,0.00879107815432,-0.0104763799842,0.0386668253762,-0.999158605349
103616000000,,221,,103,616000000,"""map""",,,-0.00341839459725,0.00198811967857,0.0404410846531,,0.00884835917881,-0.0104428908557,0.0385966087266,-0.99916113416
103648000000,,222,,103,648000000,"""map""",,,-0.00364213506691,0.00168570922688,0.03984856233,,0.00887877734963,-0.0104412629337,0.03853250337,-0.999163367943
103680000000,,223,,103,680000000,"""map""",,,-0.00389919942245,0.00134677509777,0.0393240787089,,0.00886929035745,-0.0104856567361,0.0383900048752,-0.999168467711
103716000000,,224,,103,716000000,"""map""",,,-0.00409142673016,0.000935030984692,0.038659196347,,0.00886313033212,-0.010473463126,0.0382215860685,-0.999175126914
103748000000,,225,,103,748000000,"""map""",,,-0.00419599283487,0.000599002756644,0.0380107276142,,0.00884898100946,-0.0104884751419,0.0381824737931,-0.999176559906
103780000000,,226,,103,780000000,"""map""",,,-0.00428382586688,0.000226211472182,0.0373529419303,,0.0088637604769,-0.0105100618193,0.0380557803665,-0.999181111766
103816000000,,227,,103,816000000,"""map""",,,-0.00435280473903,-0.00016013981076,0.0367139317095,,0.00888434237999,-0.0105326646309,0.0379681992153,-0.999183977752
103848000000,,228,,103,848000000,"""map""",,,-0.00486715557054,-0.000451219209936,0.0360668450594,,0.00883378377785,-0.0104894965445,0.0378936414403,-0.999187728821
103880000000,,229,,103,880000000,"""map""",,,-0.00560067361221,-0.000757282308768,0.0351957678795,,0.00882882913592,-0.0105274429491,0.0378738324215,-0.99918815029
103916000000,,230,,103,916000000,"""map""",,,-0.00613288674504,-0.00101160339545,0.0345256850123,,0.00877808128455,-0.0104624463349,0.0377762624672,-0.999192912884
103948000000,,231,,103,948000000,"""map""",,,-0.00660691736266,-0.00128151569515,0.0338754467666,,0.00875197674489,-0.0104797961839,0.0377510165049,-0.999193966555
103980000000,,232,,103,980000000,"""map""",,,-0.00703196274117,-0.00155655143317,0.0332144983113,,0.00871725235153,-0.0104723381673,0.0376824857292,-0.999196916834
104016000000,,233,,104,16000000,"""map""",,,-0.00743699911982,-0.00182638317347,0.0324695631862,,0.00870022551864,-0.0104100657047,0.037650285537,-0.999198939883
104048000000,,234,,104,48000000,"""map""",,,-0.00784711074084,-0.00201017782092,0.032157458365,,0.00869172148645,-0.0104279197518,0.0375962532772,-0.999200794344
104080000000,,235,,104,80000000,"""map""",,,-0.00820892676711,-0.00215694657527,0.0320538692176,,0.0086990774286,-0.0103719461028,0.0375074498674,-0.999204714001
104116000000,,236,,104,116000000,"""map""",,,-0.00858744326979,-0.00234116381034,0.0319098643959,,0.0087247833842,-0.0103726490991,0.0374685483262,-0.99920593626
104148000000,,237,,104,148000000,"""map""",,,-0.00881699193269,-0.00249512353912,0.0316937677562,,0.00874321620962,-0.0103322801561,0.0374590652853,-0.999206484169
104180000000,,238,,104,180000000,"""map""",,,-0.00901336688548,-0.00263599050231,0.0315988212824,,0.00873965331919,-0.0102917021253,0.0373733807422,-0.999210150945
104216000000,,239,,104,216000000,"""map""",,,-0.00916169211268,-0.00279829371721,0.0315774455667,,0.00869968411273,-0.0103530542719,0.0373535295766,-0.99921061456
104248000000,,240,,104,248000000,"""map""",,,-0.00939516443759,-0.00286963232793,0.0314819589257,,0.00870988496716,-0.0103257101868,0.0373384410048,-0.999211373203
104280000000,,241,,104,280000000,"""map""",,,-0.00963091291487,-0.00294368783943,0.0313823074102,,0.00868772807255,-0.0102864024883,0.0372742935014,-0.999214407776
104316000000,,242,,104,316000000,"""map""",,,-0.00989332702011,-0.00311725726351,0.0313364975154,,0.00873664936842,-0.0102749392041,0.0372170580811,-0.999216177944
104348000000,,243,,104,348000000,"""map""",,,-0.0100684547797,-0.0032937543001,0.0312565788627,,0.00870480264992,-0.0102249946947,0.0371883982241,-0.999218032405
104380000000,,244,,104,380000000,"""map""",,,-0.0102016068995,-0.00347099779174,0.0311901494861,,0.00874939763764,-0.0102678254417,0.0370933570807,-0.99922077195
104416000000,,245,,104,416000000,"""map""",,,-0.0103135686368,-0.00363200390711,0.0310686063021,,0.00897238089036,-0.0102598991176,0.0369871048756,-0.999222837146
104448000000,,246,,104,448000000,"""map""",,,-0.0102487262338,-0.00368041102774,0.0309233106673,,0.00896394641694,-0.0102863355637,0.0369499735021,-0.999223975111
104480000000,,247,,104,480000000,"""map""",,,-0.0100889820606,-0.00371434749104,0.0310063026845,,0.00895627408531,-0.0102123101808,0.036899355137,-0.999226714656
104516000000,,248,,104,516000000,"""map""",,,-0.00986752379686,-0.003824244719,0.0310767386109,,0.00899261989757,-0.0102743390642,0.0368062527487,-0.99922920132
104548000000,,249,,104,548000000,"""map""",,,-0.00967099890113,-0.00396004458889,0.0309822391719,,0.00903103082308,-0.0102599992576,0.0367691213751,-0.999230339285
104580000000,,250,,104,580000000,"""map""",,,-0.00943974498659,-0.00410314043984,0.030908677727,,0.00900944834392,-0.0102861019862,0.0367023186203,-0.999232741655
104616000000,,251,,104,616000000,"""map""",,,-0.00919105671346,-0.00424045557156,0.030929043889,,0.00900491945102,-0.0103794882896,0.0366524167516,-0.999233584592
104648000000,,252,,104,648000000,"""map""",,,-0.00876451283693,-0.00442302878946,0.030782058835,,0.00898016665628,-0.0103471505438,0.036613093742,-0.999235649788
104680000000,,253,,104,680000000,"""map""",,,-0.00827501993626,-0.00460778968409,0.0306067485362,,0.00893347548024,-0.0103782394834,0.0365718741241,-0.999237251368
104716000000,,254,,104,716000000,"""map""",,,-0.00765640940517,-0.00482314731926,0.0303385481238,,0.00885919396464,-0.0104005341785,0.036514048648,-0.999239780179
104748000000,,255,,104,748000000,"""map""",,,-0.00714930752292,-0.0050084721297,0.030014174059,,0.00886563642324,-0.0103949886575,0.0364321994682,-0.999242730459
104780000000,,256,,104,780000000,"""map""",,,-0.00664977682754,-0.00519719906151,0.0296933241189,,0.00881681753105,-0.0103937594842,0.0363595383013,-0.999245849325
104816000000,,257,,104,816000000,"""map""",,,-0.00617724144831,-0.00539059564471,0.0294296368957,,0.00883710440621,-0.0104051709903,0.0363502238478,-0.999245891472
104848000000,,258,,104,848000000,"""map""",,,-0.00579198636115,-0.00544193480164,0.0295277964324,,0.00883105674504,-0.0103754675873,0.0363102686354,-0.999247745934
104880000000,,259,,104,880000000,"""map""",,,-0.00544150592759,-0.00545982271433,0.0296821277589,,0.00890514711809,-0.0103883669924,0.0361804984888,-0.999251581297
104916000000,,260,,104,916000000,"""map""",,,-0.00500004272908,-0.00548745365813,0.0297621469945,,0.0089002277083,-0.0103694418227,0.0361299222706,-0.999253688639
104948000000,,261,,104,948000000,"""map""",,,-0.00463312352076,-0.00550912274048,0.0298469867557,,0.00887169857239,-0.0103977944687,0.0360834342967,-0.999255332366
104980000000,,262,,104,980000000,"""map""",,,-0.00427755340934,-0.00551603129134,0.0300089288503,,0.008906730753,-0.0103527036793,0.0360338696029,-0.999257271121
105016000000,,263,,105,16000000,"""map""",,,-0.00391988223419,-0.00553802307695,0.0301768165082,,0.00893700033971,-0.0103710294089,0.0359981712222,-0.999258071911
105048000000,,264,,105,48000000,"""map""",,,-0.00366460112855,-0.00544232921675,0.0296151060611,,0.00892321272262,-0.0104032049057,0.0360095930181,-0.999257439709
105080000000,,265,,105,80000000,"""map""",,,-0.00342138763517,-0.00532954186201,0.0288082137704,,0.00894322621949,-0.010352137084,0.0360245972962,-0.999257271121
105116000000,,266,,105,116000000,"""map""",,,-0.00312215113081,-0.00522197037935,0.0276731960475,,0.00898288537497,-0.0103440920162,0.0360408659797,-0.999256428184
105148000000,,267,,105,148000000,"""map""",,,-0.00283678621054,-0.00512658338994,0.0267293937504,,0.00911490893736,-0.0103466077797,0.0360440691402,-0.999255163779
105180000000,,268,,105,180000000,"""map""",,,-0.00249952985905,-0.0050331284292,0.0258652456105,,0.0091182312944,-0.0103433249353,0.0360278847504,-0.999255669541
105216000000,,269,,105,216000000,"""map""",,,-0.00216947472654,-0.00495119765401,0.0250306557864,,0.009075642686,-0.0103465273138,0.0359802588116,-0.999257776883
105248000000,,270,,105,248000000,"""map""",,,-0.00220928504132,-0.0045232786797,0.0241404548287,,0.00903944792739,-0.0103536354786,0.0359737681969,-0.999258282646
105280000000,,271,,105,280000000,"""map""",,,-0.00233656400815,-0.00400252221152,0.023122003302,,0.00896614167506,-0.0103446631801,0.0359292611249,-0.999260642869
105316000000,,272,,105,316000000,"""map""",,,-0.00242589577101,-0.00342420279048,0.0217477455735,,0.00903611898491,-0.0103733411059,0.0358912025207,-0.999261022191
105348000000,,273,,105,348000000,"""map""",,,-0.00244275992736,-0.00301887025125,0.0206834301353,,0.00903172538174,-0.0103358697176,0.0358765775642,-0.999261991568
105380000000,,274,,105,380000000,"""map""",,,-0.00242218095809,-0.0026497640647,0.0197945404798,,0.00901082268515,-0.0102495745392,0.03579679358,-0.999265911225
105416000000,,275,,105,416000000,"""map""",,,-0.00237434823066,-0.00230305385776,0.0188810843974,,0.00902215656541,-0.0102164612749,0.0357655206184,-0.999267259924
105448000000,,276,,105,448000000,"""map""",,,-0.0023855662439,-0.00196911161765,0.0181205328554,,0.00901633396182,-0.0102512980325,0.0357525815359,-0.999267470659
105480000000,,277,,105,480000000,"""map""",,,-0.00242290552706,-0.00164999510162,0.0174137353897,,0.00898274370558,-0.0101719004904,0.0356950510877,-0.999270631672
105516000000,,278,,105,516000000,"""map""",,,-0.00242833117954,-0.0013164706761,0.0165420752019,,0.00903204020718,-0.0102125071679,0.0356374784926,-0.999271811784
105548000000,,279,,105,548000000,"""map""",,,-0.00237725488842,-0.00105912180152,0.0158727969974,,0.00902361124907,-0.0102053233528,0.0355737524577,-0.999274256301
105580000000,,280,,105,580000000,"""map""",,,-0.00228142994456,-0.000839581829496,0.0151059543714,,0.00901989269518,-0.0101730392785,0.0355378433427,-0.999275857881
105616000000,,281,,105,616000000,"""map""",,,-0.00213209330104,-0.000648619548883,0.0142951048911,,0.0090154650535,-0.010131359585,0.0355104478912,-0.999277290874
105648000000,,282,,105,648000000,"""map""",,,-0.00230992725119,-0.000369375629816,0.0129256164655,,0.00901614936356,-0.0100402083817,0.0354911024878,-0.999278934601
105680000000,,283,,105,680000000,"""map""",,,-0.00251989415847,-6.24253516435e-05,0.0116193471476,,0.0090153563525,-0.010048137381,0.0354382503397,-0.999280704769
105716000000,,284,,105,716000000,"""map""",,,-0.00267556216568,0.000347193563357,0.0100594712421,,0.00901529646611,-0.00985337741144,0.0353753250949,-0.999284877307
105748000000,,285,,105,748000000,"""map""",,,-0.00273255165666,0.000637508346699,0.0089701609686,,0.009005581741,-0.0098941306563,0.0353741028363,-0.999284666573
105780000000,,286,,105,780000000,"""map""",,,-0.00278167333454,0.000866262242198,0.00790474470705,,0.00900450341553,-0.00988436407081,0.0353389102178,-0.999285973125
105816000000,,287,,105,816000000,"""map""",,,-0.00281118787825,0.00106813234743,0.00689093815163,,0.00897863434669,-0.00989496149251,0.0352708009106,-0.999288501936
105848000000,,288,,105,848000000,"""map""",,,-0.00283914338797,0.00122743833344,0.00596156669781,,0.00899383890461,-0.00988482904439,0.0352670498411,-0.999288628377
105880000000,,289,,105,880000000,"""map""",,,-0.00283767888322,0.00139148987364,0.005146862939,,0.00905172138602,-0.00993215826775,0.0351704492643,-0.9992909886
105916000000,,290,,105,916000000,"""map""",,,-0.00279560079798,0.00157539569773,0.00421231798828,,0.00902137289744,-0.00996090649318,0.0351024242508,-0.999293433117
105948000000,,291,,105,948000000,"""map""",,,-0.00272316811606,0.00166800490115,0.0034144395031,,0.008981688388,-0.00998857256535,0.0350621318636,-0.99929486611
105980000000,,292,,105,980000000,"""map""",,,-0.00264008482918,0.00176279176958,0.00259623560123,,0.00898764442917,-0.0100545282674,0.0349531401134,-0.999297984977
106016000000,,293,,106,16000000,"""map""",,,-0.00253628171049,0.00182020128705,0.00195751269348,,0.00895398724834,-0.0100566859473,0.0349238480536,-0.999299291529
106048000000,,294,,106,48000000,"""map""",,,-0.00252154679038,0.00167362391949,0.00202619400807,,0.00893819374584,-0.010084956234,0.0348874753234,-0.999300429494
106080000000,,295,,106,80000000,"""map""",,,-0.00253505120054,0.00149690208491,0.00218727020547,,0.00892221152918,-0.0100963391759,0.0347917598304,-0.999303759095
106116000000,,296,,106,116000000,"""map""",,,-0.00249824649654,0.00130124215502,0.00222219061106,,0.00892657150541,-0.0100912179222,0.0347943307882,-0.999303716948
106148000000,,297,,106,148000000,"""map""",,,-0.00243566022255,0.00115991919301,0.00215188832954,,0.00889056043956,-0.0100993857262,0.0347571572678,-0.999305234235
106180000000,,298,,106,180000000,"""map""",,,-0.00234752614051,0.00103523209691,0.00207272684202,,0.00892070745468,-0.0100322113876,0.0347483064296,-0.999305908584
106216000000,,299,,106,216000000,"""map""",,,-0.00224702735431,0.000930951209739,0.00198802142404,,0.00891520848456,-0.00997673308754,0.0347130716642,-0.999307763046
106248000000,,300,,106,248000000,"""map""",,,-0.00210280297324,0.00126517913304,0.00221188808791,,0.00887111176808,-0.00996005668265,0.0347065389027,-0.999308563836
106280000000,,301,,106,280000000,"""map""",,,-0.00193244381808,0.00171619292814,0.00255165901035,,0.00881286400026,-0.0098846383546,0.0346180726677,-0.999312904961
106316000000,,302,,106,316000000,"""map""",,,-0.00165854895022,0.00226102233864,0.00288398587145,,0.00878302135617,-0.00993765649701,0.0345626917088,-0.999314590835
106348000000,,303,,106,348000000,"""map""",,,-0.00140436168294,0.00266560260206,0.00312566081993,,0.00877716269728,-0.00988047137307,0.0345313766003,-0.999316234562
106380000000,,304,,106,380000000,"""map""",,,-0.0011189780198,0.00302062905394,0.00336762960069,,0.00883718277301,-0.0098846672894,0.0344891876049,-0.999317119646
106416000000,,305,,106,416000000,"""map""",,,-0.000834435224533,0.00333940773271,0.00357556017116,,0.00876571875777,-0.00984467001248,0.0344760377882,-0.999318636933
106448000000,,306,,106,448000000,"""map""",,,-0.000691246299539,0.00355915888213,0.00363222067244,,0.00872898358107,-0.00985520697156,0.0344928543808,-0.999318257611
106480000000,,307,,106,480000000,"""map""",,,-0.000569247000385,0.003737463383,0.0036125110928,,0.0087534638207,-0.00978955584638,0.0344647845797,-0.99931960631
106516000000,,308,,106,516000000,"""map""",,,-0.000351078982931,0.00391815649346,0.00352381891571,,0.00874859026207,-0.00976616994308,0.0344534892243,-0.999320364953
106548000000,,309,,106,548000000,"""map""",,,-0.000109172971861,0.00403729220852,0.00347298313864,,0.00875812232339,-0.00969424210672,0.0344536578117,-0.999320955009
106580000000,,310,,106,580000000,"""map""",,,0.000187519326573,0.00413951370865,0.00359526043758,,0.00874041916529,-0.00965816061776,0.0344430789527,-0.999321840093
106616000000,,311,,106,616000000,"""map""",,,0.00048464036081,0.00426491023973,0.0037118808832,,0.00879751567384,-0.00961077764071,0.0344439640365,-0.999321713653
106648000000,,312,,106,648000000,"""map""",,,0.000646421860438,0.00452626077458,0.00393119268119,,0.00892173239689,-0.00960778183943,0.0343935564057,-0.999322388002
106684000000,,313,,106,680000000,"""map""",,,0.000721055199392,0.00479206908494,0.00426813680679,,0.00892275927357,-0.00965607467804,0.0343685633245,-0.999322767324
106716000000,,314,,106,716000000,"""map""",,,0.00076978537254,0.0051000257954,0.0046551944688,,0.00891736200742,-0.00962236362004,0.0343257421264,-0.999324621785
106748000000,,315,,106,748000000,"""map""",,,0.000843907531817,0.00532140908763,0.00505818612874,,0.00893519872658,-0.00958515252145,0.0343311790699,-0.999324579638
106780000000,,316,,106,780000000,"""map""",,,0.000941107806284,0.00551403453574,0.00552807655185,,0.00885432238164,-0.00956825608038,0.0343159219107,-0.999326012631
106816000000,,317,,106,816000000,"""map""",,,0.00104182306677,0.00569326477125,0.00596520584077,,0.00886373532873,-0.00958905583823,0.0343275122941,-0.999325380428
106848000000,,318,,106,848000000,"""map""",,,0.00103009946179,0.00580224394798,0.00644389586523,,0.0087928585294,-0.00954215195231,0.0342893693962,-0.999327782799
106880000000,,319,,106,880000000,"""map""",,,0.0010602620896,0.00589318759739,0.00685570016503,,0.00878061824495,-0.00957291445959,0.0342547246867,-0.999328710029
106916000000,,320,,106,916000000,"""map""",,,0.0011723380303,0.00603252416477,0.00728358887136,,0.00874247670529,-0.00953207939058,0.034253797456,-0.999329468673
106948000000,,321,,106,948000000,"""map""",,,0.0013046717504,0.00616716220975,0.00745411822572,,0.00877624970763,-0.00952285561041,0.0342363908076,-0.999329932288
106980000000,,322,,106,980000000,"""map""",,,0.00145881727803,0.00630261283368,0.00753137096763,,0.00884482522318,-0.00952813454434,0.0342646291961,-0.999328246414
107016000000,,323,,107,16000000,"""map""",,,0.00160473375581,0.00641781743616,0.00755425076932,,0.00886846649769,-0.00946639647005,0.0342857026203,-0.999327909239
107048000000,,324,,107,48000000,"""map""",,,0.00174971797969,0.00652649672702,0.00758805684745,,0.00886993171806,-0.0094664274628,0.0342827101941,-0.99932803568
107080000000,,325,,107,80000000,"""map""",,,0.00192125630565,0.00662168022245,0.00746739841998,,0.00887103681748,-0.00936862959036,0.0341898606868,-0.999332123924
107116000000,,326,,107,116000000,"""map""",,,0.00217242678627,0.00673276279122,0.00711903255433,,0.00886074000077,-0.00934975683663,0.0342074780695,-0.999331786749
107148000000,,327,,107,148000000,"""map""",,,0.00181937101297,0.00669600954279,0.00652389926836,,0.00890583253945,-0.00909604661745,0.0341958876862,-0.999334104826
107180000000,,328,,107,180000000,"""map""",,,0.00139296823181,0.0066377366893,0.00612337328494,,0.00895724552077,-0.00912225891146,0.0341610743893,-0.999334610588
107216000000,,329,,107,216000000,"""map""",,,0.00101432204247,0.00657334225252,0.00573391700163,,0.00888181220055,-0.00917060102771,0.0340855893836,-0.999337434427
107248000000,,330,,107,248000000,"""map""",,,0.000709850690328,0.00649944460019,0.00535383215174,,0.00895670461907,-0.00913891439727,0.0341183374849,-0.999335959287
107280000000,,331,,107,280000000,"""map""",,,0.000459945236798,0.00644565559924,0.00501197762787,,0.00898221828996,-0.00918826538314,0.034061270652,-0.999337139399
107316000000,,332,,107,316000000,"""map""",,,0.000215171778109,0.00637292955071,0.00470809172839,,0.00900685090033,-0.00921674043607,0.0339998626937,-0.999338783126
107348000000,,333,,107,348000000,"""map""",,,0.000411847606301,0.00628974149004,0.0043473187834,,0.00904348668825,-0.0092445735213,0.0339643329004,-0.999339415329
107380000000,,334,,107,380000000,"""map""",,,0.000743293203413,0.00621069641784,0.00397936394438,,0.00903788612735,-0.0092612889964,0.0339903796528,-0.999338403805
107416000000,,335,,107,416000000,"""map""",,,0.00104903476313,0.00616144808009,0.00357494689524,,0.00896379659806,-0.0092107318554,0.0339671567393,-0.999340300413
107448000000,,336,,107,448000000,"""map""",,,0.00135084369686,0.00614472385496,0.00305985705927,,0.00894600384704,-0.00922402543035,0.0339464626367,-0.999341101203
107480000000,,337,,107,480000000,"""map""",,,0.00164902792312,0.00615441333503,0.00255752308294,,0.00886804064577,-0.00921527544208,0.0339098791722,-0.999343124252
107516000000,,338,,107,516000000,"""map""",,,0.00204560765997,0.00621378608048,0.00178168411367,,0.0089313908576,-0.00924216821835,0.0339031356764,-0.999342534196
107548000000,,339,,107,548000000,"""map""",,,0.00205173180439,0.00620648358017,0.0014816763578,,0.00897626928699,-0.00918253180654,0.0338708511904,-0.999343714308
107580000000,,340,,107,580000000,"""map""",,,0.00199433835223,0.00616868026555,0.00123513233848,,0.00890437398684,-0.00919755388589,0.0338424863614,-0.999345189447
107616000000,,341,,107,616000000,"""map""",,,0.00196742708795,0.00615244964138,0.000866280752234,,0.00892026329728,-0.00918956579246,0.0338206964407,-0.999345905944
107648000000,,342,,107,648000000,"""map""",,,0.00197147158906,0.00612623011693,0.00047915140749,,0.00888142417377,-0.00922240557549,0.0337814155779,-0.999347254643
107680000000,,343,,107,680000000,"""map""",,,0.00201008352451,0.00610835244879,1.26913291751e-05,,0.00889520919785,-0.00923069101206,0.0337189539484,-0.999349193398
107716000000,,344,,107,716000000,"""map""",,,0.00208168360405,0.00610905233771,-0.000649516121484,,0.00893889056825,-0.00921851177674,0.0336801788478,-0.999350204922
107748000000,,345,,107,748000000,"""map""",,,0.00209627905861,0.00606245594099,-0.00135621940717,,0.00897202665515,-0.00928205265779,0.0336523197809,-0.999350247069
107780000000,,346,,107,780000000,"""map""",,,0.00210668053478,0.00601168209687,-0.00205961382017,,0.00896768962508,-0.00921393793818,0.0335670988532,-0.999353787404
107816000000,,347,,107,816000000,"""map""",,,0.00216480437666,0.00596282444894,-0.00278603099287,,0.00900623083951,-0.00927146783075,0.0334962921477,-0.999355304691
107848000000,,348,,107,848000000,"""map""",,,0.00223680306226,0.00596045190468,-0.0033892930951,,0.00902635766778,-0.00921995740541,0.0334833530652,-0.999356021187
107880000000,,349,,107,880000000,"""map""",,,0.00231882487424,0.00598112307489,-0.00398081401363,,0.00904606015671,-0.00924385319708,0.033446685307,-0.999356779831
107916000000,,350,,107,916000000,"""map""",,,0.00247979233973,0.00599671620876,-0.00467591127381,,0.00909115914192,-0.00922699786873,0.0334250639737,-0.99935732774
107948000000,,351,,107,948000000,"""map""",,,0.00253577204421,0.00594759592786,-0.00503244251013,,0.00910187461801,-0.00921582536275,0.0334239681557,-0.99935732774
107980000000,,352,,107,980000000,"""map""",,,0.00258696242236,0.00584748666734,-0.00529351597652,,0.00910487932508,-0.00920129744388,0.0334289414838,-0.99935732774
108016000000,,353,,108,16000000,"""map""",,,0.00264798663557,0.00578854931518,-0.00553357275203,,0.00914437108806,-0.00918713330268,0.0334121248913,-0.999357622768
108052000000,,354,,108,52000000,"""map""",,,0.00272577232681,0.00573910214007,-0.00571594433859,,0.00912335639774,-0.00916637783195,0.0333883962155,-0.999358845026
108080000000,,355,,108,80000000,"""map""",,,0.00281605659984,0.00574109284207,-0.0059500336647,,0.00916298100937,-0.00916785561724,0.033316493692,-0.999360868075
108116000000,,356,,108,116000000,"""map""",,,0.00301152374595,0.00576835498214,-0.00629309518263,,0.00911428941419,-0.00914256500531,0.0332885503314,-0.999362427508
108148000000,,357,,108,148000000,"""map""",,,0.00305830012076,0.00584055203944,-0.0065359887667,,0.00912124238755,-0.00916198673949,0.0332889296531,-0.999362216774
108180000000,,358,,108,180000000,"""map""",,,0.00305829290301,0.00592475058511,-0.00674170767888,,0.00912518594886,-0.00910269251228,0.0332706379208,-0.999363312592
108216000000,,359,,108,216000000,"""map""",,,0.00311240460724,0.00605822214857,-0.00704958196729,,0.00930322462705,-0.00911059255883,0.0332364989735,-0.999362722536
108248000000,,360,,108,248000000,"""map""",,,0.00320196757093,0.00621673138812,-0.00732458988205,,0.00926686522202,-0.00912924106786,0.033175723218,-0.999364914172
108280000000,,361,,108,280000000,"""map""",,,0.00333013152704,0.00639622891322,-0.00762705598027,,0.00922496684544,-0.0091749458317,0.033142047886,-0.999365967844
108316000000,,362,,108,316000000,"""map""",,,0.00350534380414,0.00666241766885,-0.00796595867723,,0.00925227751323,-0.00923204739895,0.0330966135833,-0.999366726487
108348000000,,363,,108,348000000,"""map""",,,0.00360093521886,0.00666040973738,-0.0079805618152,,0.00927442690789,-0.00921092138245,0.0330467960084,-0.999368328067
108380000000,,364,,108,380000000,"""map""",,,0.00369228888303,0.0066074738279,-0.00803701300174,,0.00927477065783,-0.00917787826351,0.0330456158966,-0.999368665242
108416000000,,365,,108,416000000,"""map""",,,0.00377220241353,0.00656460551545,-0.00810039974749,,0.00933046876769,-0.00921442511706,0.0330286307167,-0.999368454508
108448000000,,366,,108,448000000,"""map""",,,0.00388300931081,0.00650427676737,-0.00808226689696,,0.00929361011133,-0.00921162358898,0.0329864838681,-0.999370140382
108480000000,,367,,108,480000000,"""map""",,,0.00404001446441,0.00645048869774,-0.00815704837441,,0.00928203369891,-0.00925622864265,0.0329544522633,-0.999370899025
108516000000,,368,,108,516000000,"""map""",,,0.00427704118192,0.00638325046748,-0.00821337755769,,0.00915766984004,-0.00920380359417,0.0328975540178,-0.99937443936
108548000000,,369,,108,548000000,"""map""",,,0.00440150825307,0.00635597947985,-0.00760655943304,,0.00914302724439,-0.00921804974603,0.0328760169782,-0.999375155857
108580000000,,370,,108,580000000,"""map""",,,0.00449626613408,0.0063608372584,-0.00674674706534,,0.00905921277741,-0.009210734824,0.0328318892278,-0.99937738964
108616000000,,371,,108,616000000,"""map""",,,0.00458448054269,0.00638623116538,-0.00592570286244,,0.00907207182102,-0.00924580728385,0.0327384918115,-0.999380002744
108648000000,,372,,108,648000000,"""map""",,,0.0047066109255,0.00640239100903,-0.00517387036234,,0.00902249691973,-0.00925946121641,0.0326641026239,-0.999382826583
108680000000,,373,,108,680000000,"""map""",,,0.00484748417512,0.00645022839308,-0.00443344144151,,0.0090083010462,-0.00920741673206,0.032641806941,-0.999384133135
108716000000,,374,,108,716000000,"""map""",,,0.00504439650103,0.0065184594132,-0.00345058692619,,0.0089970505953,-0.00918172415315,0.0326043383927,-0.999385692569
108748000000,,375,,108,748000000,"""map""",,,0.00525235245004,0.0065809735097,-0.00262033753097,,0.00898729587391,-0.00919123653016,0.0325889969398,-0.999386198331
108780000000,,376,,108,780000000,"""map""",,,0.00543435709551,0.00665104342625,-0.00189975067042,,0.00897513254656,-0.00898928464746,0.0325610114324,-0.999389064317
108816000000,,377,,108,816000000,"""map""",,,0.00565295806155,0.00672802049667,-0.00123703642748,,0.00901327224435,-0.00896982522318,0.032581157626,-0.99938822138
108848000000,,378,,108,848000000,"""map""",,,0.00587639492005,0.00682811066508,-0.000666844309308,,0.00900578849825,-0.00895582197907,0.032570578767,-0.999388769289
108880000000,,379,,108,880000000,"""map""",,,0.0061216908507,0.00693661253899,-0.000160464376677,,0.00899058743114,-0.00895533783309,0.0326196376987,-0.999387336296
108916000000,,380,,108,916000000,"""map""",,,0.00647938903421,0.00706132501364,0.000381558813388,,0.00896361268086,-0.00898085193165,0.0326179518248,-0.999387420589
108948000000,,381,,108,944000000,"""map""",,,0.00641422439367,0.00696645956486,0.000990986125544,,0.00895292237673,-0.00898799926633,0.0326465273881,-0.999386493359
108980000000,,382,,108,980000000,"""map""",,,0.00626856507733,0.00683299126104,0.00158104347065,,0.008972023547,-0.00895592872051,0.0326563476038,-0.999386282625
109016000000,,383,,109,16000000,"""map""",,,0.00615746248513,0.00674574635923,0.00217336392961,,0.00901817608702,-0.00897715055202,0.0326196798456,-0.99938687268
109048000000,,384,,109,48000000,"""map""",,,0.00608265819028,0.00669831829146,0.00267842924222,,0.00903510619104,-0.00900008082998,0.0326015567007,-0.999387125562
109080000000,,385,,109,80000000,"""map""",,,0.00605476461351,0.00667567364872,0.00311287981458,,0.00905044039284,-0.00904860437203,0.03259675196,-0.999386704093
109116000000,,386,,109,116000000,"""map""",,,0.00608824985102,0.00669364910573,0.0034818276763,,0.00906413375896,-0.00905611877324,0.0325932537715,-0.999386577653
109148000000,,387,,109,148000000,"""map""",,,0.00606007035822,0.00654243724421,0.00364744151011,,0.00901861706939,-0.00903856928946,0.0326047177143,-0.999386830534
109180000000,,388,,109,180000000,"""map""",,,0.00605239532888,0.00637605506927,0.00375156290829,,0.00903079430013,-0.00904880101124,0.0325398958613,-0.999388684995
109216000000,,389,,109,216000000,"""map""",,,0.00608634343371,0.00624766061082,0.00384229887277,,0.00906234957925,-0.00901088024091,0.0325594098522,-0.999388137086
109248000000,,390,,109,248000000,"""map""",,,0.00616203993559,0.00619270186871,0.00394325470552,,0.00907423412876,-0.00899162526127,0.0325310028763,-0.999389064317
109280000000,,391,,109,280000000,"""map""",,,0.00628169765696,0.00619440944865,0.00405449280515,,0.00901468490206,-0.00895397463567,0.0325370298756,-0.999389780813
109316000000,,392,,109,316000000,"""map""",,,0.00650055753067,0.00630123354495,0.00415037060156,,0.00899125834136,-0.00894408147845,0.0324906683423,-0.999391550981
109348000000,,393,,109,348000000,"""map""",,,0.00654984498397,0.00634576007724,0.00440520001575,,0.00895319713127,-0.00891019274977,0.0324768441759,-0.999392731092
109380000000,,394,,109,380000000,"""map""",,,0.0066181095317,0.00637530675158,0.00478088809177,,0.00891966244937,-0.00891608700158,0.0324013591703,-0.999395386344
109416000000,,395,,109,416000000,"""map""",,,0.0067105521448,0.00642414949834,0.00502141797915,,0.00889407392114,-0.00891197517251,0.0324086505751,-0.999395428491
109448000000,,396,,109,448000000,"""map""",,,0.00682166963816,0.00648033013567,0.00516226189211,,0.0088727547929,-0.00894752544757,0.0323708869988,-0.999396524309
109480000000,,397,,109,480000000,"""map""",,,0.00693709263578,0.0065630953759,0.00526111572981,,0.00889505585987,-0.00892996063269,0.0323058965584,-0.999398547357
109516000000,,398,,109,516000000,"""map""",,,0.00711397174746,0.00671614706516,0.0054170419462,,0.00896727930555,-0.00891825611021,0.032332154045,-0.999397156511
109548000000,,399,,109,548000000,"""map""",,,0.00730888685212,0.00670966133475,0.00573419686407,,0.00898620310162,-0.00895466585788,0.0323328705414,-0.999396692896
109580000000,,400,,109,580000000,"""map""",,,0.00754912244156,0.00669900327921,0.00602514483035,,0.00899830664548,-0.00888837068646,0.0323114599424,-0.999397873008
109616000000,,401,,109,616000000,"""map""",,,0.00782458670437,0.00676013017073,0.00627699773759,,0.00902880480373,-0.00887494331894,0.0322666999893,-0.999399137413
109648000000,,402,,109,648000000,"""map""",,,0.00814014766365,0.00687269773334,0.00631198426709,,0.0090465300488,-0.0088468670713,0.0322538873473,-0.999399643176
109680000000,,403,,109,680000000,"""map""",,,0.00848447531462,0.00703146774322,0.00632809661329,,0.00904864576709,-0.00884846422694,0.0322053763247,-0.999401202609
109716000000,,404,,109,716000000,"""map""",,,0.00892963726074,0.00727159483358,0.00623705098405,,0.00907655135395,-0.00864171902514,0.0322428870199,-0.999401539784
109748000000,,405,,109,748000000,"""map""",,,0.00881749764085,0.0073734424077,0.00642593298107,,0.00908628809914,-0.00862181171857,0.0322192847847,-0.999402382721
109780000000,,406,,109,780000000,"""map""",,,0.00857436936349,0.00750831980258,0.00666046794504,,0.00908949350279,-0.00862217299197,0.0321739769225,-0.999403773567
109816000000,,407,,109,816000000,"""map""",,,0.00838357396424,0.00767111266032,0.0068731661886,,0.00909239391802,-0.00864639539085,0.0321636930915,-0.99940385786
109848000000,,408,,109,848000000,"""map""",,,0.00827046390623,0.00786422938108,0.00705124344677,,0.009102005087,-0.00866121095476,0.0321833335229,-0.999403014923
109880000000,,409,,109,880000000,"""map""",,,0.00820932537317,0.00811444781721,0.00724332267419,,0.00911181865552,-0.00869863083253,0.0320994612944,-0.999405290853
109916000000,,410,,109,916000000,"""map""",,,0.00814788136631,0.00849962886423,0.00735832937062,,0.00907449152963,-0.00876069420723,0.0320771656115,-0.999405838762
109948000000,,411,,109,948000000,"""map""",,,0.00801461096853,0.0088669564575,0.00748610962182,,0.00911342177923,-0.00874231713173,0.0320701692347,-0.999405923056
109980000000,,412,,109,980000000,"""map""",,,0.00784494355321,0.00929254479706,0.0076447702013,,0.00908212214658,-0.00870365694711,0.0319607138691,-0.9994100113
110016000000,,413,,110,16000000,"""map""",,,0.00769040035084,0.00972572434694,0.00775222526863,,0.00907517288653,-0.0087436493364,0.031937912424,-0.999410390622
110048000000,,414,,110,48000000,"""map""",,,0.00752655044198,0.0101658655331,0.00782641489059,,0.00904891885726,-0.00873198832416,0.0319298202291,-0.999411064971
110080000000,,415,,110,80000000,"""map""",,,0.00739739043638,0.010638486594,0.00790254492313,,0.009062725922,-0.00877537980121,0.031940989144,-0.999410179888
110116000000,,416,,110,116000000,"""map""",,,0.0072927060537,0.0112466737628,0.00797007791698,,0.00906517343353,-0.00875942159055,0.0319302416976,-0.999410643503
110148000000,,417,,110,148000000,"""map""",,,0.00710157537833,0.0111999846995,0.00812753662467,,0.00905987444486,-0.00876472189631,0.0319161646502,-0.999411064971
110180000000,,418,,110,180000000,"""map""",,,0.0069081611,0.0110502587631,0.00822625122964,,0.00911478659214,-0.00874733493218,0.0319367323123,-0.999410053447
110216000000,,419,,110,216000000,"""map""",,,0.00675959466025,0.0109799001366,0.00830223597586,,0.00910263265934,-0.00866988071379,0.0318268554782,-0.999414394573
110248000000,,420,,110,248000000,"""map""",,,0.00664157792926,0.0109617486596,0.00831938162446,,0.00915122373629,-0.00863547600262,0.031801609516,-0.999415026775
110280000000,,421,,110,280000000,"""map""",,,0.00652469741181,0.0109678860754,0.00833707116544,,0.0091152372218,-0.00857825344454,0.0317625393874,-0.999417091971
110316000000,,422,,110,316000000,"""map""",,,0.00639409292489,0.0110372295603,0.00840877834707,,0.00913191375017,-0.00859523776015,0.0316615976852,-0.999420000103
110348000000,,423,,110,348000000,"""map""",,,0.00635271379724,0.0109472228214,0.00841417256743,,0.00914677034963,-0.00856725373447,0.0316609654825,-0.999420126544
110380000000,,424,,110,380000000,"""map""",,,0.00637921271846,0.010886631906,0.00831359066069,,0.00913451533025,-0.00856351139066,0.0315632269408,-0.999423371851
110416000000,,425,,110,416000000,"""map""",,,0.00641498761252,0.01090111956,0.00807209964842,,0.00911024203823,-0.00838883970391,0.0315456938518,-0.999425647781
110448000000,,426,,110,448000000,"""map""",,,0.00652355747297,0.0110141588375,0.00794083159417,,0.00910799380844,-0.00839578072187,0.0315079724224,-0.999426785746
110480000000,,427,,110,480000000,"""map""",,,0.00663863960654,0.0111843813211,0.0077498126775,,0.00908853886021,-0.00847865614039,0.0315194363652,-0.999425858515
110516000000,,428,,110,516000000,"""map""",,,0.00680984184146,0.0114158364013,0.00751002551988,,0.00909470343361,-0.00847646917582,0.0314946118714,-0.999426659305
110548000000,,429,,110,548000000,"""map""",,,0.00722332391888,0.0113985100761,0.00711004296318,,0.00908027066927,-0.00850771326436,0.0314938532281,-0.999426490718
110580000000,,430,,110,580000000,"""map""",,,0.00771163450554,0.0113763166592,0.00663736416027,,0.00908358355974,-0.00853839049012,0.031449936212,-0.999427586536
110616000000,,431,,110,616000000,"""map""",,,0.0081969872117,0.0114400275052,0.00613516289741,,0.00912626835679,-0.00853992300551,0.0313904670087,-0.999429061676
110648000000,,432,,110,648000000,"""map""",,,0.00870161131024,0.0115390541032,0.00571054778993,,0.00911079607995,-0.00855802682621,0.0313449905592,-0.999430452522
110680000000,,433,,110,680000000,"""map""",,,0.0091691268608,0.0116721279919,0.00531307328492,,0.00914620828189,-0.0085622761258,0.031392616498,-0.99942859806
110716000000,,434,,110,716000000,"""map""",,,0.00969765614718,0.0118897827342,0.004807847552,,0.00916176193014,-0.00858681071594,0.0313428410699,-0.999429820319
110748000000,,435,,110,748000000,"""map""",,,0.0099016437307,0.0119559168816,0.00441937660798,,0.00917237357229,-0.00861600018677,0.0312873758173,-0.999431253312
110780000000,,436,,110,780000000,"""map""",,,0.0100676901639,0.0120318690315,0.00409550918266,,0.00916256311127,-0.00863253175303,0.0312560607088,-0.999432138396
110816000000,,437,,110,816000000,"""map""",,,0.0102336248383,0.0121674770489,0.00378092634492,,0.00919016232059,-0.00857870271595,0.0312467041085,-0.999432644158
110848000000,,438,,110,848000000,"""map""",,,0.0104281418025,0.0123388031498,0.00345068238676,,0.00915257554295,-0.00858053711226,0.0312563135899,-0.999432728452
110880000000,,439,,110,880000000,"""map""",,,0.0106625389308,0.0125705227256,0.00323321321048,,0.00922594227848,-0.0085814449776,0.0312354087531,-0.999432644158
110916000000,,440,,110,916000000,"""map""",,,0.0109478356317,0.0129104172811,0.00295780063607,,0.00914641951005,-0.00857756966955,0.0312515931429,-0.999432981333
110948000000,,441,,110,948000000,"""map""",,,0.0109797669575,0.0128359459341,0.00295785511844,,0.00918523161265,-0.00860061992094,0.0312091512664,-0.999433697829
110980000000,,442,,110,980000000,"""map""",,,0.010965407826,0.0127098448575,0.00300215324387,,0.00912352998467,-0.00854822476164,0.0312185921605,-0.999434372179
111016000000,,443,,111,16000000,"""map""",,,0.0110202832147,0.0126770334318,0.00309812510386,,0.00917838910883,-0.00857723523184,0.0312045994068,-0.999434119298
111048000000,,444,,111,48000000,"""map""",,,0.0111249471083,0.0127127580345,0.00318783475086,,0.00917161999157,-0.00852040475469,0.0311872770521,-0.999435172969
111080000000,,445,,111,80000000,"""map""",,,0.0112612778321,0.0127965342253,0.0032298984006,,0.00918802328571,-0.00853638999655,0.031175054466,-0.999435257263
111116000000,,446,,111,116000000,"""map""",,,0.0114291487262,0.0130033548921,0.00331577542238,,0.00910406497306,-0.00842798614133,0.0311559619436,-0.999437575339
111148000000,,447,,111,148000000,"""map""",,,0.0114321224391,0.0129633881152,0.00346881174482,,0.00904140219938,-0.00844879314317,0.0311270913524,-0.999438881892
111180000000,,448,,111,180000000,"""map""",,,0.0113949514925,0.0129061862826,0.00358159700409,,0.00901037816761,-0.00840746157276,0.0311285664921,-0.999439429801
111216000000,,449,,111,216000000,"""map""",,,0.0114028574899,0.0129057113081,0.00364906224422,,0.00901123419315,-0.0083695913946,0.0311040370263,-0.999440525619
111248000000,,450,,111,248000000,"""map""",,,0.0114230206236,0.0129389110953,0.00367135298438,,0.0090055553169,-0.00843846551892,0.0311007074252,-0.999440146297
111280000000,,451,,111,280000000,"""map""",,,0.0114644616842,0.013017068617,0.00361476815306,,0.00894872529251,-0.00833634265543,0.0310641239607,-0.999442590814
111316000000,,452,,111,316000000,"""map""",,,0.0115222930908,0.0132175683975,0.00364470528439,,0.00890602224142,-0.00828682840197,0.031066821359,-0.999443349457
111348000000,,453,,111,348000000,"""map""",,,0.0114849507809,0.0131900729612,0.00350736966357,,0.00889783426944,-0.00827329625899,0.0310773159243,-0.999443138723
111380000000,,454,,111,380000000,"""map""",,,0.0114671699703,0.0131224766374,0.0034726804588,,0.00913859332595,-0.00827118056128,0.0310358434254,-0.999442295786
111416000000,,455,,111,416000000,"""map""",,,0.0114563275129,0.01312963292,0.00349889416248,,0.00909708135551,-0.00827726678846,0.0310281726989,-0.999442885842
111448000000,,456,,111,448000000,"""map""",,,0.0114411870018,0.0131705980748,0.00361139583401,,0.00902299394591,-0.00828092154585,0.0310058770161,-0.999444192394
111480000000,,457,,111,480000000,"""map""",,,0.0114557640627,0.0132537735626,0.00370809296146,,0.00910679768581,-0.00838527977694,0.0309599369512,-0.999444023807
111516000000,,458,,111,516000000,"""map""",,,0.0114779165015,0.0134275760502,0.00379640189931,,0.00907743565575,-0.00837594704881,0.0309447219389,-0.999444824597
111548000000,,459,,111,548000000,"""map""",,,0.0112359551713,0.0132573684677,0.0039738714695,,0.00906821156688,-0.00840806214477,0.0309641094892,-0.999444065954
111580000000,,460,,111,580000000,"""map""",,,0.0109124621376,0.0130402585492,0.0041093993932,,0.00896540042147,-0.00837452428398,0.0309717380688,-0.999445035331
111616000000,,461,,111,616000000,"""map""",,,0.010626014322,0.0128876520321,0.00423636846244,,0.00898172660417,-0.00836291064578,0.0309586725457,-0.999445372506
111644000000,,462,,111,644000000,"""map""",,,0.0103574562818,0.0128161367029,0.00432348810136,,0.00895405024224,-0.0084036696529,0.0309558487069,-0.999445330359
111680000000,,463,,111,680000000,"""map""",,,0.0100802965462,0.0128055363894,0.00431609665975,,0.00898657983024,-0.00844000801538,0.0309379784431,-0.999445330359
111716000000,,464,,111,716000000,"""map""",,,0.0097408760339,0.012911179103,0.00422496628016,,0.00896940042081,-0.00843656839625,0.0309075905653,-0.999446384031
111748000000,,465,,111,748000000,"""map""",,,0.0092759700492,0.0129178566858,0.00402329303324,,0.00893206613325,-0.00848790597423,0.0309076327122,-0.999446341884
111780000000,,466,,111,780000000,"""map""",,,0.00876796990633,0.012912703678,0.00377139239572,,0.00890833144832,-0.00848319153642,0.0308728615622,-0.999447648436
111816000000,,467,,111,816000000,"""map""",,,0.0082841925323,0.0129730636254,0.00363577459939,,0.008946805306,-0.0084604911368,0.0308388069086,-0.999448575667
111848000000,,468,,111,848000000,"""map""",,,0.00784539151937,0.0130782900378,0.0035649323836,,0.00895341229783,-0.00848296810462,0.0308042464928,-0.99944933431
111880000000,,469,,111,880000000,"""map""",,,0.00740797910839,0.0132159059867,0.00353099149652,,0.00894000745973,-0.00840450730094,0.0307758395169,-0.999451020184
111916000000,,470,,111,916000000,"""map""",,,0.00692232185975,0.0134150246158,0.00344398198649,,0.00897975473669,-0.00825900041017,0.0307366429478,-0.999453043233
111952000000,,471,,111,948000000,"""map""",,,0.00659440690652,0.0134454201907,0.00344381923787,,0.00900710145593,-0.00815937316283,0.0306831164502,-0.999455319162
111980000000,,472,,111,980000000,"""map""",,,0.00628669606522,0.0134761966765,0.00347262294963,,0.00906925295212,-0.00816264542933,0.0307301101863,-0.999453253967
112016000000,,473,,112,16000000,"""map""",,,0.00598414242268,0.013545062393,0.00341924629174,,0.00908579003369,-0.0081725317876,0.0307132514469,-0.999453591142
112048000000,,474,,112,48000000,"""map""",,,0.00570306787267,0.0136635452509,0.00344207743183,,0.00913017803264,-0.0081592784559,0.030715148055,-0.99945321182
112080000000,,475,,112,80000000,"""map""",,,0.00542047526687,0.0138248493895,0.00347078032792,,0.00909752406205,-0.00814093473979,0.0307442715274,-0.999452748205
112116000000,,476,,112,116000000,"""map""",,,0.00503018917516,0.0140876667574,0.00351110124029,,0.0090826228462,-0.00825269073061,0.0307696017833,-0.999451188771
112148000000,,477,,112,148000000,"""map""",,,0.00469277985394,0.01435850095,0.00357581488788,,0.00906184873042,-0.00828874571315,0.0307985988151,-0.999450177247
112180000000,,478,,112,180000000,"""map""",,,0.00437637325376,0.0146831981838,0.00362294912338,,0.00904847677839,-0.00832877949813,0.0307650077768,-0.999450978037
112216000000,,479,,112,216000000,"""map""",,,0.00406248215586,0.0150283528492,0.00358939729631,,0.00901830885448,-0.00837450092623,0.0307178033065,-0.999452326736
112248000000,,480,,112,248000000,"""map""",,,0.00380089599639,0.0150723867118,0.00378102157265,,0.00905383076582,-0.00841206296729,0.0307273284943,-0.999451399506
112280000000,,481,,112,280000000,"""map""",,,0.00354913575575,0.0150458095595,0.00397059042007,,0.00899791708553,-0.00834444555169,0.0307153166424,-0.999452874645
112316000000,,482,,112,316000000,"""map""",,,0.00322523643263,0.0150755289942,0.00407508853823,,0.00902220916665,-0.00833770368171,0.0307261062357,-0.999452368883
112348000000,,483,,112,348000000,"""map""",,,0.00294375861995,0.015145201236,0.00414576288313,,0.00906341063336,-0.00831876101937,0.0307163281668,-0.999452453177
112380000000,,484,,112,380000000,"""map""",,,0.00264461431652,0.0152542321011,0.00409634411335,,0.00908233423907,-0.00837909324519,0.0306864039044,-0.999452706058
112416000000,,485,,112,416000000,"""map""",,,0.00233395909891,0.0153883462772,0.00414215959609,,0.00908923339829,-0.00833979501327,0.0306392415809,-0.999454434079
112448000000,,486,,112,448000000,"""map""",,,0.00225235754624,0.0150115899742,0.00459661195055,,0.0091100712694,-0.00834496701604,0.0306340153717,-0.999454349785
112480000000,,487,,112,480000000,"""map""",,,0.00223486521281,0.0145648345351,0.00511588575318,,0.00912161104772,-0.00844562741682,0.0306515063138,-0.999452874645
112516000000,,488,,112,516000000,"""map""",,,0.00216639041901,0.0141343502328,0.00557504314929,,0.0090802636105,-0.00843576511601,0.0305591204219,-0.999456162099
112548000000,,489,,112,548000000,"""map""",,,0.00208998820744,0.013891284354,0.00585830397904,,0.00908330133226,-0.00847669972814,0.0305223262231,-0.999456878596
112580000000,,490,,112,580000000,"""map""",,,0.00198095315136,0.0137136979029,0.00611391663551,,0.00912363024807,-0.00852646233519,0.0305283110756,-0.999455951365
112616000000,,491,,112,616000000,"""map""",,,0.00185043050442,0.013629890047,0.00633449526504,,0.00917302709539,-0.00852408029739,0.0304913482894,-0.999456667862
112648000000,,492,,112,648000000,"""map""",,,0.00193399947602,0.0135052287951,0.00678522046655,,0.009091416,-0.00852276878542,0.0305076591198,-0.999456878596
112680000000,,493,,112,680000000,"""map""",,,0.00205976865254,0.0134299751371,0.0072802323848,,0.00915101971097,-0.00856164382018,0.0304106792214,-0.999458943791
112716000000,,494,,112,716000000,"""map""",,,0.00213174615055,0.0134272156283,0.00794452615082,,0.0091574882644,-0.0085626273564,0.0304109742493,-0.999458901645
112748000000,,495,,112,748000000,"""map""",,,0.00217926455662,0.0134793044999,0.0084341885522,,0.00912301440606,-0.00861006137065,0.0304116485989,-0.999458817351
112780000000,,496,,112,780000000,"""map""",,,0.00220299325883,0.013557780534,0.00884979497641,,0.00911603949364,-0.00853868660878,0.0303339298103,-0.99946176763
112816000000,,497,,112,816000000,"""map""",,,0.00219727563672,0.0136722596362,0.00924425385892,,0.00908859343708,-0.00859653107983,0.0303500720532,-0.999461051134
112848000000,,498,,112,848000000,"""map""",,,0.00234985421412,0.0136757306755,0.00930180121213,,0.00926326958959,-0.00856223159173,0.0302999173035,-0.999461304015
112880000000,,499,,112,880000000,"""map""",,,0.00249305693433,0.0136808678508,0.0094245094806,,0.00929669422189,-0.00864821029835,0.0302737019637,-0.999461051134
112916000000,,500,,112,916000000,"""map""",,,0.00257152761333,0.013755293563,0.0095397606492,,0.00926105914379,-0.00860224249229,0.0302632495453,-0.999462062658
112948000000,,501,,112,948000000,"""map""",,,0.00258108018897,0.0138645367697,0.00950985495001,,0.00919273354589,-0.00865341300576,0.0302852080534,-0.999461599043
112980000000,,502,,112,980000000,"""map""",,,0.00256066187285,0.0140044484288,0.00941264163703,,0.0092140995697,-0.00865783821906,0.030286978221,-0.999461261868
113016000000,,503,,113,16000000,"""map""",,,0.00247888360173,0.0141640519723,0.00928151980042,,0.00921509345742,-0.00866194805128,0.0302595827695,-0.999462104805
113048000000,,504,,113,48000000,"""map""",,,0.0024461352732,0.0140896514058,0.00949280336499,,0.00922510028817,-0.00867950130818,0.0302119568307,-0.999463284917
113080000000,,505,,113,80000000,"""map""",,,0.0023879124783,0.0139947617427,0.00977293029428,,0.00916000690903,-0.00866399410791,0.0301868794558,-0.999464760056
113116000000,,506,,113,116000000,"""map""",,,0.00224062055349,0.0139995636418,0.0101006152108,,0.00915275433778,-0.00868234973956,0.0301614649062,-0.999465476553
113148000000,,507,,113,148000000,"""map""",,,0.00206368090585,0.0140632204711,0.0102539630607,,0.0091257170933,-0.00866904586457,0.0301128695898,-0.999467288867
113180000000,,508,,113,180000000,"""map""",,,0.00189247913659,0.0142050245777,0.0103464545682,,0.00917952413087,-0.00868686212768,0.0301065897094,-0.999466825252
113216000000,,509,,113,216000000,"""map""",,,0.00170346256346,0.0143751129508,0.0104584507644,,0.00908699642549,-0.0087049571815,0.030076665447,-0.999468426832
113248000000,,510,,113,248000000,"""map""",,,0.00163863552734,0.0143284536898,0.0108588980511,,0.00910630941622,-0.00869881771511,0.0300427372339,-0.999469311916
113280000000,,511,,113,280000000,"""map""",,,0.0015599936014,0.0142618343234,0.0112595316023,,0.00904895093044,-0.00867693090607,0.029986513338,-0.99947167214
113316000000,,512,,113,316000000,"""map""",,,0.0013686218299,0.0142570920289,0.0117409266531,,0.00902234977619,-0.00870380338066,0.0299646391236,-0.999472388636
113348000000,,513,,113,348000000,"""map""",,,0.00112608377822,0.0143195511773,0.0120303267613,,0.00904708916338,-0.00869565536381,0.0299563783413,-0.99947247293
113380000000,,514,,113,380000000,"""map""",,,0.000862086424604,0.0144271431491,0.0123043078929,,0.00902087096305,-0.00867081529134,0.0299041162491,-0.999474495978
113416000000,,515,,113,416000000,"""map""",,,0.000539792294148,0.0145809436217,0.0125540178269,,0.00899425191491,-0.00865032074829,0.0299243467364,-0.999474327391
113448000000,,516,,113,448000000,"""map""",,,0.000315814162605,0.0144673530012,0.0128883812577,,0.00899083591078,-0.00867760767374,0.0299173082127,-0.999474285244
113480000000,,517,,113,480000000,"""map""",,,9.4564005849e-05,0.0143286185339,0.0132296662778,,0.00898910302294,-0.00863129052011,0.0299194155552,-0.999474622419
113516000000,,518,,113,516000000,"""map""",,,-0.00023613605299,0.0142745468765,0.0137214576825,,0.00900692749728,-0.00861218188397,0.0298057876516,-0.999478078461
113548000000,,519,,113,548000000,"""map""",,,-0.000520523113664,0.0142735363916,0.0140707297251,,0.00899019966418,-0.00862435522326,0.02978842315,-0.999478584223
113580000000,,520,,113,580000000,"""map""",,,-0.000833275844343,0.0143390968442,0.0142649756745,,0.00913522089895,-0.00856025330345,0.0298079792877,-0.999477235524
113616000000,,521,,113,616000000,"""map""",,,-0.0011461887043,0.014456638135,0.0144409388304,,0.00913198954453,-0.00858379153632,0.0297877066536,-0.999477699139
113648000000,,522,,113,648000000,"""map""",,,-0.00133270747028,0.0143602490425,0.0145394746214,,0.00909250056107,-0.00853379749203,0.0297783500532,-0.999478794957
113680000000,,523,,113,680000000,"""map""",,,-0.00150073401164,0.0142710767686,0.01460122969,,0.00914908151158,-0.0086266982423,0.0297808788641,-0.999477361964
113716000000,,524,,113,716000000,"""map""",,,-0.0017714308342,0.0142680620775,0.0145894540474,,0.00910733335003,-0.00868164626997,0.0298298535021,-0.999475844678
113748000000,,525,,113,748000000,"""map""",,,-0.00200666254386,0.0143666826189,0.014477616176,,0.00913183851146,-0.00866097647175,0.0298175466223,-0.999476181852
113780000000,,526,,113,780000000,"""map""",,,-0.00226883403957,0.0144884213805,0.0142891723663,,0.00911761041041,-0.00862400142022,0.0297645680337,-0.999478162754
113816000000,,527,,113,816000000,"""map""",,,-0.00252357707359,0.0146701149642,0.0140667902306,,0.00910472839491,-0.00860566710895,0.0297465291826,-0.999479005691
113848000000,,528,,113,848000000,"""map""",,,-0.00260548456572,0.0146294822916,0.0140609871596,,0.00909474187614,-0.00865197367442,0.0297251607304,-0.999479300719
113880000000,,529,,113,880000000,"""map""",,,-0.00265608797781,0.0145589131862,0.0140291610733,,0.0090704782565,-0.00859288399861,0.0296675459885,-0.999481787383
113916000000,,530,,113,916000000,"""map""",,,-0.00276269973256,0.0145857697353,0.0138994976878,,0.00912458573442,-0.00857690493061,0.0296564613673,-0.999481745236
113948000000,,531,,113,948000000,"""map""",,,-0.00290441932157,0.0146857127547,0.0136613482609,,0.00909654501217,-0.00855631609221,0.029613429435,-0.999483473257
113980000000,,532,,113,980000000,"""map""",,,-0.00310703623109,0.0148425595835,0.0132635161281,,0.00913091218629,-0.00859034535069,0.0296232075038,-0.999482546027
114016000000,,533,,114,16000000,"""map""",,,-0.00335063482635,0.0150368297473,0.0128250503913,,0.00912038800709,-0.00859928375471,0.0296076131699,-0.999483051789
114048000000,,534,,114,48000000,"""map""",,,-0.00339052593336,0.0151116810739,0.0121797407046,,0.00916006887395,-0.00866328940354,0.0296455874804,-0.999480986593
114080000000,,535,,114,80000000,"""map""",,,-0.00337051483802,0.0152009110898,0.0115882949904,,0.00915024211396,-0.00859689885636,0.0296271693076,-0.999482208852
114116000000,,536,,114,116000000,"""map""",,,-0.00336561002769,0.0153811490163,0.0108579155058,,0.00912126841936,-0.00862551430275,0.0295682480134,-0.999483979019
