rosbagTimestamp,header,seq,stamp,secs,nsecs,frame_id,pose,position,x,y,z,orientation,x,y,z,w
150616000000,,1750,,150,615767289,"""map""",,,0.00530087249354,-0.0487922169268,-0.0215918011963,,0.00700759417069,-0.0131045302759,0.0288191299279,-0.999474200951
150648000000,,1751,,150,639767289,"""map""",,,0.0053953747265,-0.0489138960838,-0.0214253552258,,0.00698914998538,-0.0131117120331,0.0287987730001,-0.999474833153
150680000000,,1752,,150,671767289,"""map""",,,0.00557269435376,-0.0492262654006,-0.0210991501808,,0.007063602064,-0.0130887317932,0.0288108269988,-0.999474243097
150716000000,,1753,,150,711766357,"""map""",,,0.00585986347869,-0.0492657981813,-0.0204645656049,,0.00704146607818,-0.0131074762748,0.0288178233756,-0.999473990216
150748000000,,1754,,150,743766357,"""map""",,,0.00608948431909,-0.0488745570183,-0.0198306869715,,0.00702940878678,-0.0130920827969,0.028868905356,-0.999472725811
150780000000,,1755,,150,775766357,"""map""",,,0.00638720951974,-0.0486711487174,-0.0191374346614,,0.00709493001406,-0.0130642895845,0.0288632155315,-0.999472852251
150816000000,,1756,,150,807777431,"""map""",,,0.00670917145908,-0.0486512705684,-0.0184905529022,,0.0070917834884,-0.0130767690029,0.0288706333768,-0.999472515077
150848000000,,1757,,150,839777431,"""map""",,,0.00705063529313,-0.0487692393363,-0.0178552381694,,0.00703862347081,-0.0130300462579,0.0288244825777,-0.999474833153
150880000000,,1758,,150,871777431,"""map""",,,0.0074397069402,-0.0489873066545,-0.0172613114119,,0.00704815656111,-0.0130286738512,0.0288074552509,-0.999475254622
150916000000,,1759,,150,911776509,"""map""",,,0.0079635027796,-0.0489501617849,-0.0163923148066,,0.0070578878733,-0.0128070387214,0.0288242296966,-0.999477530552
150948000000,,1760,,150,943776509,"""map""",,,0.00844442006201,-0.0485460348427,-0.0152863534167,,0.00698235380606,-0.0128927196424,0.0288325747726,-0.999476771908
150980000000,,1761,,150,975776509,"""map""",,,0.00894182175398,-0.048346541822,-0.0142461853102,,0.0069828908491,-0.0128935602745,0.0288617825386,-0.999475886824
151016000000,,1762,,151,7775591,"""map""",,,0.00945257674903,-0.0483305417001,-0.0132199013606,,0.00699937553523,-0.0129178539814,0.0288686103281,-0.999475212475
151048000000,,1763,,151,39775591,"""map""",,,0.00998958479613,-0.0485029406846,-0.0123072806746,,0.00704782004487,-0.0129931315455,0.028826632067,-0.999475128181
151080000000,,1764,,151,71775591,"""map""",,,0.0105536347255,-0.0488273911178,-0.0115474173799,,0.00703067022879,-0.0130422247215,0.0288681888596,-0.999473442307
151116000000,,1765,,151,111774679,"""map""",,,0.0111124115065,-0.048894379288,-0.0106404237449,,0.0070607146756,-0.01309385955,0.0288461460578,-0.999473147279
151148000000,,1766,,151,143774679,"""map""",,,0.0114043401554,-0.0485325492918,-0.00992084015161,,0.00706865408819,-0.0131498292477,0.0288456402956,-0.999472388636
151180000000,,1767,,151,175774679,"""map""",,,0.0117392158136,-0.0483378767967,-0.00930715259165,,0.00700987240541,-0.0131408835791,0.0288541961059,-0.999472683664
151216000000,,1768,,151,207773771,"""map""",,,0.0121217779815,-0.0482951626182,-0.00871293433011,,0.00703917467257,-0.013150924078,0.0288672616289,-0.999472009314
151248000000,,1769,,151,239773771,"""map""",,,0.0125508159399,-0.0483590438962,-0.00814183987677,,0.00701297843058,-0.0131449938847,0.0288662501046,-0.999472262196
151280000000,,1770,,151,271773771,"""map""",,,0.0130398096517,-0.0485447980464,-0.00742143951356,,0.00702883552379,-0.0132344696684,0.0289210410076,-0.99946939621
151316000000,,1771,,151,311772868,"""map""",,,0.013541563414,-0.0484524033964,-0.00665741367266,,0.00703272357057,-0.0132743432213,0.0288955843111,-0.999469564797
151348000000,,1772,,151,343772868,"""map""",,,0.0137911038473,-0.0479907505214,-0.00612430367619,,0.00702985198724,-0.0132979945181,0.0289046458836,-0.999469016888
151380000000,,1773,,151,375772868,"""map""",,,0.0141135556623,-0.0477028228343,-0.00560318306088,,0.00703404922066,-0.0133141397245,0.0289934071465,-0.999466235196
151416000000,,1774,,151,407771970,"""map""",,,0.0144792255014,-0.0475754514337,-0.00509357498959,,0.00704676538584,-0.0132847360415,0.0289655480797,-0.999467288867
151448000000,,1775,,151,439771970,"""map""",,,0.0148684317246,-0.0475832633674,-0.00470646610484,,0.0070521832315,-0.0133407590813,0.0289601111362,-0.999466656665
151480000000,,1776,,151,471771970,"""map""",,,0.0152791822329,-0.0477439798415,-0.00447644852102,,0.00704840845438,-0.0131592391902,0.0289801308892,-0.999468553273
151516000000,,1777,,151,511771077,"""map""",,,0.0158805865794,-0.0481009483337,-0.00415154872462,,0.0070550943275,-0.0131226382743,0.0289974110971,-0.999468468979
151548000000,,1778,,151,543771077,"""map""",,,0.0163743272424,-0.0484756752849,-0.00376273063011,,0.00710975483875,-0.0131814621039,0.0290103501796,-0.999466909546
151580000000,,1779,,151,575771077,"""map""",,,0.016900729388,-0.0489301085472,-0.00339474715292,,0.00712501957118,-0.0132259932128,0.0289740617431,-0.999467288867
151616000000,,1780,,151,607770188,"""map""",,,0.01712170057,-0.0490750744939,-0.00292681343853,,0.00711541206535,-0.0132249836641,0.0289657588139,-0.999467583895
151648000000,,1781,,151,639770188,"""map""",,,0.0171020571142,-0.0489510446787,-0.00239895982668,,0.0071377601025,-0.0132965361712,0.0289537469621,-0.999466867399
151680000000,,1782,,151,671770188,"""map""",,,0.0171436872333,-0.0489651374519,-0.00198424514383,,0.00712445684489,-0.0133197887193,0.029011066676,-0.999465012938
151716000000,,1783,,151,711769304,"""map""",,,0.0173124689609,-0.0491410978138,-0.00141726573929,,0.00715021120351,-0.0133737854177,0.0290164193258,-0.999463959266
151748000000,,1784,,151,743769304,"""map""",,,0.0175713710487,-0.04937261343,-0.000981569872238,,0.00712320198833,-0.0133698786024,0.0289946294051,-0.999464760056
151780000000,,1785,,151,775769304,"""map""",,,0.017916161567,-0.0496701076627,-0.000607498106547,,0.00706600081237,-0.013395426178,0.0289765484071,-0.999465392259
151816000000,,1786,,151,807768425,"""map""",,,0.0180817041546,-0.0493887215853,-0.000233715050854,,0.00700315360507,-0.0133814805102,0.0289713643448,-0.999466193049
151848000000,,1787,,151,839768425,"""map""",,,0.0180720966309,-0.0485714152455,0.000126917817397,,0.00706215886371,-0.0133863790936,0.028973808862,-0.999465602993
151880000000,,1788,,151,871768425,"""map""",,,0.0181350465864,-0.0479231029749,0.000611683994066,,0.00703005844094,-0.0134098789251,0.0289643258211,-0.999465813728
151916000000,,1789,,151,911767551,"""map""",,,0.0183238442987,-0.0473497360945,0.00133948342409,,0.00704279008191,-0.0134019638786,0.0289538734026,-0.999466066609
151948000000,,1790,,151,943767551,"""map""",,,0.0185779351741,-0.0470546633005,0.00188169209287,,0.00708922504299,-0.013430300061,0.0289625978003,-0.999465097231
151980000000,,1791,,151,975767551,"""map""",,,0.01890896447,-0.0468828231096,0.00237747537903,,0.00722152301265,-0.0134259362158,0.0289213781824,-0.999465434406
152016000000,,1792,,152,7766681,"""map""",,,0.0190733913332,-0.0463179945946,0.00258547370322,,0.00723656087649,-0.0134405605137,0.0289028757159,-0.999465729434
152048000000,,1793,,152,39766681,"""map""",,,0.0191073678434,-0.0454076565802,0.00255996990018,,0.00728906070321,-0.0133658190047,0.028942915222,-0.999465139378
152080000000,,1794,,152,71766681,"""map""",,,0.0192516930401,-0.0447046160698,0.00242899823934,,0.00733741663861,-0.0133744640478,0.0289447696833,-0.999464633616
152116000000,,1795,,152,111765816,"""map""",,,0.0195954795927,-0.0440869815648,0.00214657676406,,0.00735047524693,-0.0133670557513,0.0289401756769,-0.999464760056
152148000000,,1796,,152,143765816,"""map""",,,0.0199871324003,-0.043767310679,0.00187079724856,,0.00736957633039,-0.0133851110661,0.0290218141224,-0.999462020511
152180000000,,1797,,152,175765816,"""map""",,,0.0204335264862,-0.0435743257403,0.00162421923596,,0.00736310119151,-0.0134154623947,0.0290651410827,-0.999460418931
152220000000,,1798,,152,207764955,"""map""",,,0.0208621639758,-0.0430895313621,0.00146648194641,,0.0073524041238,-0.0134252533051,0.029077026494,-0.999459997463
152248000000,,1799,,152,239764955,"""map""",,,0.0211949571967,-0.0423378609121,0.00125397776719,,0.00739948116577,-0.0132663106247,0.0291190890488,-0.999460503225
152280000000,,1800,,152,271764955,"""map""",,,0.0216050408781,-0.0417498871684,0.00104500283487,,0.00742140049044,-0.013297110422,0.0292159425067,-0.999457215771
152316000000,,1801,,152,311764100,"""map""",,,0.0221995990723,-0.0412113815546,0.00058674562024,,0.00742428590321,-0.0132786043336,0.0292274485963,-0.999457005036
152348000000,,1802,,152,343764100,"""map""",,,0.0227493476123,-0.040903750807,3.62552382285e-05,,0.00742500799726,-0.0132381627861,0.029207218109,-0.999458185148
152380000000,,1803,,152,375764100,"""map""",,,0.0233478937298,-0.0407100580633,-0.00057829497382,,0.00745529709336,-0.0132544788848,0.0292232339115,-0.999457257917
152416000000,,1804,,152,407763249,"""map""",,,0.0238294675946,-0.040208183229,-0.0010776151903,,0.00748448872504,-0.0132882928404,0.0292156896256,-0.999456794302
152448000000,,1805,,152,439763249,"""map""",,,0.0242392849177,-0.0394587032497,-0.00137555296533,,0.0074840583662,-0.0133404716266,0.0292829559958,-0.999454181198
152480000000,,1806,,152,471763249,"""map""",,,0.0247201249003,-0.0388125404716,-0.00168058590498,,0.00750235865953,-0.0134328278841,0.0293457548001,-0.999450893743
152516000000,,1807,,152,511762402,"""map""",,,0.0253912266344,-0.0381656475365,-0.00206783227623,,0.00750106692448,-0.0134092714177,0.0293756369157,-0.999450345834
152548000000,,1808,,152,543762402,"""map""",,,0.0259550735354,-0.0377761796117,-0.00242375815287,,0.0075379338924,-0.0134061087577,0.0293854571314,-0.999449882219
152580000000,,1809,,152,575762402,"""map""",,,0.0265740044415,-0.0374751761556,-0.00273187132552,,0.00748319764853,-0.0133842049089,0.0293614755746,-0.999451273065
152616000000,,1810,,152,607761561,"""map""",,,0.0268730763346,-0.0368801243603,-0.00292637129314,,0.00748398296285,-0.0133975545939,0.0293933807389,-0.9994501351
152648000000,,1811,,152,639761561,"""map""",,,0.0269016772509,-0.0360406525433,-0.0030824909918,,0.00751882589423,-0.0133658357976,0.0293918213055,-0.999450345834
152684000000,,1812,,152,671761561,"""map""",,,0.0270389132202,-0.0353057198226,-0.00323937716894,,0.00754444953176,-0.0133373330035,0.0293880280891,-0.999450683009
152716000000,,1813,,152,711772724,"""map""",,,0.027315383777,-0.0345326215029,-0.00344363506883,,0.00752337182697,-0.013320780158,0.0293997027662,-0.999450640862
152748000000,,1814,,152,743772724,"""map""",,,0.0276002194732,-0.0340115278959,-0.00356294959784,,0.00756007382948,-0.0133441242437,0.0294106187999,-0.999449755778
152780000000,,1815,,152,775772724,"""map""",,,0.0279321596026,-0.0335785746574,-0.00375180412084,,0.00759790128457,-0.0133173050187,0.0294133161982,-0.999449755778
152816000000,,1816,,152,807771891,"""map""",,,0.0280265491456,-0.0329428352416,-0.00391241675243,,0.00760805044325,-0.0133173922758,0.0294290791196,-0.999449250016
152848000000,,1817,,152,839771891,"""map""",,,0.0278767365962,-0.0321167930961,-0.00401812745258,,0.00758894507926,-0.0132710989018,0.0294331673639,-0.999449882219
152880000000,,1818,,152,871771891,"""map""",,,0.0278415475041,-0.0314161889255,-0.00418296223506,,0.00761580842683,-0.0132831713397,0.0294461064464,-0.999449081429
152916000000,,1819,,152,911771064,"""map""",,,0.027904799208,-0.0306644272059,-0.00465510552749,,0.00761058518106,-0.0131583030692,0.0294652411156,-0.999450261541
152948000000,,1820,,152,943771064,"""map""",,,0.0280654858798,-0.0301655884832,-0.0052537675947,,0.00760634349589,-0.0130647535291,0.029481551946,-0.999451062331
152980000000,,1821,,152,975771064,"""map""",,,0.0283258948475,-0.0297546815127,-0.00591987045482,,0.0076920626125,-0.0130647242239,0.0295009394963,-0.999449797925
153016000000,,1822,,153,7770240,"""map""",,,0.0284455288202,-0.0291523914784,-0.00635241391137,,0.00769477630978,-0.0130897958365,0.0295123612922,-0.999449081429
153048000000,,1823,,153,39770240,"""map""",,,0.0284475963563,-0.0283759124577,-0.00647211680189,,0.00768125622639,-0.013139730797,0.0295153958653,-0.999448491373
153080000000,,1824,,153,71770240,"""map""",,,0.0285174362361,-0.0276480522007,-0.0067969225347,,0.00771382981339,-0.0131574002047,0.0295153115716,-0.999447985611
153116000000,,1825,,153,111769422,"""map""",,,0.028728466481,-0.0268387719989,-0.00712981168181,,0.00772772444397,-0.0131645355344,0.0295170817393,-0.99944773273
153148000000,,1826,,153,143769422,"""map""",,,0.0289899092168,-0.0262723751366,-0.00733207166195,,0.00771538167352,-0.013189619824,0.0295152272779,-0.999447564142
153180000000,,1827,,153,175769422,"""map""",,,0.0292914062738,-0.0257706157863,-0.00754971569404,,0.00771632997762,-0.0131808282548,0.0295329289543,-0.999447142674
153216000000,,1828,,153,207768607,"""map""",,,0.0294674746692,-0.0251183602959,-0.00746400188655,,0.00773115266204,-0.0132170427698,0.0295424119952,-0.99944625759
153248000000,,1829,,153,239768607,"""map""",,,0.0295471772552,-0.0243476070464,-0.00712039414793,,0.00762640177378,-0.013203084425,0.0295468795612,-0.999447100527
153280000000,,1830,,153,271768607,"""map""",,,0.0297277234495,-0.023621942848,-0.00686919735745,,0.00768576462209,-0.0132493297253,0.0295883099133,-0.999444866744
153316000000,,1831,,153,311767798,"""map""",,,0.0300733149052,-0.0227672234178,-0.00670078350231,,0.00769118246776,-0.0132211815574,0.0296138930503,-0.999444403129
153348000000,,1832,,153,343767798,"""map""",,,0.0304388646036,-0.022157818079,-0.00665751984343,,0.00762681599828,-0.0132134453058,0.0296418364109,-0.999444192394
153380000000,,1833,,153,375767798,"""map""",,,0.0308618023992,-0.0216115452349,-0.00682220607996,,0.00763098919483,-0.0132235164269,0.0296750059806,-0.99944305443
153416000000,,1834,,153,407766993,"""map""",,,0.0309747010469,-0.020779972896,-0.00687861908227,,0.00761783674391,-0.0132214248896,0.0296743737779,-0.99944318087
153448000000,,1835,,153,439766993,"""map""",,,0.0308160483837,-0.0197063833475,-0.00678408704698,,0.00755239882252,-0.0131677808418,0.0296039042472,-0.999446468324
153480000000,,1836,,153,471766993,"""map""",,,0.0307987127453,-0.0187004562467,-0.00667961407453,,0.00762079920638,-0.0131634225942,0.0296074024356,-0.999445920415
153516000000,,1837,,153,511766192,"""map""",,,0.0309347659349,-0.0175507422537,-0.00659252889454,,0.00762441296937,-0.0131836652646,0.0296029348697,-0.999445751828
153548000000,,1838,,153,543766192,"""map""",,,0.031127948314,-0.0167185217142,-0.00652225594968,,0.00760387066126,-0.0130712566561,0.0296415413829,-0.99944625759
153580000000,,1839,,153,575766192,"""map""",,,0.0314045846462,-0.01592053473,-0.00655570346862,,0.0076172862007,-0.0131185431153,0.0296549019339,-0.999445119625
153616000000,,1840,,153,607765396,"""map""",,,0.0315284356475,-0.0149991465732,-0.00649848394096,,0.00758055406977,-0.0130683065414,0.0296516566266,-0.999446173296
153648000000,,1841,,153,639765396,"""map""",,,0.0315305441618,-0.0139594255015,-0.00643466133624,,0.00769272461436,-0.0130769894507,0.0296844890216,-0.999444192394
153680000000,,1842,,153,671765396,"""map""",,,0.0316312126815,-0.0129819819704,-0.00646748906001,,0.00768722362745,-0.0130491180361,0.0297874959193,-0.999441494996
153716000000,,1843,,153,711764604,"""map""",,,0.0318675637245,-0.0118148354813,-0.00649223104119,,0.00766335731594,-0.013074499,0.0298072206444,-0.999440820647
153748000000,,1844,,153,743764604,"""map""",,,0.0321286953986,-0.0109272114933,-0.00636050757021,,0.00759057843427,-0.013040054982,0.0297893503807,-0.999442337933
153780000000,,1845,,153,775764604,"""map""",,,0.0324360243976,-0.0100787403062,-0.00610291585326,,0.00767327697186,-0.0129905115262,0.0298240793838,-0.999441326409
153816000000,,1846,,153,807775817,"""map""",,,0.0325852334499,-0.00926491152495,-0.00552543019876,,0.00759898195611,-0.0129483627021,0.0298299799426,-0.999442253639
153848000000,,1847,,153,839775817,"""map""",,,0.0326218977571,-0.00847374461591,-0.0047767679207,,0.0076613397002,-0.012951744822,0.0298848972862,-0.99944010415
153880000000,,1848,,153,871775817,"""map""",,,0.0327600501478,-0.00773143768311,-0.00424027210101,,0.0076842954093,-0.0129583564442,0.0298790810211,-0.999440019856
153916000000,,1849,,153,911775034,"""map""",,,0.0330602936447,-0.00681127980351,-0.00350605230778,,0.00767086291233,-0.0129544270738,0.0298574596878,-0.999440820647
153948000000,,1850,,153,943775034,"""map""",,,0.0334179736674,-0.00609021121636,-0.00304684834555,,0.0075611530193,-0.0128918801628,0.0298746977489,-0.999441958611
153980000000,,1851,,153,975775034,"""map""",,,0.033846616745,-0.00536133721471,-0.00277936318889,,0.0076369694375,-0.012909270183,0.0298684600153,-0.999441368556
154016000000,,1852,,154,7774256,"""map""",,,0.0338791422546,-0.00463549094275,-0.00260779308155,,0.00761380431125,-0.0128791182288,0.0298920201036,-0.999441157821
154048000000,,1853,,154,39774256,"""map""",,,0.0335659682751,-0.00390099012293,-0.00231094192713,,0.00762257958146,-0.0128680038085,0.0299038633681,-0.999440947087
154080000000,,1854,,154,71774256,"""map""",,,0.0333866812289,-0.0031847844366,-0.00214232411236,,0.00755230975437,-0.0128477145461,0.0298913879009,-0.999442127199
154116000000,,1855,,154,111773482,"""map""",,,0.0333480723202,-0.0023054794874,-0.00204596901312,,0.00756425459929,-0.0128429623243,0.0298787016995,-0.999442422227
154148000000,,1856,,154,143773482,"""map""",,,0.0334383323789,-0.00160466635134,-0.00199146405794,,0.00756135897909,-0.0128149998659,0.0298521913318,-0.999443560192
154180000000,,1857,,154,175773482,"""map""",,,0.0336216054857,-0.000902115833014,-0.00200229440816,,0.0078009985511,-0.0128609723641,0.0298588505338,-0.999440947087
154216000000,,1858,,154,207772712,"""map""",,,0.0334851592779,-0.000242399779381,-0.00190227036364,,0.00778114277564,-0.0128634083203,0.0298466700946,-0.999441494996
154248000000,,1859,,154,239772712,"""map""",,,0.0330853462219,0.000409330416005,-0.00179362099152,,0.00769402112386,-0.0128473110229,0.0298872575097,-0.999441115674
154280000000,,1860,,154,271772712,"""map""",,,0.0328221842647,0.00108338124119,-0.00184663804248,,0.00770333327248,-0.0128869405851,0.0298953497047,-0.999440272738
154316000000,,1861,,154,311771947,"""map""",,,0.032674126327,0.00194944464602,-0.00200136261992,,0.00769180018251,-0.0128548938337,0.0299529644466,-0.999439134773
154348000000,,1862,,154,343771947,"""map""",,,0.0326411128044,0.00266860681586,-0.00233948370442,,0.00769890604239,-0.0129256845695,0.0299280556591,-0.999438839745
154380000000,,1863,,154,375771947,"""map""",,,0.0326708815992,0.00338722183369,-0.00276020797901,,0.00764258797461,-0.0128990049558,0.0299652713263,-0.999438544717
154416000000,,1864,,154,407771186,"""map""",,,0.03234475106,0.00402758456767,-0.00299242790788,,0.00765864016163,-0.0128924002483,0.0299839423802,-0.999437912514
154448000000,,1865,,154,439771186,"""map""",,,0.031737588346,0.00459857704118,-0.00318778026849,,0.00759387856544,-0.0128162781008,0.0300052265387,-0.999438797598
154480000000,,1866,,154,471771186,"""map""",,,0.0313000157475,0.00521332956851,-0.00337458355352,,0.00757230645836,-0.0128134853782,0.0299768617097,-0.999439766975
154516000000,,1867,,154,511770429,"""map""",,,0.0309468526393,0.00597887951881,-0.00366725213826,,0.0076010481395,-0.0128564881699,0.0300170276563,-0.999437870367
154548000000,,1868,,154,543770429,"""map""",,,0.0308038722724,0.0065892636776,-0.00389952328987,,0.00765980693786,-0.0128044004274,0.0300344764516,-0.999437533192
154580000000,,1869,,154,575770429,"""map""",,,0.0307560320944,0.00721564283594,-0.00409148912877,,0.00762062485672,-0.0127445479513,0.0300238975926,-0.999438924038
154616000000,,1870,,154,607769677,"""map""",,,0.0304608568549,0.00772962160408,-0.00436444813386,,0.00762974536889,-0.0127175123943,0.0300329170182,-0.999438924038
154648000000,,1871,,154,639769677,"""map""",,,0.0299304127693,0.00811956077814,-0.00466457428411,,0.00753033363023,-0.0127023229006,0.0300271007531,-0.999440019856
154680000000,,1872,,154,671769677,"""map""",,,0.0295291915536,0.00856506545097,-0.00487392395735,,0.00758600912321,-0.0127420599701,0.0300441702267,-0.99943862901
154716000000,,1873,,154,711768929,"""map""",,,0.0291748270392,0.00914553366601,-0.00536434398964,,0.00757692614808,-0.0127648116951,0.0300366680877,-0.99943862901
154748000000,,1874,,154,743768929,"""map""",,,0.029035165906,0.0096549578011,-0.00602522306144,,0.00754963836857,-0.0127669615136,0.0300386068427,-0.999438713304
154780000000,,1875,,154,775768929,"""map""",,,0.0289876218885,0.0101766586304,-0.00686640152708,,0.00771454021828,-0.0127556322432,0.029987061247,-0.999439176919
154816000000,,1876,,154,807768185,"""map""",,,0.028649488464,0.0103807086125,-0.00743062421679,,0.00778045739544,-0.0127694476838,0.0299877777434,-0.999438460423
154848000000,,1877,,154,839768185,"""map""",,,0.0280491039157,0.0103648668155,-0.00794619973749,,0.00778099213358,-0.0128253159656,0.030034645039,-0.999436268787
154880000000,,1878,,154,871768185,"""map""",,,0.0275879669935,0.0104568805546,-0.0084264529869,,0.00778913569497,-0.0127948424771,0.0300551705542,-0.999436058053
154916000000,,1879,,154,911767446,"""map""",,,0.0271485634148,0.0106766643003,-0.00906593725085,,0.00779554497939,-0.0128085056293,0.0300686153989,-0.99943542585
154948000000,,1880,,154,943767446,"""map""",,,0.0268994774669,0.0109228752553,-0.00964411813766,,0.00773743945718,-0.0127853375396,0.0300446338421,-0.99943690099
154976000000,,1881,,154,975767446,"""map""",,,0.0267584826797,0.01125470642,-0.0102537758648,,0.00770421572212,-0.0127850110661,0.0300041728675,-0.999438333982
155016000000,,1882,,155,7766711,"""map""",,,0.0264231674373,0.0114856790751,-0.0104259038344,,0.0077288675126,-0.0128162973632,0.0300218745439,-0.999437238164
155048000000,,1883,,155,39766711,"""map""",,,0.0258938688785,0.01162375696,-0.0102419368923,,0.00764087230153,-0.0128495438181,0.0300075867622,-0.999437870367
155080000000,,1884,,155,71766711,"""map""",,,0.0254755895585,0.0117895035073,-0.0101964771748,,0.00762919334395,-0.012826634701,0.0299508571041,-0.99943997771
155116000000,,1885,,155,111765980,"""map""",,,0.0251093413681,0.0120837716386,-0.00990440882742,,0.00760977500668,-0.0128700543514,0.0299594972081,-0.999439345507
155148000000,,1886,,155,143765980,"""map""",,,0.0249312035739,0.0123954033479,-0.00972793996334,,0.00757528785398,-0.012887079538,0.0299533437682,-0.999439514094
155176000000,,1887,,155,175765980,"""map""",,,0.0248603466898,0.0127443550155,-0.00968940276653,,0.00755550698796,-0.0128380280149,0.029962026019,-0.999440019856
155216000000,,1888,,155,207765254,"""map""",,,0.0246099382639,0.0128826014698,-0.0097009409219,,0.00754418841886,-0.0128638385145,0.030032706284,-0.99943770178
155248000000,,1889,,155,239765254,"""map""",,,0.0241946578026,0.012854305096,-0.00968805328012,,0.00765191033066,-0.0128703688064,0.0300514616315,-0.99943622664
155280000000,,1890,,155,271765254,"""map""",,,0.0238900016993,0.0129165919498,-0.00973432976753,,0.00766034068818,-0.0129075373877,0.0301193602045,-0.999433655682
155316000000,,1891,,155,311764531,"""map""",,,0.0236578378826,0.0131186367944,-0.00985764525831,,0.00766650993313,-0.0129047240856,0.0301423723838,-0.999432897039
155348000000,,1892,,155,343764531,"""map""",,,0.0235750060529,0.013390161097,-0.0101098204032,,0.00759869104407,-0.0128668439469,0.0301891975325,-0.999432517717
155380000000,,1893,,155,375764531,"""map""",,,0.0235911849886,0.0137091092765,-0.0104078399017,,0.00759496878587,-0.0127968619038,0.0301588939484,-0.999434414326
155416000000,,1894,,155,407763814,"""map""",,,0.0233381520957,0.013954048045,-0.0106916967779,,0.00781454761044,-0.0127270361004,0.0301465870686,-0.999433908563
155448000000,,1895,,155,439763814,"""map""",,,0.0228582471609,0.0141155142337,-0.0107337143272,,0.0078166391478,-0.0127754088286,0.0301467978029,-0.999433276361
155480000000,,1896,,155,471763814,"""map""",,,0.0224702060223,0.014338822104,-0.0108444830403,,0.00776784412784,-0.0128118574562,0.0301690934857,-0.999432559864
155516000000,,1897,,155,511763100,"""map""",,,0.022132826969,0.0147208729759,-0.0109887458384,,0.00780783704191,-0.0128185474452,0.0301763848905,-0.999431927661
155548000000,,1898,,155,543763100,"""map""",,,0.0219656359404,0.0151216890663,-0.0113782370463,,0.00777115232618,-0.0128389634774,0.0301588939484,-0.999432475571
155580000000,,1899,,155,575763100,"""map""",,,0.0219029821455,0.0155970919877,-0.0118293985724,,0.00769643864075,-0.0128782342974,0.0302156236065,-0.99943087399
155616000000,,1900,,155,607762391,"""map""",,,0.0216502435505,0.0159256123006,-0.011904604733,,0.00768790703202,-0.0128727191518,0.0302439041418,-0.999430157494
155648000000,,1901,,155,639762391,"""map""",,,0.0212681982666,0.0161445625126,-0.011837576516,,0.00767779343473,-0.0128847003813,0.030274460607,-0.999429103823
155680000000,,1902,,155,671762391,"""map""",,,0.0210263822228,0.0164313968271,-0.011732975021,,0.00762052673359,-0.0128400375635,0.0303247417973,-0.999428555914
155716000000,,1903,,155,711761686,"""map""",,,0.0208767484874,0.0169032495469,-0.01157776732,,0.00761358666229,-0.0128630658771,0.0303087259949,-0.999428808795
155748000000,,1904,,155,743761686,"""map""",,,0.0208792835474,0.0173707641661,-0.0115389507264,,0.00759144293858,-0.0127832761306,0.0302859666967,-0.99943074755
155780000000,,1905,,155,775761686,"""map""",,,0.0209722388536,0.0178992636502,-0.0115653797984,,0.00762735090106,-0.012775020452,0.0303040476947,-0.999430031053
155816000000,,1906,,155,811760985,"""map""",,,0.0208346154541,0.0182280149311,-0.011267802678,,0.00761145742326,-0.0127955290097,0.0302782538234,-0.999430621109
155848000000,,1907,,155,843760985,"""map""",,,0.0205088369548,0.0184112358838,-0.0107319140807,,0.00761336226325,-0.0127419165721,0.0303163545744,-0.999430115347
155880000000,,1908,,155,875760985,"""map""",,,0.0202744603157,0.0186912156641,-0.0103347217664,,0.00752694393701,-0.0127430375794,0.0303111283652,-0.999430958284
155916000000,,1909,,155,907760288,"""map""",,,0.0201076958328,0.0190391503274,-0.00996878370643,,0.00749955342456,-0.0127516345487,0.0303018560585,-0.999431295459
155948000000,,1910,,155,939760288,"""map""",,,0.0200128704309,0.0194595083594,-0.0097937239334,,0.00752089602889,-0.0127532145616,0.0302979364016,-0.999431253312
155980000000,,1911,,155,971760288,"""map""",,,0.0199931357056,0.0199471171945,-0.00970303732902,,0.00751497620767,-0.0127027063381,0.0302804876063,-0.999432517717
156016000000,,1912,,156,11759596,"""map""",,,0.0198868680745,0.0203345734626,-0.0094949491322,,0.00749837660553,-0.0126872111151,0.0302610579092,-0.999433402801
156048000000,,1913,,156,43759596,"""map""",,,0.019643843174,0.0203599706292,-0.00932294037193,,0.00736145219607,-0.0125781810047,0.0302595827695,-0.999435805172
156080000000,,1914,,156,75759596,"""map""",,,0.0195102468133,0.0205024965107,-0.00915665645152,,0.00758944359745,-0.0125968856443,0.030240237366,-0.999434498619
156116000000,,1915,,156,107758908,"""map""",,,0.0194605905563,0.0207227803767,-0.00909449439496,,0.00757300171672,-0.0125853367493,0.0302377085551,-0.999434835794
156148000000,,1916,,156,139758908,"""map""",,,0.0194539446384,0.0209970306605,-0.00912494957447,,0.00749083692946,-0.0126333507355,0.0302144013479,-0.99943555229
156180000000,,1917,,156,171758908,"""map""",,,0.0194519590586,0.0213468503207,-0.00929880328476,,0.00749358256615,-0.0126987236256,0.0302195854103,-0.999434582913
156216000000,,1918,,156,211758224,"""map""",,,0.019246166572,0.0216051507741,-0.0094940578565,,0.00745626186106,-0.0126900845095,0.030227719752,-0.999434709354
156248000000,,1919,,156,243758224,"""map""",,,0.0188441295177,0.0215815734118,-0.00931811798364,,0.00744849432859,-0.0126750598165,0.0301872166306,-0.999436184493
156280000000,,1920,,156,275758224,"""map""",,,0.0185142457485,0.0216819774359,-0.00917596183717,,0.00743010513175,-0.0126629373292,0.0301536255923,-0.999437491046
156316000000,,1921,,156,307757545,"""map""",,,0.018275687471,0.0218690522015,-0.00909234862775,,0.00743787282886,-0.0127242022187,0.030132004259,-0.999437280311
156348000000,,1922,,156,339757545,"""map""",,,0.0181243754923,0.0221199244261,-0.00907440762967,,0.00744175379628,-0.0126965214528,0.03013841058,-0.999437448899
156380000000,,1923,,156,371757545,"""map""",,,0.0180384386331,0.0224922504276,-0.00915969908237,,0.00746086014809,-0.0127383028091,0.0301957724408,-0.999435046528
156416000000,,1924,,156,411756869,"""map""",,,0.0179174300283,0.0228766035289,-0.00914720632136,,0.00738935094024,-0.01272719234,0.0301988913076,-0.999435636584
156448000000,,1925,,156,443756869,"""map""",,,0.017774194479,0.0230364315212,-0.0089364675805,,0.00735531538443,-0.0127589348439,0.0301854043161,-0.999435805172
156480000000,,1926,,156,475756869,"""map""",,,0.0177011732012,0.0233134012669,-0.00882594287395,,0.00732115651617,-0.0127894098142,0.0301913470217,-0.999435510144
156516000000,,1927,,156,507756198,"""map""",,,0.017711404711,0.0236927326769,-0.00879729166627,,0.00731281440361,-0.012772454598,0.0301864158405,-0.999435973759
156548000000,,1928,,156,539756198,"""map""",,,0.0177967045456,0.0241610500962,-0.00882389396429,,0.0072587870829,-0.0128084825802,0.0301695571011,-0.999436395227
156580000000,,1929,,156,571756198,"""map""",,,0.0179431214929,0.0247055031359,-0.0090071009472,,0.00722056581821,-0.0128348856052,0.0301752890725,-0.999436142346
156616000000,,1930,,156,611755531,"""map""",,,0.0179313141853,0.0251615568995,-0.0088452026248,,0.00716304491888,-0.0128513646937,0.0301472192714,-0.999437238164
156648000000,,1931,,156,643755531,"""map""",,,0.0176359675825,0.0252825543284,-0.00875887647271,,0.00719854540695,-0.0128571207019,0.0302062670061,-0.999435088675
156680000000,,1932,,156,675755531,"""map""",,,0.0174213703722,0.0255094859749,-0.00881481450051,,0.00739384204915,-0.0128355625889,0.0301811474844,-0.9994347515
156716000000,,1933,,156,707754869,"""map""",,,0.0172878820449,0.0258090998977,-0.00885312445462,,0.0074126719769,-0.0128314063499,0.0301773964149,-0.999434709354
156748000000,,1934,,156,739754869,"""map""",,,0.0172435361892,0.026198528707,-0.00898159202188,,0.00736478673618,-0.0128916590565,0.0301986384265,-0.999433697829
156780000000,,1935,,156,771754869,"""map""",,,0.0172969065607,0.0266520027071,-0.00907193962485,,0.00727800604583,-0.0129340196027,0.0302084164954,-0.999433444948
156816000000,,1936,,156,811754210,"""map""",,,0.0174145903438,0.0273193530738,-0.00924430973828,,0.00723861915735,-0.012890369297,0.0302144856416,-0.999434119298
156848000000,,1937,,156,843754210,"""map""",,,0.0175728779286,0.0279547572136,-0.00935571454465,,0.0072413409218,-0.0129531292472,0.0302456321626,-0.999432306983
156880000000,,1938,,156,875754210,"""map""",,,0.0178047213703,0.0286548472941,-0.0094754435122,,0.00719905775457,-0.0129736778115,0.030213263383,-0.999433402801
156916000000,,1939,,156,907753556,"""map""",,,0.0178188625723,0.0290733072907,-0.00973345991224,,0.00721799584826,-0.0129707831791,0.0302342525135,-0.999432644158
156948000000,,1940,,156,939753556,"""map""",,,0.0176619943231,0.0292738676071,-0.010082853958,,0.00718674066737,-0.0129417538786,0.0303091896102,-0.999430958284
156980000000,,1941,,156,971753556,"""map""",,,0.0175944101065,0.029594771564,-0.01034727972,,0.00721629285217,-0.0129630834767,0.0303122241833,-0.999430368228
157016000000,,1942,,157,11752906,"""map""",,,0.0176205467433,0.0301514584571,-0.0106906946748,,0.00719732874597,-0.0129448292815,0.0302967562899,-0.999431253312
157048000000,,1943,,157,43752906,"""map""",,,0.0177058596164,0.030707590282,-0.0108052007854,,0.00720228462266,-0.0129648915107,0.0302692765446,-0.999431759074
157080000000,,1944,,157,75752906,"""map""",,,0.0178116951138,0.0313557758927,-0.0109901251271,,0.00717900540358,-0.0130177894275,0.0302893384445,-0.999430663256
157116000000,,1945,,157,107752260,"""map""",,,0.0176524091512,0.0316836200655,-0.0111286854371,,0.00719783319106,-0.0130120600903,0.0302958290592,-0.999430410375
157148000000,,1946,,157,139752260,"""map""",,,0.0173046626151,0.0317153818905,-0.0112570868805,,0.0071453149251,-0.013025526667,0.0302253595285,-0.999432686305
157180000000,,1947,,157,171752260,"""map""",,,0.0170300938189,0.0318818241358,-0.0113559113815,,0.00713352500277,-0.0130666929427,0.030295618325,-0.999430115347
157216000000,,1948,,157,211751618,"""map""",,,0.016753975302,0.0322533398867,-0.0116232829168,,0.00717691781749,-0.0131455799893,0.0303269755803,-0.999427839417
157248000000,,1949,,157,243751618,"""map""",,,0.0166144054383,0.0326880179346,-0.0118308076635,,0.00715015786141,-0.0131266553958,0.0303867398114,-0.999426490718
157280000000,,1950,,157,275751618,"""map""",,,0.016529796645,0.0332290679216,-0.012076552026,,0.00714650886629,-0.0131114884572,0.030393820482,-0.999426490718
157316000000,,1951,,157,307750980,"""map""",,,0.0163198523223,0.0335701517761,-0.0123511375859,,0.00717392045216,-0.0131305121617,0.0304243769472,-0.999425099872
157348000000,,1952,,157,339750980,"""map""",,,0.0160355363041,0.03369538486,-0.0124928662553,,0.00743730269395,-0.0132313511309,0.0303708504496,-0.999423498292
157380000000,,1953,,157,371750980,"""map""",,,0.0158321633935,0.0339338257909,-0.0126674864441,,0.00732671759526,-0.0131758381338,0.0303158488122,-0.999426743599
157416000000,,1954,,157,411750347,"""map""",,,0.0156743079424,0.034398522228,-0.0128399915993,,0.00724266854753,-0.0131509560174,0.030335109922,-0.999427038627
157448000000,,1955,,157,443750347,"""map""",,,0.0156143829226,0.0348991304636,-0.0129226427525,,0.00720369094446,-0.0132467963046,0.0303486390604,-0.999425647781
157480000000,,1956,,157,475750347,"""map""",,,0.0156023846939,0.0354748256505,-0.0129673173651,,0.00718311340422,-0.0133267271442,0.0302977678142,-0.999426279984
157516000000,,1957,,157,507749717,"""map""",,,0.0154694179073,0.0357898063958,-0.0128809064627,,0.0071934133696,-0.0133589032996,0.0302765258026,-0.999426448571
157548000000,,1958,,157,539749717,"""map""",,,0.0152400899678,0.0358712859452,-0.0126398857683,,0.00718250392128,-0.0133153313608,0.0302029374051,-0.999429314557
157580000000,,1959,,157,571749717,"""map""",,,0.0151123879477,0.0360846891999,-0.0123276691884,,0.00715479895383,-0.0133632180832,0.0302117460964,-0.99942859806
157616000000,,1960,,157,611749092,"""map""",,,0.0150840217248,0.0365358777344,-0.0120083447546,,0.00713840218339,-0.0133142161156,0.0302221142212,-0.999429103823
157648000000,,1961,,157,643749092,"""map""",,,0.015164536424,0.0370142608881,-0.0118437130004,,0.00716269128048,-0.0132969550055,0.0302463486591,-0.999428387326
157680000000,,1962,,157,675749092,"""map""",,,0.0153013737872,0.037580434233,-0.0116336401552,,0.00714818749624,-0.0131997525191,0.03023189229,-0.999430199641
157716000000,,1963,,157,707748471,"""map""",,,0.0152601804584,0.0378041863441,-0.0109440982342,,0.00713634028054,-0.013260592812,0.0302959554998,-0.999427586536
157748000000,,1964,,157,739748471,"""map""",,,0.0150203108788,0.0377599522471,-0.0101058129221,,0.00716042391174,-0.012996119362,0.0302710888591,-0.999431632634
157780000000,,1965,,157,771748471,"""map""",,,0.0148902749643,0.0378593541682,-0.00927042681724,,0.00717616213767,-0.0130105674992,0.0303084309669,-0.999430199641
157816000000,,1966,,157,811747854,"""map""",,,0.0148304011673,0.0381757356226,-0.00829546991736,,0.00716337781313,-0.0130242974936,0.0302927523393,-0.999430536815
157848000000,,1967,,157,843747854,"""map""",,,0.0148403290659,0.0385569185019,-0.00761694507673,,0.00717931524877,-0.0130290567948,0.0303633483105,-0.999428218739
157880000000,,1968,,157,875747854,"""map""",,,0.0148860998452,0.039008256048,-0.0071455729194,,0.00718005117226,-0.0130639231045,0.030386318343,-0.999427080774
157916000000,,1969,,157,907747241,"""map""",,,0.014837378636,0.0391083285213,-0.00632661394775,,0.00719483154519,-0.0130902016645,0.0303644862754,-0.999427333655
157948000000,,1970,,157,939747241,"""map""",,,0.0147035308182,0.0388870239258,-0.00524435332045,,0.00718723095376,-0.0130937838174,0.0303619996114,-0.999427375802
157980000000,,1971,,157,979747241,"""map""",,,0.01466921065,0.0388005226851,-0.00392777100205,,0.00716438176423,-0.0131714107391,0.0303753180155,-0.999426111396
158016000000,,1972,,158,11746633,"""map""",,,0.0147468103096,0.0388851575553,-0.00301030441187,,0.00717725894354,-0.0131630169308,0.0303467845991,-0.99942699648
158048000000,,1973,,158,43746633,"""map""",,,0.0148664731532,0.0390980392694,-0.0020642215386,,0.00711233238196,-0.0131969708271,0.0303499034658,-0.999426912187
158080000000,,1974,,158,75746633,"""map""",,,0.0150511469692,0.0394295491278,-0.00116507057101,,0.00704735972226,-0.0132071591692,0.0303875406016,-0.999426111396
158116000000,,1975,,158,107746028,"""map""",,,0.0151235889643,0.0395140275359,-0.000362486229278,,0.00706463696669,-0.0132207044419,0.0304198672344,-0.999424804844
158148000000,,1976,,158,139746028,"""map""",,,0.0151160694659,0.0393664129078,0.000246115640039,,0.00700888129593,-0.0131927749107,0.0304292659816,-0.999425352753
158176000000,,1977,,158,171746028,"""map""",,,0.0152124818414,0.0393430367112,0.000680646451656,,0.00699679634566,-0.0131790159403,0.0304897467092,-0.999423709026
158216000000,,1978,,158,211745427,"""map""",,,0.0154133327305,0.0394458919764,0.00119548372459,,0.00705615162071,-0.0131601348107,0.0304736466131,-0.999424046201
158248000000,,1979,,158,243745427,"""map""",,,0.015641508624,0.039631832391,0.001663350733,,0.00698141077032,-0.0131078121325,0.030471159949,-0.999425352753
158280000000,,1980,,158,275745427,"""map""",,,0.0159057956189,0.0399302095175,0.00212017726153,,0.00695923955237,-0.0130770324207,0.0304247984157,-0.999427291508
158316000000,,1981,,158,307744831,"""map""",,,0.0159703977406,0.0399395339191,0.0024827325251,,0.00690214473134,-0.0130781733491,0.0304321319673,-0.999427460096
158348000000,,1982,,158,339744831,"""map""",,,0.0158459413797,0.0396862439811,0.00282063707709,,0.00691895671409,-0.0130596451994,0.0304973331419,-0.999425563487
158380000000,,1983,,158,371744831,"""map""",,,0.0157845970243,0.0395682416856,0.00326648773625,,0.00690625108562,-0.0129992352653,0.0304575043701,-0.999427712977
158416000000,,1984,,158,411744239,"""map""",,,0.0158255696297,0.0395893901587,0.00375495199114,,0.00691502553265,-0.0129589073167,0.0304966166455,-0.999426954333
158448000000,,1985,,158,443744239,"""map""",,,0.0159619934857,0.0397333391011,0.00402005994692,,0.00688108349016,-0.012921543477,0.0305030229665,-0.999427460096
158480000000,,1986,,158,475744239,"""map""",,,0.016160748899,0.0399696566164,0.00416073203087,,0.00685787539388,-0.0129531282594,0.0305120845389,-0.99942699648
158516000000,,1987,,158,507743650,"""map""",,,0.0162594709545,0.0399463102221,0.00436873733997,,0.00685383719896,-0.0129011967566,0.0304912639958,-0.999428345179
158548000000,,1988,,158,539743650,"""map""",,,0.0162908174098,0.039709828794,0.00466681690887,,0.00684959485524,-0.0129212138754,0.0305385949066,-0.999426617159
158580000000,,1989,,158,571743650,"""map""",,,0.0163864213973,0.0395798012614,0.00488756364211,,0.00681437787059,-0.012933155263,0.0305644730716,-0.999425942809
158616000000,,1990,,158,611743066,"""map""",,,0.0166009888053,0.0395683459938,0.00516511732712,,0.00681269561864,-0.0129122665605,0.0305536413315,-0.999426575012
158648000000,,1991,,158,643743066,"""map""",,,0.0168245211244,0.0396922789514,0.00541114248335,,0.00690449771087,-0.0129129056779,0.0305219469015,-0.999426827893
158680000000,,1992,,158,675743066,"""map""",,,0.0171213876456,0.0398887470365,0.00566612603143,,0.00705922142593,-0.0129745164679,0.0304912639958,-0.999425900662
158716000000,,1993,,158,715742486,"""map""",,,0.0173661373556,0.0395410209894,0.00610585231334,,0.00706114701007,-0.0129677887772,0.0304790414097,-0.999426406424
158748000000,,1994,,158,739742486,"""map""",,,0.017482092604,0.039155356586,0.0064356373623,,0.00699828432698,-0.0129137848348,0.0304569986079,-0.999428218739
158780000000,,1995,,158,771742486,"""map""",,,0.0177152175456,0.0387773886323,0.0068361456506,,0.00693954446177,-0.0129059063376,0.0304751217528,-0.999428134445
158816000000,,1996,,158,811741910,"""map""",,,0.0180792864412,0.0385214872658,0.00727078644559,,0.0069201990583,-0.0128731753585,0.0304464618958,-0.999429567438
158848000000,,1997,,158,843741910,"""map""",,,0.0184499584138,0.0384330786765,0.00777448620647,,0.00694913188199,-0.0129020627426,0.0304248827093,-0.999429651732
158880000000,,1998,,158,875741910,"""map""",,,0.0188670177013,0.0384231209755,0.00822206586599,,0.00693537258231,-0.0128135513973,0.0304180970667,-0.999431126871
158916000000,,1999,,158,907741338,"""map""",,,0.0191239956766,0.038156490773,0.00869492720813,,0.00693255960945,-0.0128335471134,0.0304551019997,-0.999429693879
158948000000,,2000,,158,939741338,"""map""",,,0.0192104335874,0.0376765169203,0.00911780260503,,0.00687255665587,-0.0128563791808,0.030457799398,-0.999429778172
158980000000,,2001,,158,971741338,"""map""",,,0.0193734709173,0.0373511724174,0.00954864360392,,0.00687429784755,-0.0128732655791,0.0304645007469,-0.999429314557
159016000000,,2002,,159,11740770,"""map""",,,0.019671626389,0.0371437706053,0.0101508144289,,0.00682167059247,-0.0128062155407,0.0304865435487,-0.99942994676
159048000000,,2003,,159,43740770,"""map""",,,0.019988687709,0.0371495522559,0.010565508157,,0.00684736963335,-0.0128381865595,0.0305059732459,-0.999428724501
159080000000,,2004,,159,75740770,"""map""",,,0.0203725360334,0.0372565239668,0.0110949203372,,0.00688252932463,-0.0128503235348,0.0305410394238,-0.999427207214
159116000000,,2005,,159,107740206,"""map""",,,0.0207315124571,0.0371026918292,0.0116629013792,,0.00689028335694,-0.0128921631723,0.0305431046194,-0.999426575012
159148000000,,2006,,159,139740206,"""map""",,,0.0210677646101,0.036739051342,0.0121718766168,,0.00683809732668,-0.0128817229369,0.0304910532615,-0.999428640207
159180000000,,2007,,159,171740206,"""map""",,,0.0214683525264,0.0365037992597,0.012703650631,,0.00682969232312,-0.0128972850022,0.0304807694305,-0.999428808795
159216000000,,2008,,159,211739646,"""map""",,,0.0220229756087,0.0363497398794,0.013121153228,,0.00683320664589,-0.0126475738151,0.0305282267819,-0.999430578962
159248000000,,2009,,159,243739646,"""map""",,,0.0225495807827,0.0363390147686,0.0134139861912,,0.00682167322665,-0.012713596524,0.0305177743635,-0.999430157494
159280000000,,2010,,159,275739646,"""map""",,,0.0231332182884,0.0363997481763,0.0137089286,,0.00685809501848,-0.0127589751797,0.0304764283051,-0.999430536815
159316000000,,2011,,159,307739090,"""map""",,,0.0235416665673,0.0361153632402,0.0140984300524,,0.00687397647783,-0.0128252576845,0.0304966166455,-0.999428977382
159348000000,,2012,,159,339739090,"""map""",,,0.0238058567047,0.0355627536774,0.0147179150954,,0.0068101552832,-0.0128152968695,0.0304507608743,-0.999430916137
159380000000,,2013,,159,371739090,"""map""",,,0.0241831038147,0.0351750776172,0.015342740342,,0.00685958991451,-0.0128281157676,0.0304470098048,-0.999430536815
159416000000,,2014,,159,411738539,"""map""",,,0.0247868746519,0.0348439514637,0.0160707179457,,0.00688387802378,-0.0128687390734,0.0304715814175,-0.999429145969
159448000000,,2015,,159,443738539,"""map""",,,0.0253804326057,0.0347097590566,0.0166257079691,,0.00690331430639,-0.0128623288012,0.0305194602374,-0.999427628683
159480000000,,2016,,159,475738539,"""map""",,,0.0260499082506,0.0346633531153,0.0172298699617,,0.00688443416462,-0.0128183087228,0.0305561701425,-0.999427165068
159516000000,,2017,,159,507737991,"""map""",,,0.0263509824872,0.0343329831958,0.0176129601896,,0.00687750693494,-0.0128370436555,0.0305970947324,-0.999425774222
159548000000,,2018,,159,539737991,"""map""",,,0.026354951784,0.0337394960225,0.0178863182664,,0.00683368441993,-0.0127498368869,0.0306003821865,-0.999427038627
159580000000,,2019,,159,571737991,"""map""",,,0.0264879241586,0.0332751013339,0.0182588007301,,0.00687949837353,-0.0127199452224,0.0306839593871,-0.999424551963
159616000000,,2020,,159,611737447,"""map""",,,0.0267782658339,0.0328534841537,0.0186257883906,,0.00684495343355,-0.0126526212295,0.0306761622202,-0.999425858515
159648000000,,2021,,159,643737447,"""map""",,,0.0271379984915,0.032661549747,0.0189113337547,,0.00684543450031,-0.0126253439867,0.0307129142721,-0.999425099872
159680000000,,2022,,159,675737447,"""map""",,,0.0276038330048,0.0325572565198,0.0191890094429,,0.00685502653034,-0.0125464612206,0.0307595708334,-0.999424636257
159716000000,,2023,,159,707736907,"""map""",,,0.0277607608587,0.0321555249393,0.0194501299411,,0.0068574954137,-0.0125603018506,0.0307484440654,-0.99942472055
159748000000,,2024,,159,739736907,"""map""",,,0.0276538524777,0.031522102654,0.0197621099651,,0.00681062219126,-0.0125354055754,0.0307054542799,-0.999426659305
159780000000,,2025,,159,771736907,"""map""",,,0.0276957470924,0.0310381557792,0.0202068891376,,0.00680927250429,-0.0125573703397,0.0306493146777,-0.999428176592
159816000000,,2026,,159,811736371,"""map""",,,0.0279309432954,0.0306376665831,0.0207975078374,,0.00679144669228,-0.0125555754766,0.0306501154678,-0.999428303033
159848000000,,2027,,159,843736371,"""map""",,,0.0282707735896,0.0304416306317,0.0212747119367,,0.00676690570191,-0.0125371740967,0.0306903235613,-0.999427460096
159880000000,,2028,,159,875736371,"""map""",,,0.0287201590836,0.0303435102105,0.0218304451555,,0.0066882442068,-0.0124838803946,0.0306603992988,-0.999429567438
159916000000,,2029,,159,907735839,"""map""",,,0.0288077071309,0.0301264300942,0.0223850756884,,0.00671269135457,-0.0124635293937,0.0306757828985,-0.999429188116
159948000000,,2030,,159,939735839,"""map""",,,0.0285660643131,0.0297891888767,0.022934589535,,0.00668157380947,-0.0125126028133,0.0306681964658,-0.999429019529
159980000000,,2031,,159,971735839,"""map""",,,0.0284443311393,0.0295686069876,0.0235041733831,,0.00667127285628,-0.0123319337617,0.0306602728583,-0.99943154834
160016000000,,2032,,160,11735311,"""map""",,,0.0285204518586,0.0294574033469,0.0243231263012,,0.00664239535033,-0.0123730470246,0.0306407167206,-0.999431801221
160048000000,,2033,,160,43735311,"""map""",,,0.0287089068443,0.0294764395803,0.0249284356833,,0.00668132125766,-0.012396822457,0.0307102590206,-0.999429103823
160080000000,,2034,,160,75735311,"""map""",,,0.0290250852704,0.0295703280717,0.0256645213813,,0.00660953200375,-0.0124130424082,0.0307572527567,-0.999427965858
160116000000,,2035,,160,107734787,"""map""",,,0.0290463007987,0.0294349696487,0.0264952238649,,0.00665558237483,-0.0124178869909,0.0307744486709,-0.999427038627
160148000000,,2036,,160,139734787,"""map""",,,0.0287923235446,0.0291092526168,0.0273709483445,,0.00663897618725,-0.0124132998991,0.0308062273947,-0.999426279984
160180000000,,2037,,160,171734787,"""map""",,,0.0286838319153,0.0289162080735,0.0281596761197,,0.00662066107666,-0.0124642393046,0.0308346765174,-0.999424889138
160216000000,,2038,,160,211734267,"""map""",,,0.0287474263459,0.0288069862872,0.0288774352521,,0.00661238712347,-0.0124662610363,0.0308616926473,-0.999424088348
160248000000,,2039,,160,243734267,"""map""",,,0.0289208516479,0.0288121663034,0.0293834824115,,0.00660053760286,-0.0124443219553,0.0308736202054,-0.999424046201
160280000000,,2040,,160,275734267,"""map""",,,0.0291957724839,0.0289271846414,0.029907302931,,0.00659523533176,-0.0124538586676,0.0308214002601,-0.999425605634
160316000000,,2041,,160,307733751,"""map""",,,0.0291142035276,0.028844319284,0.0304283630103,,0.00655029691307,-0.012425241616,0.0307934147527,-0.999427122921
160348000000,,2042,,160,339733751,"""map""",,,0.0287275332958,0.0285868644714,0.0309835318476,,0.00659126793037,-0.0125217127888,0.0308013383602,-0.999425437047
160380000000,,2043,,160,371733751,"""map""",,,0.0284962616861,0.0284165237099,0.0316253565252,,0.0065904701037,-0.0124872218494,0.0308353930138,-0.999424762697
160416000000,,2044,,160,411733239,"""map""",,,0.0284062996507,0.0283832270652,0.032508071512,,0.00663073121001,-0.0124508105943,0.0308385540275,-0.999424889138
160444000000,,2045,,160,443733239,"""map""",,,0.0284680314362,0.0284748654813,0.0332301966846,,0.0066001075733,-0.0124468092779,0.0308551177389,-0.99942459411
160480000000,,2046,,160,475733239,"""map""",,,0.0286336634308,0.0286143217236,0.034113176167,,0.00656966767051,-0.0124692281086,0.0308012119197,-0.999426153543
160516000000,,2047,,160,507732731,"""map""",,,0.028556721285,0.0284612290561,0.0344851985574,,0.00654320768145,-0.0124605929437,0.0308180706591,-0.999425900662
160548000000,,2048,,160,539732731,"""map""",,,0.0283058360219,0.0280666444451,0.0343773253262,,0.00654683659096,-0.0124305221551,0.0308536425992,-0.999425226313
160580000000,,2049,,160,571732731,"""map""",,,0.0282061006874,0.0277762021869,0.0341553650796,,0.00648580433232,-0.0123688794257,0.0309176636621,-0.999424425522
160616000000,,2050,,160,611732227,"""map""",,,0.0282994098961,0.0275769159198,0.0341467186809,,0.00647902132389,-0.0124013219623,0.0308999198389,-0.999424551963
160648000000,,2051,,160,643732227,"""map""",,,0.0284947268665,0.027520833537,0.0342836305499,,0.00641613756736,-0.0123985527827,0.0309228055777,-0.999424341229
160680000000,,2052,,160,675732227,"""map""",,,0.0288084931672,0.0275329742581,0.0344933196902,,0.00638363707881,-0.0124404967995,0.0309362082755,-0.999423582585
160716000000,,2053,,160,707731727,"""map""",,,0.0289279464632,0.0273223426193,0.034361731261,,0.00636728015032,-0.012234394759,0.0309470400155,-0.999425900662
160748000000,,2054,,160,739731727,"""map""",,,0.0289502684027,0.0269213281572,0.0341612249613,,0.00635196207579,-0.0123047921791,0.0309995971356,-0.999423498292
160780000000,,2055,,160,771731727,"""map""",,,0.0291125625372,0.0266211554408,0.0340260788798,,0.00636919355138,-0.0123524813382,0.0310290999296,-0.999421896712
160816000000,,2056,,160,811731230,"""map""",,,0.0294767357409,0.0263611953706,0.0340557657182,,0.00638923371931,-0.0123658939142,0.0310468858997,-0.999421053775
160848000000,,2057,,160,843731230,"""map""",,,0.0298776440322,0.0262767411768,0.0341271348298,,0.00641965287795,-0.0123116868108,0.0310133370083,-0.999422571061
160880000000,,2058,,160,875731230,"""map""",,,0.0303608532995,0.0262566804886,0.0343351401389,,0.00649102955372,-0.0123528053421,0.0310027160024,-0.999421896712
160916000000,,2059,,160,907730738,"""map""",,,0.0304253660142,0.0260477475822,0.0344767943025,,0.00649463475563,-0.0123213437075,0.0310094173513,-0.999422107446
160948000000,,2060,,160,939730738,"""map""",,,0.0301333572716,0.0256668962538,0.0345155149698,,0.00646500387476,-0.0123021184884,0.030985309354,-0.999423203264
160980000000,,2061,,160,979730738,"""map""",,,0.0299031957984,0.0253126155585,0.0348083078861,,0.0064238402332,-0.0122214145175,0.0309587989863,-0.999425352753
161016000000,,2062,,161,11730249,"""map""",,,0.0298694074154,0.0251323971897,0.035139027983,,0.00640921428895,-0.0122353081602,0.0309596840701,-0.999425226313
161048000000,,2063,,161,43730249,"""map""",,,0.0299389306456,0.025011761114,0.0355423502624,,0.00634835094698,-0.0122229018403,0.0309914627939,-0.999424804844
161080000000,,2064,,161,75730249,"""map""",,,0.0301209539175,0.0249561481178,0.0360577404499,,0.00637588798558,-0.0122038297328,0.0310272454683,-0.999423751173
161116000000,,2065,,161,107729765,"""map""",,,0.0299787577242,0.0247211214155,0.0364625304937,,0.0064032824493,-0.0122062120175,0.0310558210316,-0.999422655355
161148000000,,2066,,161,139729765,"""map""",,,0.0295566730201,0.0243000499904,0.0368476398289,,0.0063563255917,-0.0121439611223,0.0310581391082,-0.999423624732
161176000000,,2067,,161,171729765,"""map""",,,0.0292657725513,0.0239322856069,0.0373539291322,,0.00638956035738,-0.0121460282935,0.0310887798671,-0.999422486767
161216000000,,2068,,161,211741284,"""map""",,,0.0290453024209,0.0235634706914,0.0381288193166,,0.0064253272267,-0.0121497227282,0.031102983355,-0.999421685977
161248000000,,2069,,161,243741284,"""map""",,,0.0289375390857,0.0233050901443,0.0387758798897,,0.00634684057515,-0.0121786407346,0.0311147844726,-0.999421433096
161280000000,,2070,,161,275741284,"""map""",,,0.0289321318269,0.0231154505163,0.0394835285842,,0.0063766235798,-0.0122305883717,0.0310933738736,-0.999421348803
161316000000,,2071,,161,307740807,"""map""",,,0.0285977311432,0.0227853935212,0.0398215614259,,0.0063488277332,-0.0122785989006,0.031065430513,-0.999421812418
161348000000,,2072,,161,339740807,"""map""",,,0.0280003938824,0.0223207790405,0.0398754365742,,0.00639316358366,-0.0122499179701,0.0310127048055,-0.999423540439
161380000000,,2073,,161,371740807,"""map""",,,0.0275646448135,0.0219453088939,0.0399301201105,,0.00633004505602,-0.0122680078585,0.0309502010292,-0.999425605634
161416000000,,2074,,161,411740333,"""map""",,,0.0272155702114,0.0215688254684,0.0401210524142,,0.00628225020054,-0.0122867016322,0.0309336373177,-0.999426237837
161448000000,,2075,,161,443740333,"""map""",,,0.0270627774298,0.0213311519474,0.0403908938169,,0.00630377242287,-0.0122611649225,0.030921878347,-0.999426785746
161480000000,,2076,,161,475740333,"""map""",,,0.0270341392606,0.0211441293359,0.0406762845814,,0.00627889392845,-0.0122000677973,0.0309843821233,-0.999425732075
161516000000,,2077,,161,507739864,"""map""",,,0.0267673321068,0.0207510832697,0.0410332903266,,0.0062565969285,-0.0122199637439,0.030962212881,-0.999426322131
161548000000,,2078,,161,539739864,"""map""",,,0.0262708012015,0.02014776133,0.0414959825575,,0.00620235755646,-0.0121877190999,0.0310068042467,-0.999425647781
161580000000,,2079,,161,571739864,"""map""",,,0.0259434580803,0.0196334831417,0.0419819019735,,0.00622629532005,-0.0121985261446,0.0310219771122,-0.999424889138
161616000000,,2080,,161,611739398,"""map""",,,0.0256932172924,0.0190865900367,0.0426594018936,,0.00629293969499,-0.0121894280229,0.0310315444468,-0.999424341229
161648000000,,2081,,161,643739398,"""map""",,,0.0256085470319,0.0186869446188,0.0433007627726,,0.00641551162081,-0.012225409907,0.0310010722753,-0.999424046201
161680000000,,2082,,161,675739398,"""map""",,,0.0256036687642,0.01835870184,0.0439835451543,,0.00635026171387,-0.0122060157712,0.0309883439271,-0.999425057725
161716000000,,2083,,161,707738936,"""map""",,,0.0253282617778,0.0179350618273,0.0442786291242,,0.00632976451606,-0.0121839815306,0.0309849721792,-0.999425563487
161748000000,,2084,,161,739738936,"""map""",,,0.0248576197773,0.0173909869045,0.0442823134363,,0.00633951920658,-0.0121952159706,0.0310233258114,-0.999424214788
161780000000,,2085,,161,771738936,"""map""",,,0.0245383046567,0.0168921370059,0.0443753600121,,0.00625339080456,-0.0122108919641,0.0310151914696,-0.999424762697
161816000000,,2086,,161,811738478,"""map""",,,0.024303259328,0.0163422562182,0.0443988218904,,0.00626471052611,-0.0122166627896,0.0310227357555,-0.999424383376
161848000000,,2087,,161,843738478,"""map""",,,0.0242517571896,0.0159352663904,0.0444743409753,,0.00623807931548,-0.0121691814013,0.0310807719659,-0.999423329704
161880000000,,2088,,161,875738478,"""map""",,,0.0243006628007,0.0155514711514,0.0445786751807,,0.00619768024409,-0.0121481777827,0.0310946804259,-0.999423413998
161916000000,,2089,,161,907738023,"""map""",,,0.0244251545519,0.0151842581108,0.044706299901,,0.00619942242359,-0.012162115548,0.0310587291641,-0.999424383376
161948000000,,2090,,161,939738023,"""map""",,,0.0246439445764,0.0148322172463,0.0448407977819,,0.00623778823881,-0.0121603964175,0.0310842701543,-0.999423371851
161980000000,,2091,,161,971738023,"""map""",,,0.0249411091208,0.0145075842738,0.0450879223645,,0.00622820016004,-0.0120435360482,0.0310668635059,-0.999425437047
162016000000,,2092,,162,11737572,"""map""",,,0.0250113159418,0.0139916930348,0.0453166663647,,0.00624451263678,-0.0120312196196,0.0310623116462,-0.999425521341
162048000000,,2093,,162,43737572,"""map""",,,0.0247244089842,0.0134280603379,0.0453201197088,,0.00621547576306,-0.0120427681853,0.031124141073,-0.999423709026
162080000000,,2094,,162,75737572,"""map""",,,0.0245520435274,0.0129333119839,0.0452747680247,,0.00623053535887,-0.0118291982501,0.0311571842022,-0.999425057725
162116000000,,2095,,162,107737125,"""map""",,,0.0245411023498,0.012510153465,0.0453868247569,,0.00624648168486,-0.0118523246869,0.031148628392,-0.999425015578
162148000000,,2096,,162,139737125,"""map""",,,0.0246394891292,0.0121175795794,0.04566199705,,0.00620557718056,-0.0118618166182,0.031123298136,-0.999425900662
162180000000,,2097,,162,171737125,"""map""",,,0.0248430129141,0.0117660863325,0.0460162349045,,0.00618555248843,-0.0119276878619,0.0311391874979,-0.999424762697
162216000000,,2098,,162,211736682,"""map""",,,0.0249787289649,0.0113175669685,0.0463417507708,,0.00615689164363,-0.0119553411336,0.0311281450236,-0.999424931285
162248000000,,2099,,162,243736682,"""map""",,,0.0249092318118,0.0109151434153,0.046414270997,,0.00614575664382,-0.0119928350358,0.0311918289117,-0.999422613208
162284000000,,2100,,162,275736682,"""map""",,,0.0249412767589,0.0105572296306,0.0463313087821,,0.00617146259941,-0.0120867747636,0.0311475325739,-0.999422655355
162316000000,,2101,,162,307736242,"""map""",,,0.0251030866057,0.0102369170636,0.0463652983308,,0.00615935558791,-0.0120859519122,0.0311657400125,-0.999422233886
162348000000,,2102,,162,347736242,"""map""",,,0.0254161320627,0.00986449792981,0.0465819612145,,0.0061202419954,-0.0121198076853,0.0311324440021,-0.999423076823
162380000000,,2103,,162,379736242,"""map""",,,0.0257309935987,0.00959425512701,0.0467561520636,,0.0060718979138,-0.0121144171693,0.0310853659724,-0.999424889138
162416000000,,2104,,162,411735806,"""map""",,,0.0257473941892,0.00926987826824,0.0467696897686,,0.00605038030127,-0.0121189232601,0.0310502576476,-0.999426111396
162448000000,,2105,,162,443735806,"""map""",,,0.0255054216832,0.00888063665479,0.0466287992895,,0.00604309383556,-0.0121369163424,0.0310330195865,-0.999426406424
162480000000,,2106,,162,475735806,"""map""",,,0.0253875516355,0.00853277929127,0.0466521903872,,0.00608308888989,-0.0121489265479,0.0310296478386,-0.999426153543
162516000000,,2107,,162,507735374,"""map""",,,0.0253802407533,0.00822517462075,0.0467981770635,,0.00606523871173,-0.0121505198963,0.0310170459309,-0.999426617159
162548000000,,2108,,162,539735374,"""map""",,,0.0254782084376,0.00792965572327,0.0470597520471,,0.00601354658985,-0.0121266874998,0.0310049497854,-0.999427586536
162576000000,,2109,,162,571735374,"""map""",,,0.0256583057344,0.00762511789799,0.047435503453,,0.00595031051201,-0.012115978249,0.0309870373748,-0.999428640207
162616000000,,2110,,162,611734945,"""map""",,,0.0256468094885,0.00711684767157,0.0479444116354,,0.00594724498733,-0.0120911689018,0.0310056662818,-0.999428387326
162648000000,,2111,,162,643734945,"""map""",,,0.0253381766379,0.00659070024267,0.0483686625957,,0.00589025355779,-0.0121303493366,0.0309499060012,-0.999430031053
162680000000,,2112,,162,675734945,"""map""",,,0.0251393839717,0.00610255124047,0.0487601198256,,0.00587163321183,-0.0121113720595,0.0309578296088,-0.999430115347
162716000000,,2113,,162,707734520,"""map""",,,0.0250512175262,0.00563176488504,0.0491663552821,,0.00584983901061,-0.0120439255773,0.0309732132085,-0.999430578962
162748000000,,2114,,162,739734520,"""map""",,,0.025093883276,0.00518060382456,0.0495676249266,,0.00592661706843,-0.0120497342692,0.030967776265,-0.999430199641
162780000000,,2115,,162,771734520,"""map""",,,0.0252105295658,0.004744021222,0.0499607026577,,0.0058696493465,-0.0120727671926,0.0309473350435,-0.999430916137
162816000000,,2116,,162,811734099,"""map""",,,0.0251383762807,0.00430054916069,0.050315566361,,0.00587065296833,-0.0120756226416,0.030896843119,-0.999432433424
162848000000,,2117,,162,843734099,"""map""",,,0.0247888546437,0.00406024930999,0.050433754921,,0.00582493845495,-0.0120627556697,0.0309191809487,-0.999432180543
