rosbagTimestamp,header,seq,stamp,secs,nsecs,frame_id,pose,position,x,y,z,orientation,x,y,z,w
1900896000000,,28306,,1900,888158648,"""map""",,,0.123786233366,0.090991280973,0.0296870991588,,0.00382216277215,0.00178906317271,0.0343451296767,-0.999401160462
1900932000000,,28307,,1900,928158648,"""map""",,,0.123616158962,0.0906188264489,0.0304915495217,,0.00378971579033,0.00180790001518,0.0343529268437,-0.999400949728
1900964000000,,28308,,1900,960158648,"""map""",,,0.123518355191,0.0904260054231,0.0310970526189,,0.00377977094508,0.00179893870615,0.0343816288475,-0.999400064644
1900996000000,,28309,,1900,992158202,"""map""",,,0.123390130699,0.0902873277664,0.0315900631249,,0.00377748851213,0.00173788660886,0.034375391114,-0.999400401819
1901032000000,,28310,,1901,24158202,"""map""",,,0.123330593109,0.0902108624578,0.0321262963116,,0.00379471875296,0.00198201391473,0.034371766485,-0.99939998035
1901064000000,,28311,,1901,56158202,"""map""",,,0.123309843242,0.0902346745133,0.032644174993,,0.00381515462381,0.00193465740294,0.0343584480809,-0.999400401819
1901096000000,,28312,,1901,88157757,"""map""",,,0.12328645587,0.0900772586465,0.0331203751266,,0.00380641112838,0.00194517567582,0.034396253804,-0.99939917956
1901132000000,,28313,,1901,128157757,"""map""",,,0.123112015426,0.0890276655555,0.0334911495447,,0.00379408901977,0.00188147079661,0.0343471105786,-0.999401034022
1901164000000,,28314,,1901,160157757,"""map""",,,0.12302288413,0.0883176103234,0.0338503308594,,0.00379847830124,0.00185159979396,0.0343756439951,-0.999400064644
1901196000000,,28315,,1901,192157311,"""map""",,,0.122956544161,0.0877324938774,0.0342549942434,,0.00383246578329,0.00181296298767,0.0343970124473,-0.999399263854
1901232000000,,28316,,1901,232157311,"""map""",,,0.122905857861,0.087184779346,0.0349308475852,,0.00383091202984,0.00181855164332,0.0344156413543,-0.999398673798
1901264000000,,28317,,1901,256157311,"""map""",,,0.122888684273,0.0869481265545,0.0354494228959,,0.00385904225241,0.00178866508255,0.0343840312179,-0.999399685322
1901296000000,,28318,,1901,288156865,"""map""",,,0.122816182673,0.0865477994084,0.0361007191241,,0.00390507978187,0.00176443788865,0.034350903795,-0.999400696847
1901332000000,,28319,,1901,328156865,"""map""",,,0.12256719172,0.0856250375509,0.0367877744138,,0.0039641205196,0.00175254630351,0.0343505244733,-0.999400486113
1901364000000,,28320,,1901,360156865,"""map""",,,0.122421838343,0.0849887877703,0.0373936668038,,0.00396739513217,0.00180866516158,0.0343836097494,-0.99939917956
1901396000000,,28321,,1901,392156420,"""map""",,,0.122317075729,0.0844447314739,0.0380937717855,,0.00395028614585,0.00178407576819,0.0343528846969,-0.999400401819
1901432000000,,28322,,1901,424156420,"""map""",,,0.12227384001,0.0839695706964,0.0387123227119,,0.00398145760927,0.00175184799938,0.0343305047203,-0.999401118315
1901464000000,,28323,,1901,456156420,"""map""",,,0.12227936089,0.0835830941796,0.0392814204097,,0.00395095423926,0.00170484529062,0.034320305183,-0.999401624077
1901496000000,,28324,,1901,488155974,"""map""",,,0.122347399592,0.0832549706101,0.0397207848728,,0.00395537554245,0.00169502062974,0.0343093470024,-0.999402045546
1901532000000,,28325,,1901,528155974,"""map""",,,0.122515514493,0.0828986987472,0.0399901755154,,0.00395743596357,0.00168031483697,0.0343587852557,-0.999400317525
1901564000000,,28326,,1901,560155974,"""map""",,,0.122679956257,0.0826952755451,0.040164347738,,0.003964161514,0.00169915200871,0.0343415893415,-0.999400823287
1901596000000,,28327,,1901,592155528,"""map""",,,0.122876368463,0.0825196281075,0.0403967835009,,0.00395161006727,0.00174777984068,0.0343092205618,-0.999402003399
1901632000000,,28328,,1901,624155528,"""map""",,,0.123096890748,0.0823618620634,0.0406173504889,,0.00393484410032,0.00175657346782,0.0343262900355,-0.999401371196
1901664000000,,28329,,1901,656155528,"""map""",,,0.123327851295,0.0822570174932,0.0408291704953,,0.0039293672326,0.00172366904452,0.034284396068,-0.999402972777
1901696000000,,28330,,1901,688155082,"""map""",,,0.12352373451,0.0820871442556,0.0411751046777,,0.00390662711451,0.00175544900307,0.0342961128919,-0.999402551308
1901732000000,,28331,,1901,728155082,"""map""",,,0.123656287789,0.0816271528602,0.0418674275279,,0.00394233891305,0.00175103453228,0.0342978409127,-0.999402340574
1901764000000,,28332,,1901,760155082,"""map""",,,0.123803496361,0.0813030228019,0.0424854196608,,0.00394056619355,0.00169336768303,0.0342841853338,-0.99940293063
1901796000000,,28333,,1901,792154636,"""map""",,,0.123993083835,0.0810337513685,0.0431314334273,,0.00393170588879,0.00171023193774,0.034304710849,-0.999402214133
1901832000000,,28334,,1901,824154636,"""map""",,,0.12423107028,0.0808187052608,0.0436094515026,,0.00390935101924,0.00168410344353,0.0342737329154,-0.999403436392
1901864000000,,28335,,1901,856154636,"""map""",,,0.124517835677,0.0806340202689,0.0439740642905,,0.00393548132445,0.0016662365548,0.0342919403539,-0.999402762042
1901896000000,,28336,,1901,888154190,"""map""",,,0.124689117074,0.0804654806852,0.0443722084165,,0.0039513655003,0.00166566024604,0.0342796334742,-0.999403099217
1901932000000,,28337,,1901,928154190,"""map""",,,0.124406605959,0.0802067890763,0.0446865595877,,0.00393000577382,0.00165789847583,0.0343015076885,-0.999402467014
1901964000000,,28338,,1901,960154190,"""map""",,,0.124249145389,0.0800406783819,0.045026563108,,0.00396366052626,0.00162653677536,0.0343015076885,-0.999402382721
1901996000000,,28339,,1901,992153743,"""map""",,,0.124138742685,0.0799317508936,0.045452311635,,0.00394201853114,0.00165130883253,0.0343149946801,-0.999401961252
1902032000000,,28340,,1902,24153743,"""map""",,,0.124042600393,0.079893745482,0.0458816252649,,0.00392557928459,0.0016476730083,0.0342801392363,-0.999403183511
1902064000000,,28341,,1902,56153743,"""map""",,,0.123952820897,0.0799097940326,0.0462183132768,,0.00396341052631,0.00166791946529,0.0342403526113,-0.999404447916
1902096000000,,28342,,1902,88153297,"""map""",,,0.12385802716,0.0799103006721,0.046348951757,,0.00398343949897,0.00160464980168,0.0342125356913,-0.999405375147
1902132000000,,28343,,1902,128153297,"""map""",,,0.123683810234,0.0797526016831,0.0460248924792,,0.00399896435647,0.00161481937525,0.0341531507818,-0.999407356049
1902164000000,,28344,,1902,160153297,"""map""",,,0.123548448086,0.0796742290258,0.0457833409309,,0.00398546625201,0.00184888445031,0.0341452271743,-0.999407271755
1902196000000,,28345,,1902,192152851,"""map""",,,0.123460456729,0.0796421915293,0.0458229146898,,0.00397945102416,0.00183655328672,0.0341264718267,-0.999407988252
1902232000000,,28346,,1902,224152851,"""map""",,,0.123394630849,0.0796412080526,0.0459836125374,,0.00396270909409,0.00178087573579,0.0341251652744,-0.999408114692
1902264000000,,28347,,1902,256152851,"""map""",,,0.123335301876,0.0796735584736,0.0462422184646,,0.00397175461449,0.00177337186808,0.0341455222022,-0.999407482489
1902296000000,,28348,,1902,288152405,"""map""",,,0.123274922371,0.0796455666423,0.04647853598,,0.00398440097395,0.00179313577658,0.0341479245726,-0.999407271755
1902332000000,,28349,,1902,328152405,"""map""",,,0.12314619869,0.0792800337076,0.0464863963425,,0.00399252354423,0.00184938198069,0.0341577026414,-0.999406765993
1902364000000,,28350,,1902,360152405,"""map""",,,0.123106263578,0.0790622606874,0.0464456453919,,0.00397951753715,0.00180781769711,0.0341300964556,-0.999407903958
1902396000000,,28351,,1902,392151958,"""map""",,,0.12310872972,0.0788945183158,0.0464042201638,,0.00395264258274,0.00182166795825,0.0341152186181,-0.999408451867
1902432000000,,28352,,1902,424151958,"""map""",,,0.123118460178,0.0787800177932,0.0463931486011,,0.0039881353329,0.0018334652892,0.0340854207962,-0.999409336951
1902464000000,,28353,,1902,456151958,"""map""",,,0.123133763671,0.0786986425519,0.0462868772447,,0.00400696690702,0.00176947995236,0.0340676348261,-0.999409927007
1902496000000,,28354,,1902,488151512,"""map""",,,0.123126402497,0.0785729065537,0.0461272411048,,0.00404330177097,0.0017717614798,0.0341068313953,-0.999408494014
1902532000000,,28355,,1902,528151512,"""map""",,,0.122941702604,0.0781779140234,0.045927785337,,0.00403307177595,0.00171778075112,0.0341076743322,-0.999408578307
1902564000000,,28356,,1902,560151512,"""map""",,,0.122833557427,0.0779187306762,0.0457808040082,,0.0040464727451,0.00171062344245,0.0341080958007,-0.999408494014
1902596000000,,28357,,1902,592151066,"""map""",,,0.122729569674,0.0777268111706,0.0456885397434,,0.00402051802431,0.00168944415717,0.034128326288,-0.999407988252
1902632000000,,28358,,1902,624151066,"""map""",,,0.122643440962,0.0775905847549,0.0455782525241,,0.00396964290921,0.00172159751045,0.0341073371574,-0.999408831189
1902664000000,,28359,,1902,656151066,"""map""",,,0.122555926442,0.0775035098195,0.0454804524779,,0.00402731823722,0.0016850074605,0.034111088227,-0.999408536161
1902696000000,,28360,,1902,688150619,"""map""",,,0.122486278415,0.0774473547935,0.0453880168498,,0.00397255186494,0.00167345247393,0.0340976012354,-0.99940921051
1902732000000,,28361,,1902,728150619,"""map""",,,0.122452318668,0.077350653708,0.0450125709176,,0.00391961616407,0.00168803651828,0.0341365027766,-0.999408072545
1902764000000,,28362,,1902,760150619,"""map""",,,0.122424401343,0.0773259177804,0.0447668135166,,0.00388545482626,0.00168318831361,0.0340682670289,-0.999410559209
1902796000000,,28363,,1902,792150173,"""map""",,,0.122390016913,0.0773358941078,0.0445609875023,,0.00386762127635,0.0016606814026,0.0340599219529,-0.999410980678
1902832000000,,28364,,1902,824150173,"""map""",,,0.122339814901,0.077375240624,0.0444579273462,,0.00392459871182,0.0016279232585,0.0340509025273,-0.999411149265
1902864000000,,28365,,1902,856150173,"""map""",,,0.122292242944,0.0774242058396,0.0442725606263,,0.00388846865521,0.00159669474866,0.0340623664701,-0.999410896384
1902896000000,,28366,,1902,888149727,"""map""",,,0.122240178287,0.0772784203291,0.0441422536969,,0.00388647861602,0.00163124224051,0.0341029538852,-0.999409505538
1902932000000,,28367,,1902,928149727,"""map""",,,0.122121542692,0.0764802917838,0.0440837591887,,0.0038866070322,0.00161052871082,0.0341212034706,-0.999408873335
1902964000000,,28368,,1902,960149727,"""map""",,,0.121998734772,0.0759087428451,0.044139508158,,0.00388048931836,0.00167696054052,0.034092712201,-0.999409800566
1902996000000,,28369,,1902,992149280,"""map""",,,0.121889472008,0.0753894522786,0.0442642383277,,0.00388679208321,0.00167442069899,0.0340181122791,-0.999412329377
1903032000000,,28370,,1903,24149280,"""map""",,,0.121801279485,0.0749451592565,0.0444544255733,,0.00392805030822,0.00171072321195,0.0339898317438,-0.999413045873
1903064000000,,28371,,1903,56149280,"""map""",,,0.121690392494,0.0745682567358,0.0446958392859,,0.00394871123666,0.00162762370307,0.0339864178491,-0.999413172314
1903096000000,,28372,,1903,88148834,"""map""",,,0.121516749263,0.074179649353,0.0447880551219,,0.00391899153461,0.0018476370847,0.0339952265404,-0.999412624405
1903132000000,,28373,,1903,128148834,"""map""",,,0.121336065233,0.0734856054187,0.0446321777999,,0.00392530187272,0.00182842849385,0.034036783333,-0.999411275706
1903164000000,,28374,,1903,160148834,"""map""",,,0.121165253222,0.0729888528585,0.0446206964552,,0.00390854413758,0.00171110722571,0.0340584468132,-0.999410769944
1903196000000,,28375,,1903,192148387,"""map""",,,0.120983242989,0.072587698698,0.0447129495442,,0.00390507336107,0.00168004985513,0.0340274688795,-0.999411907908
1903232000000,,28376,,1903,232148387,"""map""",,,0.120726674795,0.0721457153559,0.0448854826391,,0.00388588271556,0.00169245419948,0.0340491745065,-0.999411191412
1903264000000,,28377,,1903,256148387,"""map""",,,0.120574332774,0.0719141066074,0.045095410198,,0.00387038699865,0.00171138290891,0.0340446647937,-0.999411402146
1903296000000,,28378,,1903,288147941,"""map""",,,0.120424956083,0.0716166272759,0.0452475175261,,0.00390075791891,0.00169203404808,0.0340895511874,-0.999409758419
1903332000000,,28379,,1903,328147941,"""map""",,,0.120389662683,0.0712305977941,0.045327052474,,0.00388543169489,0.00168338530074,0.0341181688975,-0.999408873335
1903364000000,,28380,,1903,360147941,"""map""",,,0.120357200503,0.0709698572755,0.0454599484801,,0.00385989539682,0.00167204771617,0.0340870645233,-0.999410053447
1903396000000,,28381,,1903,392147494,"""map""",,,0.12031391263,0.0707276314497,0.0456258952618,,0.00388532229418,0.00164806698255,0.0340901833901,-0.99940988486
1903432000000,,28382,,1903,424147494,"""map""",,,0.120248317719,0.0705399960279,0.0457968004048,,0.00383097780198,0.00162026232792,0.0341075478917,-0.999409547685
1903464000000,,28383,,1903,456147494,"""map""",,,0.120179563761,0.0704256594181,0.0460599027574,,0.00381364861484,0.00155748583184,0.034105777724,-0.999409800566
1903496000000,,28384,,1903,488147048,"""map""",,,0.120079882443,0.0703782588243,0.0463087707758,,0.00378515380557,0.00151476662583,0.0340855050899,-0.99941068565
1903532000000,,28385,,1903,528147048,"""map""",,,0.119812585413,0.0704937130213,0.0462188199162,,0.00377047805889,0.00150656947539,0.0340344231095,-0.999412455817
1903564000000,,28386,,1903,560147048,"""map""",,,0.119596377015,0.0705805644393,0.046134531498,,0.00376663940295,0.00150734853354,0.0339911804429,-0.999413973104
1903596000000,,28387,,1903,592146602,"""map""",,,0.119392372668,0.070673853159,0.0460558310151,,0.00377758284863,0.00147568102147,0.0339831725417,-0.999414225985
1903632000000,,28388,,1903,624146602,"""map""",,,0.11916077137,0.0707677602768,0.0459991656244,,0.00380675373616,0.00145393686963,0.0339588538101,-0.999414942482
1903664000000,,28389,,1903,656146602,"""map""",,,0.118897125125,0.0708700120449,0.0460056327283,,0.00377622929272,0.00146284623596,0.0339355466029,-0.999415827565
1903696000000,,28390,,1903,688146155,"""map""",,,0.11862295866,0.0708940476179,0.0458523109555,,0.00377654473553,0.00146649193836,0.0339279601702,-0.999416080446
1903732000000,,28391,,1903,728146155,"""map""",,,0.118264779449,0.0705860555172,0.0453071109951,,0.00379118887208,0.00145331503898,0.0338978673203,-0.999417091971
1903764000000,,28392,,1903,760146155,"""map""",,,0.117940708995,0.0703648328781,0.0449800007045,,0.00376723266924,0.00145361994509,0.0338602723315,-0.99941844067
1903796000000,,28393,,1903,792145709,"""map""",,,0.117567248642,0.0701499581337,0.0447317510843,,0.0037985751896,0.00144817666314,0.0338469960742,-0.999418819992
1903832000000,,28394,,1903,824145709,"""map""",,,0.117197215557,0.0699667483568,0.0448054298759,,0.00375514615493,0.00143061854946,0.0338492298572,-0.999418862138
1903864000000,,28395,,1903,856145709,"""map""",,,0.11681830883,0.0698221251369,0.044805187732,,0.0037567064115,0.00158758082195,0.0338518851086,-0.999418567111
1903896000000,,28396,,1903,888145263,"""map""",,,0.116501487792,0.0696017369628,0.0447870567441,,0.00373163142386,0.00155703975025,0.0338767096024,-0.999417934908
1903932000000,,28397,,1903,928145263,"""map""",,,0.116274759173,0.0689371749759,0.0444073490798,,0.00381369989899,0.0015259597422,0.0338589657792,-0.999418229936
1903964000000,,28398,,1903,960145263,"""map""",,,0.116069361567,0.0684489309788,0.0442699193954,,0.00384624804971,0.00151397233884,0.0338420227461,-0.999418651404
1903996000000,,28399,,1903,992144816,"""map""",,,0.115891866386,0.0680085793138,0.044330175966,,0.00387257682377,0.00152150328919,0.0338325397052,-0.999418862138
1904032000000,,28400,,1904,24144816,"""map""",,,0.115728698671,0.0676138848066,0.0445106625557,,0.00389706801171,0.0015452145958,0.0338065772465,-0.999419620782
1904064000000,,28401,,1904,56144816,"""map""",,,0.115542255342,0.0672621056437,0.0447601005435,,0.00393788797535,0.00147296625405,0.0337828485708,-0.999420337278
1904096000000,,28402,,1904,88144370,"""map""",,,0.115417376161,0.0669241994619,0.0447961017489,,0.00389779611498,0.00145812727065,0.0337363605968,-0.999422149593
1904132000000,,28403,,1904,128144370,"""map""",,,0.115513838828,0.0665527656674,0.0449239723384,,0.00390183677945,0.00144708331462,0.0337435255611,-0.999421896712
1904164000000,,28404,,1904,160144370,"""map""",,,0.115578517318,0.0663039982319,0.0450330413878,,0.00391830854163,0.00143427503553,0.033724643773,-0.999422486767
1904196000000,,28405,,1904,192143924,"""map""",,,0.115662842989,0.0660502240062,0.0451270118356,,0.00389321602025,0.00145210381099,0.0337272568776,-0.999422486767
1904232000000,,28406,,1904,224143924,"""map""",,,0.115739703178,0.0657989531755,0.0451159961522,,0.00388741243213,0.00141540855855,0.0336907577068,-0.999423751173
1904264000000,,28407,,1904,256143924,"""map""",,,0.115786731243,0.0655529126525,0.0452616289258,,0.00390660818136,0.00140100470844,0.0336442697329,-0.999425310606
1904296000000,,28408,,1904,288143478,"""map""",,,0.115942277014,0.0653071925044,0.0453253015876,,0.00389021560915,0.00140093202159,0.0336296447764,-0.999425858515
1904332000000,,28409,,1904,328143478,"""map""",,,0.116570785642,0.0649104863405,0.0449238233268,,0.003821601116,0.0013940799483,0.0336416144814,-0.999425689928
1904364000000,,28410,,1904,360143478,"""map""",,,0.11701335758,0.0646072849631,0.0446663573384,,0.00377873628934,0.00141907912101,0.033686795903,-0.999424341229
1904396000000,,28411,,1904,392143032,"""map""",,,0.117394208908,0.0643282681704,0.0445692464709,,0.00374246390479,0.0013595444749,0.0336825390713,-0.999424636257
1904432000000,,28412,,1904,424143032,"""map""",,,0.117735989392,0.064068198204,0.0445544458926,,0.003746432294,0.00141601170301,0.0336585153676,-0.9994253949
1904464000000,,28413,,1904,456143032,"""map""",,,0.118036694825,0.0638559013605,0.0444735735655,,0.00369071893471,0.00139808957886,0.0336426260058,-0.999426111396
1904496000000,,28414,,1904,488142586,"""map""",,,0.118259102106,0.0636343881488,0.0443415641785,,0.00370368221872,0.00136966103563,0.0336320049999,-0.999426532865
1904532000000,,28415,,1904,528142586,"""map""",,,0.118406295776,0.0631932020187,0.0438234992325,,0.00371946695435,0.00133798265757,0.0336061268349,-0.999427375802
1904564000000,,28416,,1904,560142586,"""map""",,,0.118508756161,0.0629073902965,0.0434016212821,,0.00370273811285,0.00130916952435,0.0336096671702,-0.999427375802
1904596000000,,28417,,1904,592142140,"""map""",,,0.118627406657,0.0626496449113,0.0430005192757,,0.00368224297299,0.00134759353844,0.0336082763242,-0.999427417949
1904632000000,,28418,,1904,624142140,"""map""",,,0.118762694299,0.0624117143452,0.0425375290215,,0.00368148408276,0.00132050455706,0.0335320326753,-0.999429988906
1904664000000,,28419,,1904,656142140,"""map""",,,0.118902526796,0.0621987618506,0.0421435721219,,0.00368195551831,0.00129321982332,0.0335335499618,-0.999429988906
1904696000000,,28420,,1904,688141694,"""map""",,,0.119076400995,0.0620240606368,0.0417479239404,,0.0036671679837,0.00128593492165,0.0335435809118,-0.999429736025
1904732000000,,28421,,1904,728141694,"""map""",,,0.119375318289,0.0618886388838,0.041206728667,,0.00366518839891,0.00127092010687,0.033533507815,-0.999430115347
1904764000000,,28422,,1904,760141694,"""map""",,,0.119571655989,0.0617650076747,0.0408077947795,,0.00373750424147,0.00124533096061,0.0335130244466,-0.999430536815
1904796000000,,28423,,1904,792141248,"""map""",,,0.119759716094,0.0616343840957,0.0404576212168,,0.00371681318462,0.00125885935812,0.0335018555317,-0.999431000431
1904832000000,,28424,,1904,824141248,"""map""",,,0.119923532009,0.061530161649,0.0401177071035,,0.00374164805047,0.00122763990326,0.0334876098969,-0.999431421899
1904864000000,,28425,,1904,856141248,"""map""",,,0.120060995221,0.0614534206688,0.0397150926292,,0.00370381310444,0.00124204745769,0.0334417962726,-0.999433065626
1904896000000,,28426,,1904,888140802,"""map""",,,0.120129048824,0.0614481568336,0.039203748107,,0.00372592381861,0.00127007865163,0.0334739964649,-0.999431885515
1904932000000,,28427,,1904,928140802,"""map""",,,0.120025597513,0.0617103427649,0.0384525209665,,0.00376304646644,0.00125097048882,0.0334828473031,-0.999431464046
1904964000000,,28428,,1904,960140802,"""map""",,,0.119987010956,0.0618993528187,0.0379972010851,,0.00380220870892,0.00127122081476,0.0334750501361,-0.999431506193
1904996000000,,28429,,1904,992140356,"""map""",,,0.119955345988,0.0620498433709,0.0376708731055,,0.00378534675911,0.00124019110304,0.0334586128652,-0.999432180543
1905028000000,,28430,,1905,24140356,"""map""",,,0.119918569922,0.0621491298079,0.0375281274319,,0.00378106399722,0.00127047353138,0.0334474439503,-0.999432559864
1905064000000,,28431,,1905,56140356,"""map""",,,0.119877792895,0.0622223652899,0.0374217480421,,0.00378158671692,0.00121939797179,0.0334742914928,-0.99943167478
1905096000000,,28432,,1905,88139911,"""map""",,,0.119798026979,0.0622870475054,0.0371730960906,,0.0037834664499,0.00125769044162,0.0335102849014,-0.999430494669
1905132000000,,28433,,1905,128139911,"""map""",,,0.119544401765,0.062372777611,0.0364983417094,,0.00380402003559,0.00127175357727,0.0334653142141,-0.999431885515
1905164000000,,28434,,1905,160139911,"""map""",,,0.119354464114,0.0624474659562,0.0359384901822,,0.0037945895136,0.00125093352801,0.0334884949808,-0.999431126871
1905196000000,,28435,,1905,192139465,"""map""",,,0.119172729552,0.0625332742929,0.0355229154229,,0.00380688528042,0.00125203420284,0.0334915717007,-0.999431000431
1905232000000,,28436,,1905,224139465,"""map""",,,0.119000822306,0.0626066401601,0.03515169397,,0.00387395260557,0.00124538504358,0.0333967834384,-0.999433908563
1905264000000,,28437,,1905,256139465,"""map""",,,0.118843026459,0.0626500174403,0.0348085910082,,0.00386747779597,0.00123668139009,0.0333722539726,-0.9994347515
1905296000000,,28438,,1905,288139019,"""map""",,,0.118705183268,0.0627449378371,0.03426579386,,0.00384639243559,0.00128525571531,0.0333739819934,-0.999434709354
1905332000000,,28439,,1905,328139019,"""map""",,,0.118550084531,0.0630524754524,0.0332053974271,,0.00383567305968,0.00127405379091,0.0333828328315,-0.999434456472
1905364000000,,28440,,1905,360139019,"""map""",,,0.118412405252,0.063289962709,0.0324846878648,,0.00386980896121,0.00116051256825,0.0334206807015,-0.999433276361
1905396000000,,28441,,1905,392138574,"""map""",,,0.118286460638,0.0635313913226,0.0318546779454,,0.00384437210336,0.00117958459343,0.0334414590978,-0.999432644158
1905432000000,,28442,,1905,428138574,"""map""",,,0.118166543543,0.0637830346823,0.0313181243837,,0.00383938412262,0.00122714089116,0.0334609730887,-0.999431927661
1905464000000,,28443,,1905,460138574,"""map""",,,0.118058755994,0.0640470907092,0.0307861231267,,0.00383852414581,0.00127782799181,0.033429447246,-0.999432939186
1905496000000,,28444,,1905,492138129,"""map""",,,0.117938734591,0.0642850846052,0.0303089227527,,0.00384813799013,0.00126962277419,0.0334457580764,-0.999432306983
1905532000000,,28445,,1905,524138129,"""map""",,,0.117837272584,0.064551576972,0.0298760980368,,0.00387524047167,0.00125203165098,0.0334415012447,-0.999432433424
1905564000000,,28446,,1905,556138129,"""map""",,,0.117700643837,0.0648165419698,0.0293911062181,,0.00383357971133,0.0012350477058,0.0334240524494,-0.999433192067
1905596000000,,28447,,1905,588137683,"""map""",,,0.117524333298,0.0651260092854,0.0288393627852,,0.00382694792118,0.00140036435622,0.0334111976606,-0.999433402801
1905632000000,,28448,,1905,628137683,"""map""",,,0.117276437581,0.0656094551086,0.028360504657,,0.00381005040997,0.00140292667059,0.0333767215385,-0.999434667207
1905664000000,,28449,,1905,660137683,"""map""",,,0.117090702057,0.0659707635641,0.0278851538897,,0.00380590297897,0.00137166416339,0.0333760893358,-0.999434709354
1905696000000,,28450,,1905,692137238,"""map""",,,0.116888202727,0.0663345977664,0.0273996088654,,0.0037854834071,0.00142629347609,0.0333636560155,-0.999435088675
1905732000000,,28451,,1905,724137238,"""map""",,,0.116673372686,0.0666824877262,0.0270036943257,,0.0038097921782,0.00143968176826,0.0333867946353,-0.999434203591
1905764000000,,28452,,1905,756137238,"""map""",,,0.116447776556,0.0669602900743,0.0266416966915,,0.00377632428776,0.00142336896225,0.0333861202857,-0.999434372179
1905796000000,,28453,,1905,788136793,"""map""",,,0.116266667843,0.0671603530645,0.0262655951083,,0.00382876797356,0.00141397037967,0.0333881433345,-0.999434119298
1905832000000,,28454,,1905,828136793,"""map""",,,0.1161788553,0.0672299787402,0.0257297810167,,0.00383658761337,0.00137263115368,0.0333974999348,-0.999433866417
1905864000000,,28455,,1905,860136793,"""map""",,,0.116084329784,0.0672831237316,0.0252730045468,,0.00386694873777,0.0013637958736,0.0334159602545,-0.999433192067
1905896000000,,28456,,1905,892136348,"""map""",,,0.115950770676,0.0673496648669,0.0249225720763,,0.00391422013269,0.00134676681813,0.0334107340453,-0.999433192067
1905932000000,,28457,,1905,932136348,"""map""",,,0.115714564919,0.0674362033606,0.0244893841445,,0.00395215632994,0.00130786749954,0.0334086688497,-0.99943314992
1905964000000,,28458,,1905,956136348,"""map""",,,0.115578390658,0.0675093829632,0.024258332327,,0.00394549688092,0.00128641697623,0.0334137686183,-0.99943302348
1905996000000,,28459,,1905,988135903,"""map""",,,0.115436255932,0.0676292851567,0.0240079145879,,0.00394747490167,0.00128413602501,0.0334476968314,-0.999431885515
1906032000000,,28460,,1906,28135903,"""map""",,,0.115312173963,0.0678513199091,0.0235964097083,,0.00394825634704,0.00123741220985,0.033459202921,-0.999431590487
1906064000000,,28461,,1906,60135903,"""map""",,,0.115192785859,0.067996956408,0.0233258400112,,0.00392863410793,0.00121276741641,0.0334657778294,-0.999431421899
1906096000000,,28462,,1906,92135459,"""map""",,,0.115044943988,0.0681420564651,0.0231308434159,,0.00392073914709,0.00121642102134,0.0334723527378,-0.999431253312
1906132000000,,28463,,1906,124135459,"""map""",,,0.114854678512,0.0682675018907,0.0229522548616,,0.00392576911005,0.00125063010363,0.0334540188587,-0.999431801221
1906164000000,,28464,,1906,156135459,"""map""",,,0.114627085626,0.0683670192957,0.0228248313069,,0.00394386377286,0.00123348242782,0.0334144851148,-0.999433065626
1906196000000,,28465,,1906,188135014,"""map""",,,0.114404305816,0.068440258503,0.0227172095329,,0.00393760430731,0.00127172542449,0.0333905457048,-0.999433908563
1906232000000,,28466,,1906,228135014,"""map""",,,0.114196337759,0.0683412924409,0.0225416962057,,0.00396061278228,0.00129120064354,0.0333690086652,-0.999434456472
1906264000000,,28467,,1906,260135014,"""map""",,,0.114003017545,0.0683036223054,0.0225451495498,,0.00395406446265,0.00128437063149,0.0333253445302,-0.999435973759
1906296000000,,28468,,1906,292134570,"""map""",,,0.113791644573,0.0682738348842,0.0224854461849,,0.00392197951567,0.00132194586403,0.0332986234282,-0.99943690099
1906332000000,,28469,,1906,324134570,"""map""",,,0.113550387323,0.0682618096471,0.0224361158907,,0.00387685357645,0.00135307872028,0.0332601433555,-0.999438291836
1906364000000,,28470,,1906,356134570,"""map""",,,0.113288015127,0.0682733803988,0.0223814565688,,0.00389081093338,0.00133160967541,0.0333201604678,-0.999436268787
1906396000000,,28471,,1906,388134125,"""map""",,,0.113038122654,0.0682314261794,0.0221067648381,,0.00390896980428,0.00131654530516,0.0333089915529,-0.999436648109
1906432000000,,28472,,1906,428134125,"""map""",,,0.112971693277,0.0680826753378,0.0214341059327,,0.00389104998504,0.00128527942291,0.0333112674828,-0.999436648109
1906464000000,,28473,,1906,460134125,"""map""",,,0.112895235419,0.0680304542184,0.0210014674813,,0.00382157337481,0.00129935169587,0.0332483422379,-0.999438966185
1906496000000,,28474,,1906,492133681,"""map""",,,0.112775675952,0.0679848119617,0.0205361023545,,0.00380237013464,0.00127790199575,0.0332324950229,-0.999439640535
1906532000000,,28475,,1906,524133681,"""map""",,,0.112581022084,0.0679589882493,0.019907720387,,0.00384879497059,0.00149564735009,0.0332374262042,-0.999439008332
1906564000000,,28476,,1906,556133681,"""map""",,,0.11236461252,0.0679341852665,0.019399497658,,0.00385103361033,0.0015016797001,0.0332362460924,-0.999439008332
1906596000000,,28477,,1906,588133237,"""map""",,,0.112101823092,0.0679001584649,0.0189554095268,,0.00391655203879,0.0015509999093,0.0332442961405,-0.999438376129
1906632000000,,28478,,1906,628133237,"""map""",,,0.111727058887,0.0677890777588,0.0186664704233,,0.00390494198144,0.00154046541976,0.0332683198441,-0.99943770178
1906664000000,,28479,,1906,660133237,"""map""",,,0.111364327371,0.067724250257,0.018464403227,,0.00390112942033,0.00151980580841,0.0332298397714,-0.999439008332
1906696000000,,28480,,1906,692144793,"""map""",,,0.110984295607,0.0676795467734,0.0184123925865,,0.00391141498004,0.00153811589759,0.0331868921328,-0.999440399178
1906732000000,,28481,,1906,724144793,"""map""",,,0.11058177799,0.0676525831223,0.018374145031,,0.00392595144456,0.00148902626129,0.033126200671,-0.999442337933
1906764000000,,28482,,1906,756144793,"""map""",,,0.11014508456,0.0676247477531,0.0183120705187,,0.00396281355571,0.00147782236125,0.0331397298093,-0.999441790024
1906796000000,,28483,,1906,788144349,"""map""",,,0.109659962356,0.0676224455237,0.0181771963835,,0.00399413887159,0.00148539298892,0.0331362737678,-0.999441790024
1906832000000,,28484,,1906,828144349,"""map""",,,0.108957201242,0.0676690489054,0.0179078876972,,0.00396455795779,0.00145741744199,0.0330946748283,-0.999443349457
1906864000000,,28485,,1906,860144349,"""map""",,,0.108356051147,0.0677039250731,0.0177623778582,,0.00395009813139,0.00140720095372,0.03309585494,-0.999443433751
1906896000000,,28486,,1906,892143905,"""map""",,,0.107731826603,0.0677458718419,0.0176697857678,,0.00399008223742,0.00136560670636,0.0330934525697,-0.999443391604
1906932000000,,28487,,1906,924143905,"""map""",,,0.107117816806,0.0677622109652,0.0177038647234,,0.00397200790718,0.00135293655699,0.0330996481564,-0.999443265164
1906964000000,,28488,,1906,956143905,"""map""",,,0.106488928199,0.0677488520741,0.0177446492016,,0.0039975699708,0.00134995664309,0.0330468381552,-0.999444908891
1906996000000,,28489,,1906,988143461,"""map""",,,0.105928733945,0.0677014067769,0.0177629031241,,0.0039813688704,0.00131454761039,0.0329987907479,-0.999446679058
1907032000000,,28490,,1907,28143461,"""map""",,,0.1054616943,0.0676367282867,0.0175801813602,,0.0039576252128,0.00132585926477,0.0329644832132,-0.99944785917
1907064000000,,28491,,1907,60143461,"""map""",,,0.105082906783,0.0675837174058,0.0174635313451,,0.00397192320189,0.00133163041956,0.032971774618,-0.999447564142
1907096000000,,28492,,1907,92143017,"""map""",,,0.10469019413,0.0674895048141,0.0173971764743,,0.00393703409008,0.00130416261045,0.0330043541319,-0.999446679058
1907132000000,,28493,,1907,124143017,"""map""",,,0.104277983308,0.0673972442746,0.017492538318,,0.00394556775677,0.00125538002053,0.0330277456328,-0.999445878268
1907164000000,,28494,,1907,156143017,"""map""",,,0.103837475181,0.0672854930162,0.0175996068865,,0.00394151062869,0.00128048719453,0.0330196112911,-0.999446173296
1907196000000,,28495,,1907,188142573,"""map""",,,0.103430427611,0.0671835392714,0.0175820756704,,0.00391141366295,0.00127090981711,0.0329955875874,-0.999447100527
1907232000000,,28496,,1907,228142573,"""map""",,,0.103218354285,0.067036382854,0.0175160095096,,0.00392495020995,0.00128320698335,0.032994323182,-0.999447016233
1907264000000,,28497,,1907,260142573,"""map""",,,0.102989964187,0.0669446662068,0.0176222510636,,0.00392887793403,0.00126002802766,0.0329715638838,-0.999447774877
1907296000000,,28498,,1907,292142130,"""map""",,,0.102725833654,0.0668516308069,0.0178134161979,,0.00392513344996,0.00129331613545,0.0329699623035,-0.99944785917
1907332000000,,28499,,1907,324142130,"""map""",,,0.102417103946,0.0667413324118,0.0180232618004,,0.00393379462733,0.00122177844555,0.033017124627,-0.999446299737
1907364000000,,28500,,1907,356142130,"""map""",,,0.102063782513,0.066629961133,0.0183405671269,,0.0038939659378,0.00123698316811,0.0330212128713,-0.999446341884
1907396000000,,28501,,1907,388141686,"""map""",,,0.101770997047,0.0665198862553,0.0187058933079,,0.00388074672694,0.00125234791698,0.0330128256485,-0.999446636912
1907432000000,,28502,,1907,428141686,"""map""",,,0.101586632431,0.0664329752326,0.0193004272878,,0.00385504505188,0.00119059257647,0.0329858516654,-0.99944773273
1907464000000,,28503,,1907,460141686,"""map""",,,0.101373441517,0.0663426816463,0.0197902750224,,0.00389551244726,0.00119983936454,0.032949521082,-0.999448744254
1907496000000,,28504,,1907,492141242,"""map""",,,0.10109757632,0.0662295892835,0.0202381312847,,0.00388597433556,0.00116021317745,0.032947287299,-0.999448870695
1907532000000,,28505,,1907,524141242,"""map""",,,0.100784435868,0.066102810204,0.0206625536084,,0.00385522080095,0.00107937173538,0.032937846405,-0.99944946075
1907564000000,,28506,,1907,556141242,"""map""",,,0.10041744262,0.0659766793251,0.0210574585944,,0.00388108595968,0.0010839303451,0.0329207347845,-0.999449882219
1907596000000,,28507,,1907,588140799,"""map""",,,0.100080169737,0.065801024437,0.0214715655893,,0.00391162661978,0.00108540087498,0.0329068684713,-0.999450177247
1907632000000,,28508,,1907,628140799,"""map""",,,0.0998513773084,0.0655068233609,0.02211865969,,0.00390080377007,0.00112471598211,0.0328715915591,-0.999451399506
1907664000000,,28509,,1907,660140799,"""map""",,,0.0995801463723,0.0653088018298,0.0225369725376,,0.00386029241684,0.00116269029262,0.0328942665636,-0.999450725156
1907696000000,,28510,,1907,692140355,"""map""",,,0.0992551967502,0.0651022046804,0.0229282211512,,0.0038540438996,0.00120271160641,0.0329098608975,-0.999450219394
1907732000000,,28511,,1907,724140355,"""map""",,,0.0988347828388,0.0648886486888,0.0232639946043,,0.00389157468038,0.00118892859913,0.0328561236657,-0.999451863121
1907764000000,,28512,,1907,756140355,"""map""",,,0.0983546599746,0.0646582916379,0.0236062016338,,0.00388644700588,0.00117400984953,0.0328814960685,-0.999451020184
1907796000000,,28513,,1907,788139912,"""map""",,,0.0979289710522,0.064429692924,0.02395042032,,0.0038578883178,0.00115396334312,0.0328951937943,-0.999450725156
1907832000000,,28514,,1907,828139912,"""map""",,,0.0977073535323,0.0640888512135,0.0243246071041,,0.00386171470834,0.0011246822317,0.0329071634992,-0.999450303687
1907864000000,,28515,,1907,860139912,"""map""",,,0.0973950996995,0.0638140067458,0.024610593915,,0.00386656727587,0.00116477631467,0.0328737410484,-0.999451357359
1907896000000,,28516,,1907,892139468,"""map""",,,0.0969910249114,0.063547000289,0.0249097757041,,0.00385526969788,0.00119016312313,0.0328565451342,-0.999451947415
1907932000000,,28517,,1907,924139468,"""map""",,,0.0965073779225,0.0632535517216,0.0251871794462,,0.00388865247144,0.00121899206142,0.0328808638658,-0.999450978037
1907964000000,,28518,,1907,956139468,"""map""",,,0.0959635525942,0.0629544481635,0.0255161914974,,0.00389917387241,0.00121709067879,0.0328774078242,-0.999451062331
1907996000000,,28519,,1907,988139025,"""map""",,,0.0955571681261,0.0627361163497,0.0259172283113,,0.00389401870368,0.00123024156566,0.0328200881102,-0.999453001086
1908032000000,,28520,,1908,28139025,"""map""",,,0.0956336259842,0.0628119111061,0.0263954140246,,0.00391585414625,0.00120969983378,0.0328451233382,-0.999452073855
1908064000000,,28521,,1908,60139025,"""map""",,,0.0955879986286,0.0628478676081,0.0267817266285,,0.00385744223621,0.00122608343332,0.0328308777034,-0.999452748205
1908092000000,,28522,,1908,92138582,"""map""",,,0.0954425707459,0.0628422796726,0.027231566608,,0.00383277085404,0.00125219439379,0.0328381691082,-0.99945253747
1908132000000,,28523,,1908,124138582,"""map""",,,0.0951967462897,0.0627824664116,0.0276618003845,,0.00381946957206,0.00125581869349,0.0328458819815,-0.99945241103
1908164000000,,28524,,1908,156138582,"""map""",,,0.0948446244001,0.0626887083054,0.0280857384205,,0.00384471734532,0.00126215965392,0.0328321842557,-0.999452706058
1908196000000,,28525,,1908,196138139,"""map""",,,0.0946347117424,0.0626650452614,0.0285226143897,,0.00380530288029,0.00124495147433,0.0328173064182,-0.999453422554
1908236000000,,28526,,1908,236138139,"""map""",,,0.0948419496417,0.0627330467105,0.0290294345468,,0.00380991178635,0.00126448579776,0.032757542187,-0.999455277016
1908264000000,,28527,,1908,260138139,"""map""",,,0.0949009507895,0.0627601146698,0.0293587520719,,0.00376959009394,0.00126683186257,0.0327154796322,-0.999456794302
1908296000000,,28528,,1908,292137696,"""map""",,,0.0948535874486,0.0627692192793,0.0296785924584,,0.00381523768274,0.00148109631527,0.0326814671255,-0.999457426505
1908332000000,,28529,,1908,324137696,"""map""",,,0.0947116166353,0.0627305656672,0.0301317479461,,0.00382848982083,0.00147654322086,0.0326982415712,-0.999456836449
1908364000000,,28530,,1908,356137696,"""map""",,,0.0944757387042,0.0626171901822,0.0306521505117,,0.0038185974945,0.0014331711503,0.0326992952424,-0.99945696289
1908396000000,,28531,,1908,388137253,"""map""",,,0.0943454056978,0.0624146163464,0.0309848804027,,0.00385818902568,0.00139342584897,0.0327565306627,-0.999454939841
1908432000000,,28532,,1908,428137253,"""map""",,,0.094604820013,0.0619831718504,0.0311120580882,,0.00386187975606,0.0013843567856,0.0327269014282,-0.999455909218
1908464000000,,28533,,1908,460137253,"""map""",,,0.0946870446205,0.0615830123425,0.031177861616,,0.00387980155094,0.00141615707671,0.0327442237829,-0.999455277016
1908496000000,,28534,,1908,492136810,"""map""",,,0.0946699306369,0.0611424669623,0.0313121974468,,0.00382855773323,0.00142810258017,0.0327894473514,-0.999453970463
1908532000000,,28535,,1908,524136810,"""map""",,,0.0945582166314,0.0606924891472,0.0314978510141,,0.0038248740822,0.0014166861349,0.0327733894021,-0.999454518372
1908564000000,,28536,,1908,556136810,"""map""",,,0.0943495556712,0.0602451376617,0.0316584594548,,0.00384684230381,0.00136179332207,0.0327446873982,-0.99945548775
1908596000000,,28537,,1908,588136367,"""map""",,,0.0942485183477,0.0598367862403,0.0317699983716,,0.00383924385264,0.00134056464595,0.0327513887471,-0.999455277016
1908632000000,,28538,,1908,628136367,"""map""",,,0.09462954849,0.0594850517809,0.0318434201181,,0.00382146142225,0.00131515544697,0.0327671938153,-0.999454897694
1908664000000,,28539,,1908,660136367,"""map""",,,0.0947536528111,0.0591197051108,0.0319183170795,,0.00391952339161,0.00128901246478,0.0327442237829,-0.999455277016
1908696000000,,28540,,1908,692135924,"""map""",,,0.0947278290987,0.0587177425623,0.0319636054337,,0.00395739982595,0.00128468393404,0.0327522316841,-0.999454855547
1908732000000,,28541,,1908,724135924,"""map""",,,0.094578564167,0.0582978352904,0.032001323998,,0.00395057285967,0.00128734231359,0.0327210851631,-0.999455909218
1908764000000,,28542,,1908,756135924,"""map""",,,0.0943660736084,0.0578733086586,0.0320945456624,,0.00393899474172,0.00130618384819,0.0327601131448,-0.999454644813
1908796000000,,28543,,1908,788135482,"""map""",,,0.0942332521081,0.0574582703412,0.0320406705141,,0.00393134903998,0.00127474065284,0.0327746538075,-0.999454265491
1908832000000,,28544,,1908,828135482,"""map""",,,0.0944801419973,0.0571431815624,0.0317479260266,,0.00392264020045,0.00130276591987,0.0327841368484,-0.999453970463
1908864000000,,28545,,1908,860135482,"""map""",,,0.0945807173848,0.0568504147232,0.0315068215132,,0.00391278080135,0.00134999508562,0.0328102678945,-0.999453043233
1908896000000,,28546,,1908,892135039,"""map""",,,0.0945797041059,0.0564983226359,0.0312288701534,,0.00390246832363,0.00139443465684,0.0328296554448,-0.999452368883
1908932000000,,28547,,1908,924135039,"""map""",,,0.0944604799151,0.0561084784567,0.0309655610472,,0.00390009106027,0.00141046256003,0.0328585260361,-0.999451399506
1908964000000,,28548,,1908,956135039,"""map""",,,0.0942436605692,0.0557028874755,0.0306872520596,,0.00391250149616,0.00144873469729,0.0328417937372,-0.999451863121
1908996000000,,28549,,1908,988134597,"""map""",,,0.0940923541784,0.0553554147482,0.0303812976927,,0.0039124711208,0.00142895506604,0.0328384219893,-0.999452031708
1909032000000,,28550,,1909,28134597,"""map""",,,0.0942688882351,0.0551762022078,0.0299199931324,,0.00385435967169,0.00144750774655,0.0328081605521,-0.99945321182
1909064000000,,28551,,1909,60134597,"""map""",,,0.0942973569036,0.0549562424421,0.029588829726,,0.00385921586121,0.00148869172067,0.0328055895943,-0.999453169673
1909096000000,,28552,,1909,92134155,"""map""",,,0.0942147523165,0.0547021515667,0.0293707922101,,0.0038251844213,0.00150104914373,0.0328084134332,-0.99945321182
1909132000000,,28553,,1909,124134155,"""map""",,,0.0940354689956,0.0543918311596,0.0291817970574,,0.00379558103467,0.00147887084643,0.0328091299296,-0.999453338261
1909164000000,,28554,,1909,156134155,"""map""",,,0.0937732905149,0.0539999566972,0.0289954002947,,0.00379477662256,0.00141664629296,0.032816800656,-0.999453169673
1909196000000,,28555,,1909,188133713,"""map""",,,0.0935800150037,0.0536151230335,0.0287259761244,,0.003803006124,0.00139311781478,0.0328079919647,-0.999453464701
1909232000000,,28556,,1909,228133713,"""map""",,,0.0937245115638,0.0532617308199,0.0280238725245,,0.00381154407123,0.00148545637383,0.0328113215657,-0.999453253967
1909264000000,,28557,,1909,260133713,"""map""",,,0.0937024652958,0.0529233105481,0.0275509692729,,0.00379665363904,0.00147768793585,0.0327746538075,-0.999454434079
1909296000000,,28558,,1909,292145271,"""map""",,,0.0935853943229,0.0525354444981,0.0271277502179,,0.00379567067904,0.0014511641503,0.0327399248044,-0.999455698484
1909332000000,,28559,,1909,324145271,"""map""",,,0.0933541730046,0.05208145082,0.0268442090601,,0.00376146307848,0.00142598585349,0.0327521473904,-0.999455445603
1909364000000,,28560,,1909,356145271,"""map""",,,0.0930254906416,0.0515583120286,0.0265598893166,,0.00369232907604,0.00143324400178,0.0327873400089,-0.999454560519
1909396000000,,28561,,1909,388144829,"""map""",,,0.0927362293005,0.0510417148471,0.0263006314635,,0.00371896901238,0.00142860669599,0.0327660137036,-0.999455150575
1909432000000,,28562,,1909,428144829,"""map""",,,0.0927169471979,0.0505825281143,0.0258728116751,,0.00375281877632,0.00143102989283,0.0327079353463,-0.999456920743
1909464000000,,28563,,1909,460144829,"""map""",,,0.0925975218415,0.0501230992377,0.0256498698145,,0.00379405065955,0.00137688197616,0.0327523581247,-0.999455403456
1909496000000,,28564,,1909,492144387,"""map""",,,0.0923582389951,0.0496067553759,0.0254902262241,,0.00379071159194,0.00134919635345,0.032748101293,-0.99945561419
1909532000000,,28565,,1909,524144387,"""map""",,,0.0920392498374,0.049044944346,0.0254988819361,,0.0038005789759,0.00138597466482,0.0327269857219,-0.999456162099
1909564000000,,28566,,1909,556144387,"""map""",,,0.0916245654225,0.0484355762601,0.0255127586424,,0.00385261181224,0.00142551672284,0.032730568204,-0.999455782778
1909596000000,,28567,,1909,588143945,"""map""",,,0.0912889614701,0.0478809215128,0.0255633108318,,0.003865810032,0.00142520556056,0.0327473426497,-0.999455192722
1909632000000,,28568,,1909,628143945,"""map""",,,0.0912585929036,0.0474659651518,0.0258155465126,,0.0038823884784,0.00145351811764,0.0327282079805,-0.999455698484
1909664000000,,28569,,1909,660143945,"""map""",,,0.091080211103,0.0470668636262,0.0260742641985,,0.00392698922838,0.00145020514486,0.0327323383716,-0.999455445603
1909696000000,,28570,,1909,692143503,"""map""",,,0.090797290206,0.0466124564409,0.0263459943235,,0.00394501293302,0.00140298980854,0.0327501664885,-0.9994548134
1909732000000,,28571,,1909,724143503,"""map""",,,0.0904196500778,0.046069983393,0.0267383959144,,0.00386519124712,0.00136109468867,0.032792060456,-0.999453801876
1909764000000,,28572,,1909,756143503,"""map""",,,0.0899763852358,0.0454673282802,0.027262089774,,0.00388339506368,0.0012914921318,0.0328207624598,-0.999452916792
1909796000000,,28573,,1909,788143061,"""map""",,,0.089638620615,0.0449343025684,0.0277648717165,,0.00392766201392,0.00125815010568,0.0328110686846,-0.999453085379
1909832000000,,28574,,1909,828143061,"""map""",,,0.0898394584656,0.0446657724679,0.028265543282,,0.00395522193694,0.00127634025745,0.0328302876476,-0.999452326736
1909864000000,,28575,,1909,860143061,"""map""",,,0.0898792296648,0.0443153977394,0.0285921338946,,0.00393104619182,0.00120820847742,0.0328333643675,-0.999452368883
1909896000000,,28576,,1909,892142619,"""map""",,,0.0897909849882,0.0438678748906,0.0288422238082,,0.00390983488481,0.00123787845936,0.0328382112551,-0.999452326736
1909932000000,,28577,,1909,924142619,"""map""",,,0.0896066203713,0.043372772634,0.029036572203,,0.00386703764128,0.00125271620799,0.0328710857969,-0.999451399506
1909964000000,,28578,,1909,956142619,"""map""",,,0.0893750786781,0.0427591577172,0.0291341282427,,0.00376635170132,0.00126791286338,0.0328783772017,-0.999451525946
1909996000000,,28579,,1909,988142177,"""map""",,,0.0892568156123,0.0421536639333,0.0288719199598,,0.00376343237352,0.00130930864188,0.0328832240893,-0.999451315212
1910032000000,,28580,,1910,28142177,"""map""",,,0.0896169096231,0.0416930429637,0.02784784697,,0.00378038610797,0.00132280435911,0.0328948566195,-0.99945080945
1910064000000,,28581,,1910,60142177,"""map""",,,0.0897577181458,0.0411774031818,0.0271073710173,,0.00375925234457,0.00130740503666,0.0328678826364,-0.999451820974
1910096000000,,28582,,1910,92141736,"""map""",,,0.0898209437728,0.0405503027141,0.0264463294297,,0.00379247344546,0.0013066669729,0.0328759326845,-0.999451441652
1910132000000,,28583,,1910,124141736,"""map""",,,0.0897719934583,0.039834856987,0.0257876738906,,0.0038008619854,0.00129298406439,0.0329143706103,-0.999450177247
1910164000000,,28584,,1910,156141736,"""map""",,,0.089593835175,0.0390394963324,0.0252285525203,,0.00383413305335,0.00133104522045,0.032926972518,-0.999449545044
1910196000000,,28585,,1910,188141294,"""map""",,,0.0894889235497,0.0382436104119,0.0247277226299,,0.0038024629071,0.00131349344527,0.0329395322789,-0.999449292163
1910232000000,,28586,,1910,228141294,"""map""",,,0.0898323729634,0.037525229156,0.0240649674088,,0.0037755734647,0.00129782379029,0.0329299649443,-0.999449671485
1910264000000,,28587,,1910,260141294,"""map""",,,0.0899798721075,0.0368415266275,0.023549547419,,0.00384035168914,0.0012838042009,0.03290193729,-0.999450387981
1910296000000,,28588,,1910,292140852,"""map""",,,0.0900060161948,0.0360735654831,0.0230379607528,,0.00383124393628,0.00129562812059,0.0328685148392,-0.999451525946
1910332000000,,28589,,1910,324140852,"""map""",,,0.0899285823107,0.0352392792702,0.0225806422532,,0.00377573373797,0.00127474814378,0.0328390541921,-0.999452748205
1910364000000,,28590,,1910,356140852,"""map""",,,0.0897718146443,0.034326158464,0.0221429970115,,0.00382759699911,0.00124060993735,0.0328578938333,-0.999451947415
1910396000000,,28591,,1910,388140411,"""map""",,,0.0896759852767,0.0335439704359,0.0217946581542,,0.00389141926387,0.0012847010562,0.0328839405857,-0.999450767303
1910432000000,,28592,,1910,428140411,"""map""",,,0.089869864285,0.0330503992736,0.0214715786278,,0.00392821486203,0.0012625633417,0.0328862165155,-0.999450598715
1910464000000,,28593,,1910,460140411,"""map""",,,0.0899310782552,0.0325212813914,0.0213150940835,,0.00396282368083,0.00127568945084,0.0328924542491,-0.999450261541
1910496000000,,28594,,1910,492139969,"""map""",,,0.0898787602782,0.031910020858,0.0211072210222,,0.00397294550992,0.00126304144501,0.0328948987663,-0.999450177247
1910532000000,,28595,,1910,524139969,"""map""",,,0.0897491797805,0.0312136877328,0.0209515113384,,0.00401458215107,0.00149216076851,0.0328855843128,-0.999449966513
1910564000000,,28596,,1910,556139969,"""map""",,,0.0895083546638,0.0304241646081,0.020795525983,,0.00397679560807,0.00143525387962,0.0328652695318,-0.999450893743
1910596000000,,28597,,1910,588139528,"""map""",,,0.0891770794988,0.0295690596104,0.0207076091319,,0.00397663977997,0.00144968201356,0.0328891246481,-0.999450050806
1910632000000,,28598,,1910,628139528,"""map""",,,0.0886702090502,0.028404423967,0.0206508729607,,0.00397932878183,0.00143326532216,0.0329153399879,-0.999449207869
1910664000000,,28599,,1910,660139528,"""map""",,,0.0881924852729,0.0273980423808,0.0204774066806,,0.00398814957393,0.0014037866474,0.0329326201957,-0.999448617814
1910696000000,,28600,,1910,692139086,"""map""",,,0.087833955884,0.0265676006675,0.0203420054168,,0.00397917624646,0.00143382615513,0.0329529771236,-0.999447985611
1910732000000,,28601,,1910,724139086,"""map""",,,0.0879596546292,0.0264163799584,0.0203654915094,,0.00400140788587,0.00145039727522,0.0329645253601,-0.999447479849
1910764000000,,28602,,1910,756139086,"""map""",,,0.0879552364349,0.026132889092,0.0204254891723,,0.00402200477086,0.00142875626791,0.0329629237798,-0.999447479849
1910796000000,,28603,,1910,788138645,"""map""",,,0.0878175497055,0.0257349796593,0.020518457517,,0.00407187404154,0.00143672399792,0.0329541572353,-0.999447564142
1910832000000,,28604,,1910,828138645,"""map""",,,0.0875184163451,0.0250656530261,0.020416950807,,0.00410944244168,0.00143349441333,0.0329001671224,-0.999449207869
1910864000000,,28605,,1910,860138645,"""map""",,,0.087170958519,0.024446696043,0.0203027054667,,0.00408631756896,0.00137730879532,0.0328442382544,-0.999451188771
1910896000000,,28606,,1910,892138204,"""map""",,,0.0869153663516,0.0239870995283,0.0202022604644,,0.00405789042514,0.00137415049818,0.0328528362115,-0.999451020184
1910932000000,,28607,,1910,928138204,"""map""",,,0.0870548188686,0.0241782665253,0.0201667770743,,0.00408771253087,0.00135909691159,0.032871886587,-0.999450345834
1910964000000,,28608,,1910,960138204,"""map""",,,0.0870705991983,0.0242440663278,0.0200907904655,,0.00410796540867,0.00131483448884,0.0328761012719,-0.999450177247
1910996000000,,28609,,1910,992137763,"""map""",,,0.0869428515434,0.0241938456893,0.0200747288764,,0.00410598763487,0.00131526369523,0.0328983126611,-0.99944946075
1911032000000,,28610,,1911,24137763,"""map""",,,0.0867089182138,0.0240141153336,0.0200265403837,,0.00407406897039,0.00129346949401,0.0329355704751,-0.999448364932
1911064000000,,28611,,1911,56137763,"""map""",,,0.0863574072719,0.0236915275455,0.0197953246534,,0.00408097726691,0.00129684865051,0.033047723239,-0.999444613863
1911096000000,,28612,,1911,88137321,"""map""",,,0.0860782936215,0.0235386546701,0.0194106027484,,0.00412763070013,0.00131469174932,0.0330639919226,-0.99944385522
1911132000000,,28613,,1911,128137321,"""map""",,,0.0862122923136,0.0241879709065,0.0190523527563,,0.00414125516282,0.00129170080809,0.0330825365359,-0.999443265164
1911164000000,,28614,,1911,160137321,"""map""",,,0.0862130299211,0.0244944356382,0.0188914034516,,0.00415111110456,0.00127193278369,0.0330474703579,-0.999444360982
1911196000000,,28615,,1911,192136881,"""map""",,,0.0861047953367,0.0246295146644,0.0187746994197,,0.00414536760863,0.00129607304972,0.0330330139889,-0.999444824597
1911232000000,,28616,,1911,224136881,"""map""",,,0.0859188660979,0.0245797708631,0.0185744538903,,0.00419345205906,0.00125097213518,0.0330280828076,-0.999444866744
1911264000000,,28617,,1911,256136881,"""map""",,,0.0856444314122,0.0243745706975,0.018380753696,,0.00419075433149,0.00126975020255,0.0330171667739,-0.999445246066
1911296000000,,28618,,1911,288136440,"""map""",,,0.0854588896036,0.0242113880813,0.0181994121522,,0.00421931293726,0.00125473225969,0.0330762145086,-0.99944318087
1911332000000,,28619,,1911,328136440,"""map""",,,0.0857013165951,0.0245253313333,0.0178568735719,,0.00421065735751,0.00127371842712,0.0330255539967,-0.999444866744
1911364000000,,28620,,1911,360136440,"""map""",,,0.0857639089227,0.0245680902153,0.0175823159516,,0.00420719637685,0.00130757683446,0.0330205806686,-0.999444951038
1911396000000,,28621,,1911,392135999,"""map""",,,0.0857341885567,0.0244628731161,0.0172877572477,,0.0042457487248,0.00132452167855,0.0330661414118,-0.999443307311
1911432000000,,28622,,1911,424135999,"""map""",,,0.0855966806412,0.0242215842009,0.0170334409922,,0.00423431655678,0.00132241087877,0.033064708419,-0.999443391604
1911464000000,,28623,,1911,456135999,"""map""",,,0.0853630080819,0.023879757151,0.0168600007892,,0.00416172140903,0.00128132774428,0.0330746550752,-0.999443475898
1911496000000,,28624,,1911,488135558,"""map""",,,0.0852279886603,0.0236974097788,0.0165966674685,,0.00413867975988,0.00127331177589,0.0330737699914,-0.999443602339
1911532000000,,28625,,1911,528135558,"""map""",,,0.0855342894793,0.0242033228278,0.0160459224135,,0.00408193890653,0.00124294200809,0.0331129665605,-0.99944250652
1911564000000,,28626,,1911,560135558,"""map""",,,0.0856471955776,0.0244402103126,0.0155550595373,,0.00413154574723,0.00126481721028,0.0331409942148,-0.999441368556
1911596000000,,28627,,1911,592135118,"""map""",,,0.0856569781899,0.024511501193,0.0150010101497,,0.00409313762052,0.00127535869686,0.0331471476547,-0.999441284262
1911632000000,,28628,,1911,624135118,"""map""",,,0.0855946838856,0.0244166199118,0.0144509496167,,0.00411502763997,0.00129662902592,0.0330322553456,-0.999444993185
1911664000000,,28629,,1911,656135118,"""map""",,,0.085421025753,0.0241940319538,0.0139389811084,,0.00410295586059,0.0013114196063,0.033021297165,-0.999445414653
1911696000000,,28630,,1911,688134677,"""map""",,,0.0853285118937,0.0240544825792,0.0133980289102,,0.00411102138445,0.00127904094847,0.0330218029272,-0.999445414653
1911732000000,,28631,,1911,728134677,"""map""",,,0.085689894855,0.0244013741612,0.0127163678408,,0.00408729081543,0.00134573265629,0.0330887742695,-0.99944318087
1911764000000,,28632,,1911,760134677,"""map""",,,0.0858779475093,0.0245140045881,0.0122420778498,,0.00408282456657,0.00138378467505,0.0330654670623,-0.999443897366
1911796000000,,28633,,1911,792134237,"""map""",,,0.0859676077962,0.0245099328458,0.0117481714115,,0.00410664889588,0.00136338049666,0.0330792490817,-0.999443433751
1911832000000,,28634,,1911,824134237,"""map""",,,0.0859821736813,0.0243667755276,0.0113298846409,,0.00413624306288,0.00138748602446,0.0330784904384,-0.999443265164
1911864000000,,28635,,1911,856134237,"""map""",,,0.0859204903245,0.0240980181843,0.0108955493197,,0.004179964409,0.00139115815096,0.033017967564,-0.999445035331
1911896000000,,28636,,1911,888133796,"""map""",,,0.0858461633325,0.0239191520959,0.0103686451912,,0.00414476429954,0.0013834909642,0.0330207914028,-0.999445161772
1911932000000,,28637,,1911,928133796,"""map""",,,0.0859417766333,0.0242566708475,0.00969753041863,,0.00413964699713,0.00135885357939,0.0330242474444,-0.999445077478
1911964000000,,28638,,1911,960133796,"""map""",,,0.0859426409006,0.0243165008724,0.00914920400828,,0.00413805957559,0.00136874162518,0.0330856975495,-0.99944305443
1911996000000,,28639,,1911,992133356,"""map""",,,0.0858952924609,0.0241975709796,0.00860569160432,,0.00410600360458,0.0013527584207,0.0330604094404,-0.999444065954
1912032000000,,28640,,1912,24133356,"""map""",,,0.0857624262571,0.0239195264876,0.00795747246593,,0.0041295386682,0.00155005012348,0.0330449836939,-0.999444150248
1912064000000,,28641,,1912,64133356,"""map""",,,0.0855434313416,0.0234046448022,0.00738507509232,,0.00410189239353,0.00150404082911,0.0329878325673,-0.99944625759
1912096000000,,28642,,1912,88132916,"""map""",,,0.0855280607939,0.0232362672687,0.0071061020717,,0.00408337124083,0.00148111845883,0.0329986643074,-0.999445962562
1912132000000,,28643,,1912,128132916,"""map""",,,0.085875146091,0.023510498926,0.00666458858177,,0.0040719431064,0.00137269215136,0.0330242052976,-0.999445372506
1912164000000,,28644,,1912,160132916,"""map""",,,0.086068354547,0.0235486458987,0.00646633375436,,0.00408509629817,0.00133725249635,0.0330231937732,-0.999445372506
1912196000000,,28645,,1912,192132476,"""map""",,,0.0861948281527,0.0234394613653,0.00625383062288,,0.00407749768237,0.00128452415468,0.0330439721695,-0.999444824597
1912232000000,,28646,,1912,224132476,"""map""",,,0.086261369288,0.0231950636953,0.00601802393794,,0.0040805424629,0.001243380928,0.033017672536,-0.999445667534
1912264000000,,28647,,1912,256132476,"""map""",,,0.0862834900618,0.0227970834821,0.00585443619639,,0.00413594268427,0.00124246933777,0.0330128677953,-0.999445667534
1912296000000,,28648,,1912,288132036,"""map""",,,0.0864647626877,0.0224963314831,0.00556378951296,,0.0041508720529,0.00124200588707,0.0330118141241,-0.999445625387
1912332000000,,28649,,1912,328132036,"""map""",,,0.0874194800854,0.0228394456208,0.00534311449155,,0.00413908311839,0.00125136742652,0.0329975263425,-0.999446089003
1912364000000,,28650,,1912,360132036,"""map""",,,0.0880705863237,0.0229496769607,0.00511668715626,,0.00416498400316,0.00127689689219,0.0330272820175,-0.999444993185
1912396000000,,28651,,1912,392131597,"""map""",,,0.0886080116034,0.0228730402887,0.00477049313486,,0.00414359513609,0.00128637466475,0.0330426656172,-0.999444529569
1912432000000,,28652,,1912,424131597,"""map""",,,0.0890273079276,0.0226421281695,0.00430230889469,,0.00412861012045,0.00134055328606,0.0330280828076,-0.999445035331
1912464000000,,28653,,1912,456131597,"""map""",,,0.0893486216664,0.0223170928657,0.00386544130743,,0.00415262361666,0.00130442685144,0.0330698924813,-0.999443602339
1912496000000,,28654,,1912,488131157,"""map""",,,0.0896902680397,0.0221335347742,0.00349614676088,,0.0041463381386,0.00127510713285,0.0330781111168,-0.999443391604
1912532000000,,28655,,1912,528131157,"""map""",,,0.0903862714767,0.0226263124496,0.00310714310035,,0.00420052252217,0.00122882231993,0.0330605780278,-0.999443813073
1912564000000,,28656,,1912,560131157,"""map""",,,0.0908364057541,0.0228767525405,0.00274637783878,,0.00420488488563,0.00122625877079,0.033058302098,-0.999443813073
1912596000000,,28657,,1912,592130718,"""map""",,,0.0911581069231,0.0229648631066,0.00259200413711,,0.00406532234687,0.00122130964418,0.0330324660799,-0.999445288212
1912632000000,,28658,,1912,624130718,"""map""",,,0.0911915972829,0.0228674523532,0.00372984167188,,0.00160259619237,0.00140250407023,0.0325205504579,-0.999468806154
1912664000000,,28659,,1912,656130718,"""map""",,,0.0908797457814,0.0225075036287,0.00655076466501,,-0.00465037534571,0.00338631941288,0.0315094475621,-0.999486929299
1912696000000,,28660,,1912,688130279,"""map""",,,0.0904161483049,0.0221082828939,0.0106173120439,,-0.00859136210225,0.00552578275839,0.0308769076596,-0.99947099779
1912732000000,,28661,,1912,728130279,"""map""",,,0.0899901241064,0.0219791010022,0.0165194813162,,-0.0172537890594,0.0116119684538,0.0296550705213,-0.999343798601
1912764000000,,28662,,1912,760130279,"""map""",,,0.0893597602844,0.0214542299509,0.0218246467412,,-0.0272065002955,0.020622280767,0.028577333458,-0.999008436128
1912796000000,,28663,,1912,792129840,"""map""",,,0.0884907916188,0.0205788593739,0.0276087783277,,-0.0308047239376,0.0243299288231,0.0282675119746,-0.998829354168
1912832000000,,28664,,1912,832129840,"""map""",,,0.0870793089271,0.0189276784658,0.0357465259731,,-0.0401886078059,0.0346033351002,0.0275409003063,-0.998212914362
1912864000000,,28665,,1912,864129840,"""map""",,,0.0854659825563,0.0169646348804,0.043042588979,,-0.0502458740133,0.0464418097729,0.0268394081597,-0.997295461764
1912896000000,,28666,,1912,888129401,"""map""",,,0.0838555172086,0.0150686930865,0.0488309785724,,-0.0563798321737,0.0541165500306,0.0260447714779,-0.996601471756
1912932000000,,28667,,1912,928129401,"""map""",,,0.080327026546,0.0110900737345,0.0592697300017,,-0.0641538313466,0.0642547191305,0.0243922778414,-0.995570559841
1912964000000,,28668,,1912,960129401,"""map""",,,0.0759458914399,0.00621961522847,0.0690487548709,,-0.0701780603927,0.0721496237823,0.0222228952549,-0.994673674905
1912996000000,,28669,,1912,992128962,"""map""",,,0.0701164901257,-0.00018857428222,0.0801994502544,,-0.0726505754615,0.0754221561708,0.0209292820335,-0.994281329892
1913032000000,,28670,,1913,24128962,"""map""",,,0.0628010928631,-0.00813589338213,0.0928227677941,,-0.0757410645806,0.0791568855527,0.0190471723664,-0.993798158421
1913064000000,,28671,,1913,56128962,"""map""",,,0.0540097542107,-0.0176303461194,0.106949187815,,-0.0780292548526,0.0812428321964,0.0175612009285,-0.993480076155
