rosbagTimestamp,header,seq,stamp,secs,nsecs,frame_id,pose,position,x,y,z,orientation,x,y,z,w
208136000000,,288,,208,104003315,"""map""",,,0.177982568741,0.185976430774,-0.0388954430819,,0.0140857237265,-0.0107783722789,0.027529857832,-0.999463664238
208148000000,,289,,208,144003315,"""map""",,,0.176024317741,0.184248760343,-0.0384428277612,,0.0139731294086,-0.0107413163087,0.0275398887819,-0.999465350112
208180000000,,290,,208,176003315,"""map""",,,0.175266057253,0.183709710836,-0.0382076911628,,0.0139249382739,-0.0107222568782,0.0275482338579,-0.999466024462
208212000000,,291,,208,208003342,"""map""",,,0.175191342831,0.183819815516,-0.0381518043578,,0.0138238149781,-0.0106291227151,0.0275806869313,-0.999467457455
208248000000,,292,,208,240003342,"""map""",,,0.17574429512,0.184540122747,-0.0381790027022,,0.0137511659943,-0.0106052764892,0.0275928673705,-0.999468426832
208280000000,,293,,208,272003342,"""map""",,,0.176911562681,0.185842558742,-0.0384363792837,,0.0137323627376,-0.0108360520521,0.0276278071079,-0.999465265819
208312000000,,294,,208,304003369,"""map""",,,0.177522003651,0.186522200704,-0.0385089740157,,0.014019474149,-0.0110618914947,0.027628607898,-0.999458733057
208348000000,,295,,208,344003369,"""map""",,,0.175468400121,0.184297740459,-0.0382746346295,,0.0139144114399,-0.0109974079689,0.0276477425673,-0.999460418931
208380000000,,296,,208,376003369,"""map""",,,0.174697324634,0.183415159583,-0.0382642149925,,0.0138695408514,-0.0109791478468,0.0276705018655,-0.999460587518
208412000000,,297,,208,408003396,"""map""",,,0.174621745944,0.183158144355,-0.0380969531834,,0.0143575804483,-0.0113009968224,0.0276676358798,-0.999450219394
208448000000,,298,,208,440003396,"""map""",,,0.175155639648,0.183495625854,-0.0380080677569,,0.0142075113258,-0.0111832095517,0.0276872763112,-0.999453085379
208480000000,,299,,208,472003396,"""map""",,,0.176263764501,0.184417009354,-0.0379154458642,,0.0141205368588,-0.0111627358969,0.0277508759056,-0.999452790352
208512000000,,300,,208,504003423,"""map""",,,0.176941782236,0.18484480679,-0.0375540703535,,0.0140626837237,-0.0111182617521,0.0277425308296,-0.999454391932
208548000000,,301,,208,544003423,"""map""",,,0.175190314651,0.182666361332,-0.036777254194,,0.0139413594105,-0.0110662387116,0.02781835301,-0.999454518372
208580000000,,302,,208,576003423,"""map""",,,0.174607858062,0.181791216135,-0.0362540669739,,0.0139072769334,-0.01101970217,0.0277915054675,-0.999456246393
208612000000,,303,,208,608003450,"""map""",,,0.17467841506,0.181605637074,-0.0357032604516,,0.0138720599487,-0.0109589665857,0.0278111880458,-0.999456878596
208648000000,,304,,208,640003450,"""map""",,,0.175363704562,0.182045295835,-0.0352731868625,,0.0138443187613,-0.0108559550781,0.0278481929788,-0.999457384358
208680000000,,305,,208,672003450,"""map""",,,0.176596343517,0.183071643114,-0.0348677299917,,0.0138112548879,-0.0108316570907,0.0278359282459,-0.999458438029
208712000000,,306,,208,704003476,"""map""",,,0.17744204402,0.18357218802,-0.0344550833106,,0.0137191327431,-0.0107524101495,0.0278263609113,-0.9994608404
208748000000,,307,,208,744003476,"""map""",,,0.176121011376,0.181326732039,-0.0338460914791,,0.0141403809451,-0.010955135503,0.0278772743043,-0.999451315212
208780000000,,308,,208,776003476,"""map""",,,0.175834491849,0.180361151695,-0.0332880653441,,0.0142311715129,-0.011010528645,0.0278518176078,-0.9994501351
208812000000,,309,,208,808003503,"""map""",,,0.176170304418,0.180084183812,-0.03277849406,,0.0141592302999,-0.0109201360027,0.0278917728201,-0.999451062331
208848000000,,310,,208,840003503,"""map""",,,0.177081823349,0.180475473404,-0.0323483422399,,0.0141188132832,-0.0108705326194,0.0279228350475,-0.999451273065
208880000000,,311,,208,872003503,"""map""",,,0.178570300341,0.181461185217,-0.0319650731981,,0.0140684851716,-0.0108204616694,0.0279303371865,-0.999452368883
208912000000,,312,,208,904003529,"""map""",,,0.179500803351,0.181953787804,-0.0316320322454,,0.0140264812272,-0.010674366863,0.0278969990294,-0.999455445603
208948000000,,313,,208,944003529,"""map""",,,0.17774066329,0.179741874337,-0.0315060764551,,0.0139540688256,-0.0106764835897,0.027931601592,-0.99945548775
208980000000,,314,,208,976003529,"""map""",,,0.177196666598,0.178831130266,-0.0314974673092,,0.0138851355146,-0.0106426734208,0.0279315172983,-0.999456752155
209012000000,,315,,209,8003556,"""map""",,,0.177328407764,0.178617984056,-0.0314989313483,,0.0138158905474,-0.010588385975,0.027953012191,-0.999457679386
209048000000,,316,,209,40003556,"""map""",,,0.178069472313,0.179027438164,-0.0314841903746,,0.0137754972383,-0.0105141978081,0.0280138300934,-0.999457300064
209080000000,,317,,209,72003556,"""map""",,,0.179384157062,0.17997802794,-0.031505074352,,0.0137140268829,-0.0104688759519,0.028021458673,-0.999458438029
209112000000,,318,,209,104003582,"""map""",,,0.180244967341,0.180498510599,-0.0316255614161,,0.0141325424544,-0.0107386948077,0.0280022818569,-0.999450303687
209148000000,,319,,209,144003582,"""map""",,,0.17833699286,0.178254693747,-0.0314440578222,,0.0141044530616,-0.0107471516716,0.0280402561674,-0.999449502897
209180000000,,320,,209,176003582,"""map""",,,0.177660822868,0.177290901542,-0.0312608778477,,0.0140301616678,-0.0107054470357,0.0280357464547,-0.999451146624
209212000000,,321,,209,208003608,"""map""",,,0.177641898394,0.176987946033,-0.0311243478209,,0.0139242247409,-0.0106506306141,0.0280276542597,-0.999453422554
209248000000,,322,,209,240003608,"""map""",,,0.178222492337,0.177284926176,-0.0309960022569,,0.013860550731,-0.0105560774522,0.028010331905,-0.999455824925
209280000000,,323,,209,272003608,"""map""",,,0.179350778461,0.178164198995,-0.0308448262513,,0.0138371207052,-0.0104970550714,0.0280476740128,-0.999455740631
209312000000,,324,,209,304003634,"""map""",,,0.179935112596,0.17852294445,-0.0306403413415,,0.013785525554,-0.0104302123099,0.0280776825689,-0.999456246393
209348000000,,325,,209,344003634,"""map""",,,0.177670389414,0.176062569022,-0.0301184877753,,0.0137143036362,-0.0103562225295,0.0281094191459,-0.999457131477
209380000000,,326,,209,376003634,"""map""",,,0.176782339811,0.174908459187,-0.0298259947449,,0.0136423894235,-0.0102944416704,0.0281212624103,-0.999458438029
209412000000,,327,,209,408003660,"""map""",,,0.176621630788,0.174422621727,-0.0294416155666,,0.0139397326409,-0.0108180637442,0.0281018327131,-0.999449376457
209448000000,,328,,209,440003660,"""map""",,,0.177052244544,0.174516066909,-0.0291623771191,,0.0138821220149,-0.0107256948098,0.0280806328483,-0.999451694533
209480000000,,329,,209,472003660,"""map""",,,0.178080573678,0.175240784883,-0.0290484651923,,0.0139971234777,-0.0106894341968,0.0280749851706,-0.999450683009
209512000000,,330,,209,504003686,"""map""",,,0.178634166718,0.175458669662,-0.0286041982472,,0.0144302989085,-0.0109414111062,0.0281251820672,-0.999440357031
209548000000,,331,,209,544003686,"""map""",,,0.176480025053,0.172939553857,-0.0273659005761,,0.0143633731705,-0.0108500754281,0.0281697734329,-0.999441031381
209580000000,,332,,209,576003686,"""map""",,,0.175578847528,0.171772181988,-0.0263594407588,,0.0143763030333,-0.0107958890689,0.0282154184699,-0.999440230591
209612000000,,333,,209,608003711,"""map""",,,0.175353065133,0.171262577176,-0.0254153963178,,0.0143193700496,-0.01070097486,0.0282183687493,-0.999442000758
209648000000,,334,,209,640003711,"""map""",,,0.175731539726,0.171380162239,-0.0244891252369,,0.0142053763245,-0.0105946064218,0.0282509061163,-0.999443770926
209680000000,,335,,209,672003711,"""map""",,,0.176705628633,0.172037944198,-0.0237181410193,,0.0141758623353,-0.0105434170986,0.0282695771702,-0.999444234541
209712000000,,336,,209,704003737,"""map""",,,0.177195414901,0.17230334878,-0.0229745097458,,0.0141441573685,-0.0105004905334,0.028226798119,-0.999446384031
209748000000,,337,,209,744003737,"""map""",,,0.175019308925,0.170145303011,-0.0219838544726,,0.0140890967915,-0.010456321624,0.0283095323826,-0.999445246066
209780000000,,338,,209,776003737,"""map""",,,0.174147158861,0.169230386615,-0.0211309306324,,0.014100565838,-0.0104348031883,0.0283341039953,-0.999444613863
209812000000,,339,,209,808003762,"""map""",,,0.173935234547,0.16895224154,-0.0202044062316,,0.0140099150462,-0.0103361118973,0.0283647026073,-0.999446046856
209848000000,,340,,209,840003762,"""map""",,,0.174395740032,0.169334456325,-0.0193976256996,,0.0144708962018,-0.0106464154353,0.0283250424228,-0.999437322458
209880000000,,341,,209,872003762,"""map""",,,0.175388425589,0.170235812664,-0.0185075793415,,0.0145281747568,-0.0106391941655,0.0283107124943,-0.999436985283
209912000000,,342,,209,904003787,"""map""",,,0.175943464041,0.170679658651,-0.0176002457738,,0.0144790526048,-0.0105854463969,0.0283239466048,-0.999437912514
209948000000,,343,,209,944003787,"""map""",,,0.174001708627,0.168562039733,-0.0163416583091,,0.0144468061498,-0.0105380142349,0.0283510891752,-0.999438165395
209980000000,,344,,209,976003787,"""map""",,,0.173286408186,0.167697995901,-0.0153977358714,,0.0144244202463,-0.0105278311611,0.0283616258873,-0.999438249689
210012000000,,345,,210,8003813,"""map""",,,0.173258379102,0.167491897941,-0.0144437914714,,0.0143070121326,-0.0104571642317,0.0283326710024,-0.999441494996
210048000000,,346,,210,40003813,"""map""",,,0.173838421702,0.167875185609,-0.0135787129402,,0.0142700719016,-0.0104465470125,0.028317751018,-0.999442590814
210080000000,,347,,210,72003813,"""map""",,,0.174991875887,0.168789103627,-0.0128299891949,,0.0142198028944,-0.0104100620004,0.028353660133,-0.999442590814
210112000000,,348,,210,104003838,"""map""",,,0.175671949983,0.169219389558,-0.0121905533597,,0.0141227922091,-0.010350902807,0.0283217128218,-0.999445541094
210148000000,,349,,210,144003838,"""map""",,,0.173765689135,0.167010381818,-0.0113627398387,,0.0139866200221,-0.0103210875337,0.0283888106046,-0.999445878268
210180000000,,350,,210,176003838,"""map""",,,0.173053875566,0.166047409177,-0.0107921194285,,0.0139561190393,-0.0103117992573,0.0284075659522,-0.999445836122
210212000000,,351,,210,208003863,"""map""",,,0.173046469688,0.165797173977,-0.0103099765256,,0.0143399729438,-0.0105770884793,0.0284094625604,-0.999437533192
210248000000,,352,,210,240003863,"""map""",,,0.173602640629,0.166083469987,-0.00981998629868,,0.0142895607032,-0.0106041750735,0.0284376588021,-0.999437238164
210280000000,,353,,210,272003863,"""map""",,,0.174697548151,0.166909918189,-0.00919450633228,,0.014226434273,-0.0105855629593,0.028434624229,-0.999438418276
210312000000,,354,,210,304003888,"""map""",,,0.175246581435,0.167321369052,-0.00861385744065,,0.0142069138613,-0.0105448528903,0.0284377430958,-0.999439008332
210348000000,,355,,210,344003888,"""map""",,,0.172990620136,0.165349885821,-0.00791720487177,,0.0141021097956,-0.0104304485627,0.0284655178689,-0.99944090494
210380000000,,356,,210,376003888,"""map""",,,0.172044157982,0.164573431015,-0.0074674943462,,0.0140087961791,-0.0103876015168,0.0284707019313,-0.999442464374
210412000000,,357,,210,408003912,"""map""",,,0.171785190701,0.164437443018,-0.00700785731897,,0.0139407589825,-0.0103210585577,0.0284786255388,-0.999443897366
210448000000,,358,,210,440003912,"""map""",,,0.172148659825,0.164888903499,-0.00661168433726,,0.0138631587319,-0.0102645343655,0.028516136234,-0.999444487422
210480000000,,359,,210,472003912,"""map""",,,0.173078849912,0.165878385305,-0.00626122159883,,0.0138069389519,-0.0102387653543,0.0285260407434,-0.999445288212
210512000000,,360,,210,504003937,"""map""",,,0.173638552427,0.166477680206,-0.00604547653347,,0.0140383231746,-0.0107194336979,0.0285064846057,-0.999437533192
210548000000,,361,,210,544003937,"""map""",,,0.17159485817,0.164634436369,-0.00592955155298,,0.0140279260739,-0.0106914798006,0.0285670917738,-0.999436268787
210580000000,,362,,210,576003937,"""map""",,,0.170805647969,0.164008319378,-0.00584073597565,,0.0140926356451,-0.0106802124334,0.028560643306,-0.999435720878
210612000000,,363,,210,608003962,"""map""",,,0.170664966106,0.163989827037,-0.00562559068203,,0.0144558206363,-0.0109917984868,0.0286252122779,-0.999425268459
210648000000,,364,,210,640003962,"""map""",,,0.171128198504,0.164574056864,-0.00537249492481,,0.0144213380934,-0.0108743390066,0.0286628915605,-0.999425942809
210680000000,,365,,210,672003962,"""map""",,,0.172170624137,0.165694072843,-0.00510299578309,,0.0144024941716,-0.0107949254537,0.0286261395086,-0.999428134445
210712000000,,366,,210,704003986,"""map""",,,0.172774225473,0.166316971183,-0.00486351782456,,0.0143504275025,-0.0106863388729,0.0286789495098,-0.999428513767
210748000000,,367,,210,744003986,"""map""",,,0.170868605375,0.164398640394,-0.00476591382176,,0.0142873521095,-0.0106364528094,0.0286896969562,-0.999429651732
210780000000,,368,,210,776003986,"""map""",,,0.17016787827,0.163642600179,-0.004491194617,,0.0142221629533,-0.0105590328353,0.0286988428223,-0.999431211165
210812000000,,369,,210,808004010,"""map""",,,0.170105427504,0.163527473807,-0.00421660440043,,0.0141950284501,-0.0104073883097,0.0286711944897,-0.999433908563
210848000000,,370,,210,840004010,"""map""",,,0.170631185174,0.164005473256,-0.00385975069366,,0.0140751389407,-0.0103227839443,0.0286445576814,-0.999437280311
210880000000,,371,,210,872004010,"""map""",,,0.17171061039,0.164986878633,-0.00340984063223,,0.0140290136601,-0.0103273181879,0.0286168672019,-0.999438671157
210912000000,,372,,210,904004035,"""map""",,,0.17229154706,0.165489137173,-0.00300248130225,,0.0139209558906,-0.0102808260981,0.028625760187,-0.999440399178
210948000000,,373,,210,944004035,"""map""",,,0.17032507062,0.163478791714,-0.00261474587023,,0.0143318239494,-0.01055443603,0.0285950351344,-0.999432602011
210980000000,,374,,210,976004035,"""map""",,,0.169579982758,0.162608236074,-0.00215075816959,,0.0143642301015,-0.0105647246355,0.0286228520544,-0.999431253312
211012000000,,375,,211,8004059,"""map""",,,0.169482901692,0.162364244461,-0.00157351698726,,0.0142759816801,-0.0105191805205,0.0286884746975,-0.999431126871
211048000000,,376,,211,40004059,"""map""",,,0.169950991869,0.162705138326,-0.00106467097066,,0.014181447122,-0.010415661769,0.0286819840829,-0.999433739976
211080000000,,377,,211,72004059,"""map""",,,0.170951902866,0.163598567247,-0.000571173382923,,0.014151732606,-0.0103745932871,0.02873926165,-0.999432939186
211112000000,,378,,211,104004083,"""map""",,,0.171489700675,0.164102002978,-2.34790059039e-05,,0.0140853929726,-0.0103319622437,0.0288108691456,-0.999432222689
211148000000,,379,,211,144004083,"""map""",,,0.169455140829,0.16230905056,0.000839629443362,,0.0140899848388,-0.0102260704271,0.0288005853146,-0.999433571389
211180000000,,380,,211,176004083,"""map""",,,0.168656304479,0.161634594202,0.00149651488755,,0.0140597634081,-0.0102088134329,0.0288142830404,-0.999433782123
211212000000,,381,,211,208004107,"""map""",,,0.168508693576,0.161618575454,0.00214631762356,,0.0140254919287,-0.010126975613,0.0288089303906,-0.999435257263
211248000000,,382,,211,240004107,"""map""",,,0.168965533376,0.162169784307,0.00280694873072,,0.0139332670509,-0.0100653170786,0.028829118731,-0.999436563815
211280000000,,383,,211,272004107,"""map""",,,0.169966250658,0.16325366497,0.00336297671311,,0.0139129993559,-0.0100250803384,0.0288463146452,-0.999436732402
211312000000,,384,,211,304004130,"""map""",,,0.170524075627,0.163987249136,0.00370480492711,,0.0143245606974,-0.0102917250097,0.02887446874,-0.999427460096
211348000000,,385,,211,344004130,"""map""",,,0.16849976778,0.162336692214,0.00414910726249,,0.014276559059,-0.0103024688341,0.0289130331064,-0.999426912187
211380000000,,386,,211,376004130,"""map""",,,0.167706534266,0.161783829331,0.00447177188471,,0.0142427279812,-0.010258639075,0.0288915382137,-0.999428429473
211412000000,,387,,211,408004154,"""map""",,,0.167589470744,0.161840051413,0.00481644878164,,0.014157220422,-0.0101981604877,0.0289022435132,-0.99942994676
211448000000,,388,,211,440004154,"""map""",,,0.168046459556,0.16243621707,0.00515826232731,,0.0140681501371,-0.0101110147991,0.0288691582371,-0.999433107773
211480000000,,389,,211,472004154,"""map""",,,0.169040709734,0.163542687893,0.00548352533951,,0.0140588281103,-0.0100639153666,0.0288957950454,-0.999432939186
211512000000,,390,,211,504004178,"""map""",,,0.169581145048,0.164237707853,0.00584083842114,,0.0140359555424,-0.0100091508053,0.0288949942553,-0.99943382427
211548000000,,391,,211,544004178,"""map""",,,0.167590618134,0.162605941296,0.00649498356506,,0.0139485194357,-0.00993540682665,0.0288841203683,-0.9994361002
211580000000,,392,,211,576004178,"""map""",,,0.166814386845,0.162069424987,0.00713155977428,,0.0139219973788,-0.00986466976223,0.0288606867206,-0.999437870367
211612000000,,393,,211,608004201,"""map""",,,0.166770219803,0.162139520049,0.00773450825363,,0.0141370167704,-0.0102658004173,0.0288665029857,-0.999430621109
211648000000,,394,,211,640004201,"""map""",,,0.167271658778,0.16274087131,0.00839291606098,,0.0140768842482,-0.0102307074037,0.0287995316434,-0.999433697829
211680000000,,395,,211,672004201,"""map""",,,0.168322145939,0.163901135325,0.00894860364497,,0.0141503855532,-0.0101975933162,0.0288574414132,-0.999431337606
211712000000,,396,,211,704004224,"""map""",,,0.168949946761,0.16458761692,0.00952219590545,,0.014601762825,-0.0105078333047,0.0288614875107,-0.999421559537
211748000000,,397,,211,744004224,"""map""",,,0.167191624641,0.162864655256,0.00991072878242,,0.0145192096611,-0.0103609074151,0.0289106728829,-0.999422866089
211780000000,,398,,211,776004224,"""map""",,,0.166582152247,0.162254735827,0.0102350218222,,0.0144547183974,-0.0103337556251,0.0288797792429,-0.999425015578
211812000000,,399,,211,808004248,"""map""",,,0.166608467698,0.162244483829,0.0106557831168,,0.0143761650682,-0.0103037597459,0.0289049409115,-0.999425732075
211848000000,,400,,211,840004248,"""map""",,,0.167208939791,0.162829592824,0.0110900718719,,0.0142789179654,-0.0101640967791,0.0289116844073,-0.999428345179
211880000000,,401,,211,872004248,"""map""",,,0.168373078108,0.163931339979,0.0114416573197,,0.0142373262699,-0.0101220243461,0.0288978180941,-0.999429736025
211912000000,,402,,211,904004271,"""map""",,,0.169104397297,0.164555624127,0.0118201980367,,0.0141696868342,-0.0100599990024,0.0289212938887,-0.999430621109
211948000000,,403,,211,944004271,"""map""",,,0.167496278882,0.162724554539,0.0121637592092,,0.0140540994314,-0.0100144273932,0.0289556857171,-0.999431716927
211980000000,,404,,211,976004271,"""map""",,,0.167003110051,0.162058934569,0.0125364167616,,0.0140596106258,-0.00994971041336,0.029008580012,-0.999430831843
212012000000,,405,,212,8004294,"""map""",,,0.167143136263,0.161998793483,0.0130149442703,,0.013941061913,-0.00983628550612,0.0290173044096,-0.999433318507
212048000000,,406,,212,40004294,"""map""",,,0.167917072773,0.162544205785,0.0133686885238,,0.0144457182343,-0.0100705661722,0.0290297377299,-0.999423413998
212080000000,,407,,212,72004294,"""map""",,,0.169167727232,0.163573205471,0.0138450432569,,0.0144595509617,-0.0100883119711,0.0290131740185,-0.999423540439
212112000000,,408,,212,104004317,"""map""",,,0.169951200485,0.164188057184,0.0144967390224,,0.0144249353928,-0.0100252179742,0.0289964417196,-0.999425184166
212148000000,,409,,212,144004317,"""map""",,,0.168227657676,0.162442028522,0.0155851719901,,0.0143542873965,-0.00992746296889,0.029010813795,-0.999426743599
212180000000,,410,,212,176004317,"""map""",,,0.167673975229,0.161816835403,0.0164327993989,,0.0143033721925,-0.00990446313731,0.0290100551517,-0.999427755123
212212000000,,411,,212,208004340,"""map""",,,0.167793035507,0.161802440882,0.0171921662986,,0.0142335585721,-0.00990145754017,0.0290738233335,-0.99942687004
212248000000,,412,,212,240004340,"""map""",,,0.168504163623,0.162368535995,0.0177592467517,,0.0141433975728,-0.0098650410167,0.0290821684095,-0.999428303033
212280000000,,413,,212,272004340,"""map""",,,0.169759348035,0.163465052843,0.0183084774762,,0.0141051532591,-0.00981281185177,0.0290774901093,-0.999429440997
212312000000,,414,,212,304010362,"""map""",,,0.170583203435,0.164111256599,0.0186945516616,,0.0140371666058,-0.00974911857941,0.0290726432217,-0.999431253312
212348000000,,415,,212,344010362,"""map""",,,0.16905875504,0.162376388907,0.0185637082905,,0.0140005250247,-0.00971751914438,0.0290822527032,-0.999431759074
212380000000,,416,,212,376010362,"""map""",,,0.168644875288,0.161772146821,0.0183689203113,,0.0139054661006,-0.00968478618961,0.0291092266862,-0.999432602011
212408000000,,417,,212,408010385,"""map""",,,0.16890797019,0.161793455482,0.0182001311332,,0.0143818028678,-0.00993159451249,0.029095655401,-0.999423835467
212448000000,,418,,212,440010385,"""map""",,,0.169691443443,0.162337988615,0.0181764382869,,0.0143324210847,-0.00990945309368,0.0290609263978,-0.999425774222
212480000000,,419,,212,472010385,"""map""",,,0.171011298895,0.163397669792,0.0182301290333,,0.0142703292279,-0.00989106027485,0.0290871838845,-0.99942606925
212512000000,,420,,212,504010407,"""map""",,,0.171826630831,0.163941159844,0.0184024348855,,0.0141798909814,-0.0098286134626,0.0291163916505,-0.999427122921
212548000000,,421,,212,544010407,"""map""",,,0.170098468661,0.161982700229,0.0188418999314,,0.0141291800908,-0.0097571564444,0.0291807077413,-0.999426701452
212580000000,,422,,212,576010407,"""map""",,,0.169515281916,0.161226034164,0.0191482435912,,0.0140841152316,-0.00972584857995,0.0291845009577,-0.999427544389
212612000000,,423,,212,608010429,"""map""",,,0.169540673494,0.16110740602,0.0195527803153,,0.013969304582,-0.009711141964,0.0291987465925,-0.999428893088
212648000000,,424,,212,640010429,"""map""",,,0.170163422823,0.161537021399,0.0200755484402,,0.013933405016,-0.00962995495069,0.029213076521,-0.999429736025
212680000000,,425,,212,672010429,"""map""",,,0.171324685216,0.162518709898,0.0205604266375,,0.0138829777935,-0.00960499990047,0.0292397133292,-0.999429904613
212712000000,,426,,212,704010452,"""map""",,,0.172073587775,0.163094431162,0.0207834262401,,0.0141113511507,-0.0100829418699,0.0292624726274,-0.999421306656
212748000000,,427,,212,744010452,"""map""",,,0.170306563377,0.161191478372,0.020855082199,,0.0140593147747,-0.00997088475956,0.0292137930174,-0.999424636257
212780000000,,428,,212,776010452,"""map""",,,0.169750913978,0.160477608442,0.0208263192326,,0.0141210098584,-0.00990553607095,0.0291990416204,-0.999424804844
212812000000,,429,,212,808010473,"""map""",,,0.169816896319,0.160323575139,0.0208859965205,,0.0144793634378,-0.0102475814542,0.0292188927861,-0.999415658978
212848000000,,430,,212,840010473,"""map""",,,0.170448854566,0.160754963756,0.0209582168609,,0.0144339805016,-0.0101671955603,0.0292328433929,-0.999416712649
212880000000,,431,,212,872010473,"""map""",,,0.171647936106,0.161729037762,0.0210545659065,,0.0144253860019,-0.0101254640887,0.0292495756918,-0.999416754796
212912000000,,432,,212,904010495,"""map""",,,0.173339188099,0.163233011961,0.0210683699697,,0.0144081729655,-0.0101094337983,0.0292618825715,-0.99941683909
212948000000,,433,,212,944010495,"""map""",,,0.176105573773,0.165782436728,0.0213062372059,,0.0143347289539,-0.0100254092814,0.0292653386131,-0.999418609257
212980000000,,434,,212,976010495,"""map""",,,0.178831934929,0.168323725462,0.0216748360544,,0.0142413698978,-0.0100288295969,0.0292665187249,-0.999419873663
213012000000,,435,,213,8010517,"""map""",,,0.179773598909,0.16905285418,0.0220271814615,,0.0141812541685,-0.0100381847156,0.0292682888925,-0.999420632306
213048000000,,436,,213,40010517,"""map""",,,0.17916688323,0.168191105127,0.022366380319,,0.0140867308057,-0.0100091308843,0.0292523995306,-0.999422697502
213080000000,,437,,213,72010517,"""map""",,,0.179187685251,0.167970716953,0.0228553786874,,0.0140325696358,-0.00997456503555,0.0292483112863,-0.99942391976
213108000000,,438,,213,104010538,"""map""",,,0.179828867316,0.168344020844,0.0232995115221,,0.013965908468,-0.00989218177614,0.0292507136567,-0.999425647781
213148000000,,439,,213,144010538,"""map""",,,0.181435778737,0.169626012444,0.0235873330384,,0.0144262821163,-0.0101373858846,0.0292896151979,-0.999415490391
213180000000,,440,,213,176010538,"""map""",,,0.183256953955,0.171183809638,0.0238188076764,,0.0144424859332,-0.0101371162106,0.0292967380153,-0.999415026775
213212000000,,441,,213,208010559,"""map""",,,0.183330789208,0.171083927155,0.0238749347627,,0.0144006181429,-0.0100822701545,0.0292693425637,-0.99941696553
213248000000,,442,,213,240010559,"""map""",,,0.18188148737,0.169554263353,0.0238226354122,,0.0142978371259,-0.0100029478099,0.0292530738802,-0.999419747222
213280000000,,443,,213,272010559,"""map""",,,0.18118070066,0.168745607138,0.0237197205424,,0.0142892546446,-0.00994780162211,0.0292413149095,-0.999420800893
213312000000,,444,,213,304010581,"""map""",,,0.181146785617,0.168569028378,0.0236020088196,,0.0142495533011,-0.00986668902433,0.029190527957,-0.999423624732
213348000000,,445,,213,344010581,"""map""",,,0.181946605444,0.169219017029,0.0235817581415,,0.0141814133716,-0.00973278223044,0.0291232615868,-0.999427839417
213380000000,,446,,213,376010581,"""map""",,,0.183169320226,0.170386970043,0.023435736075,,0.0141411731741,-0.00965804319105,0.0291504463041,-0.999428387326
213412000000,,447,,213,408010602,"""map""",,,0.182737678289,0.170141115785,0.0233381912112,,0.0140560844492,-0.00953873023736,0.0291398674451,-0.999431042578
213448000000,,448,,213,440010602,"""map""",,,0.180949106812,0.168647304177,0.0233021508902,,0.0139635841352,-0.00943026910935,0.0290989007083,-0.999434498619
213476000000,,449,,213,472010602,"""map""",,,0.179874882102,0.167881041765,0.0233107674867,,0.0139502099194,-0.00940714152014,0.0290882375557,-0.999435299409
213512000000,,450,,213,504010622,"""map""",,,0.179445177317,0.16775046289,0.0232064109296,,0.0138568174422,-0.00934693507631,0.0291058970852,-0.999436605962
213548000000,,451,,213,544010622,"""map""",,,0.179737076163,0.168439254165,0.0230997428298,,0.0137751254899,-0.00925385195038,0.0290581447058,-0.999440019856
213580000000,,452,,213,576010622,"""map""",,,0.180588185787,0.169627144933,0.0229015015066,,0.0137267545726,-0.00924088339802,0.0290669112503,-0.999440525619
213612000000,,453,,213,608010643,"""map""",,,0.179937630892,0.169363453984,0.0225403849036,,0.0144167083609,-0.0101355641859,0.0290495467487,-0.999422655355
213648000000,,454,,213,640010643,"""map""",,,0.177863687277,0.16777664423,0.0221771355718,,0.0146443145137,-0.0103549648741,0.0290457956792,-0.999417218411
213680000000,,455,,213,672010643,"""map""",,,0.176536202431,0.166922211647,0.0219791196287,,0.0146127680915,-0.0102887385103,0.0290135111933,-0.99941924146
213712000000,,456,,213,704010663,"""map""",,,0.175873667002,0.166747361422,0.0219072178006,,0.0144688729884,-0.0102479513916,0.0289942500835,-0.99942231818
213748000000,,457,,213,744010663,"""map""",,,0.17593960464,0.167383491993,0.0220148935914,,0.0143884688199,-0.0101737951641,0.029010813795,-0.99942379332
213780000000,,458,,213,776010663,"""map""",,,0.176641181111,0.168492585421,0.022271938622,,0.0143227790053,-0.0101275166073,0.0290181051998,-0.999425015578
213812000000,,459,,213,808010684,"""map""",,,0.175807371736,0.168069466949,0.0225623119622,,0.0142244383892,-0.0100355931783,0.0290163350321,-0.999427375802
213848000000,,460,,213,840010684,"""map""",,,0.173661366105,0.166333407164,0.022882996127,,0.0141243972467,-0.00998280457979,0.0290119517599,-0.999429483144
213880000000,,461,,213,872010684,"""map""",,,0.172279581428,0.165360376239,0.0231260191649,,0.0140698977496,-0.00993282467363,0.0290072734597,-0.999430789697
213912000000,,462,,213,904010704,"""map""",,,0.171571850777,0.165077701211,0.0233634728938,,0.0139982265398,-0.00983832403065,0.0289915526852,-0.999433276361
213948000000,,463,,213,944010704,"""map""",,,0.171552434564,0.165584534407,0.0237316507846,,0.0139358001424,-0.00979639746527,0.0289201980707,-0.999436605962
213980000000,,464,,213,976010704,"""map""",,,0.17216129601,0.166595771909,0.0241507925093,,0.0139100650462,-0.00979964985196,0.0289076383098,-0.999437280311
214012000000,,465,,214,8010724,"""map""",,,0.171402424574,0.166226640344,0.0246147140861,,0.0138005904182,-0.0097256961269,0.0288522573509,-0.999441073528
214048000000,,466,,214,40010724,"""map""",,,0.169467419386,0.164632350206,0.0250622984022,,0.0136708927115,-0.00963006097636,0.0288590008466,-0.999443602339
214080000000,,467,,214,72010724,"""map""",,,0.168242186308,0.16375733912,0.0255273040384,,0.0136486872493,-0.00960931616581,0.0288361994016,-0.999444824597
214112000000,,468,,214,104010744,"""map""",,,0.167666360736,0.163557857275,0.0258416291326,,0.0138496567585,-0.0095798158414,0.0288479162255,-0.999441958611
214148000000,,469,,214,144010744,"""map""",,,0.16777600348,0.164140805602,0.0264804437757,,0.0142552120095,-0.0100264566964,0.0288409198486,-0.999432096249
214180000000,,470,,214,176010744,"""map""",,,0.168417468667,0.165207847953,0.0270750746131,,0.0141998010867,-0.0100114613087,0.0288190877811,-0.999433613535
214212000000,,471,,214,208010763,"""map""",,,0.167662546039,0.164903566241,0.0277364403009,,0.014147854602,-0.00998270184685,0.0288670930415,-0.999433318507
214248000000,,472,,214,240010763,"""map""",,,0.165675595403,0.163391157985,0.02839256078,,0.0140816842145,-0.00989037901055,0.0288761967608,-0.999434920088
214280000000,,473,,214,272010763,"""map""",,,0.164382830262,0.162580892444,0.0290395114571,,0.0140099535711,-0.00984572903437,0.0288333334159,-0.999437575339
214312000000,,474,,214,304010783,"""map""",,,0.163735806942,0.162439182401,0.0296711977571,,0.0139375301388,-0.0097563981304,0.0288554605113,-0.999438797598
214348000000,,475,,214,344010783,"""map""",,,0.163720801473,0.163095459342,0.0302956476808,,0.0138774130924,-0.00961975524872,0.0288708441111,-0.999440525619
214380000000,,476,,214,376010783,"""map""",,,0.164298579097,0.164242848754,0.030706429854,,0.0138098808348,-0.00958859012378,0.028862499035,-0.999442042905
214412000000,,477,,214,408010802,"""map""",,,0.163493797183,0.163931578398,0.031159888953,,0.013722439789,-0.00960854089429,0.0288531002878,-0.999443349457
214448000000,,478,,214,440010802,"""map""",,,0.161528244615,0.162392929196,0.0317513905466,,0.0136715479633,-0.00951014331418,0.0288825609349,-0.999444065954
214480000000,,479,,214,472010802,"""map""",,,0.160296097398,0.16154782474,0.0323863849044,,0.013631320772,-0.00949277947114,0.0288734993625,-0.999445119625
214512000000,,480,,214,504022822,"""map""",,,0.15970942378,0.161373257637,0.0329938568175,,0.0135853838352,-0.00951370225333,0.0288848790116,-0.999445203919
214548000000,,481,,214,544022822,"""map""",,,0.159768655896,0.16198451817,0.0335918739438,,0.0135066754188,-0.00950498756922,0.0289185964904,-0.999445372506
214580000000,,482,,214,576022822,"""map""",,,0.160428911448,0.163106873631,0.033883318305,,0.0134978838496,-0.00979077349518,0.0289402178237,-0.999442042905
214612000000,,483,,214,608022841,"""map""",,,0.15970595181,0.162918359041,0.0339099057019,,0.0141409570069,-0.0102552167839,0.0289063739043,-0.999429525291
214648000000,,484,,214,640022841,"""map""",,,0.157817304134,0.161543607712,0.0337918847799,,0.014164056114,-0.0103620537765,0.0289254242799,-0.999427502242
214680000000,,485,,214,672022841,"""map""",,,0.156597718596,0.16085767746,0.033661339432,,0.0141229179911,-0.0103265531238,0.028925382133,-0.99942847162
214712000000,,486,,214,704022859,"""map""",,,0.155988246202,0.160768851638,0.0336130931973,,0.0140474275524,-0.0103185480214,0.0289794986865,-0.999428050151
214748000000,,487,,214,744022859,"""map""",,,0.156007260084,0.161472886801,0.0335025750101,,0.0139878967752,-0.0102818891535,0.0289875908814,-0.999429061676
214780000000,,488,,214,776022859,"""map""",,,0.156561002135,0.162592858076,0.0335363857448,,0.013941034748,-0.0102486010458,0.0289848934831,-0.9994300732
214812000000,,489,,214,808022878,"""map""",,,0.155796602368,0.162137210369,0.0336221456528,,0.013926571135,-0.0101844476154,0.029023036381,-0.999429862466
214848000000,,490,,214,840022878,"""map""",,,0.153915584087,0.160340100527,0.033726669848,,0.0138725909002,-0.0100713682794,0.0290319293661,-0.999431506193
214880000000,,491,,214,872022878,"""map""",,,0.152677774429,0.159245640039,0.0338858775795,,0.0138367491215,-0.0100194892955,0.0290342474427,-0.999432475571
214912000000,,492,,214,904022896,"""map""",,,0.152018994093,0.158823266625,0.0341159179807,,0.0136910063072,-0.00996234244948,0.028968245478,-0.999436943136
214948000000,,493,,214,944022896,"""map""",,,0.151940792799,0.159135252237,0.0345640853047,,0.0136179610442,-0.00989067650803,0.0290275460938,-0.999436985283
214980000000,,494,,214,976022896,"""map""",,,0.152423650026,0.159991070628,0.0350317023695,,0.0135684791624,-0.0098674708813,0.0290128789905,-0.999438249689
215012000000,,495,,215,8022914,"""map""",,,0.151642248034,0.159496605396,0.0354619063437,,0.0135325792671,-0.00986864440761,0.0290025108658,-0.999439008332
215048000000,,496,,215,40022914,"""map""",,,0.149833604693,0.157847061753,0.0357779413462,,0.0134629207339,-0.00983190585587,0.0289700156456,-0.999441326409
215080000000,,497,,215,72022914,"""map""",,,0.148629933596,0.156898677349,0.0361327491701,,0.0133956973337,-0.00979918327318,0.0289779392531,-0.999442253639
215112000000,,498,,215,104022931,"""map""",,,0.148014202714,0.156640484929,0.0364776961505,,0.0135487774863,-0.00980456736844,0.0289727130439,-0.999440314884
215148000000,,499,,215,144022931,"""map""",,,0.147969469428,0.157127052546,0.0369876772165,,0.0139404772901,-0.0102139158358,0.0289784871622,-0.999430663256
215180000000,,500,,215,176022931,"""map""",,,0.148432403803,0.158057898283,0.0373765416443,,0.0138813472373,-0.0101661430415,0.0290019208099,-0.999431253312
215212000000,,501,,215,208022949,"""map""",,,0.14768370986,0.157672524452,0.0376343503594,,0.0138378544884,-0.0100870227055,0.0290562902445,-0.999431084725
215248000000,,502,,215,240022949,"""map""",,,0.145910903811,0.156165510416,0.0378275588155,,0.0137547137382,-0.00999781182131,0.0290652253764,-0.999432939186
215280000000,,503,,215,272022949,"""map""",,,0.144768342376,0.155346497893,0.0380851626396,,0.0137121798302,-0.00997373790364,0.0290798924797,-0.999433360654
215312000000,,504,,215,304022966,"""map""",,,0.144211411476,0.155138507485,0.0384279377759,,0.0136353276861,-0.00987842017156,0.0290842336051,-0.999435172969
215348000000,,505,,215,344022966,"""map""",,,0.144235879183,0.155659019947,0.0387272238731,,0.0136331479038,-0.00979512877928,0.0290215612413,-0.99943782822
215380000000,,506,,215,376022966,"""map""",,,0.144796013832,0.156656742096,0.0390119180083,,0.013618301841,-0.00974626461215,0.0290168829411,-0.99943862901
215412000000,,507,,215,408034983,"""map""",,,0.14413793385,0.156304761767,0.0392171032727,,0.0135392557559,-0.00970629063124,0.0289927749438,-0.999440820647
215448000000,,508,,215,440034983,"""map""",,,0.142402917147,0.154795482755,0.0393236540258,,0.0134287070418,-0.00964956377196,0.0289826597002,-0.99944318087
215480000000,,509,,215,472034983,"""map""",,,0.14124275744,0.153955832124,0.039439253509,,0.0133916425105,-0.0096425058212,0.0289940814961,-0.999443391604
215512000000,,510,,215,504034999,"""map""",,,0.140640512109,0.153714850545,0.03957606107,,0.0133745570672,-0.00957720998078,0.0290229942342,-0.999443391604
215548000000,,511,,215,544034999,"""map""",,,0.140656530857,0.154254972935,0.0398552007973,,0.0138197296972,-0.00985645474877,0.029042803253,-0.999434035004
215580000000,,512,,215,576034999,"""map""",,,0.14114330709,0.155177757144,0.0402435176075,,0.0139971498195,-0.0100408100032,0.0290143119834,-0.999430578962
215612000000,,513,,215,608035015,"""map""",,,0.140496775508,0.155009537935,0.0406397283077,,0.0139354651079,-0.00994002915055,0.0289596896677,-0.999434035004
215648000000,,514,,215,640035015,"""map""",,,0.138948649168,0.153914034367,0.04090949893,,0.0139376679392,-0.0101305164422,0.0289935757339,-0.999431084725
215680000000,,515,,215,672035015,"""map""",,,0.137946709991,0.153479978442,0.0412827059627,,0.0139922828463,-0.0101325442654,0.0290101815922,-0.999429904613
215712000000,,516,,215,704035031,"""map""",,,0.137499108911,0.153618961573,0.0415605977178,,0.013936240544,-0.0100894835217,0.0290138483681,-0.999430958284
215748000000,,517,,215,744035031,"""map""",,,0.137632608414,0.154491528869,0.0419619306922,,0.0138683100317,-0.0100907350856,0.0289930278249,-0.999432475571
215780000000,,518,,215,776035031,"""map""",,,0.138273850083,0.155719935894,0.0422556325793,,0.0138184799444,-0.0100444440165,0.028962682094,-0.999434498619
215812000000,,519,,215,808035047,"""map""",,,0.137687399983,0.155644744635,0.0424423404038,,0.0137728679993,-0.0099878261463,0.0289483943123,-0.999436142346
215848000000,,520,,215,840035047,"""map""",,,0.136041045189,0.15447717905,0.042630482465,,0.0137083594488,-0.00987837884789,0.0289076804567,-0.999439261213
215880000000,,521,,215,872035047,"""map""",,,0.134943813086,0.153958976269,0.0428520068526,,0.0136801148042,-0.00982701599826,0.0289353709361,-0.999439387654
215912000000,,522,,215,904035062,"""map""",,,0.134354352951,0.15401622653,0.0432014092803,,0.0136498056225,-0.00975260343231,0.028866966601,-0.999442548667
215948000000,,523,,215,944035062,"""map""",,,0.134288430214,0.154818624258,0.0435985736549,,0.0135946722763,-0.00966763011736,0.0288488434561,-0.999444571716
215980000000,,524,,215,976035062,"""map""",,,0.134740039706,0.155965581536,0.0438942685723,,0.0135736391879,-0.00963666453141,0.0288017654263,-0.999446552618
216012000000,,525,,216,8035076,"""map""",,,0.134099766612,0.155774369836,0.0441311560571,,0.0135322578973,-0.00952392006528,0.0287509784739,-0.999449629338
216048000000,,526,,216,40035076,"""map""",,,0.132508710027,0.154435679317,0.0443004071712,,0.0134598739777,-0.00945132672854,0.0287001072277,-0.999452790352
216080000000,,527,,216,72035076,"""map""",,,0.13148277998,0.153756424785,0.0443786866963,,0.0134021390514,-0.00941405475575,0.0286992221439,-0.999453928316
216112000000,,528,,216,104035091,"""map""",,,0.130990460515,0.153661757708,0.0445141904056,,0.0133896479439,-0.00938581883678,0.0287095902687,-0.99945401261
216148000000,,529,,216,144035091,"""map""",,,0.130994185805,0.154307812452,0.0447315052152,,0.0133173901355,-0.00931661601644,0.0286911720959,-0.999456246393
216180000000,,530,,216,176035091,"""map""",,,0.131449759007,0.155353024602,0.0448719337583,,0.0133129584603,-0.00928671381523,0.0286654203714,-0.999457300064
216212000000,,531,,216,208047105,"""map""",,,0.130892932415,0.155068665743,0.0447594374418,,0.013493249178,-0.00925866541682,0.0286495731564,-0.99945561419
216248000000,,532,,216,240047105,"""map""",,,0.129502445459,0.153620734811,0.0445843078196,,0.0134527475383,-0.00921848745175,0.0286711944897,-0.999455909218
216280000000,,533,,216,272047105,"""map""",,,0.12863227725,0.152773618698,0.0445101968944,,0.0134021123804,-0.00918226322328,0.0286533242259,-0.999457426505
216312000000,,534,,216,304047118,"""map""",,,0.128214254975,0.152480974793,0.0444952584803,,0.013262503085,-0.00916134044108,0.028625465159,-0.999460250344
216348000000,,535,,216,344047118,"""map""",,,0.128281742334,0.152829125524,0.0445537380874,,0.0131663738614,-0.00909793594048,0.0286733439789,-0.999460756106
216380000000,,536,,216,376047118,"""map""",,,0.128771141171,0.153668597341,0.0447251871228,,0.0131762831453,-0.0090890144734,0.0287210120646,-0.99945936526
216412000000,,537,,216,408047131,"""map""",,,0.12826167047,0.15329541266,0.044842839241,,0.013126014632,-0.00903693463344,0.0287098852966,-0.999460798253
216448000000,,538,,216,440047131,"""map""",,,0.126915469766,0.151864036918,0.0450010187924,,0.0130872085798,-0.00896858627459,0.0287725998072,-0.999460123903
216480000000,,539,,216,472047131,"""map""",,,0.126100450754,0.151066422462,0.0454153418541,,0.0130598830986,-0.00895878301641,0.0287898378682,-0.999460081756
216512000000,,540,,216,504047144,"""map""",,,0.125767305493,0.150821194053,0.0459227412939,,0.0130110592673,-0.00891467436381,0.0288395290026,-0.999459618141
216548000000,,541,,216,544047144,"""map""",,,0.125955626369,0.151208281517,0.0466132871807,,0.0129162140409,-0.00886028023381,0.0289142132182,-0.999459196672
216580000000,,542,,216,576047144,"""map""",,,0.126525327563,0.152019783854,0.0472609400749,,0.0129260675131,-0.0088528976206,0.0288712234327,-0.999460376784
216612000000,,543,,216,608047156,"""map""",,,0.126086816192,0.151442751288,0.0479439087212,,0.0128199725355,-0.00879286552643,0.028837758835,-0.99946324277
216648000000,,544,,216,640047156,"""map""",,,0.124815180898,0.149676263332,0.0485106557608,,0.0127542275677,-0.0087356681371,0.0287989415875,-0.999465729434
216680000000,,545,,216,672047156,"""map""",,,0.124033890665,0.148558020592,0.0490665957332,,0.0127059132853,-0.00873525144306,0.0287861289455,-0.999466740958
216712000000,,546,,216,704047168,"""map""",,,0.123684443533,0.147986546159,0.0496110953391,,0.0126088584774,-0.00869803692828,0.0288142830404,-0.999467415308
216748000000,,547,,216,744047168,"""map""",,,0.123786874115,0.147960856557,0.0502744540572,,0.0125217916495,-0.0086760250781,0.0288357779331,-0.999468089658
216780000000,,548,,216,776047168,"""map""",,,0.124220520258,0.148432925344,0.0508934557438,,0.0125175581961,-0.0087036131539,0.0288107848519,-0.999468637567
216812000000,,549,,216,808047179,"""map""",,,0.123755276203,0.14770783484,0.0514070689678,,0.0124475076643,-0.00865642037274,0.0288110798799,-0.999469944119
216848000000,,550,,216,840047179,"""map""",,,0.122530117631,0.145942255855,0.0517318658531,,0.0123672343815,-0.00865528965182,0.0288155895927,-0.999470829203
216880000000,,551,,216,872047179,"""map""",,,0.121776655316,0.144773244858,0.0520005524158,,0.0123477738974,-0.00864015547584,0.0287883627285,-0.999471925021
216912000000,,552,,216,904047190,"""map""",,,0.121416784823,0.14414973557,0.0523815080523,,0.0123230276058,-0.00861198244788,0.0288271378291,-0.999471419259
216948000000,,553,,216,944047190,"""map""",,,0.121468938887,0.144077822566,0.0529179275036,,0.012241890148,-0.0085916895635,0.0287876040852,-0.999473695188
216980000000,,554,,216,976047190,"""map""",,,0.121860302985,0.144472911954,0.0534032396972,,0.0122023664469,-0.00856383099055,0.0288044628246,-0.999473948069
217012000000,,555,,217,8047200,"""map""",,,0.121222957969,0.143576815724,0.053853996098,,0.0121567219038,-0.00853808930891,0.0287796383309,-0.999475423209
217048000000,,556,,217,40047200,"""map""",,,0.119712248445,0.141596242785,0.0540190823376,,0.012078441706,-0.0084666573154,0.0287586070535,-0.999477572698
217080000000,,557,,217,76047200,"""map""",,,0.118677929044,0.140208959579,0.0542706176639,,0.0120156858717,-0.0084239353929,0.0287270812108,-0.999479595747
217112000000,,558,,217,108047210,"""map""",,,0.118041396141,0.139354288578,0.0546485073864,,0.0119469512765,-0.00838659295585,0.0287259432459,-0.999480733712
217148000000,,559,,217,140047210,"""map""",,,0.117754355073,0.138976410031,0.0549600049853,,0.0119176127894,-0.00835130847038,0.0286831641946,-0.99948263032
217180000000,,560,,217,172047210,"""map""",,,0.117793977261,0.139040023088,0.0553990155458,,0.0118799170432,-0.0083760611828,0.0286876317606,-0.999482714614
217212000000,,561,,217,204047219,"""map""",,,0.117483876646,0.138662710786,0.0558291003108,,0.0118328400013,-0.00835232098256,0.0287401467338,-0.999482040264
217248000000,,562,,217,244047219,"""map""",,,0.115299105644,0.135880485177,0.0560583434999,,0.0117722267416,-0.00833241532235,0.0287793433029,-0.99948170309
217280000000,,563,,217,276047219,"""map""",,,0.114079706371,0.134279057384,0.0562549866736,,0.0117664970751,-0.00830125332551,0.028807708132,-0.999481239474
217312000000,,564,,217,308047228,"""map""",,,0.113294698298,0.13319131732,0.0565922781825,,0.0116734457239,-0.00828319109602,0.0287626952978,-0.999483852579
217348000000,,565,,217,340047228,"""map""",,,0.112897917628,0.132550299168,0.0569674745202,,0.0116717175385,-0.00832094298312,0.0287486182504,-0.999483936873
217380000000,,566,,217,372047228,"""map""",,,0.112843208015,0.132304549217,0.0575163140893,,0.0117116024513,-0.00835315157182,0.0287351312588,-0.999483599698
217412000000,,567,,217,404047237,"""map""",,,0.112455815077,0.131757840514,0.0580479726195,,0.0116238490907,-0.00833104522051,0.0287022988639,-0.999485749187
217448000000,,568,,217,444047237,"""map""",,,0.110182538629,0.129181534052,0.0584428980947,,0.0115853810364,-0.00822281721725,0.0287068085766,-0.999486887152
217480000000,,569,,217,476047237,"""map""",,,0.108811877668,0.12773501873,0.0587460622191,,0.0115662865384,-0.00817246292854,0.0286995171719,-0.999487772236
217512000000,,570,,217,508047245,"""map""",,,0.107804141939,0.126737862825,0.0590270794928,,0.0115181299773,-0.00815052006089,0.0287419169015,-0.999487266474
217548000000,,571,,217,540047245,"""map""",,,0.107100509107,0.126162797213,0.0594370141625,,0.0115271224026,-0.00812217696381,0.0287057970523,-0.999488488732
217580000000,,572,,217,572047245,"""map""",,,0.106702424586,0.125994026661,0.0599920377135,,0.0114546722993,-0.00813000146039,0.0286761256709,-0.999490090312
217612000000,,573,,217,604047252,"""map""",,,0.106094658375,0.125541552901,0.0605889111757,,0.0113458604963,-0.0080966782851,0.0286445998282,-0.99949253483
217648000000,,574,,217,644047252,"""map""",,,0.103876240551,0.123125061393,0.0611354708672,,0.0112699833274,-0.00808380736197,0.0286465807301,-0.999493419913
217680000000,,575,,217,676047252,"""map""",,,0.102569811046,0.121704481542,0.0616752803326,,0.0112214490911,-0.00807315161792,0.0286607842181,-0.999493630648
217712000000,,576,,217,708047259,"""map""",,,0.101636216044,0.120733387768,0.0621810182929,,0.0111591321767,-0.00803634177874,0.0286185530759,-0.999495822284
217748000000,,577,,217,740047259,"""map""",,,0.101022623479,0.120174393058,0.0625981092453,,0.011090704134,-0.00793774712918,0.0285839926601,-0.999498351095
217780000000,,578,,217,772047259,"""map""",,,0.100708633661,0.119978018105,0.0629945993423,,0.0110865599134,-0.00794423971948,0.0285698734658,-0.999498730416
217812000000,,579,,217,804047266,"""map""",,,0.100662641227,0.120075218379,0.0633522048593,,0.0110512388787,-0.00784488576811,0.028510277822,-0.999501680696
217848000000,,580,,217,844047266,"""map""",,,0.100940667093,0.120585605502,0.0637520477176,,0.0110161778045,-0.00779374073208,0.0284928711736,-0.999502902954
217880000000,,581,,217,876047266,"""map""",,,0.101382121444,0.121274344623,0.0640562772751,,0.0109964458354,-0.00779527184806,0.0284778668955,-0.999503577304
217912000000,,582,,217,908047272,"""map""",,,0.100882358849,0.120702132583,0.0642230659723,,0.010976542974,-0.00773978848544,0.0284672880366,-0.999504546681
217948000000,,583,,217,940047272,"""map""",,,0.0995687171817,0.1190430969,0.0640506595373,,0.0109366946104,-0.00760700730875,0.0285180328422,-0.999504546681
217980000000,,584,,217,972047272,"""map""",,,0.0986002460122,0.11784017086,0.0639507547021,,0.0109565092269,-0.00754145282498,0.0285190865134,-0.999504757416
218012000000,,585,,218,4047278,"""map""",,,0.0979287698865,0.117037720978,0.0639845132828,,0.0108942166787,-0.00752226102702,0.0284960321872,-0.999506232555
218048000000,,586,,218,44047278,"""map""",,,0.0974654182792,0.116558134556,0.0640130862594,,0.0110401078302,-0.00752039882778,0.0285544055724,-0.999502987248
218080000000,,587,,218,76047278,"""map""",,,0.0973677635193,0.116493999958,0.0640389770269,,0.0109916216676,-0.00749952313152,0.0285176535205,-0.999504757416
218112000000,,588,,218,108047283,"""map""",,,0.0964202284813,0.115427330136,0.0639001578093,,0.0109324353092,-0.00741748593725,0.0285179485485,-0.999505979674
218148000000,,589,,218,140047283,"""map""",,,0.094752587378,0.113501697779,0.0637426674366,,0.0108959285651,-0.00736775364383,0.0285593367537,-0.9995056425
218180000000,,590,,218,172047283,"""map""",,,0.0934554636478,0.111985318363,0.0636762678623,,0.0108107148814,-0.00734921759156,0.0285428994828,-0.999507075492
218212000000,,591,,218,204047288,"""map""",,,0.0924537181854,0.11083111167,0.0637141168118,,0.0107692409008,-0.00730122830081,0.0285254085407,-0.999508382045
218248000000,,592,,218,244047288,"""map""",,,0.0915643200278,0.109856463969,0.0636782571673,,0.0107283671834,-0.00728772599813,0.0284626940301,-0.999510742268
218280000000,,593,,218,276047288,"""map""",,,0.0911185666919,0.10939925909,0.0636018514633,,0.010718583023,-0.00727308210854,0.0284542225135,-0.999511205884
218312000000,,594,,218,308047293,"""map""",,,0.0899918302894,0.108016997576,0.0633470490575,,0.0107111905317,-0.00721923127776,0.0284196620977,-0.999512638876
218348000000,,595,,218,340047293,"""map""",,,0.088262617588,0.105815149844,0.0630941167474,,0.0106037109642,-0.00713527722507,0.028399010142,-0.9995149991
218380000000,,596,,218,372047293,"""map""",,,0.0868328735232,0.104013584554,0.0630152150989,,0.0105759200567,-0.00709310304696,0.028417934077,-0.999515041247
218412000000,,597,,218,412047297,"""map""",,,0.0854784697294,0.102245181799,0.0629749149084,,0.0105699309237,-0.0070649400618,0.028371741131,-0.999516642827
218448000000,,598,,218,444047297,"""map""",,,0.0846839770675,0.101161532104,0.0630431324244,,0.010491360637,-0.00704827691012,0.0283186361019,-0.999519087344
218480000000,,599,,218,476047297,"""map""",,,0.0841204077005,0.100351884961,0.0631736814976,,0.0104412276192,-0.00703254625746,0.0283420276028,-0.999519045197
218512000000,,600,,218,508047300,"""map""",,,0.0828781276941,0.0987505167723,0.0630913749337,,0.0103816932201,-0.00700636186927,0.0283534493987,-0.999519508813
218548000000,,601,,218,540047300,"""map""",,,0.0810627937317,0.0964719206095,0.0627114772797,,0.0103076413719,-0.00693067255016,0.0283379393585,-0.99952127898
218580000000,,602,,218,572047300,"""map""",,,0.0795504152775,0.0945904552937,0.0624083057046,,0.010269489419,-0.00690053212048,0.0283026202994,-0.999522880561
218612000000,,603,,218,604047303,"""map""",,,0.0783132761717,0.0930370688438,0.0619585216045,,0.0101924765901,-0.00678061248267,0.0282759413443,-0.999525198637
218648000000,,604,,218,644047303,"""map""",,,0.0771016478539,0.0914851799607,0.061596378684,,0.0101417624068,-0.00670446201776,0.0282504846478,-0.999526968805
218680000000,,605,,218,676047303,"""map""",,,0.0763470083475,0.0905146375299,0.0613208934665,,0.0101475003051,-0.00670044292063,0.0282146176797,-0.999527938182
218712000000,,606,,218,708047306,"""map""",,,0.0750838518143,0.0888687670231,0.0607369951904,,0.0100908070316,-0.00667794358287,0.0281432630652,-0.999530677728
218748000000,,607,,218,740047306,"""map""",,,0.0734353736043,0.0866188704967,0.0598874948919,,0.0100002849852,-0.00663134480885,0.0281203773265,-0.999532574336
218780000000,,608,,218,772047306,"""map""",,,0.0720547512174,0.0846916735172,0.0589618906379,,0.010207621632,-0.0066054977601,0.0280813493447,-0.999531731399
218812000000,,609,,218,804047308,"""map""",,,0.0709281861782,0.0830600559711,0.0582122392952,,0.0102449010134,-0.00661289272101,0.0280223859037,-0.999532953657
218848000000,,610,,218,844047308,"""map""",,,0.0698399618268,0.0814123377204,0.0576038956642,,0.0101880208779,-0.00661245445964,0.0280507507327,-0.999532742923
218880000000,,611,,218,876047308,"""map""",,,0.0691884756088,0.0803720355034,0.0573029331863,,0.010163290556,-0.00656457234701,0.0280480533344,-0.999533417273
218912000000,,612,,218,908047310,"""map""",,,0.0680239200592,0.078775934875,0.0570743344724,,0.010109447957,-0.0065041508884,0.0280350299582,-0.999534723825
218948000000,,613,,218,940047310,"""map""",,,0.0664303600788,0.0766684785485,0.0567665956914,,0.010084225867,-0.00651256692258,0.028065417836,-0.999534007329
218980000000,,614,,218,972047310,"""map""",,,0.0650814175606,0.0748083814979,0.0565334558487,,0.0100285268311,-0.00651323534525,0.028061245298,-0.999534723825
219012000000,,615,,219,4047312,"""map""",,,0.0639696344733,0.0731883272529,0.0562151931226,,0.00993395737019,-0.00651259112409,0.0279947797179,-0.999537547664
219048000000,,616,,219,44047312,"""map""",,,0.0628295838833,0.0714634433389,0.0558741874993,,0.00986064836019,-0.00640149318387,0.0280039677309,-0.999538727776
219080000000,,617,,219,76047312,"""map""",,,0.0621106512845,0.0702707692981,0.0555166788399,,0.00985672623374,-0.00640350553125,0.0280268113228,-0.999538053426
219112000000,,618,,219,108047313,"""map""",,,0.0609690323472,0.0686063319445,0.0549933835864,,0.00988547417106,-0.00634761502349,0.0280424478036,-0.999537674104
219148000000,,619,,219,140047313,"""map""",,,0.0594431422651,0.0665492638946,0.0542854815722,,0.00987937769527,-0.00630857749288,0.0280450187613,-0.999537969132
219180000000,,620,,219,172047313,"""map""",,,0.0581594370306,0.0647014901042,0.0538800694048,,0.00984383489573,-0.00626918714704,0.0280564827041,-0.999538222013
219212000000,,621,,219,204047313,"""map""",,,0.0570723973215,0.0630889981985,0.0535456798971,,0.00981066071614,-0.00623873012209,0.0280841731836,-0.999538011279
219248000000,,622,,219,244047313,"""map""",,,0.0559376217425,0.0613899789751,0.0530964434147,,0.00974125407626,-0.00624258392455,0.0280595594241,-0.999539359978
219280000000,,623,,219,276047313,"""map""",,,0.0551838241518,0.0602527409792,0.0527698546648,,0.00971183722236,-0.00625743640811,0.0280373901818,-0.999540118622
219312000000,,624,,219,308059313,"""map""",,,0.0540013350546,0.0587236769497,0.0524505376816,,0.00964549511936,-0.00625561652036,0.0279656140987,-0.999542858167
219348000000,,625,,219,340059313,"""map""",,,0.0524914003909,0.0568540915847,0.0522511489689,,0.00953680580567,-0.00618283599234,0.0279975614099,-0.999543448223
219384000000,,626,,219,372059313,"""map""",,,0.0511772483587,0.055235888809,0.0522031411529,,0.00971725687903,-0.00615972568992,0.0280394132305,-0.999540624384
219412000000,,627,,219,404059313,"""map""",,,0.0500654987991,0.0538116469979,0.0521973259747,,0.00969570288192,-0.00613831624333,0.0280504978516,-0.999540666531
219448000000,,628,,219,444059313,"""map""",,,0.0488708540797,0.0522369258106,0.0521415136755,,0.00965182834189,-0.00613420659633,0.0280430800063,-0.99954134088
219484000000,,629,,219,476059313,"""map""",,,0.0480530150235,0.0511156059802,0.0521442145109,,0.00962066486332,-0.00615435657655,0.0280327961753,-0.999541762349
219512000000,,630,,219,508059312,"""map""",,,0.0469415485859,0.049611389637,0.0519558191299,,0.00956712881681,-0.00616558640677,0.028081560079,-0.999540877265
219548000000,,631,,219,540059312,"""map""",,,0.0455819778144,0.0477929860353,0.0516164749861,,0.00949430251995,-0.006100281676,0.0280752380517,-0.99954214167
219580000000,,632,,219,572059312,"""map""",,,0.0443760231137,0.0461185798049,0.0513851605356,,0.00948208059242,-0.00608302320008,0.0280246618335,-0.999543743251
219612000000,,633,,219,604059311,"""map""",,,0.0432853326201,0.0445439554751,0.0512221753597,,0.00949035092363,-0.00606923821716,0.0279951590395,-0.999544586188
219648000000,,634,,219,644059311,"""map""",,,0.0420845523477,0.0427216924727,0.0512114390731,,0.00949306280991,-0.00599560635573,0.027936322039,-0.99954669353
219680000000,,635,,219,676059311,"""map""",,,0.0412529930472,0.0414181761444,0.051291000098,,0.00948595645612,-0.00598473444444,0.0279605143301,-0.999546103474
219712000000,,636,,219,708059309,"""map""",,,0.0403225682676,0.0399212501943,0.0510584674776,,0.00948518645296,-0.00596819789794,0.0279871089915,-0.999545471271
219748000000,,637,,219,740059309,"""map""",,,0.0393043383956,0.0382345244288,0.0506155826151,,0.00941642749161,-0.00596184195562,0.0279766144262,-0.999546440649
219780000000,,638,,219,772059309,"""map""",,,0.0384007357061,0.0366973280907,0.0502568818629,,0.00943553828859,-0.00591967551541,0.0279348468993,-0.999547747201
219812000000,,639,,219,804059306,"""map""",,,0.0376090034842,0.0353006161749,0.0499639473855,,0.00940057879484,-0.00580597253775,0.0278747876402,-0.999550402453
219848000000,,640,,219,844059306,"""map""",,,0.0367666073143,0.0337099581957,0.0497614741325,,0.00932698809244,-0.00573259849649,0.0277786506787,-0.999554153522
219880000000,,641,,219,876059306,"""map""",,,0.0361776053905,0.032544195652,0.0497170314193,,0.00933827472212,-0.00568591114823,0.0278152762901,-0.999553352732
219912000000,,642,,219,908059303,"""map""",,,0.0351907163858,0.0312049873173,0.0496310926974,,0.00931634206192,-0.00565651553239,0.0277875015169,-0.999554490697
219948000000,,643,,219,940059303,"""map""",,,0.033881444484,0.0297477990389,0.0495264232159,,0.00924771019966,-0.00560349710187,0.0277193922097,-0.999557272389
219980000000,,644,,219,972059303,"""map""",,,0.0326687730849,0.0283968765289,0.0493899136782,,0.009258479378,-0.00560237691766,0.0277590523942,-0.999556134424
220012000000,,645,,220,4059299,"""map""",,,0.0315542966127,0.0271112378687,0.0491784140468,,0.00922826272179,-0.00558470290016,0.0277108785463,-0.999557862445
220048000000,,646,,220,44059299,"""map""",,,0.0302798748016,0.0256228968501,0.048812776804,,0.00946006907152,-0.0055760522595,0.0276779618576,-0.999556640186
220080000000,,647,,220,76059299,"""map""",,,0.0293376632035,0.024447677657,0.0487090684474,,0.00945612768264,-0.00555402460425,0.0276617774678,-0.999557230242
220112000000,,648,,220,108059295,"""map""",,,0.0281209312379,0.0231523197144,0.0484388768673,,0.00944291184681,-0.00555169878969,0.0276936826321,-0.999556429452
220148000000,,649,,220,140059295,"""map""",,,0.026707617566,0.0217682737857,0.0479970984161,,0.00942965386414,-0.00550603416105,0.0277115950428,-0.999556387305
220180000000,,650,,220,172059295,"""map""",,,0.0254230834544,0.0204216782004,0.0475667305291,,0.00938820095691,-0.0055176036356,0.0276716819772,-0.999557778151
220212000000,,651,,220,204059291,"""map""",,,0.0242473538965,0.0190970655531,0.0471669882536,,0.0093314922076,-0.00549375395234,0.0276175654237,-0.999559969787
220248000000,,652,,220,244059291,"""map""",,,0.0228986982256,0.0174656640738,0.0466404743493,,0.00929165586249,-0.00541107467718,0.0276171439552,-0.999560728431
220280000000,,653,,220,276059291,"""map""",,,0.0219088681042,0.0161684006453,0.0463323295116,,0.0092820853998,-0.00540315419775,0.0276210214653,-0.999560812724
220312000000,,654,,220,308059286,"""map""",,,0.0209427960217,0.0148229412735,0.0459778085351,,0.00925207108139,-0.00534552151049,0.0276093046414,-0.999561739955
220348000000,,655,,220,340059286,"""map""",,,0.0199747979641,0.013470010832,0.0455706939101,,0.00922769225761,-0.00529661486724,0.0276023504114,-0.999562372158
220380000000,,656,,220,372059286,"""map""",,,0.0190395861864,0.0121164172888,0.0452959015965,,0.00920388455656,-0.00529536363268,0.0275757978969,-0.999563299388
220412000000,,657,,220,404059280,"""map""",,,0.018151063472,0.0107678780332,0.0451966710389,,0.00912214173169,-0.00526593624207,0.0275668206181,-0.999564521647
220448000000,,658,,220,444059280,"""map""",,,0.0170488711447,0.00901854783297,0.0451570935547,,0.00905844352025,-0.00521962722763,0.0276035305232,-0.999564310913
220480000000,,659,,220,476059280,"""map""",,,0.0162232164294,0.00758567498997,0.0451655499637,,0.00901481939177,-0.00522484899167,0.0275791696447,-0.999565322437
220512000000,,660,,220,508059274,"""map""",,,0.0153142409399,0.00624653277919,0.0450764037669,,0.00901113170716,-0.00518952581671,0.0275790010573,-0.999565575318
220548000000,,661,,220,540059274,"""map""",,,0.0143122356385,0.00498701818287,0.0449104644358,,0.00898086747112,-0.00522142982858,0.027565471919,-0.999566038933
220580000000,,662,,220,572059274,"""map""",,,0.0133100869134,0.00369880883954,0.0447694733739,,0.00896384014432,-0.00521468764991,0.0275301528599,-0.999567219045
220612000000,,663,,220,604059267,"""map""",,,0.0123133473098,0.00239315442741,0.0446509681642,,0.00889114012336,-0.0052023801116,0.0274726645586,-0.999569494975
220648000000,,664,,220,644059267,"""map""",,,0.0110761867836,0.000722792814486,0.0444660969079,,0.00886585102644,-0.00520219275569,0.027455300057,-0.999570169325
