rosbagTimestamp,header,seq,stamp,secs,nsecs,frame_id,pose,position,x,y,z,orientation,x,y,z,w
789776000000,,13383,,789,772078164,"""map""",,,0.214635044336,-0.123002834618,-0.00653033517301,,0.000839085143391,0.00225699534789,0.0196160705276,-0.999804758683
789808000000,,13384,,789,804078164,"""map""",,,0.214180260897,-0.122881367803,-0.00751476874575,,0.000835662605265,0.00249673065581,0.0196132045419,-0.999804252921
789840000000,,13385,,789,836078164,"""map""",,,0.213567093015,-0.122885718942,-0.00835837982595,,0.000841455574347,0.00243351787399,0.0195964300962,-0.99980467439
789876000000,,13386,,789,868077912,"""map""",,,0.212794870138,-0.123028255999,-0.00917871948332,,0.000867826001353,0.00232163906462,0.0196310326589,-0.999804210774
789908000000,,13387,,789,900077912,"""map""",,,0.213564947248,-0.122436255217,-0.00969514250755,,0.000895069082149,0.00227378452854,0.0196381133294,-0.999804210774
789940000000,,13388,,789,932077912,"""map""",,,0.214046120644,-0.122033305466,-0.0102266864851,,0.000882078098117,0.00223394476723,0.0195938591385,-0.999805222299
789976000000,,13389,,789,972077661,"""map""",,,0.214349463582,-0.121770828962,-0.0110189467669,,0.000925929630246,0.00220368724011,0.0196110129058,-0.999804842977
790008000000,,13390,,790,4077661,"""map""",,,0.21437010169,-0.121714055538,-0.0116810528561,,0.000920073523209,0.00220535895534,0.0195743872945,-0.999805559474
790040000000,,13391,,790,36077661,"""map""",,,0.214219912887,-0.121766552329,-0.0124252652749,,0.000960886983727,0.00214670091429,0.0195669694491,-0.999805812355
790076000000,,13392,,790,68077409,"""map""",,,0.213928595185,-0.121910877526,-0.0132772019133,,0.000984407929806,0.00206798669445,0.0195815101119,-0.999805685914
790108000000,,13393,,790,100077409,"""map""",,,0.214777693152,-0.121421188116,-0.0140401963145,,0.00100233775069,0.00203067261597,0.0196148061222,-0.999805095858
790140000000,,13394,,790,132077409,"""map""",,,0.215394958854,-0.121088266373,-0.0148157458752,,0.000988263460946,0.00198425300722,0.0195695825537,-0.999806065236
790176000000,,13395,,790,172077157,"""map""",,,0.215838193893,-0.120862215757,-0.0157634075731,,0.000985244939875,0.00198964327633,0.0196110971995,-0.999805264446
790208000000,,13396,,790,204077157,"""map""",,,0.215996727347,-0.120839752257,-0.0164036303759,,0.000986497573848,0.00196275449248,0.0196226875829,-0.999805053711
790240000000,,13397,,790,236077157,"""map""",,,0.215978980064,-0.120971575379,-0.0170015990734,,0.00103019438918,0.00188253776219,0.0196366803366,-0.999804885124
790276000000,,13398,,790,276076906,"""map""",,,0.215954959393,-0.121083319187,-0.0177550073713,,0.000926145756322,0.00187890942891,0.0195931004952,-0.999805896648
790308000000,,13399,,790,300076906,"""map""",,,0.216427698731,-0.120729632676,-0.0181755498052,,0.000924907239898,0.00188377981829,0.0195715213088,-0.999806318117
790340000000,,13400,,790,332076906,"""map""",,,0.2168661654,-0.120406344533,-0.0188030935824,,0.000910016149165,0.00188166366783,0.0195654943094,-0.999806444557
790376000000,,13401,,790,372076654,"""map""",,,0.217174634337,-0.12021329999,-0.0192790497094,,0.000931290347177,0.00191660974374,0.019620411653,-0.999805306592
790408000000,,13402,,790,404076654,"""map""",,,0.21719238162,-0.120209805667,-0.0197851620615,,0.000970902663672,0.00212407443629,0.0196392934412,-0.999804463655
790440000000,,13403,,790,436076654,"""map""",,,0.217053741217,-0.120338559151,-0.0202809814364,,0.000983294166407,0.00213103755665,0.0196228561702,-0.999804716537
790472000000,,13404,,790,468076403,"""map""",,,0.216752246022,-0.120599426329,-0.020822621882,,0.000975190488123,0.00212161242649,0.0196550985094,-0.999804084334
790508000000,,13405,,790,500076403,"""map""",,,0.217480793595,-0.120164848864,-0.0212003532797,,0.000955414684661,0.00210024401545,0.0196387033853,-0.999804547949
790540000000,,13406,,790,532076403,"""map""",,,0.21796117723,-0.119935266674,-0.0215631183237,,0.000986775561948,0.00209091869595,0.0195922575582,-0.999805390886
790572000000,,13407,,790,572076152,"""map""",,,0.218242287636,-0.119863435626,-0.0220135245472,,0.000978213701323,0.0020147578178,0.0196113079338,-0.999805222299
790608000000,,13408,,790,604076152,"""map""",,,0.218253016472,-0.119977734983,-0.0224503036588,,0.000986255517582,0.00199471534498,0.0196125301924,-0.999805180152
790640000000,,13409,,790,636076152,"""map""",,,0.218098044395,-0.120233789086,-0.0229304078966,,0.000982606028555,0.00192130854112,0.0196321284769,-0.999804969418
790676000000,,13410,,790,668075900,"""map""",,,0.217822730541,-0.120580852032,-0.0234790630639,,0.00100588405403,0.00180945792569,0.0196747389408,-0.999804337215
790708000000,,13411,,790,700075900,"""map""",,,0.218526810408,-0.1205265522,-0.0234344489872,,0.00100818019293,0.00178672517507,0.0196998163156,-0.9998038736
790740000000,,13412,,790,732075900,"""map""",,,0.219033673406,-0.120628371835,-0.0233972799033,,0.00104960708766,0.00176977242843,0.0197500132122,-0.999802819928
790776000000,,13413,,790,772075649,"""map""",,,0.219428360462,-0.120927155018,-0.0235713664442,,0.00104389758909,0.00176182503099,0.0197774508106,-0.999802356313
790808000000,,13414,,790,804075649,"""map""",,,0.219554439187,-0.121307320893,-0.0237588919699,,0.00105521607587,0.00168990530296,0.0197554923025,-0.999802904222
790840000000,,13415,,790,836075649,"""map""",,,0.219516083598,-0.121791414917,-0.0239466838539,,0.00105520078529,0.00166776830874,0.0197724353356,-0.999802567047
790872000000,,13416,,790,868075398,"""map""",,,0.219329029322,-0.122358441353,-0.0240178890526,,0.00106018071944,0.00167573749989,0.0197107744962,-0.999803789306
790908000000,,13417,,790,900075398,"""map""",,,0.220070883632,-0.122460573912,-0.0235484875739,,0.00106714602122,0.00167252853598,0.0197313421583,-0.999803367837
790940000000,,13418,,790,932075398,"""map""",,,0.22062779963,-0.122678987682,-0.0232370719314,,0.00109292746248,0.00164860912932,0.0197684735319,-0.999802651341
790976000000,,13419,,790,972075147,"""map""",,,0.22108758986,-0.123156785965,-0.0230820905417,,0.00113568087165,0.00165741646241,0.0197753434682,-0.999802440607
791008000000,,13420,,791,4075147,"""map""",,,0.221250027418,-0.123684927821,-0.0230053942651,,0.00118661970093,0.00162377562172,0.0197403615839,-0.999803114956
791040000000,,13421,,791,36075147,"""map""",,,0.22126917541,-0.124314785004,-0.0230180528015,,0.00116981887228,0.00165961069155,0.0196910497711,-0.999804126481
791076000000,,13422,,791,76074896,"""map""",,,0.22143214941,-0.12492865324,-0.0228890404105,,0.0012074245625,0.00166610970266,0.0197025137139,-0.999803789306
791108000000,,13423,,791,100074896,"""map""",,,0.222170948982,-0.124706856906,-0.0224937945604,,0.00121905608429,0.00167290030494,0.0197110695242,-0.999803578572
791140000000,,13424,,791,132074896,"""map""",,,0.223000645638,-0.124524608254,-0.0222200509161,,0.00121744170359,0.00170817618816,0.0197016286301,-0.999803747159
791176000000,,13425,,791,172074645,"""map""",,,0.223730951548,-0.124522708356,-0.022030621767,,0.00116373986851,0.00168776904631,0.0196792908004,-0.999804252921
791208000000,,13426,,791,204074645,"""map""",,,0.224139094353,-0.124696776271,-0.0219203531742,,0.00112041169405,0.00171848971544,0.019644898972,-0.999804927271
791240000000,,13427,,791,236074645,"""map""",,,0.224411949515,-0.124996490777,-0.0219021197408,,0.00109696578088,0.00168484838084,0.0196814824365,-0.999804337215
791276000000,,13428,,791,268074394,"""map""",,,0.224575832486,-0.125436767936,-0.0218060053885,,0.00109093153756,0.00171975387394,0.0196293046381,-0.999805264446
791308000000,,13429,,791,300074394,"""map""",,,0.225482881069,-0.125081658363,-0.02114325203,,0.00109135531095,0.00170247333678,0.0195914567681,-0.999806023089
791340000000,,13430,,791,332074394,"""map""",,,0.226207047701,-0.124900877476,-0.0204669870436,,0.00109302044074,0.00194975515317,0.0196322970643,-0.99980480083
791376000000,,13431,,791,372074144,"""map""",,,0.226857319474,-0.124922901392,-0.0199292059988,,0.00113600364077,0.00195328593955,0.0196604090123,-0.999804168628
791408000000,,13432,,791,404074144,"""map""",,,0.227209359407,-0.125104337931,-0.0197853725404,,0.0011320235624,0.00192988867636,0.0196500830344,-0.999804463655
791440000000,,13433,,791,436074144,"""map""",,,0.227421313524,-0.125385314226,-0.0196740422398,,0.00112825240728,0.00190445634601,0.0196570372644,-0.999804337215
791476000000,,13434,,791,468073893,"""map""",,,0.227516964078,-0.125794410706,-0.0195017885417,,0.00112542560498,0.00187055480401,0.0196452361468,-0.99980467439
791508000000,,13435,,791,500073893,"""map""",,,0.228272512555,-0.125486075878,-0.01916433312,,0.00113479582899,0.00188764160561,0.0196531176075,-0.999804463655
791540000000,,13436,,791,532073893,"""map""",,,0.228847458959,-0.125331252813,-0.0189829003066,,0.0011464571705,0.00188188905469,0.0196916819739,-0.999803662865
791576000000,,13437,,791,572073643,"""map""",,,0.229378417134,-0.125350624323,-0.0188817325979,,0.00117882804926,0.00184909078054,0.0197049582311,-0.999803452131
791608000000,,13438,,791,604073643,"""map""",,,0.229653686285,-0.125525787473,-0.0188210830092,,0.00122838508753,0.00184006913237,0.0196986783507,-0.999803578572
791640000000,,13439,,791,636073643,"""map""",,,0.2298027426,-0.125815525651,-0.0188511870801,,0.00128166419878,0.00183723485971,0.0196683326198,-0.999804084334
791680000000,,13440,,791,668073392,"""map""",,,0.229836449027,-0.12622256577,-0.0189287774265,,0.00131206386862,0.00180155037019,0.0197088357412,-0.999803283544
791708000000,,13441,,791,700073392,"""map""",,,0.230881780386,-0.125863030553,-0.0178465452045,,0.00132059027074,0.00176545268516,0.0197162535865,-0.99980319925
791740000000,,13442,,791,732073392,"""map""",,,0.231662884355,-0.125657707453,-0.0169162005186,,0.00136777798935,0.00173493832567,0.0197111959647,-0.999803283544
791772000000,,13443,,791,772073142,"""map""",,,0.232358261943,-0.125612348318,-0.0159469954669,,0.00139163628514,0.00170275471021,0.0197208054462,-0.999803114956
791808000000,,13444,,791,804073142,"""map""",,,0.232707068324,-0.125736191869,-0.0154714360833,,0.00138062803456,0.00164659767715,0.0197004906652,-0.999803705012
791840000000,,13445,,791,836073142,"""map""",,,0.232919692993,-0.125983729959,-0.0149666080251,,0.00140538102481,0.00181656049284,0.0196656773683,-0.999804042187
791876000000,,13446,,791,868072891,"""map""",,,0.233019515872,-0.126362800598,-0.0144006097689,,0.0014254180132,0.00173087188537,0.0196917241207,-0.999803620719
791908000000,,13447,,791,900072891,"""map""",,,0.233816027641,-0.126027435064,-0.0132818240672,,0.00143549041029,0.00169715477699,0.0196529490201,-0.999804463655
791940000000,,13448,,791,932072891,"""map""",,,0.234421521425,-0.125870108604,-0.0121806580573,,0.00146300428664,0.00170132150128,0.019682451814,-0.999803789306
791976000000,,13449,,791,972072641,"""map""",,,0.234927549958,-0.125875219703,-0.0110878059641,,0.00146212561334,0.00166504838616,0.019711954608,-0.999803283544
792008000000,,13450,,792,4072641,"""map""",,,0.235182464123,-0.126036077738,-0.0104063916951,,0.0014531946591,0.00164669485362,0.0197226177607,-0.999803157103
792040000000,,13451,,792,36072641,"""map""",,,0.235293954611,-0.126330420375,-0.00970412138849,,0.001494150499,0.00161252366851,0.0197450398841,-0.999802651341
792076000000,,13452,,792,68072391,"""map""",,,0.235272780061,-0.126729905605,-0.00901343114674,,0.00149673791523,0.00156401067539,0.0196971189173,-0.999803705012
792108000000,,13453,,792,100072391,"""map""",,,0.235962226987,-0.125994637609,-0.00798666290939,,0.00149404911401,0.00156363954954,0.0196926092045,-0.999803747159
792140000000,,13454,,792,132072391,"""map""",,,0.236485004425,-0.125421270728,-0.00704636238515,,0.00155928501338,0.00154388174609,0.0196456576153,-0.999804590096
792176000000,,13455,,792,172072141,"""map""",,,0.236897841096,-0.12495123595,-0.00604258803651,,0.00161604260109,0.00149921997462,0.01967996515,-0.999803915746
792208000000,,13456,,792,204072141,"""map""",,,0.237021267414,-0.124742925167,-0.00532008241862,,0.00160504415666,0.00147865833206,0.0196998163156,-0.999803620719
792240000000,,13457,,792,236072141,"""map""",,,0.237000823021,-0.124687589705,-0.00460953451693,,0.00160175990773,0.00143733211747,0.0197136826288,-0.999803409984
792276000000,,13458,,792,268071891,"""map""",,,0.236831486225,-0.124757528305,-0.00387018546462,,0.00165028889114,0.00135948440329,0.0197774508106,-0.999802187726
792308000000,,13459,,792,300071891,"""map""",,,0.237334042788,-0.124186299741,-0.00281920074485,,0.0016486227118,0.00135480484775,0.019840207468,-0.999800965467
792340000000,,13460,,792,332071891,"""map""",,,0.237672880292,-0.123770698905,-0.00190645991825,,0.00162315387338,0.00138807480441,0.0198329160632,-0.999801091908
792376000000,,13461,,792,372071641,"""map""",,,0.237877607346,-0.123477958143,-0.000754511798732,,0.00162426302697,0.00135061959161,0.0199032170065,-0.999799743208
792408000000,,13462,,792,404071641,"""map""",,,0.237852275372,-0.123395144939,5.45682560187e-05,,0.00166985223683,0.00155256870123,0.0199112670546,-0.999799195299
792440000000,,13463,,792,436071641,"""map""",,,0.23769839108,-0.123415641487,0.000831343815662,,0.00166861089586,0.00148404350774,0.0198789404218,-0.999799911796
792476000000,,13464,,792,468071392,"""map""",,,0.237434864044,-0.123536303639,0.00150168861728,,0.00170020622528,0.00151153904775,0.0199211294172,-0.999798942418
792508000000,,13465,,792,500071392,"""map""",,,0.237560331821,-0.122997321188,0.00250922748819,,0.00169274680932,0.0015068618177,0.0199279993535,-0.999798900271
792540000000,,13466,,792,532071392,"""map""",,,0.237531289458,-0.122636243701,0.00346740917303,,0.00166886791344,0.00148830706894,0.019928673703,-0.999798900271
792576000000,,13467,,792,572071142,"""map""",,,0.237336173654,-0.122375249863,0.00456065265462,,0.00174660743595,0.00147364590285,0.0199841811025,-0.999797678013
792608000000,,13468,,792,604071142,"""map""",,,0.23705033958,-0.122293263674,0.00525578064844,,0.0017320140485,0.00145234433408,0.019989618046,-0.999797635866
792640000000,,13469,,792,636082893,"""map""",,,0.236663296819,-0.122283928096,0.00582469254732,,0.00176868329872,0.00148378603742,0.0199627705035,-0.999798099481
792676000000,,13470,,792,668082893,"""map""",,,0.236151918769,-0.12235762924,0.00619332073256,,0.00173573407381,0.00147075568477,0.0199126157538,-0.999799195299
792708000000,,13471,,792,700082893,"""map""",,,0.236366197467,-0.121913522482,0.00650711264461,,0.00173823053373,0.00145900404035,0.0199108455861,-0.999799195299
792740000000,,13472,,792,732082893,"""map""",,,0.236449271441,-0.121607944369,0.00671447208151,,0.00176673649709,0.00147615661408,0.0199003931677,-0.999799363887
792776000000,,13473,,792,772082643,"""map""",,,0.236372962594,-0.121401295066,0.00684126606211,,0.00179857192773,0.00146989575941,0.0198814692327,-0.999799658915
792808000000,,13474,,792,804082643,"""map""",,,0.236163049936,-0.121382832527,0.00694086868316,,0.00181296364622,0.00145988961807,0.0198750629117,-0.999799827502
792840000000,,13475,,792,836082643,"""map""",,,0.235830709338,-0.121474310756,0.00706178089604,,0.00178981022971,0.0014442886781,0.019831862392,-0.999800712586
792876000000,,13476,,792,868082394,"""map""",,,0.235391840339,-0.121640115976,0.00710279494524,,0.00180899616251,0.00139458118299,0.0198399967338,-0.999800586145
792908000000,,13477,,792,900082394,"""map""",,,0.23566582799,-0.120947524905,0.00739180948585,,0.00183249181636,0.00140026497774,0.0198497326558,-0.999800375411
792940000000,,13478,,792,932082394,"""map""",,,0.235776782036,-0.120367243886,0.00771972490475,,0.00182215052732,0.00143057794608,0.0198762008766,-0.999799785355
792976000000,,13479,,792,972082144,"""map""",,,0.235660478473,-0.119782887399,0.00795056205243,,0.00180427783517,0.00162458725724,0.0199197385712,-0.99979864739
793008000000,,13480,,793,4082144,"""map""",,,0.235444009304,-0.119455486536,0.00814552605152,,0.00179803861986,0.00161879288875,0.0199490727777,-0.999798141628
793040000000,,13481,,793,36082144,"""map""",,,0.235109373927,-0.119225479662,0.00826380308717,,0.00181280648045,0.00159395456555,0.0199531188752,-0.999798057335
793076000000,,13482,,793,68081895,"""map""",,,0.234672173858,-0.119055204093,0.00823694374412,,0.00176300166481,0.00151212785857,0.0200310905449,-0.999796708635
793108000000,,13483,,793,100081895,"""map""",,,0.234136641026,-0.11897162348,0.00822448451072,,0.0017934776435,0.00152279181384,0.0200215232103,-0.999796835076
793140000000,,13484,,793,132081895,"""map""",,,0.233500659466,-0.118947587907,0.00820142123848,,0.00179668371599,0.00148176684735,0.0199736865373,-0.999797804453
793176000000,,13485,,793,172081645,"""map""",,,0.232616171241,-0.119065970182,0.00841983314604,,0.00180992890849,0.00152291446776,0.0199984267373,-0.999797256544
793208000000,,13486,,793,204081645,"""map""",,,0.232619300485,-0.118465460837,0.00830402318388,,0.00184081392563,0.00148578085105,0.020020216658,-0.999796792929
793236000000,,13487,,793,236081645,"""map""",,,0.232502728701,-0.117970392108,0.00809448491782,,0.00187492177728,0.00152231737368,0.0200440717743,-0.999796202873
793276000000,,13488,,793,268081396,"""map""",,,0.232239410281,-0.117621265352,0.00780018931255,,0.00196669417326,0.00150626673013,0.0200617734506,-0.999795697111
793308000000,,13489,,793,300081396,"""map""",,,0.231842786074,-0.117423698306,0.00749646313488,,0.00195222080554,0.00150232192505,0.0200848277768,-0.999795317789
793340000000,,13490,,793,332081396,"""map""",,,0.23135253787,-0.117332488298,0.00730014499277,,0.00198695830806,0.00147533417431,0.0200847856299,-0.999795275643
793376000000,,13491,,793,372081147,"""map""",,,0.230637565255,-0.117332212627,0.00711920810863,,0.00196686035285,0.00149239294661,0.0201279861497,-0.999794390559
793408000000,,13492,,793,404081147,"""map""",,,0.230915248394,-0.116758733988,0.00706232571974,,0.00197375681616,0.00147366375558,0.0201121810815,-0.99979476988
793440000000,,13493,,793,436081147,"""map""",,,0.231044188142,-0.116296969354,0.00692191114649,,0.00201477310838,0.00139898826574,0.0201050161172,-0.999794938468
793476000000,,13494,,793,468080897,"""map""",,,0.230994075537,-0.115951396525,0.00672227237374,,0.00203181539649,0.00158798117585,0.0201169015285,-0.999794348412
793508000000,,13495,,793,500080897,"""map""",,,0.230800285935,-0.115720152855,0.00663794623688,,0.00207011897925,0.00153036116558,0.0201135297806,-0.999794432706
793540000000,,13496,,793,532080897,"""map""",,,0.230463415384,-0.115583278239,0.00653429655358,,0.00201962205391,0.00149115214585,0.0200806130919,-0.999795233496
793576000000,,13497,,793,572080648,"""map""",,,0.229873046279,-0.115503519773,0.00629517296329,,0.00206183197864,0.0014766350055,0.0200601297235,-0.99979557067
793604000000,,13498,,793,604080648,"""map""",,,0.23021017015,-0.115228697658,0.00632678763941,,0.00206834323457,0.00148342634864,0.0200408264669,-0.999795907845
793640000000,,13499,,793,636080648,"""map""",,,0.230396047235,-0.115019276738,0.0063357851468,,0.0020754507408,0.00146167544672,0.0200287303214,-0.999796202873
793676000000,,13500,,793,668080399,"""map""",,,0.230459079146,-0.114855468273,0.0063478089869,,0.00203409906421,0.00143272683855,0.0199964879823,-0.999797003663
793708000000,,13501,,793,700080399,"""map""",,,0.230384618044,-0.114751696587,0.00636975793168,,0.00200219571088,0.00140904738904,0.0200509417106,-0.999795992139
793740000000,,13502,,793,732080399,"""map""",,,0.230195298791,-0.11471939832,0.00640949653462,,0.00197174693832,0.00132816098072,0.0200749232674,-0.999795697111
793776000000,,13503,,793,772080149,"""map""",,,0.229835063219,-0.114726863801,0.00652708439156,,0.00199815916232,0.00131342606794,0.020098946971,-0.999795107055
793808000000,,13504,,793,804080149,"""map""",,,0.230345860124,-0.114103652537,0.00674444390461,,0.00200844402233,0.00128554292304,0.0201083878651,-0.999795022761
793840000000,,13505,,793,836079900,"""map""",,,0.230664595962,-0.113574363291,0.00686812354252,,0.00201357807648,0.00125373913341,0.0201278597091,-0.999794601293
793876000000,,13506,,793,868079900,"""map""",,,0.230878397822,-0.113130576909,0.00696021365002,,0.0019915270429,0.0011925201774,0.0201354461418,-0.999794601293
793908000000,,13507,,793,900079900,"""map""",,,0.230966836214,-0.112761192024,0.00709021044895,,0.00200853815304,0.00120021568157,0.0201530635245,-0.999794179824
793940000000,,13508,,793,932079900,"""map""",,,0.230959832668,-0.112428314984,0.00704552978277,,0.00205324752171,0.00121467950039,0.0201439598052,-0.999794264118
793976000000,,13509,,793,972079651,"""map""",,,0.230775743723,-0.112090840936,0.0069769541733,,0.00201274711678,0.00120958952757,0.0201533585525,-0.999794137678
794008000000,,13510,,794,4079651,"""map""",,,0.231391042471,-0.111312270164,0.00726668350399,,0.00200784087788,0.00117639435688,0.0201715238442,-0.99979384265
794040000000,,13511,,794,36079651,"""map""",,,0.231837064028,-0.110615931451,0.00733424443752,,0.00201556881537,0.0011748017493,0.0201884668773,-0.999793505475
794080000000,,13512,,794,68079401,"""map""",,,0.232120752335,-0.109977938235,0.00736759090796,,0.00203871299167,0.0011744702133,0.0202139235738,-0.999792915419
794108000000,,13513,,794,100079401,"""map""",,,0.232267305255,-0.109389096498,0.00740137370303,,0.00203546970112,0.00117626338884,0.0202178010838,-0.999792831125
794136000000,,13514,,794,132079401,"""map""",,,0.232287943363,-0.108860477805,0.00743675231934,,0.0020600731709,0.00123523218058,0.0202171688811,-0.999792788978
794172000000,,13515,,794,172079152,"""map""",,,0.232159376144,-0.10825188458,0.00743617815897,,0.00213029373062,0.00120026219127,0.0202176746433,-0.999792620391
794208000000,,13516,,794,204079152,"""map""",,,0.23283675313,-0.107225112617,0.00688255112618,,0.00215287439862,0.00122239570755,0.0202098353295,-0.999792704685
794240000000,,13517,,794,236079152,"""map""",,,0.233343854547,-0.10629568249,0.00630984548479,,0.00214989329111,0.00124461915631,0.0201831985212,-0.999793210447
794276000000,,13518,,794,268078903,"""map""",,,0.233712375164,-0.105455636978,0.0056836665608,,0.00214944259971,0.00125948867971,0.0202057049383,-0.999792788978
794308000000,,13519,,794,300078903,"""map""",,,0.23397192359,-0.104690901935,0.0050257537514,,0.00214946206794,0.00128187684692,0.020254468842,-0.999791735307
794340000000,,13520,,794,332078903,"""map""",,,0.234097734094,-0.104006700218,0.00449362071231,,0.00213682540143,0.00145918092129,0.0202451122417,-0.999791735307
794376000000,,13521,,794,372078654,"""map""",,,0.234082937241,-0.103236086667,0.00376295344904,,0.00211365692072,0.00140122231624,0.0202289278518,-0.999792156776
794408000000,,13522,,794,404078654,"""map""",,,0.234703749418,-0.102616786957,0.00406213663518,,0.00210060884911,0.00139823087781,0.0202234909084,-0.99979236751
794440000000,,13523,,794,436078654,"""map""",,,0.235197976232,-0.102051526308,0.00431048544124,,0.00205021430686,0.00141053092518,0.0201879611151,-0.9997931683
794476000000,,13524,,794,468078405,"""map""",,,0.235581934452,-0.101561717689,0.00455628428608,,0.00207133695732,0.00138228677441,0.0201784780742,-0.999793294741
794508000000,,13525,,794,500078405,"""map""",,,0.235861510038,-0.101119123399,0.00481130834669,,0.00206504810422,0.00135060987808,0.0201996357921,-0.999792957566
794540000000,,13526,,794,532078405,"""map""",,,0.236039564013,-0.100711137056,0.00499107409269,,0.00207286177597,0.00129631876914,0.0201880454088,-0.999793252594
794576000000,,13527,,794,572078156,"""map""",,,0.236112654209,-0.100211426616,0.0050874077715,,0.00204025085773,0.0012578355272,0.020218306846,-0.999792746832
794608000000,,13528,,794,604078156,"""map""",,,0.236786365509,-0.0996703505516,0.00576846115291,,0.00204869644409,0.0012190396001,0.0202286328239,-0.999792536097
794640000000,,13529,,794,636078156,"""map""",,,0.237307801843,-0.0991569384933,0.00638583675027,,0.00200415413993,0.00117789834905,0.0202871326496,-0.999791524573
794676000000,,13530,,794,668077907,"""map""",,,0.237685903907,-0.0986863449216,0.00691161956638,,0.00208755810216,0.0011055253366,0.0202804734476,-0.999791608867
794708000000,,13531,,794,700077907,"""map""",,,0.237954422832,-0.0982593894005,0.00722925271839,,0.00209213099407,0.00106365248377,0.0202773967276,-0.999791651014
794740000000,,13532,,794,732077907,"""map""",,,0.238154739141,-0.097887404263,0.00761913787574,,0.00213115518916,0.00104114656057,0.0202891135515,-0.999791398132
794776000000,,13533,,794,772077658,"""map""",,,0.238315954804,-0.0974824503064,0.00812875758857,,0.00216569617787,0.00105972772314,0.0202303186978,-0.999792451804
794808000000,,13534,,794,804077658,"""map""",,,0.238977462053,-0.0970776602626,0.00853940285742,,0.00215708402091,0.0010431821628,0.0202152722729,-0.999792831125
794840000000,,13535,,794,836077658,"""map""",,,0.239541321993,-0.0966849848628,0.00911578070372,,0.00216906401565,0.00118570823417,0.0201769607876,-0.999793379034
794876000000,,13536,,794,868077409,"""map""",,,0.239998146892,-0.0963247716427,0.00970892515033,,0.00215035460154,0.00111563168989,0.0201983292398,-0.999793084006
794908000000,,13537,,794,900077409,"""map""",,,0.240355104208,-0.095971852541,0.0103392424062,,0.00217840514022,0.0010510013087,0.0202051148824,-0.999792957566
794940000000,,13538,,794,932077409,"""map""",,,0.240620583296,-0.0956624299288,0.0109268818051,,0.00223042188339,0.000953134721256,0.0202806841818,-0.999791398132
794976000000,,13539,,794,972077160,"""map""",,,0.240862295032,-0.0953278020024,0.0115940198302,,0.00226464104963,0.000972479589655,0.0203079110459,-0.999790723783
795008000000,,13540,,795,4077160,"""map""",,,0.241673648357,-0.0951575040817,0.012472903356,,0.00227030593181,0.000952424851436,0.0203045814449,-0.999790850223
795040000000,,13541,,795,36077160,"""map""",,,0.242353320122,-0.0949912369251,0.0133357066661,,0.00229907156751,0.000895071469373,0.0203509429783,-0.999789922993
795076000000,,13542,,795,68076911,"""map""",,,0.242902427912,-0.0948166400194,0.0140994358808,,0.00229098513486,0.000890627446397,0.020364640704,-0.999789627965
795108000000,,13543,,795,100076911,"""map""",,,0.243357926607,-0.0946390554309,0.0147244213149,,0.00231293977398,0.000867114690966,0.020357686474,-0.999789754405
795140000000,,13544,,795,132076911,"""map""",,,0.243736326694,-0.0944672226906,0.0152357723564,,0.00227700102455,0.000818359019045,0.0203412070563,-0.999790218021
795176000000,,13545,,795,172076662,"""map""",,,0.244114100933,-0.0942124575377,0.0159893445671,,0.00221429342868,0.000848154865309,0.0202615916594,-0.999791946041
795208000000,,13546,,795,204076662,"""map""",,,0.244985833764,-0.0939553305507,0.0166593473405,,0.00220661500551,0.000826769743706,0.0202657220506,-0.999791861748
795240000000,,13547,,795,236076662,"""map""",,,0.245757266879,-0.0936974436045,0.0172884240746,,0.00215236563183,0.000825354655035,0.0202508442131,-0.999792325363
795276000000,,13548,,795,268076414,"""map""",,,0.246447727084,-0.0934412330389,0.0178188383579,,0.00215553973404,0.000755207234908,0.0202913051876,-0.999791482426
795308000000,,13549,,795,300076414,"""map""",,,0.247044220567,-0.0931979268789,0.018364213407,,0.00216545692042,0.000761124421948,0.0203065623468,-0.999791145251
795340000000,,13550,,795,332076414,"""map""",,,0.247531428933,-0.0929666534066,0.0188410859555,,0.00218191090191,0.000802328317042,0.020299270942,-0.999791271692
795376000000,,13551,,795,372076165,"""map""",,,0.248050689697,-0.0926936939359,0.0193380657583,,0.00217746675546,0.000831006572116,0.0203439887483,-0.999790386608
795408000000,,13552,,795,404076165,"""map""",,,0.248772963881,-0.092347830534,0.0192765295506,,0.00219269275723,0.000824770032148,0.0203653993473,-0.999789880846
795440000000,,13553,,795,436076165,"""map""",,,0.249389469624,-0.092017300427,0.0192256551236,,0.00220238558573,0.000825990932507,0.0203643035293,-0.999789880846
795476000000,,13554,,795,468075917,"""map""",,,0.249900251627,-0.0916869193316,0.0191683471203,,0.00221674914115,0.000779852275302,0.020325697016,-0.999790639489
795508000000,,13555,,795,500075917,"""map""",,,0.250336259604,-0.0913494750857,0.0190675761551,,0.00221665249975,0.000746951556319,0.0203305017567,-0.999790639489
795540000000,,13556,,795,532075917,"""map""",,,0.250723540783,-0.0909812673926,0.0187826044858,,0.00219050791235,0.000890623289335,0.0203354750849,-0.999790470902
795576000000,,13557,,795,572075668,"""map""",,,0.251126974821,-0.0904837846756,0.018471069634,,0.00217767773665,0.000866976026188,0.0203407434409,-0.999790344461
795608000000,,13558,,795,604075668,"""map""",,,0.251919478178,-0.0899861380458,0.0190135762095,,0.00220227383896,0.000869474091302,0.0203769897307,-0.999789585818
795640000000,,13559,,795,636075668,"""map""",,,0.25258731842,-0.0894802361727,0.0196062941104,,0.00221171279855,0.000831570862441,0.0204409264998,-0.999788279266
795676000000,,13560,,795,668075420,"""map""",,,0.253135889769,-0.0889694467187,0.0201475843787,,0.00225783548605,0.000796655285378,0.0204194316071,-0.999788700734
795708000000,,13561,,795,700075420,"""map""",,,0.253559798002,-0.0884782597423,0.0206734575331,,0.00223319093956,0.000780476657814,0.0203999176162,-0.999789164349
795740000000,,13562,,795,732075420,"""map""",,,0.253926485777,-0.0879858285189,0.0211070571095,,0.00216341806663,0.000770047041487,0.020379392101,-0.999789712259
795776000000,,13563,,795,772075171,"""map""",,,0.254300504923,-0.0874013602734,0.021477073431,,0.00215712534458,0.000708950574759,0.0203801085974,-0.999789754405
795808000000,,13564,,795,804075171,"""map""",,,0.254877895117,-0.086946606636,0.0213907565922,,0.0021755367673,0.000676927037061,0.0204055231471,-0.999789206496
795840000000,,13565,,795,836075171,"""map""",,,0.255405515432,-0.0865041017532,0.0212516654283,,0.00210772199414,0.000658230793843,0.020453401967,-0.999788363559
795876000000,,13566,,795,868074923,"""map""",,,0.255877107382,-0.0860717445612,0.0211565028876,,0.00210341881737,0.00060418116494,0.0205199939877,-0.999787099154
795908000000,,13567,,795,900074923,"""map""",,,0.256283789873,-0.0856194421649,0.0211248882115,,0.00210368083576,0.000585638609547,0.0205640795912,-0.999786171923
795940000000,,13568,,795,932074923,"""map""",,,0.256656110287,-0.0851643830538,0.0211526826024,,0.00211783172247,0.000535281275065,0.0205851530154,-0.999785750455
795976000000,,13569,,795,972074675,"""map""",,,0.257058769464,-0.084582939744,0.0211364720017,,0.00208078941707,0.000451921229519,0.020540477356,-0.999786761979
796008000000,,13570,,796,4074675,"""map""",,,0.257595032454,-0.0841368511319,0.0210740789771,,0.00208012716825,0.000477142743313,0.020575543534,-0.99978608763
796040000000,,13571,,796,36074675,"""map""",,,0.258066028357,-0.0836590453982,0.0209686737508,,0.0020741748314,0.000688694321919,0.0206318517236,-0.999784823224
796076000000,,13572,,796,68074426,"""map""",,,0.258529752493,-0.0831593126059,0.0210814382881,,0.00209507637554,0.000708872454916,0.0206368250517,-0.999784654637
796108000000,,13573,,796,100074426,"""map""",,,0.258911311626,-0.0826692730188,0.0213997159153,,0.00211707011574,0.00072389780641,0.0206646419717,-0.999783980287
796140000000,,13574,,796,132074426,"""map""",,,0.259213268757,-0.0822062268853,0.0216220002621,,0.00209018577707,0.000723274740988,0.0206171424735,-0.999785033958
796176000000,,13575,,796,172074178,"""map""",,,0.259531378746,-0.0817028209567,0.0219303574413,,0.0021165549693,0.000671055371909,0.0206563811894,-0.999784233168
796208000000,,13576,,796,204074178,"""map""",,,0.259934365749,-0.0814175009727,0.0219826046377,,0.0021226747411,0.000621859216031,0.020652040064,-0.999784359609
796240000000,,13577,,796,236074178,"""map""",,,0.260276168585,-0.0811148881912,0.0221577975899,,0.00215101298141,0.000573789006625,0.0206845352842,-0.999783643112
796276000000,,13578,,796,268073930,"""map""",,,0.260574281216,-0.0807729065418,0.0224097408354,,0.00214163069781,0.000511810913437,0.0207702198273,-0.999781915092
796308000000,,13579,,796,300073930,"""map""",,,0.260848075151,-0.0804219990969,0.0226356573403,,0.00214868996566,0.00045802247975,0.0207600202899,-0.999782083679
796340000000,,13580,,796,332073930,"""map""",,,0.261062771082,-0.0800556018949,0.0227692611516,,0.00215212509845,0.000395251498974,0.0208130831722,-0.999781030008
796372000000,,13581,,796,372073682,"""map""",,,0.261251091957,-0.0795949548483,0.0229964386672,,0.00212131097774,0.000377402802538,0.0208253479051,-0.999780819273
796408000000,,13582,,796,404073682,"""map""",,,0.261411726475,-0.0792836099863,0.0234367344528,,0.00212417128349,0.000353720471896,0.0208495401962,-0.999780313511
796440000000,,13583,,796,436073682,"""map""",,,0.261537104845,-0.0789499655366,0.023774959147,,0.00209116445653,0.000347627041882,0.0208908862545,-0.999779512721
796476000000,,13584,,796,468073435,"""map""",,,0.261640399694,-0.0786167234182,0.0241317860782,,0.00209666906543,0.00026543031521,0.020917733797,-0.999778964812
796508000000,,13585,,796,500073435,"""map""",,,0.261690437794,-0.078272536397,0.0244747288525,,0.00207029921465,0.000261521277328,0.0209330331031,-0.999778754078
796540000000,,13586,,796,532073435,"""map""",,,0.261680006981,-0.0779241621494,0.0248588882387,,0.00206264997324,0.000319739822238,0.0209277226001,-0.999778838372
796576000000,,13587,,796,572073187,"""map""",,,0.261617809534,-0.0774838551879,0.0253120549023,,0.00200785907017,0.000304642360121,0.0209682678684,-0.999778079728
796608000000,,13588,,796,604073187,"""map""",,,0.26182743907,-0.0772574543953,0.0252683274448,,0.00204698229389,0.000303381000434,0.0209683100153,-0.999778037581
796640000000,,13589,,796,636073187,"""map""",,,0.262029409409,-0.0769997164607,0.0252086445689,,0.00204471336111,0.000513119935282,0.0209266267821,-0.999778838372
796676000000,,13590,,796,668072939,"""map""",,,0.262241959572,-0.0766641795635,0.0251910593361,,0.00202497966334,0.000439877849875,0.0209419682349,-0.999778585491
796708000000,,13591,,796,700072939,"""map""",,,0.262450277805,-0.0763036906719,0.0252351537347,,0.00202076481385,0.000421898103082,0.0209343396554,-0.999778711931
796740000000,,13592,,796,732072939,"""map""",,,0.262635409832,-0.0759326964617,0.0254189372063,,0.00206689939631,0.000435702595377,0.020965865498,-0.999777953288
796776000000,,13593,,796,772072691,"""map""",,,0.262858450413,-0.0754237920046,0.0257321670651,,0.00205682835747,0.000438190988118,0.0210374308468,-0.999776520295
796808000000,,13594,,796,804072691,"""map""",,,0.263274133205,-0.0751341208816,0.0262762401253,,0.0020734342981,0.00044983232634,0.0210577456278,-0.999776014533
796840000000,,13595,,796,836072691,"""map""",,,0.263649135828,-0.0747970715165,0.0267639495432,,0.0021174071259,0.000426530881378,0.0210331318683,-0.999776436001
796876000000,,13596,,796,868072444,"""map""",,,0.26403427124,-0.0744147375226,0.0272569153458,,0.00213183789402,0.000379703180822,0.0210455230417,-0.99977618312
796908000000,,13597,,796,900072444,"""map""",,,0.264448732138,-0.0740039721131,0.0278098639101,,0.00216041773785,0.000394389875803,0.0210698839202,-0.999775593064
796940000000,,13598,,796,932072444,"""map""",,,0.264870613813,-0.0735636278987,0.0284163542092,,0.0021823875235,0.000411436053438,0.0210931489806,-0.999775087302
796976000000,,13599,,796,972072197,"""map""",,,0.265406548977,-0.0729534998536,0.0291464906186,,0.00220818806255,0.000412029484358,0.0211343264515,-0.999774202218
797008000000,,13600,,797,4072197,"""map""",,,0.265957474709,-0.0727774277329,0.0296423044056,,0.00221458195349,0.000395074679774,0.0211185213834,-0.999774497246
797040000000,,13601,,797,36072197,"""map""",,,0.266512811184,-0.0725623443723,0.0301483180374,,0.00223414047843,0.000364906673545,0.0210720334094,-0.999775466624
797076000000,,13602,,797,68071949,"""map""",,,0.267104506493,-0.0723039954901,0.0306175854057,,0.00223874131731,0.000276120962116,0.0210686195147,-0.999775508771
797108000000,,13603,,797,100071949,"""map""",,,0.267713457346,-0.0719770565629,0.0310316048563,,0.00222651338057,0.000281524731394,0.0210630139839,-0.999775635211
797140000000,,13604,,797,132071949,"""map""",,,0.268320500851,-0.0715722814202,0.0312981680036,,0.00222569826711,0.000279417553605,0.021125307026,-0.999774370806
797176000000,,13605,,797,172071702,"""map""",,,0.269098818302,-0.0709870010614,0.0315179079771,,0.00228229193576,0.000258892696925,0.0211907189349,-0.999772853519
797208000000,,13606,,797,204071702,"""map""",,,0.269542753696,-0.0708616524935,0.0320638976991,,0.00225569571031,0.000296502585366,0.0212090949608,-0.999772516344
797240000000,,13607,,797,236071702,"""map""",,,0.26999053359,-0.0706580504775,0.0326946116984,,0.00224955972186,0.000266026791898,0.0211583501552,-0.999773612162
797276000000,,13608,,797,268071455,"""map""",,,0.270442992449,-0.0703647360206,0.0332307703793,,0.00229625917087,0.000242395169183,0.0211968302279,-0.999772642785
797308000000,,13609,,797,300071455,"""map""",,,0.270911246538,-0.0699943006039,0.0336668528616,,0.00230514589973,0.000265429245075,0.0212021407308,-0.999772558491
797340000000,,13610,,797,332071455,"""map""",,,0.271382153034,-0.0695758610964,0.0342128612101,,0.00226440191566,0.000284726739428,0.0212224976586,-0.99977217917
797376000000,,13611,,797,372071208,"""map""",,,0.271961122751,-0.0689375475049,0.0348625145853,,0.0022447721856,0.000276639977506,0.0212386399016,-0.999771884142
797408000000,,13612,,797,400071208,"""map""",,,0.272448122501,-0.068854637444,0.0352329798043,,0.00221084635977,0.000284877628439,0.0212555407879,-0.999771589114
797440000000,,13613,,797,432071208,"""map""",,,0.273061692715,-0.0686937049031,0.0357030257583,,0.00222700358464,0.000508632942277,0.0212926721614,-0.99977070403
797476000000,,13614,,797,472070961,"""map""",,,0.273801922798,-0.0683868676424,0.0363813117146,,0.0022503857013,0.000512126850164,0.0213006800626,-0.999770451149
797508000000,,13615,,797,504070961,"""map""",,,0.274380862713,-0.0680399909616,0.0369211472571,,0.0022703546641,0.00051031659363,0.0213219642211,-0.999769987533
797540000000,,13616,,797,536070961,"""map""",,,0.274970024824,-0.0676236599684,0.0375031493604,,0.00224274987773,0.000483453328378,0.0213696744536,-0.999769060303
797576000000,,13617,,797,568070714,"""map""",,,0.275577068329,-0.0671090632677,0.0381096377969,,0.00222530042391,0.00040562802015,0.0214328947264,-0.999767711604
797608000000,,13618,,797,600070714,"""map""",,,0.276331722736,-0.0668921619654,0.0389962717891,,0.00222695394685,0.000368359751672,0.0214059207433,-0.999768301659
797640000000,,13619,,797,632070714,"""map""",,,0.277056992054,-0.0666388049722,0.0396674200892,,0.00221217242146,0.000357432851924,0.0214600794437,-0.999767247988
797676000000,,13620,,797,672070467,"""map""",,,0.277986109257,-0.0661942735314,0.0403087362647,,0.00221119069623,0.00033009699867,0.0215303382402,-0.999765772849
797708000000,,13621,,797,704070467,"""map""",,,0.278726190329,-0.0657442286611,0.0407022349536,,0.00224472518199,0.000299872522249,0.0215480399165,-0.999765267086
797740000000,,13622,,797,736070467,"""map""",,,0.279477566481,-0.0652287751436,0.040956735611,,0.00220805635365,0.000260923812823,0.021565446565,-0.999764972058
797776000000,,13623,,797,768070221,"""map""",,,0.280253946781,-0.064620912075,0.0411348305643,,0.00220097263733,0.000248670192845,0.0215434037632,-0.999765435674
797808000000,,13624,,797,800070221,"""map""",,,0.280842572451,-0.064329713583,0.0409885048866,,0.00221541863429,0.00022403750016,0.0215824738918,-0.999764634884
797840000000,,13625,,797,832070221,"""map""",,,0.281479805708,-0.0639396682382,0.0407657623291,,0.0021842619058,0.000203223213169,0.0215827267729,-0.999764634884
797876000000,,13626,,797,872069974,"""map""",,,0.282314628363,-0.0633540302515,0.0403944328427,,0.00220764723287,0.000176503839892,0.0216383606129,-0.999763454772
797908000000,,13627,,797,904069974,"""map""",,,0.283013254404,-0.062850728631,0.0402171164751,,0.00219009957359,0.000183931645716,0.0216170764544,-0.999763918387
797940000000,,13628,,797,936069974,"""map""",,,0.283738642931,-0.0623296760023,0.0399892963469,,0.00224263446781,0.000174859042665,0.021630816327,-0.999763496919
797976000000,,13629,,797,968069728,"""map""",,,0.284487247467,-0.0617649890482,0.0398138165474,,0.00221974362535,0.000191196708728,0.0216238199502,-0.999763665506
798008000000,,13630,,798,69728,"""map""",,,0.284921944141,-0.0615781806409,0.0398680269718,,0.00227989730329,0.000187864885108,0.0216065818891,-0.999763960534
798040000000,,13631,,798,32069728,"""map""",,,0.285423368216,-0.0613286048174,0.0398188754916,,0.00228291426032,0.000158616947875,0.0216361268299,-0.999763328331
798076000000,,13632,,798,72069481,"""map""",,,0.286093235016,-0.0608665645123,0.0397826619446,,0.00229990948308,0.00020793567535,0.0216235249222,-0.999763539066
798108000000,,13633,,798,104069481,"""map""",,,0.286679267883,-0.0604141131043,0.0398273468018,,0.00229612112348,0.000194107310817,0.0216392878436,-0.999763201891
798140000000,,13634,,798,136069481,"""map""",,,0.287314355373,-0.0598703473806,0.0398675687611,,0.00230952456216,0.000180508613681,0.0216664725608,-0.999762653982
798176000000,,13635,,798,168069235,"""map""",,,0.287993997335,-0.0592353641987,0.0398350581527,,0.00227635993147,0.000154919549735,0.0216907491456,-0.99976214822
798208000000,,13636,,798,200069235,"""map""",,,0.288693726063,-0.0585224628448,0.0397579930723,,0.0022817817284,0.000143646914119,0.0217260260578,-0.999761347429
798240000000,,13637,,798,232069235,"""map""",,,0.289420187473,-0.0577249936759,0.0396847464144,,0.00223633071514,0.000143441859823,0.0217720082695,-0.999760462346
798276000000,,13638,,798,272068989,"""map""",,,0.290408164263,-0.056590501219,0.0396072231233,,0.00227987598292,0.000154155720423,0.0217843572961,-0.999760083024
798308000000,,13639,,798,304068989,"""map""",,,0.291106343269,-0.0563718080521,0.039536844939,,0.00225159725856,0.000118382101025,0.021772429738,-0.999760462346
798340000000,,13640,,798,336068989,"""map""",,,0.291829645634,-0.0560803376138,0.0394339747727,,0.00220596251138,0.000156581222164,0.0217479002722,-0.999761052402
798376000000,,13641,,798,368068743,"""map""",,,0.292620629072,-0.0557106621563,0.0392909049988,,0.00219833681294,0.000218362822135,0.0217745792273,-0.999760504492
798408000000,,13642,,798,400068743,"""map""",,,0.293447494507,-0.0552402473986,0.039134092629,,0.00221141929349,0.000258565647258,0.0217722190038,-0.999760504492
798440000000,,13643,,798,432068743,"""map""",,,0.294323295355,-0.0546410009265,0.0390040315688,,0.00219808590748,0.000269633475532,0.0217850737926,-0.999760293758
798476000000,,13644,,798,472068497,"""map""",,,0.295423716307,-0.0537903644145,0.0387940183282,,0.0021905498534,0.000306811935002,0.0217483217407,-0.999761052402
798508000000,,13645,,798,504068497,"""map""",,,0.295738607645,-0.0538203828037,0.0386925600469,,0.00221866616421,0.000349867657252,0.0217450342865,-0.999761052402
798540000000,,13646,,798,536068497,"""map""",,,0.296109378338,-0.0537034831941,0.0384729728103,,0.00221911916052,0.000373448242768,0.0217120333041,-0.999761768898
798576000000,,13647,,798,568068252,"""map""",,,0.296525120735,-0.0534759126604,0.0382151789963,,0.00217354409393,0.000425431605958,0.0216977455224,-0.99976214822
798608000000,,13648,,798,600068252,"""map""",,,0.297041416168,-0.0531077310443,0.0380041822791,,0.00215785945707,0.000389159386049,0.0216631429598,-0.99976294901
798640000000,,13649,,798,632068252,"""map""",,,0.297651320696,-0.0526300594211,0.0378669127822,,0.00214917333733,0.000389303031069,0.0216201110275,-0.999763918387
798676000000,,13650,,798,672068006,"""map""",,,0.298523008823,-0.0518925376236,0.0377113111317,,0.00213667539734,0.000453708436996,0.0216443454654,-0.999763370478
798708000000,,13651,,798,704068006,"""map""",,,0.298668682575,-0.0523023754358,0.0373584888875,,0.00211349002084,0.000464439090481,0.021636379711,-0.999763581212
798740000000,,13652,,798,736068006,"""map""",,,0.29890832305,-0.0525269657373,0.037001773715,,0.00214373038465,0.000491732632251,0.0216230613069,-0.9997637498
798776000000,,13653,,798,768067760,"""map""",,,0.299226045609,-0.0525824651122,0.0366931557655,,0.00211225368585,0.000549416768293,0.0216409315706,-0.999763496919
798808000000,,13654,,798,800067760,"""map""",,,0.299588263035,-0.0525140352547,0.0363888069987,,0.00212056031932,0.000545996535072,0.0216747333432,-0.999762738275
798840000000,,13655,,798,832067760,"""map""",,,0.300003856421,-0.052346136421,0.0360918827355,,0.0020883649015,0.00059183370237,0.0217381643502,-0.999761347429
798876000000,,13656,,798,872067515,"""map""",,,0.300628513098,-0.0519500225782,0.0357431545854,,0.00212856509245,0.000633676467954,0.0217559081734,-0.999760883814
798908000000,,13657,,798,904067515,"""map""",,,0.300651818514,-0.0522102341056,0.0355459265411,,0.00215402738658,0.000630247426701,0.0217898785333,-0.999760040877
798940000000,,13658,,798,936067515,"""map""",,,0.30076187849,-0.0523513182998,0.0352605096996,,0.0021705366858,0.000664151355924,0.0218162624605,-0.999759450821
798976000000,,13659,,798,968067270,"""map""",,,0.300976932049,-0.0523235537112,0.0349908098578,,0.00211472314544,0.000675523678714,0.0218799042017,-0.999758186416
799008000000,,13660,,799,67270,"""map""",,,0.30128672719,-0.0521463640034,0.0347444526851,,0.00209886514673,0.000677978650322,0.021891241704,-0.999757975682
799040000000,,13661,,799,32067270,"""map""",,,0.301691710949,-0.0518709905446,0.0345599651337,,0.00207035362689,0.000680235153078,0.0218841188866,-0.999758186416
799072000000,,13662,,799,72067025,"""map""",,,0.302308171988,-0.0514124371111,0.0344868563116,,0.00208035033252,0.0006690884641,0.0218854675857,-0.999758102122
799108000000,,13663,,799,104067025,"""map""",,,0.302221983671,-0.0517465882003,0.0343192480505,,0.00210186210047,0.00069266756789,0.0218943605707,-0.999757891388
799140000000,,13664,,799,136078780,"""map""",,,0.302260965109,-0.0519481897354,0.0343775860965,,0.00207190935597,0.000948079610136,0.0219437566772,-0.999756626982
799180000000,,13665,,799,168078780,"""map""",,,0.302383393049,-0.0520110279322,0.03444878757,,0.00212668889915,0.000929288865781,0.0219064145694,-0.999757301332
799208000000,,13666,,799,200078780,"""map""",,,0.302600622177,-0.0519114173949,0.034556299448,,0.00215194288742,0.000925794175873,0.0218980273466,-0.999757512066
799240000000,,13667,,799,232078780,"""map""",,,0.302916586399,-0.0517278835177,0.0347409509122,,0.0021744979545,0.000896582211633,0.0218856361731,-0.999757764947
799276000000,,13668,,799,272078535,"""map""",,,0.30341359973,-0.0513816140592,0.0346071906388,,0.00218889571307,0.000887000718314,0.0218215729634,-0.999759113646
799308000000,,13669,,799,304078535,"""map""",,,0.303276956081,-0.0518030077219,0.0342776253819,,0.00219830828973,0.000886434370038,0.0218565548476,-0.99975827071
799340000000,,13670,,799,336078535,"""map""",,,0.303261041641,-0.0520401671529,0.0338695496321,,0.00229661272695,0.000842711089452,0.021878976971,-0.999757680654
799376000000,,13671,,799,368078290,"""map""",,,0.303343802691,-0.0521390847862,0.0334762372077,,0.00229161939554,0.000820460105298,0.021863129756,-0.999758017828
799408000000,,13672,,799,400078290,"""map""",,,0.303527832031,-0.0521324239671,0.033099193126,,0.00227355428491,0.000823218995196,0.0218958357104,-0.999757343479
799440000000,,13673,,799,432078290,"""map""",,,0.303796499968,-0.0519838258624,0.0328742042184,,0.00224299304529,0.000836610991674,0.0218840345929,-0.999757680654
799472000000,,13674,,799,472078045,"""map""",,,0.304274559021,-0.0516638271511,0.0326034240425,,0.00221922543314,0.000849884038551,0.0218915788787,-0.999757554213
799508000000,,13675,,799,504078045,"""map""",,,0.304128080606,-0.0519884973764,0.0324441604316,,0.00217627985246,0.000862234629208,0.0218873641939,-0.9997577228
799540000000,,13676,,799,536078045,"""map""",,,0.304039180279,-0.0521531477571,0.0322496853769,,0.00218855697424,0.000837035217814,0.0218435314714,-0.999758650031
799576000000,,13677,,799,568077800,"""map""",,,0.304040879011,-0.0521861277521,0.0321079082787,,0.00208916326324,0.00085213786597,0.0218354814234,-0.999759029353
799608000000,,13678,,799,600077800,"""map""",,,0.304126083851,-0.0520931482315,0.0318886898458,,0.00208358403301,0.000867222198357,0.0218329947593,-0.9997590715
799640000000,,13679,,799,632077800,"""map""",,,0.304284840822,-0.0518901720643,0.0316009186208,,0.00210099660835,0.00090490938346,0.0218045034897,-0.999759661556
799676000000,,13680,,799,672077556,"""map""",,,0.304595857859,-0.0515125729144,0.0311430878937,,0.00211002076722,0.000932039318078,0.0217254360019,-0.999761347429
799708000000,,13681,,799,704077556,"""map""",,,0.304044097662,-0.0516046956182,0.0309396442026,,0.00208569162239,0.000938081669734,0.0217200833521,-0.999761558164
799740000000,,13682,,799,736077556,"""map""",,,0.303607583046,-0.0515471734107,0.0306802559644,,0.00211203747746,0.000986454933091,0.0217070178291,-0.999761726751
799776000000,,13683,,799,768077311,"""map""",,,0.303294092417,-0.0514008775353,0.0304089635611,,0.00214454825577,0.000969371218419,0.0217124969194,-0.999761558164
799808000000,,13684,,799,800077311,"""map""",,,0.303122133017,-0.0511700622737,0.0302159413695,,0.00206169471327,0.00105484148752,0.0217105581644,-0.999761642457
799840000000,,13685,,799,832077311,"""map""",,,0.303069621325,-0.05083059147,0.0300577599555,,0.00205229897066,0.000958581666359,0.0216873773977,-0.999762232513
799876000000,,13686,,799,872077066,"""map""",,,0.303145974874,-0.050324447453,0.0298044234514,,0.00199534067414,0.0010164273516,0.021735424805,-0.999761305283
799908000000,,13687,,799,904077066,"""map""",,,0.302828997374,-0.0505252629519,0.0296810492873,,0.00197714936993,0.00112618169639,0.0217718396821,-0.999760462346
799940000000,,13688,,799,936077066,"""map""",,,0.302629768848,-0.0505636632442,0.0296144410968,,0.00203910050395,0.00113621902599,0.021729313512,-0.999761178842
799976000000,,13689,,799,968076821,"""map""",,,0.302535235882,-0.0504676252604,0.0295864678919,,0.00208008246955,0.00108330423391,0.0217465094262,-0.999760757374
800008000000,,13690,,800,76821,"""map""",,,0.302522182465,-0.0502443388104,0.0295395813882,,0.00205416038787,0.00108385753477,0.0217476895379,-0.999760757374
800040000000,,13691,,800,32076821,"""map""",,,0.302605569363,-0.0498989708722,0.0294777657837,,0.00200336759083,0.00103261215302,0.0217454979018,-0.999761010255
800076000000,,13692,,800,72076577,"""map""",,,0.302780300379,-0.0493090748787,0.0295109208673,,0.00173812279996,0.00105057776168,0.0217041096966,-0.999762443248
800108000000,,13693,,800,104076577,"""map""",,,0.302207559347,-0.0493719950318,0.0300546362996,,0.00126299204389,0.00109825369844,0.0215718950328,-0.999765941436
800140000000,,13694,,800,136076577,"""map""",,,0.301473259926,-0.049268912524,0.0316363051534,,-0.00170616556432,0.00155158760368,0.0207359122926,-0.99978233656
800176000000,,13695,,800,168076332,"""map""",,,0.300530970097,-0.0490915067494,0.0343298986554,,-0.00678001526512,0.00409862370787,0.0194645526072,-0.999779175546
800208000000,,13696,,800,200076332,"""map""",,,0.299414217472,-0.0489323399961,0.0379826352,,-0.00969086340296,0.00611713136042,0.0187398796939,-0.999758776472
800240000000,,13697,,800,232076332,"""map""",,,0.298159003258,-0.0488176904619,0.0423771180212,,-0.0163716983255,0.0116894099953,0.017302039957,-0.999647888113
800276000000,,13698,,800,272076088,"""map""",,,0.296448111534,-0.0487566739321,0.0488066226244,,-0.023761038729,0.0192103285793,0.0158935765735,-0.999406723846
800308000000,,13699,,800,304076088,"""map""",,,0.29460299015,-0.0496040545404,0.0546767376363,,-0.0277553772219,0.0235661237134,0.0151936438602,-0.999221488447
800340000000,,13700,,800,336076088,"""map""",,,0.292619168758,-0.0505471564829,0.0610904954374,,-0.0362450564301,0.0333823328316,0.0138333964714,-0.998689510925
800376000000,,13701,,800,368075843,"""map""",,,0.290468841791,-0.0516156889498,0.0679918900132,,-0.0454176015121,0.044604484425,0.0125490134099,-0.997892935488
800408000000,,13702,,800,400075843,"""map""",,,0.288128346205,-0.0528293661773,0.0754774808884,,-0.0504063357398,0.0506517338925,0.0118623569539,-0.997373011965
800440000000,,13703,,800,432075843,"""map""",,,0.285415500402,-0.0543650761247,0.0836631730199,,-0.0610827258677,0.0637590843339,0.0104345481669,-0.996039612119
800480000000,,13704,,800,472075599,"""map""",,,0.280581176281,-0.0577325373888,0.0947506129742,,-0.0727370542092,0.0783746443248,0.00832876517478,-0.994232060226
800508000000,,13705,,800,504075599,"""map""",,,0.274947106838,-0.0623039491475,0.104387968779,,-0.0761665123209,0.0827667983598,0.00752957663332,-0.993625567076
800540000000,,13706,,800,536075599,"""map""",,,0.267825901508,-0.0683043152094,0.114996910095,,-0.0824478741449,0.0910104101077,0.00547120884574,-0.992416036818
800576000000,,13707,,800,568075354,"""map""",,,0.259077608585,-0.075814075768,0.127048283815,,-0.0863020947814,0.0960633147747,0.00366209752026,-0.991620051437
800608000000,,13708,,800,600075354,"""map""",,,0.248675942421,-0.0848869010806,0.140519291162,,-0.087861024719,0.0977999733626,0.00286358332838,-0.991316004072
800640000000,,13709,,800,632075110,"""map""",,,0.236641526222,-0.0954701080918,0.155249044299,,-0.0898572015389,0.100455480993,0.0014492615329,-0.990874515834
800676000000,,13710,,800,672075110,"""map""",,,0.219383746386,-0.110699057579,0.175398141146,,-0.0899720582865,0.101085970187,0.000475542891749,-0.990800969583
800708000000,,13711,,800,704075110,"""map""",,,0.204741105437,-0.123686693609,0.192873433232,,-0.0897228228978,0.100604695324,-1.97668719515e-05,-0.990872619225
800740000000,,13712,,800,736075110,"""map""",,,0.188650667667,-0.138034194708,0.211556911469,,-0.0890881150669,0.0989783511733,-0.000701197118676,-0.991093468712
800776000000,,13713,,800,768074866,"""map""",,,0.171167269349,-0.153777569532,0.231435999274,,-0.0887269715636,0.0982002864347,-0.000551154337977,-0.991203303399
800808000000,,13714,,800,800074866,"""map""",,,0.152407750487,-0.17088277638,0.252803444862,,-0.0887196979395,0.0981383127867,-0.000164709883981,-0.991210257629
800840000000,,13715,,800,832074866,"""map""",,,0.132478415966,-0.189236491919,0.275527507067,,-0.0881279752842,0.0974131360869,0.000932456876455,-0.99133408507
800876000000,,13716,,800,872074621,"""map""",,,0.106024168432,-0.213728114963,0.305789887905,,-0.086932813479,0.0961277240495,0.00206018010206,-0.991563406072
800908000000,,13717,,800,904074621,"""map""",,,0.0834268182516,-0.233703047037,0.330598622561,,-0.0864786983084,0.0957854745175,0.00256219121467,-0.991635013568
800940000000,,13718,,800,936074621,"""map""",,,0.0598091110587,-0.254722863436,0.356791079044,,-0.0862521507659,0.0957543994485,0.00359032143725,-0.991654569706
800972000000,,13719,,800,968074377,"""map""",,,0.0352000184357,-0.276766121387,0.384509682655,,-0.0868834104578,0.0961247596114,0.00472057347377,-0.991558938507
801008000000,,13720,,801,74377,"""map""",,,0.00968590006232,-0.29981315136,0.413671135902,,-0.0872156359546,0.0959023055815,0.00539134056782,-0.991547853885
801040000000,,13721,,801,32074377,"""map""",,,-0.0166845303029,-0.323810756207,0.444182932377,,-0.0873796507449,0.0949580472582,0.0068749939291,-0.991615120256
801076000000,,13722,,801,72074133,"""map""",,,-0.0507670938969,-0.355031847954,0.484120160341,,-0.0868226435926,0.0941330592479,0.0082871662353,-0.99173195132
801108000000,,13723,,801,104074133,"""map""",,,-0.0795707032084,-0.379800498486,0.517179727554,,-0.0864573071365,0.0936752677526,0.00894925107856,-0.991801451473
801140000000,,13724,,801,136074133,"""map""",,,-0.109016761184,-0.405443489552,0.551797330379,,-0.0856907023894,0.0928185023355,0.0101358955984,-0.991937037885
801176000000,,13725,,801,168073889,"""map""",,,-0.138986930251,-0.431875348091,0.587908387184,,-0.0848516656491,0.0923672976024,0.0112778223119,-0.992038948964
801208000000,,13726,,801,200073889,"""map""",,,-0.169509321451,-0.45903763175,0.62544298172,,-0.0844876054522,0.0920287382245,0.0117669786358,-0.99209584721
801240000000,,13727,,801,232073889,"""map""",,,-0.200515374541,-0.486842781305,0.664415001869,,-0.0835160409101,0.0912134239037,0.0126809330457,-0.992242138921
801276000000,,13728,,801,272073645,"""map""",,,-0.23992075026,-0.522443056107,0.7152094841,,-0.0827613442941,0.0908387219568,0.0133812029337,-0.992330520862
801308000000,,13729,,801,300073645,"""map""",,,-0.26532420516,-0.543189287186,0.746703028679,,-0.0824630239613,0.0907125813783,0.0136570540572,-0.99236318467
801340000000,,13730,,801,332073645,"""map""",,,-0.299390643835,-0.571395218372,0.789782345295,,-0.0817449058708,0.0901480549648,0.0143231428511,-0.992464589987
801376000000,,13731,,801,372073401,"""map""",,,-0.342306435108,-0.607433021069,0.845718562603,,-0.0809515339237,0.0896140435282,0.0148795655451,-0.992569872815
801408000000,,13732,,801,404073401,"""map""",,,-0.376907289028,-0.636874258518,0.892185151577,,-0.080589792462,0.0894565463529,0.0151311822307,-0.99260965944
801440000000,,13733,,801,436073401,"""map""",,,-0.411692529917,-0.666808366776,0.940109491348,,-0.0800006081665,0.0890327311445,0.0156265341413,-0.99268775755
801476000000,,13734,,801,468073157,"""map""",,,-0.446647793055,-0.697202682495,0.989493072033,,-0.0794611749329,0.0885245833849,0.0159910622341,-0.992770660401
801508000000,,13735,,801,500073157,"""map""",,,-0.484262704849,-0.726875960827,1.0398516655,,-0.0792193326942,0.0883124197715,0.0161258900025,-0.99280678025
801540000000,,13736,,801,532073157,"""map""",,,-0.52179813385,-0.757026433945,1.09149062634,,-0.0786373462902,0.0879105406806,0.0164554783578,-0.992883234634
801576000000,,13737,,801,572072914,"""map""",,,-0.568618714809,-0.795324742794,1.15792894363,,-0.0780376193556,0.087526992176,0.0166864009408,-0.992960658394
801608000000,,13738,,801,604072914,"""map""",,,-0.60602748394,-0.826366424561,1.21270895004,,-0.0777604392893,0.0873415578964,0.0168183627235,-0.992996441069
801640000000,,13739,,801,636072914,"""map""",,,-0.643398582935,-0.857735037804,1.2689794302,,-0.0772733494782,0.0869924120862,0.0170920222109,-0.993060462132
801680000000,,13740,,801,676072670,"""map""",,,-0.690888285637,-0.897160291672,1.34104943275,,-0.0769376975742,0.086632556696,0.0172299266992,-0.993115590209
801708000000,,13741,,801,700072670,"""map""",,,-0.721246480942,-0.920498609543,1.38467502594,,-0.0767447996804,0.0864533189909,0.0173160327107,-0.993144629388
801740000000,,13742,,801,732084426,"""map""",,,-0.761458456516,-0.951879858971,1.44425654411,,-0.0764481813559,0.0860787382162,0.0174244344051,-0.993198155886
801776000000,,13743,,801,772084426,"""map""",,,-0.811336696148,-0.991519331932,1.52076864243,,-0.0761532156487,0.0857321024485,0.0175109197382,-0.993249237866
801808000000,,13744,,801,804084426,"""map""",,,-0.850931465626,-1.02354383469,1.58359324932,,-0.0759881498215,0.0854650998582,0.017541855525,-0.993284388338
801840000000,,13745,,801,836084426,"""map""",,,-0.890238285065,-1.0558205843,1.647824049,,-0.0751491641183,0.0841517619118,0.0176646292947,-0.993458159794
801876000000,,13746,,801,868084183,"""map""",,,-0.929260373116,-1.08831191063,1.71339702606,,-0.0731153557603,0.0815464771909,0.0177643908852,-0.993825300991
801908000000,,13747,,801,900084183,"""map""",,,-0.971153438091,-1.11976587772,1.78038656712,,-0.071684835087,0.079796944387,0.0178084764887,-0.994070764237
801940000000,,13748,,801,940084183,"""map""",,,-1.02262997627,-1.15927398205,1.86583960056,,-0.0682121303574,0.0756798341001,0.0180033635162,-0.994633424665
801976000000,,13749,,801,972083939,"""map""",,,-1.06298613548,-1.19086813927,1.93437433243,,-0.0648357657503,0.0715431857854,0.0181952159706,-0.995161777558
802008000000,,13750,,802,4083939,"""map""",,,-1.10243296623,-1.22228872776,1.99857676029,,-0.0621530226951,0.0700437392097,0.0361577391906,-0.99494897812
