rosbagTimestamp,header,seq,stamp,secs,nsecs,frame_id,pose,position,x,y,z,orientation,x,y,z,w
1194640000000,,8594,,1194,632268891,"""map""",,,0.138033434749,0.254885584116,-0.0119773894548,,0.00527586528225,0.000998023707939,0.04247344444,-0.999083246784
1194676000000,,8595,,1194,672268891,"""map""",,,0.137664690614,0.254892706871,-0.0119985602796,,0.00528685556691,0.00102317829715,0.042498479668,-0.999082066672
1194708000000,,8596,,1194,704268891,"""map""",,,0.137327864766,0.254997342825,-0.0119557986036,,0.00529544693856,0.0010376511298,0.0425233041618,-0.999080928707
1194740000000,,8597,,1194,736267988,"""map""",,,0.136902526021,0.255124926567,-0.0118589801714,,0.00532364021676,0.00102444303187,0.0424811994601,-0.999082572434
1194776000000,,8598,,1194,768267988,"""map""",,,0.136530026793,0.255151420832,-0.0116889616475,,0.00529088108485,0.00103564339223,0.0424568385817,-0.999083752546
1194808000000,,8599,,1194,800267988,"""map""",,,0.136369422078,0.25489667058,-0.0114982221276,,0.0052220218601,0.00105339363626,0.0424700726921,-0.999083583959
1194840000000,,8600,,1194,832267086,"""map""",,,0.136117368937,0.254696518183,-0.0113535486162,,0.00523077441052,0.00107424990547,0.042483180362,-0.999082951756
1194876000000,,8601,,1194,872267086,"""map""",,,0.135676473379,0.254518866539,-0.0111479638144,,0.0052101710224,0.00111798927923,0.0425063189818,-0.999081982378
1194908000000,,8602,,1194,904267086,"""map""",,,0.135247215629,0.254425138235,-0.0110164349899,,0.00513684999397,0.00107915556814,0.042520733204,-0.999081813791
1194940000000,,8603,,1194,936266184,"""map""",,,0.134774386883,0.254394978285,-0.010943762958,,0.00512338407587,0.00102070908451,0.0424953608012,-0.999082993903
1194976000000,,8604,,1194,968266184,"""map""",,,0.134393230081,0.254345476627,-0.0108454134315,,0.00511937271664,0.00103742047459,0.0425203117355,-0.999081982378
1195008000000,,8605,,1195,266184,"""map""",,,0.134283483028,0.254176110029,-0.0104367500171,,0.0051794772507,0.000993490452183,0.042481789516,-0.999083331077
1195040000000,,8606,,1195,32265283,"""map""",,,0.134122982621,0.254052489996,-0.0100296186283,,0.00522894563242,0.00100448633447,0.0424567964348,-0.999084131868
1195076000000,,8607,,1195,72265283,"""map""",,,0.133833304048,0.253962755203,-0.00954869762063,,0.00519508475554,0.000994175338471,0.042474835286,-0.999083541812
1195108000000,,8608,,1195,104265283,"""map""",,,0.133500918746,0.253945142031,-0.00908880680799,,0.00519525235512,0.00103600246362,0.0424668695316,-0.99908383684
1195140000000,,8609,,1195,136264382,"""map""",,,0.133096754551,0.253921985626,-0.00863586645573,,0.00521123276079,0.00126117973969,0.0424548998267,-0.999084005427
1195176000000,,8610,,1195,176264382,"""map""",,,0.132798373699,0.253715604544,-0.00798255577683,,0.00522709413453,0.00124113792541,0.0424366502413,-0.999084721923
1195208000000,,8611,,1195,200264382,"""map""",,,0.132757917047,0.253446519375,-0.0076342294924,,0.00519646374774,0.0012561864906,0.0424619383504,-0.999083794693
1195240000000,,8612,,1195,232263481,"""map""",,,0.13263939321,0.253119677305,-0.00712289381772,,0.005237140231,0.0012521889608,0.0424521602815,-0.999084047574
1195276000000,,8613,,1195,272263481,"""map""",,,0.132358506322,0.252782046795,-0.00650229444727,,0.00523643641156,0.00124241138585,0.042469819811,-0.999083331077
1195308000000,,8614,,1195,304263481,"""map""",,,0.132061675191,0.252571195364,-0.00604117289186,,0.00526302728634,0.00125088998175,0.0424963301787,-0.999082024525
1195340000000,,8615,,1195,336262580,"""map""",,,0.131668761373,0.252379447222,-0.00561158685014,,0.00525685738284,0.00128392915972,0.0424775748312,-0.999082825315
1195376000000,,8616,,1195,368262580,"""map""",,,0.131204918027,0.25221440196,-0.00520663335919,,0.0052228590348,0.00124791368985,0.0424589037773,-0.999083794693
1195408000000,,8617,,1195,400262580,"""map""",,,0.130662158132,0.252107739449,-0.00477123912424,,0.00526557470113,0.00120418188934,0.0424038178463,-0.999085944182
1195440000000,,8618,,1195,432261680,"""map""",,,0.130055248737,0.252047866583,-0.0043362043798,,0.00527481358667,0.00120119061555,0.0423997717488,-0.999086112769
1195476000000,,8619,,1195,472261680,"""map""",,,0.1296569556,0.251704663038,-0.00381582649425,,0.00526911799986,0.00114682562615,0.0424115307195,-0.999085733448
1195508000000,,8620,,1195,504261680,"""map""",,,0.129714950919,0.251130789518,-0.00339426822029,,0.00532664021627,0.00113602319131,0.0423729242063,-0.999087082147
1195540000000,,8621,,1195,536260780,"""map""",,,0.129651486874,0.25059223175,-0.00298711564392,,0.00536769355162,0.00115353290196,0.0423485633279,-0.99908784079
1195576000000,,8622,,1195,568260780,"""map""",,,0.12950630486,0.250102818012,-0.00257656699978,,0.00538400207709,0.00114172816239,0.0423370150914,-0.999088262259
1195608000000,,8623,,1195,600260780,"""map""",,,0.129274979234,0.24965813756,-0.00219302158803,,0.00537543342523,0.00113402022819,0.0422523420727,-0.999091929035
1195640000000,,8624,,1195,632259880,"""map""",,,0.12893679738,0.249254092574,-0.00188884581439,,0.00537815420186,0.00118243740824,0.0422989564872,-0.999089821692
1195676000000,,8625,,1195,672259880,"""map""",,,0.128808841109,0.248640298843,-0.00166376645211,,0.005337389309,0.00118202614719,0.0423375630004,-0.999088472993
1195708000000,,8626,,1195,704259880,"""map""",,,0.129032790661,0.248059689999,-0.00161620718427,,0.00530934107522,0.00121541122566,0.0423657170952,-0.999087377175
1195740000000,,8627,,1195,736258981,"""map""",,,0.129098713398,0.247507929802,-0.00157969829161,,0.00532019092527,0.00115732134388,0.0423398389302,-0.999088472993
1195776000000,,8628,,1195,768258981,"""map""",,,0.129031673074,0.246979236603,-0.00159388699103,,0.00530095204137,0.00114965209918,0.0423559811732,-0.999087925084
1195808000000,,8629,,1195,800258981,"""map""",,,0.12884581089,0.246500641108,-0.00156827957835,,0.00527428576325,0.00114834669933,0.0423501649081,-0.999088262259
1195840000000,,8630,,1195,832258082,"""map""",,,0.128548175097,0.246057748795,-0.00147655385081,,0.00531072171379,0.00121769077747,0.0423239495683,-0.999089105196
1195876000000,,8631,,1195,872258082,"""map""",,,0.128417178988,0.245508909225,-0.00117112835869,,0.00526317661131,0.00125753354339,0.0423196505898,-0.999089526664
1195908000000,,8632,,1195,904258082,"""map""",,,0.128603443503,0.245067164302,-0.00071315583773,,0.00527466574343,0.00123043493079,0.0423264362324,-0.999089231636
1195940000000,,8633,,1195,936257184,"""map""",,,0.12863239646,0.244606912136,-0.000201715127332,,0.00525442718897,0.00124043575233,0.0423132442688,-0.999089863839
1195976000000,,8634,,1195,968257184,"""map""",,,0.128529965878,0.244157031178,0.000309566792566,,0.00524870558965,0.00124980634677,0.0422603078271,-0.999092055475
1196008000000,,8635,,1196,257184,"""map""",,,0.128335222602,0.243729889393,0.000751836108975,,0.00522081869928,0.00122858359754,0.0422498132618,-0.999092687678
1196040000000,,8636,,1196,32256286,"""map""",,,0.128065168858,0.243346244097,0.0011198061984,,0.00520712854678,0.00125546834781,0.0422427325913,-0.999093024853
1196076000000,,8637,,1196,72256286,"""map""",,,0.127769142389,0.242881715298,0.00150491658133,,0.00520852811849,0.00124596406883,0.0422396558713,-0.999093151293
1196108000000,,8638,,1196,104256286,"""map""",,,0.127601385117,0.242533430457,0.00171906501055,,0.00517636760354,0.00129069422281,0.0422023137635,-0.999094837167
1196140000000,,8639,,1196,136255388,"""map""",,,0.127337887883,0.242200672626,0.00193208630662,,0.00510422553441,0.00127804144255,0.0421844434998,-0.999096017279
1196176000000,,8640,,1196,168255388,"""map""",,,0.126978173852,0.241861179471,0.00213686097413,,0.00510795536587,0.0012964630727,0.0422053483366,-0.999095090048
1196208000000,,8641,,1196,200255388,"""map""",,,0.126499012113,0.241515055299,0.00226553692482,,0.00509888852508,0.00146216801744,0.0422326173476,-0.999093783496
1196240000000,,8642,,1196,232254491,"""map""",,,0.125964149833,0.241161718965,0.0026217806153,,0.00507056995879,0.00142329199486,0.0421849914088,-0.999095975132
1196276000000,,8643,,1196,272254491,"""map""",,,0.125543773174,0.240725383162,0.00284469453618,,0.00501201366286,0.00141052594494,0.0421836848565,-0.999096354454
1196308000000,,8644,,1196,304254491,"""map""",,,0.12548494339,0.240363031626,0.00300792697817,,0.00506413071059,0.0013917384933,0.0421525383354,-0.999097408125
1196340000000,,8645,,1196,336253594,"""map""",,,0.125339090824,0.239988803864,0.00320330495015,,0.00503358642849,0.00136391992693,0.0421445725811,-0.999097956034
1196376000000,,8646,,1196,368253594,"""map""",,,0.125091746449,0.239599719644,0.00338291586377,,0.00501483964198,0.00133787054037,0.0421449097559,-0.999098040328
1196408000000,,8647,,1196,400253594,"""map""",,,0.124736905098,0.239178135991,0.00352806365117,,0.00497577346468,0.00132990017619,0.0421536763004,-0.999097956034
1196440000000,,8648,,1196,432252697,"""map""",,,0.12430664897,0.238736227155,0.0036981718149,,0.00497173263558,0.00128682280429,0.0421071461796,-0.999099894789
1196476000000,,8649,,1196,472252697,"""map""",,,0.124047763646,0.238134279847,0.0040427101776,,0.00494856932033,0.00124279811611,0.0421387984628,-0.999098756824
1196508000000,,8650,,1196,504252697,"""map""",,,0.12416549027,0.237662792206,0.00434112781659,,0.00496565673931,0.00118037254193,0.0421366068267,-0.999098841118
1196540000000,,8651,,1196,536251801,"""map""",,,0.124126814306,0.237179979682,0.00465699983761,,0.00493588377747,0.00116239246586,0.0421313384706,-0.999099220439
1196576000000,,8652,,1196,568251801,"""map""",,,0.123951070011,0.236624240875,0.00496098957956,,0.00491775766916,0.00115332463726,0.0421243420938,-0.999099641908
1196608000000,,8653,,1196,600251801,"""map""",,,0.123663432896,0.236036419868,0.00518616940826,,0.00494172589044,0.0010976382783,0.0420591409191,-0.999102297159
1196640000000,,8654,,1196,632250906,"""map""",,,0.123285286129,0.235394075513,0.00533832842484,,0.00499663994132,0.00105858197917,0.0419938975976,-0.99910482597
1196676000000,,8655,,1196,672250906,"""map""",,,0.12314311415,0.234647095203,0.00565799511969,,0.00500710915264,0.00102834523736,0.0419752686906,-0.999105584613
1196708000000,,8656,,1196,704250906,"""map""",,,0.123413980007,0.234116405249,0.00606656027958,,0.00497704149213,0.00107070265547,0.0419800312845,-0.999105542467
1196740000000,,8657,,1196,736250010,"""map""",,,0.123547293246,0.233551934361,0.00641394499689,,0.00500023279552,0.0010706940944,0.0420056144215,-0.999104320208
1196776000000,,8658,,1196,768250010,"""map""",,,0.123506203294,0.232948794961,0.00676689296961,,0.00496999226708,0.00108550163229,0.0419577777485,-0.999106469697
1196808000000,,8659,,1196,800250010,"""map""",,,0.123346664011,0.2323153615,0.00706037320197,,0.00495802585483,0.00103261787412,0.0419694945724,-0.999106132523
1196840000000,,8660,,1196,832249116,"""map""",,,0.123078353703,0.231653749943,0.00739202275872,,0.00493866958537,0.00105975813966,0.0419164738369,-0.999108408452
1196876000000,,8661,,1196,872249116,"""map""",,,0.122933670878,0.23089697957,0.00727553293109,,0.00491722293102,0.00103963878176,0.0418801854004,-0.999110052179
1196908000000,,8662,,1196,904249116,"""map""",,,0.123086363077,0.230382949114,0.00690854759887,,0.00486485036802,0.00100764257366,0.0418527899488,-0.999111485172
1196940000000,,8663,,1196,936248221,"""map""",,,0.123113043606,0.229823350906,0.00662344414741,,0.00490195210706,0.000995362035674,0.0418378699645,-0.999111906641
1196976000000,,8664,,1196,968248221,"""map""",,,0.123006440699,0.229244664311,0.00636904360726,,0.00489119313616,0.000976449625222,0.04186387457,-0.999110937263
1197008000000,,8665,,1197,248221,"""map""",,,0.122790768743,0.228604093194,0.00612208526582,,0.00487138922108,0.000992231808992,0.0418679628143,-0.999110810823
1197040000000,,8666,,1197,32247327,"""map""",,,0.12247928977,0.227909877896,0.00584988668561,,0.00486244437566,0.00099189183539,0.0418417896214,-0.999111948788
1197076000000,,8667,,1197,72247327,"""map""",,,0.122323296964,0.227161124349,0.00584793649614,,0.00487641984258,0.000985731974698,0.0418609664374,-0.999111063704
1197108000000,,8668,,1197,104247327,"""map""",,,0.122503750026,0.226665154099,0.00607565324754,,0.00488969511204,0.00100599769411,0.0418598284725,-0.999111105851
1197140000000,,8669,,1197,136246434,"""map""",,,0.122551731765,0.226102903485,0.00624768249691,,0.00492972572778,0.00104370628191,0.0418528742425,-0.999111147997
1197176000000,,8670,,1197,168246434,"""map""",,,0.122472375631,0.225502088666,0.00633545452729,,0.00499501597057,0.00104381214294,0.0418082828768,-0.999112665284
1197208000000,,8671,,1197,200246434,"""map""",,,0.122232191265,0.224870204926,0.00640743318945,,0.00498977642583,0.00102239709872,0.0418360997968,-0.999111485172
1197240000000,,8672,,1197,232245541,"""map""",,,0.121867142618,0.224172651768,0.00631140964106,,0.00500808231679,0.000976496217246,0.0418410309781,-0.999111274438
1197276000000,,8673,,1197,272245541,"""map""",,,0.121440581977,0.223444253206,0.00633759517223,,0.00502882597488,0.000946827305436,0.0418121603869,-0.999112412403
1197308000000,,8674,,1197,304245541,"""map""",,,0.121226914227,0.223033979535,0.00651196110994,,0.00497835775797,0.000952860231674,0.0417922249275,-0.999113466074
1197340000000,,8675,,1197,336244648,"""map""",,,0.120900087059,0.222519233823,0.00672706309706,,0.00501624991505,0.000885394816373,0.0418384600203,-0.999111485172
1197376000000,,8676,,1197,368244648,"""map""",,,0.120455861092,0.221926003695,0.00698044057935,,0.00497519542724,0.000905842787982,0.0418232871549,-0.999112243816
1197408000000,,8677,,1197,400244648,"""map""",,,0.119923636317,0.221289813519,0.00722722616047,,0.00492426869871,0.000841342469328,0.0418832199735,-0.999110052179
1197440000000,,8678,,1197,432243756,"""map""",,,0.119319602847,0.220600828528,0.00736508285627,,0.00492326754642,0.000833382806496,0.041913397117,-0.999108787774
1197476000000,,8679,,1197,472243756,"""map""",,,0.118757486343,0.219986826181,0.00748537201434,,0.00494168160332,0.000822041517616,0.0419537737979,-0.999107017606
1197508000000,,8680,,1197,504243756,"""map""",,,0.118516236544,0.219777345657,0.00754760205746,,0.00491785365202,0.000795075931011,0.0419660806776,-0.999106680432
1197540000000,,8681,,1197,536242865,"""map""",,,0.118142619729,0.219471096992,0.00753297330812,,0.00497213154891,0.000838784847095,0.0419411297433,-0.999107354781
1197576000000,,8682,,1197,568242865,"""map""",,,0.117676734924,0.219053015113,0.00749511411414,,0.00503938145553,0.000855901735947,0.0419653641812,-0.999106048229
1197608000000,,8683,,1197,600242865,"""map""",,,0.117154538631,0.218556404114,0.00758782727644,,0.00508687766107,0.000829993277914,0.0419759430402,-0.999105416026
1197640000000,,8684,,1197,632247974,"""map""",,,0.116545245051,0.217995434999,0.00762604596093,,0.00503854296373,0.000802478135917,0.0420190592662,-0.999103856593
1197676000000,,8685,,1197,672247974,"""map""",,,0.116124108434,0.217569231987,0.00759135792032,,0.00500899390702,0.00094021025022,0.0420017369115,-0.999104573089
1197708000000,,8686,,1197,704247974,"""map""",,,0.116230413318,0.217528179288,0.00769315427169,,0.00507685807102,0.00105572307282,0.0419769124177,-0.999105120998
1197740000000,,8687,,1197,736247083,"""map""",,,0.116201430559,0.217392429709,0.00780586712062,,0.00513045947807,0.00103535643146,0.0419803263124,-0.999104741677
1197776000000,,8688,,1197,768247083,"""map""",,,0.116057239473,0.217167913914,0.00792792066932,,0.00514986365663,0.00100214191602,0.041931478115,-0.999106722578
1197808000000,,8689,,1197,800247083,"""map""",,,0.115808524191,0.216858446598,0.00793907884508,,0.00515054821365,0.000958124471834,0.0419105311313,-0.999107691956
1197840000000,,8690,,1197,832246193,"""map""",,,0.11547511071,0.21646887064,0.00798575673252,,0.00516050524197,0.0009440377109,0.0419269684022,-0.999106933313
1197876000000,,8691,,1197,872246193,"""map""",,,0.115337118506,0.216285526752,0.008216438815,,0.00514159151443,0.000944493094427,0.0419241024165,-0.999107186194
1197908000000,,8692,,1197,904246193,"""map""",,,0.115634329617,0.216484606266,0.00853059720248,,0.00513680998739,0.000874643748008,0.0419294129194,-0.999107017606
1197940000000,,8693,,1197,936245303,"""map""",,,0.115800350904,0.216533273458,0.00882744509727,,0.00521737056024,0.000842172070772,0.0418605871158,-0.99910950427
1197976000000,,8694,,1197,968245303,"""map""",,,0.115842416883,0.216459825635,0.00911642238498,,0.00523706466302,0.000842739406866,0.0418299885038,-0.999110684382
1198008000000,,8695,,1198,245303,"""map""",,,0.115760326385,0.216291740537,0.00937541294843,,0.00523400638233,0.000765174717626,0.0418108959814,-0.999111569466
1198040000000,,8696,,1198,32244414,"""map""",,,0.115576267242,0.216054782271,0.00966503936797,,0.00524586084201,0.000729375579628,0.0418378699645,-0.999110389354
1198076000000,,8697,,1198,72244414,"""map""",,,0.115612946451,0.215884551406,0.0101945083588,,0.00525003930692,0.000735659411323,0.0418314214966,-0.999110600088
1198108000000,,8698,,1198,104244414,"""map""",,,0.115965686738,0.215920343995,0.010748680681,,0.00528688618923,0.000749908338842,0.0418146470509,-0.999111190144
1198140000000,,8699,,1198,136243525,"""map""",,,0.116149149835,0.215862318873,0.0112065989524,,0.00533279497324,0.000673389747554,0.0418368162932,-0.999110010033
1198176000000,,8700,,1198,168243525,"""map""",,,0.116202324629,0.215722858906,0.0116562396288,,0.00533179876004,0.000679812367504,0.0418546444102,-0.999109293536
1198208000000,,8701,,1198,200243525,"""map""",,,0.11613958329,0.215478301048,0.0119172632694,,0.0053876565052,0.000932729678518,0.0418188195889,-0.999110305061
1198236000000,,8702,,1198,232242637,"""map""",,,0.115997344255,0.215152993798,0.0122757637873,,0.00544834829633,0.000857538054413,0.04181519496,-0.999110136473
1198276000000,,8703,,1198,272242637,"""map""",,,0.116033688188,0.214973464608,0.0124946609139,,0.00549793291115,0.000839717016846,0.0417952595006,-0.999110768676
1198308000000,,8704,,1198,304242637,"""map""",,,0.116343080997,0.215112775564,0.0123811643571,,0.00546956149666,0.000804270200159,0.0417930257176,-0.999111063704
1198340000000,,8705,,1198,336241749,"""map""",,,0.11650262028,0.215115085244,0.0123394206166,,0.00547166307682,0.000788957558624,0.0417958074096,-0.999110895116
1198376000000,,8706,,1198,368241749,"""map""",,,0.11653868109,0.215040668845,0.0123787717894,,0.00546454338751,0.00079105848024,0.0418077349678,-0.999110431501
1198408000000,,8707,,1198,400241749,"""map""",,,0.116466321051,0.214839696884,0.0123818237334,,0.00544680384482,0.000706767746669,0.041812413268,-0.999110389354
1198440000000,,8708,,1198,432240862,"""map""",,,0.116296187043,0.21454423666,0.0123329460621,,0.00545683281914,0.000678607724963,0.0418610507311,-0.999108282012
1198476000000,,8709,,1198,472240862,"""map""",,,0.11626278609,0.21434918046,0.0120596205816,,0.00547416192395,0.000683690865384,0.0418830513861,-0.999107354781
1198508000000,,8710,,1198,504240862,"""map""",,,0.116535045207,0.214449286461,0.0116570396349,,0.00552421196511,0.000701197612584,0.0419222479552,-0.999105416026
1198540000000,,8711,,1198,536239975,"""map""",,,0.116674996912,0.214431717992,0.011359706521,,0.00550867871116,0.000681498076809,0.0419344283944,-0.999105036704
1198576000000,,8712,,1198,568239975,"""map""",,,0.116670228541,0.214297056198,0.0111123220995,,0.00550089520898,0.000659518659946,0.0419447543723,-0.999104573089
1198608000000,,8713,,1198,600239975,"""map""",,,0.116551943123,0.214050769806,0.010955450125,,0.00552402839582,0.000592529701597,0.0420134115885,-0.999101664957
1198640000000,,8714,,1198,632239089,"""map""",,,0.116340272129,0.213728785515,0.010809998028,,0.00546253219258,0.000560271557418,0.041992422458,-0.999102845068
1198676000000,,8715,,1198,672239089,"""map""",,,0.116307854652,0.213630303741,0.0105609409511,,0.00546530861623,0.000603483272398,0.0420117678614,-0.999102044278
1198708000000,,8716,,1198,704239089,"""map""",,,0.116608642042,0.213925808668,0.0102119436488,,0.0054129933466,0.000645806446201,0.042021335196,-0.999101833544
1198740000000,,8717,,1198,736238203,"""map""",,,0.116796545684,0.214096814394,0.0100547857583,,0.00540581093093,0.000641539407062,0.0420332206073,-0.999101412075
1198776000000,,8718,,1198,768238203,"""map""",,,0.116843380034,0.214142546058,0.00993335805833,,0.00539824869971,0.000660238284457,0.0419869855145,-0.999103392977
1198808000000,,8719,,1198,800238203,"""map""",,,0.116752959788,0.214075505733,0.00983063131571,,0.00542968316934,0.000658020800463,0.0420224310141,-0.99910174925
1198840000000,,8720,,1198,832237317,"""map""",,,0.116546057165,0.21391390264,0.00988299679011,,0.00551957153123,0.00064305109598,0.0419971850518,-0.999102297159
1198876000000,,8721,,1198,872237317,"""map""",,,0.116605885327,0.213814437389,0.00996233988553,,0.00554089997685,0.000653650863744,0.0419795676692,-0.999102887215
1198908000000,,8722,,1198,904237317,"""map""",,,0.117023050785,0.213960796595,0.010073415935,,0.00555897043815,0.00060445495482,0.0419747629284,-0.999103055803
1198940000000,,8723,,1198,936236433,"""map""",,,0.117303431034,0.214039951563,0.0102464072406,,0.00553821871288,0.000593767106727,0.0419870698082,-0.999102718628
1198976000000,,8724,,1198,968236433,"""map""",,,0.117457516491,0.214017525315,0.0103370184079,,0.00554196500795,0.000602450180701,0.0420035070791,-0.999101959985
1199008000000,,8725,,1199,236433,"""map""",,,0.117465056479,0.213896378875,0.0103797446936,,0.00558396154368,0.000592759862902,0.0419761537744,-0.999102845068
1199040000000,,8726,,1199,32235548,"""map""",,,0.117345802486,0.213663905859,0.0103980572894,,0.00556738202715,0.000560814527365,0.0420121893299,-0.999101454222
1199076000000,,8727,,1199,72235548,"""map""",,,0.117327399552,0.213538855314,0.0105625512078,,0.00559275673486,0.000550866224755,0.0420212930492,-0.99910094846
1199108000000,,8728,,1199,104235548,"""map""",,,0.117505304515,0.21367430687,0.0110505912453,,0.0055601660257,0.000571050613924,0.04204388376,-0.999100105523
1199140000000,,8729,,1199,136234665,"""map""",,,0.11756208539,0.21372513473,0.01153453812,,0.00557354995501,0.000531413149261,0.0420637770725,-0.999099262586
1199176000000,,8730,,1199,168234665,"""map""",,,0.117499232292,0.213699430227,0.0119854640216,,0.00556299002919,0.000526978675181,0.0420438416131,-0.99910014767
1199208000000,,8731,,1199,200234665,"""map""",,,0.117339245975,0.213590458035,0.0123509252444,,0.00555691660246,0.000527602646102,0.0420559799055,-0.999099726202
1199240000000,,8732,,1199,232245781,"""map""",,,0.117071688175,0.213408008218,0.012691761367,,0.00555206905634,0.00055710544006,0.0420509222837,-0.999099894789
1199276000000,,8733,,1199,272245781,"""map""",,,0.116979107261,0.21336363256,0.013230371289,,0.00552716734822,0.000517960402052,0.0420392476066,-0.999100611285
1199308000000,,8734,,1199,304245781,"""map""",,,0.117244817317,0.213549017906,0.0138110835105,,0.00557094853957,0.000486619775009,0.0420606582057,-0.999099431174
1199340000000,,8735,,1199,336250899,"""map""",,,0.117398746312,0.213616356254,0.0143293486908,,0.00559764823882,0.000533542059019,0.0421143532907,-0.999096986656
1199376000000,,8736,,1199,368250899,"""map""",,,0.117398709059,0.213586300611,0.0148507887498,,0.0055835387581,0.000501944599618,0.0421494616155,-0.99909559581
1199408000000,,8737,,1199,400250899,"""map""",,,0.117270179093,0.213471338153,0.015294036828,,0.00559970125133,0.000487151220427,0.042208298616,-0.999093066999
1199440000000,,8738,,1199,432262016,"""map""",,,0.117064654827,0.21326264739,0.0157395396382,,0.00561689140326,0.000445405260885,0.0422088465251,-0.999092940559
1199476000000,,8739,,1199,472262016,"""map""",,,0.117084525526,0.21313200891,0.0163786802441,,0.00560804731515,0.000456561498759,0.0422390236686,-0.999091676153
1199508000000,,8740,,1199,504262016,"""map""",,,0.117448732257,0.213205501437,0.0169885829091,,0.00560937444697,0.000385958777422,0.042325719736,-0.999088093671
1199540000000,,8741,,1199,536261134,"""map""",,,0.117670066655,0.213186085224,0.0176180973649,,0.00563347618815,0.000376032206781,0.0422716453293,-0.999090243161
1199576000000,,8742,,1199,568261134,"""map""",,,0.117789305747,0.213072270155,0.0182373505086,,0.00561548705709,0.000308231427689,0.0422842893839,-0.999089821692
1199608000000,,8743,,1199,600261134,"""map""",,,0.11782976985,0.212858274579,0.0188702642918,,0.00562413424039,0.00029307321484,0.0423158995203,-0.999088472993
1199640000000,,8744,,1199,632260252,"""map""",,,0.117811910808,0.212555378675,0.0195013117045,,0.00560856361404,0.000275165414035,0.0423804684922,-0.999085775595
1199676000000,,8745,,1199,672260252,"""map""",,,0.118040718138,0.212442174554,0.0202649310231,,0.00557492516058,0.000271707396824,0.0423788247651,-0.999086070623
1199708000000,,8746,,1199,704260252,"""map""",,,0.118519216776,0.212649598718,0.0208096709102,,0.00561875063904,0.000304433766148,0.0423363828886,-0.999087545762
1199740000000,,8747,,1199,736259371,"""map""",,,0.11882442981,0.212766304612,0.0211659055203,,0.00562318132649,0.000500480490541,0.0423434214123,-0.999087166441
1199776000000,,8748,,1199,768259371,"""map""",,,0.119022831321,0.212816148996,0.0216760113835,,0.00563384645479,0.000410514749672,0.0423220108133,-0.999088093671
1199808000000,,8749,,1199,800259371,"""map""",,,0.119099445641,0.212794184685,0.0222133025527,,0.00563929031297,0.00041008504938,0.0422990829277,-0.999089020902
1199840000000,,8750,,1199,832258490,"""map""",,,0.119098156691,0.212660804391,0.0227219164371,,0.00569420403458,0.000381221372868,0.0423072594163,-0.999088346552
1199876000000,,8751,,1199,872258490,"""map""",,,0.119356997311,0.212790295482,0.0233903322369,,0.005661788169,0.000366997799312,0.0423719969756,-0.999085817742
1199908000000,,8752,,1199,904258490,"""map""",,,0.119933277369,0.213253006339,0.0239349100739,,0.00566063950274,0.000337335143675,0.0424161668729,-0.99908396328
1199940000000,,8753,,1199,936257609,"""map""",,,0.120379067957,0.213639974594,0.0246104858816,,0.00571448605298,0.000309049339968,0.0423698896332,-0.999085649154
1199976000000,,8754,,1199,968257609,"""map""",,,0.120695956051,0.213945895433,0.0252481400967,,0.00569029656075,0.000301566134088,0.0423400918113,-0.99908704
1200008000000,,8755,,1200,257609,"""map""",,,0.120885722339,0.214136719704,0.0259031448513,,0.00567550812064,0.000291169856576,0.0423143822337,-0.999088220112
1200040000000,,8756,,1200,32256728,"""map""",,,0.120975136757,0.214211955667,0.0265040453523,,0.0056842809213,0.000227301905286,0.042332673966,-0.999087377175
1200076000000,,8757,,1200,72256728,"""map""",,,0.12129496783,0.214454352856,0.0271738097072,,0.00570750581047,0.000242166571921,0.0423468353071,-0.999086702825
1200108000000,,8758,,1200,104256728,"""map""",,,0.121808059514,0.214891210198,0.0275700818747,,0.00573948868304,0.000210484654186,0.0423520615163,-0.999086281357
1200140000000,,8759,,1200,136255848,"""map""",,,0.122183471918,0.215209975839,0.0279305186123,,0.00579692594721,0.000144762241562,0.0423292600712,-0.99908691356
1200176000000,,8760,,1200,168255848,"""map""",,,0.122419774532,0.215463533998,0.0282588526607,,0.00582647121729,0.000141512653687,0.0423532416281,-0.999085691301
1200208000000,,8761,,1200,200255848,"""map""",,,0.122558549047,0.215619310737,0.0285971947014,,0.00580925422967,0.000140367444788,0.0423743571992,-0.999084974805
1200240000000,,8762,,1200,232254968,"""map""",,,0.122593633831,0.215666398406,0.0288942921907,,0.00578643599174,0.000160186012483,0.0424179791874,-0.99908316249
1200276000000,,8763,,1200,272254968,"""map""",,,0.122684203088,0.21589165926,0.0292014218867,,0.00579653279614,0.000171702638839,0.0423953884766,-0.999084089721
1200308000000,,8764,,1200,304254968,"""map""",,,0.122899092734,0.216250613332,0.0293547436595,,0.00573800168954,0.000119378314229,0.04240390214,-0.999084089721
1200340000000,,8765,,1200,336254089,"""map""",,,0.122970528901,0.216504409909,0.0294977854937,,0.0057114738704,7.96532631463e-05,0.0424170941035,-0.999083710399
1200376000000,,8766,,1200,368254089,"""map""",,,0.122897230089,0.216663017869,0.0296611636877,,0.00573593353051,8.72337689777e-05,0.0424464283101,-0.999082277406
1200408000000,,8767,,1200,400254089,"""map""",,,0.122713215649,0.216716870666,0.0297693964094,,0.00578139384572,0.000272428009151,0.0424577236655,-0.999081518763
1200440000000,,8768,,1200,432253209,"""map""",,,0.122448712587,0.216686621308,0.0300235953182,,0.00581487161432,0.000219920279896,0.0424689347272,-0.999080844413
1200476000000,,8769,,1200,472253209,"""map""",,,0.121954262257,0.216589793563,0.030337549746,,0.00580367536987,0.000201061870094,0.0424604632107,-0.999081308029
1200508000000,,8770,,1200,504253209,"""map""",,,0.12146153301,0.216456785798,0.0306025464088,,0.00580986140771,0.000244558405574,0.0424149024674,-0.999083204637
1200540000000,,8771,,1200,536252331,"""map""",,,0.120886087418,0.216230750084,0.0308561082929,,0.00583782189043,0.00020051494888,0.0424061780698,-0.999083415371
1200576000000,,8772,,1200,568252331,"""map""",,,0.120462730527,0.216057524085,0.0310468710959,,0.00577886404699,0.000205589363586,0.0424479877435,-0.999081982378
1200608000000,,8773,,1200,600252331,"""map""",,,0.120616622269,0.216197043657,0.0312576927245,,0.00581911593368,0.000173576527236,0.0424515702256,-0.999081603057
1200640000000,,8774,,1200,632251452,"""map""",,,0.120671607554,0.216266974807,0.0314156189561,,0.00577826905203,9.7094485168e-05,0.0424775326843,-0.99908076012
1200676000000,,8775,,1200,672251452,"""map""",,,0.120603621006,0.216248467565,0.0316072888672,,0.00577856836051,7.7605848271e-05,0.0424986904023,-0.999079832889
1200708000000,,8776,,1200,704251452,"""map""",,,0.120459139347,0.216157004237,0.0318632386625,,0.0057189799607,7.55143109137e-05,0.0424919890533,-0.999080465092
1200740000000,,8777,,1200,736250574,"""map""",,,0.120265886188,0.21599110961,0.0322078764439,,0.00572966813806,1.1297331035e-06,0.0425078362684,-0.999079706448
1200776000000,,8778,,1200,768250574,"""map""",,,0.120156638324,0.215916231275,0.0325745865703,,0.00571952194283,-2.83058893143e-05,0.0425282353431,-0.999078947805
1200808000000,,8779,,1200,800250574,"""map""",,,0.120465002954,0.216206207871,0.0327051356435,,0.00572966616243,-3.47102346544e-05,0.04250821559,-0.999079748595
1200840000000,,8780,,1200,832249696,"""map""",,,0.120678067207,0.216396942735,0.0328489542007,,0.00576268294988,-7.6042463609e-05,0.0425264230286,-0.999078737071
1200876000000,,8781,,1200,872249696,"""map""",,,0.120736368001,0.216479375958,0.0329922735691,,0.00575392200302,0.000149176136126,0.0425395306985,-0.999078273456
1200908000000,,8782,,1200,904249696,"""map""",,,0.120640069246,0.216445997357,0.0332905985415,,0.00571916764589,6.50539899489e-05,0.042550783907,-0.999077978428
1200940000000,,8783,,1200,936248819,"""map""",,,0.120463177562,0.216330766678,0.0336085930467,,0.00574996316271,3.58093454384e-05,0.042592256406,-0.999076039673
1200976000000,,8784,,1200,968248819,"""map""",,,0.120389908552,0.216322720051,0.0339140705764,,0.00578321933109,6.28317315067e-05,0.0425987470206,-0.99907553391
1201008000000,,8785,,1201,248819,"""map""",,,0.120736129582,0.216669052839,0.0340748615563,,0.0058039325315,5.76838890878e-05,0.0425355267479,-0.999078147015
1201040000000,,8786,,1201,32247942,"""map""",,,0.12097863853,0.216948404908,0.0341899506748,,0.00588423742444,2.30042767529e-05,0.0425417223346,-0.999077430519
1201076000000,,8787,,1201,72247942,"""map""",,,0.121138334274,0.217221423984,0.0344473011792,,0.00586200891312,7.07671928284e-06,0.0425270973782,-0.999078147015
1201108000000,,8788,,1201,104247942,"""map""",,,0.121144354343,0.217366605997,0.0347634218633,,0.00590833093381,3.66328553456e-05,0.0424890809208,-0.999079495714
1201140000000,,8789,,1201,136247066,"""map""",,,0.121058359742,0.217467918992,0.0351090729237,,0.0058961491775,2.85169528292e-05,0.042497931759,-0.999079158539
1201176000000,,8790,,1201,168247066,"""map""",,,0.121058426797,0.217649906874,0.0353859812021,,0.00586158909099,2.00378630167e-05,0.0425213654068,-0.999078399896
1201208000000,,8791,,1201,200247066,"""map""",,,0.121512271464,0.218143165112,0.0353125967085,,0.00589027331413,-1.66983838166e-05,0.0424988168428,-0.999079200686
1201240000000,,8792,,1201,232246190,"""map""",,,0.121832713485,0.218553468585,0.035255741328,,0.00591594239123,5.66427302207e-05,0.0425089742333,-0.999078568484
1201276000000,,8793,,1201,272246190,"""map""",,,0.122053459287,0.218940421939,0.035228703171,,0.00590081331898,8.45943225897e-05,0.0424993647518,-0.999079074246
1201308000000,,8794,,1201,304246190,"""map""",,,0.122145801783,0.219189420342,0.0352995097637,,0.00589828615443,4.13164238864e-05,0.0424603367701,-0.99908076012
1201336000000,,8795,,1201,336245314,"""map""",,,0.122155711055,0.219395443797,0.0353394709527,,0.00594443827064,0.000202171846862,0.0424390526116,-0.999081392322
1201376000000,,8796,,1201,368245314,"""map""",,,0.122258879244,0.219675168395,0.0353076905012,,0.00591054858244,0.000202654889258,0.0424422557721,-0.999081476616
1201408000000,,8797,,1201,400245314,"""map""",,,0.122701704502,0.220222398639,0.034963991493,,0.00591670860777,0.000188648306118,0.0424753410482,-0.999080001476
1201440000000,,8798,,1201,432244439,"""map""",,,0.122983269393,0.220697447658,0.0346075072885,,0.00593630656305,0.000209452714942,0.042423373984,-0.999082066672
1201476000000,,8799,,1201,472244439,"""map""",,,0.123193822801,0.221164599061,0.0342950709164,,0.00598162759609,0.000171253182212,0.0423940397774,-0.999083078196
1201508000000,,8800,,1201,504244439,"""map""",,,0.123248130083,0.221434831619,0.0341765657067,,0.00598694501372,0.000151137610943,0.0424191592991,-0.999081982378
1201540000000,,8801,,1201,536243564,"""map""",,,0.12322203815,0.221630752087,0.0341813899577,,0.00599606552588,0.000121556779462,0.0423888978619,-0.999083246784
1201576000000,,8802,,1201,568243564,"""map""",,,0.123223230243,0.22189989686,0.0340392179787,,0.00601315804859,9.97049555977e-05,0.0423949248612,-0.999082867462
1201608000000,,8803,,1201,600243564,"""map""",,,0.123487882316,0.222465679049,0.0335776545107,,0.00597612018837,6.84412136257e-05,0.0422724882663,-0.999088220112
1201640000000,,8804,,1201,632242689,"""map""",,,0.123627409339,0.222931861877,0.0331454984844,,0.00598313961428,5.83351896062e-05,0.0422946153618,-0.999087250734
1201676000000,,8805,,1201,672242689,"""map""",,,0.123647280037,0.223397910595,0.0328253954649,,0.00603053242834,7.48514858664e-05,0.0423145086743,-0.999086154916
1201708000000,,8806,,1201,704242689,"""map""",,,0.123569481075,0.223730936646,0.0326872430742,,0.00609249323474,7.37902413918e-05,0.042284542265,-0.99908704
1201740000000,,8807,,1201,736241815,"""map""",,,0.123423889279,0.223998397589,0.0327305085957,,0.00614459200785,5.09394055093e-05,0.0422851323209,-0.999086702825
1201776000000,,8808,,1201,768241815,"""map""",,,0.12347958982,0.224238887429,0.0328034758568,,0.00614930257672,1.961178472e-05,0.0422512884015,-0.999088093671
1201808000000,,8809,,1201,800241815,"""map""",,,0.124127976596,0.224596455693,0.0327846370637,,0.00614323343053,-2.26140891318e-05,0.0422669248823,-0.999087461469
1201840000000,,8810,,1201,832252942,"""map""",,,0.124622039497,0.224892348051,0.0327930450439,,0.00616546194186,-1.09091190469e-05,0.042267009176,-0.999087377175
1201876000000,,8811,,1201,872252942,"""map""",,,0.125059619546,0.225149720907,0.0328748188913,,0.00614130323658,9.91603392901e-06,0.0422854694956,-0.999086702825
1201908000000,,8812,,1201,904252942,"""map""",,,0.125261485577,0.225297778845,0.0329330451787,,0.0061395324104,-1.9825811685e-05,0.0422592541559,-0.999087882937
1201940000000,,8813,,1201,936252069,"""map""",,,0.125357046723,0.225407093763,0.0330248475075,,0.00609322487769,-7.29239260909e-06,0.0422246094464,-0.999089568811
1201976000000,,8814,,1201,968252069,"""map""",,,0.125493645668,0.225435107946,0.0330237187445,,0.00608796903397,-4.70052606185e-05,0.0422502347303,-0.999088557287
1202008000000,,8815,,1202,252069,"""map""",,,0.125897303224,0.225383549929,0.032587133348,,0.00604173756315,-2.70174469844e-05,0.0422864388732,-0.999087335028
1202040000000,,8816,,1202,32251196,"""map""",,,0.126151010394,0.225307911634,0.032378718257,,0.00606349554442,0.000159295660308,0.0422594648901,-0.999088262259
1202076000000,,8817,,1202,72251196,"""map""",,,0.126278847456,0.225212097168,0.0322658270597,,0.00606488079279,0.000156958156577,0.0422626259038,-0.999088135818
1202108000000,,8818,,1202,104251196,"""map""",,,0.126249969006,0.225113272667,0.0323495790362,,0.00605070957352,0.000103073410756,0.0422595913307,-0.999088388699
1202140000000,,8819,,1202,136250323,"""map""",,,0.126127183437,0.22497805953,0.0324453301728,,0.00610013926575,0.000145949926582,0.0422250309149,-0.999089568811
1202176000000,,8820,,1202,168250323,"""map""",,,0.126054629683,0.224898338318,0.0324794501066,,0.00610314157016,0.000109066165779,0.0422236400689,-0.999089610958
1202208000000,,8821,,1202,200250323,"""map""",,,0.126275777817,0.225002452731,0.0325555466115,,0.00608699010756,2.38195548538e-05,0.0422287819844,-0.99908944237
1202240000000,,8822,,1202,232243451,"""map""",,,0.126331150532,0.225076779723,0.0326736606658,,0.00606594368363,-5.71926148847e-05,0.0422680628472,-0.999087925084
1202276000000,,8823,,1202,272243451,"""map""",,,0.126254826784,0.225122958422,0.03296674788,,0.00607867433678,-9.4649638682e-05,0.0422862281389,-0.99908704
1202308000000,,8824,,1202,304243451,"""map""",,,0.126092612743,0.225125357509,0.0332230702043,,0.0060152370736,-7.65077253038e-05,0.0422721089447,-0.999088009378
1202340000000,,8825,,1202,336242579,"""map""",,,0.125862747431,0.225094333291,0.0334798656404,,0.00599760816639,-0.000106303242295,0.0423167424572,-0.999086281357
1202376000000,,8826,,1202,368242579,"""map""",,,0.12568064034,0.225165367126,0.0337784402072,,0.00598539875122,-0.000168311793167,0.0422903163832,-0.999087419322
1202408000000,,8827,,1202,400242579,"""map""",,,0.125730797648,0.225561544299,0.0339313857257,,0.00598205367439,-0.000213970330267,0.0422601813865,-0.999088725874
1202440000000,,8828,,1202,432241708,"""map""",,,0.125645473599,0.22591689229,0.0341384597123,,0.00600354428659,-0.000248021361869,0.0422909907328,-0.999087335028
1202476000000,,8829,,1202,472241708,"""map""",,,0.125381097198,0.226312711835,0.0344695188105,,0.00600340072389,-0.000263858040197,0.0423163631356,-0.99908623921
1202508000000,,8830,,1202,504241708,"""map""",,,0.125029504299,0.22661793232,0.0347873568535,,0.00602429436549,-0.00024548267279,0.0422709288329,-0.999088009378
1202540000000,,8831,,1202,536240837,"""map""",,,0.124605424702,0.2269089818,0.0350502803922,,0.00605997924602,-0.000223833351363,0.0422390658154,-0.999089189489
1202576000000,,8832,,1202,568240837,"""map""",,,0.124313183129,0.227268889546,0.0352388769388,,0.00601635363581,-0.000253967360231,0.0421770678013,-0.999092013328
1202608000000,,8833,,1202,600240837,"""map""",,,0.124358430505,0.227886214852,0.0350856855512,,0.00597818538395,-0.000226267331864,0.0421577223978,-0.999093066999
1202640000000,,8834,,1202,632239967,"""map""",,,0.124267794192,0.228445664048,0.0349887385964,,0.00598258380272,-0.000187830064567,0.0421603776493,-0.999092940559
1202676000000,,8835,,1202,672239967,"""map""",,,0.124017253518,0.229088619351,0.0349356941879,,0.00600466150735,-0.000185267009342,0.042153212685,-0.999093109146
1202708000000,,8836,,1202,704239967,"""map""",,,0.123718872666,0.229552954435,0.0350023843348,,0.00600209318377,-0.000181818870298,0.0421018356767,-0.999095342929
1202740000000,,8837,,1202,736239097,"""map""",,,0.123318567872,0.229984015226,0.0351827852428,,0.006034755345,-0.000192766843471,0.0420524817171,-0.999097155244
1202776000000,,8838,,1202,768239097,"""map""",,,0.123012840748,0.230430245399,0.0354011505842,,0.00601977971362,-0.000208476751981,0.0420354965371,-0.999097956034
1202808000000,,8839,,1202,800239097,"""map""",,,0.1231302917,0.230987012386,0.0357851274312,,0.00607084292549,-0.00023661537099,0.0420421557392,-0.999097365978
1202840000000,,8840,,1202,832238228,"""map""",,,0.123143985868,0.231528297067,0.0361456349492,,0.00613265654719,-0.000190743794742,0.0420905403213,-0.999095005755
1202876000000,,8841,,1202,872238228,"""map""",,,0.123019292951,0.232182562351,0.0367037281394,,0.00614140794516,-0.000216288077662,0.0420676967294,-0.999095848691
1202908000000,,8842,,1202,904238228,"""map""",,,0.122838765383,0.232695862651,0.0372563377023,,0.00609346228298,-0.000214060550864,0.0420555162902,-0.999096733775
1202940000000,,8843,,1202,936237359,"""map""",,,0.122581750154,0.233184605837,0.037869118154,,0.00605462692553,-0.000249586722164,0.0421215604018,-0.999094162818
1202976000000,,8844,,1202,968237359,"""map""",,,0.122396335006,0.233631059527,0.0384647995234,,0.00609096837493,-0.000268410887653,0.0421242999469,-0.999093783496
1203008000000,,8845,,1203,237359,"""map""",,,0.122522205114,0.234020411968,0.0389451272786,,0.00605305465052,-0.000275210359697,0.042097030936,-0.999095174342
1203040000000,,8846,,1203,32236490,"""map""",,,0.122550696135,0.23437230289,0.0394475534558,,0.00604329930145,-0.000238037168583,0.0421210967865,-0.999094204964
1203076000000,,8847,,1203,72236490,"""map""",,,0.122438959777,0.234816253185,0.0401837080717,,0.00606560782593,-0.000241182047881,0.0421317599391,-0.999093657055
1203108000000,,8848,,1203,104236490,"""map""",,,0.122291050851,0.235144928098,0.0406963303685,,0.00606210832041,-0.000270316056914,0.0421212653738,-0.999094120671
1203140000000,,8849,,1203,136247622,"""map""",,,0.122040972114,0.235472530127,0.0412535630167,,0.00606451266641,-0.000269135945156,0.0421780371788,-0.9990917183
1203176000000,,8850,,1203,168247622,"""map""",,,0.121906772256,0.235827565193,0.041696023196,,0.00603403786076,-0.000293705582204,0.0421921142262,-0.999091296832
1203208000000,,8851,,1203,200247622,"""map""",,,0.122193597257,0.236232191324,0.0418552309275,,0.00604677608718,-0.000338195532074,0.042167416173,-0.999092224063
1203240000000,,8852,,1203,232246754,"""map""",,,0.122371383011,0.23664611578,0.0420075729489,,0.00603115113091,-0.000359032868124,0.0421462163082,-0.99909319344
1203276000000,,8853,,1203,272246754,"""map""",,,0.122474439442,0.237115517259,0.0421980284154,,0.00602029996378,-0.000301002255353,0.0421597032997,-0.999092687678
1203308000000,,8854,,1203,304246754,"""map""",,,0.122474908829,0.237435162067,0.0424527563155,,0.0060370872511,-0.000284232748729,0.0421978461976,-0.999091043951
1203340000000,,8855,,1203,336233887,"""map""",,,0.122396662831,0.237722679973,0.0426906757057,,0.00603115277727,-0.000274401008497,0.0421855393178,-0.999091549713
1203376000000,,8856,,1203,368233887,"""map""",,,0.122447349131,0.237969145179,0.0429836958647,,0.00604563351246,-0.000265889979276,0.0422011336518,-0.999090875363
1203408000000,,8857,,1203,400233887,"""map""",,,0.122966572642,0.238147631288,0.0435837581754,,0.0060804945538,-0.000298376967672,0.0422733733501,-0.999087587909
1203440000000,,8858,,1203,432233020,"""map""",,,0.123327359557,0.238345503807,0.0440493002534,,0.00607549784735,-5.59927467912e-05,0.042322095107,-0.99908556486
1203476000000,,8859,,1203,472233020,"""map""",,,0.123628258705,0.238568335772,0.0447736866772,,0.00611137337651,-6.18004508071e-05,0.0423709854513,-0.999083288931
1203508000000,,8860,,1203,504233020,"""map""",,,0.12375574559,0.23872564733,0.0453789383173,,0.00611841881493,-2.8483037787e-05,0.0424040285805,-0.999081855938
1203540000000,,8861,,1203,536232154,"""map""",,,0.123805060983,0.238892003894,0.0458953529596,,0.00607293940193,-3.75594274682e-05,0.0424186535369,-0.999081476616
1203576000000,,8862,,1203,568232154,"""map""",,,0.123971410096,0.239074259996,0.0464167036116,,0.00608560881045,-6.74339698006e-05,0.0424204237046,-0.999081308029
1203608000000,,8863,,1203,600232154,"""map""",,,0.124686911702,0.239298462868,0.046654317528,,0.00604812379851,-6.42044675335e-05,0.0424211823479,-0.99908156091
1203640000000,,8864,,1203,632231288,"""map""",,,0.12524870038,0.239534974098,0.0468919500709,,0.00607048336019,-8.19127293531e-05,0.0424524974563,-0.99908008577
1203676000000,,8865,,1203,672231288,"""map""",,,0.125796377659,0.239848434925,0.0472869127989,,0.00609528217073,-0.000104238046718,0.0424604210638,-0.999079580008
1203708000000,,8866,,1203,704231288,"""map""",,,0.126118093729,0.240124419332,0.0476510338485,,0.00608692260675,-0.00016287353262,0.0424222360191,-0.999081265882
1203740000000,,8867,,1203,736230423,"""map""",,,0.126358523965,0.240424752235,0.0480810776353,,0.00608520413485,-0.000150501127676,0.042478459915,-0.999078905658
1203776000000,,8868,,1203,768230423,"""map""",,,0.126644149423,0.24067287147,0.0484159998596,,0.00600093052344,-6.91771371132e-05,0.0424985218149,-0.999078568484
1203808000000,,8869,,1203,800230423,"""map""",,,0.127238079906,0.240860342979,0.0485595986247,,0.00596865459856,-4.8902527346e-05,0.0425706772195,-0.999075618204
1203840000000,,8870,,1203,832229558,"""map""",,,0.127710089087,0.241046503186,0.0488373339176,,0.00600883437462,-0.000130326287402,0.0425641866048,-0.999075702498
1203876000000,,8871,,1203,872229558,"""map""",,,0.12819083035,0.24125751853,0.0491540022194,,0.0059920411604,-0.000208968026184,0.0425957967412,-0.999074438092
1203908000000,,8872,,1203,904229558,"""map""",,,0.128482952714,0.241386264563,0.0494837164879,,0.00584507378255,-0.000179497500907,0.0426059962786,-0.999074859561
1203940000000,,8873,,1203,936240694,"""map""",,,0.128744721413,0.241476774216,0.0499336607754,,0.00523974609162,-0.000112502286385,0.0425071619188,-0.99908248814
1203976000000,,8874,,1203,968240694,"""map""",,,0.128986015916,0.241503730416,0.0508767366409,,0.00467238217449,-7.9366467013e-05,0.0424819159566,-0.999086323504
1204008000000,,8875,,1204,240694,"""map""",,,0.129213020205,0.241461098194,0.0525377057493,,0.00124160672678,5.78041557786e-05,0.0423870434006,-0.999100526992
1204036000000,,8876,,1204,32239830,"""map""",,,0.129190117121,0.241359516978,0.0553154051304,,-0.00444369271592,0.000336218252189,0.0419257039968,-0.999110810823
1204076000000,,8877,,1204,72239830,"""map""",,,0.128792509437,0.24115088582,0.0600071921945,,-0.00841758241403,0.000786896808222,0.0414621729568,-0.999104320208
1204108000000,,8878,,1204,104239830,"""map""",,,0.128195896745,0.240846902132,0.0648264735937,,-0.0171341776205,0.00317354508176,0.0404828487848,-0.999028287293
1204140000000,,8879,,1204,136238967,"""map""",,,0.127401873469,0.240406095982,0.0704207792878,,-0.0269912046444,0.00866962847066,0.0395541851247,-0.998815192827
1204176000000,,8880,,1204,168238967,"""map""",,,0.126576066017,0.239642471075,0.0765050947666,,-0.030575383837,0.0113587179193,0.0393110399557,-0.998694610694
1204208000000,,8881,,1204,200238967,"""map""",,,0.125919386744,0.238324716687,0.0825790390372,,-0.0395749035935,0.0196116207424,0.038948998527,-0.998264628545
1204240000000,,8882,,1204,232232104,"""map""",,,0.125031650066,0.236744970083,0.0892794430256,,-0.0489372846666,0.0296057224886,0.0389693976017,-0.99760216438
1204276000000,,8883,,1204,272232104,"""map""",,,0.123549483716,0.234330773354,0.098543100059,,-0.0538213286436,0.0352408101351,0.0390707607723,-0.997163457834
1204308000000,,8884,,1204,304232104,"""map""",,,0.121998108923,0.231974050403,0.106735341251,,-0.0640908053856,0.0476992427236,0.0394593125687,-0.996022163323
1204340000000,,8885,,1204,336231241,"""map""",,,0.119789622724,0.228764742613,0.115508750081,,-0.0748225072738,0.0614793787494,0.0392833073294,-0.994524432915
1204376000000,,8886,,1204,368231241,"""map""",,,0.116502806544,0.224198415875,0.124758087099,,-0.0799312011973,0.0683348264189,0.038690806933,-0.993702400781
1204408000000,,8887,,1204,400231241,"""map""",,,0.112120963633,0.218183800578,0.134548634291,,-0.0881014214526,0.079739952299,0.0368051147838,-0.992232360852
1204440000000,,8888,,1204,432242379,"""map""",,,0.106078848243,0.21043908596,0.145603016019,,-0.0935585394215,0.0872553392738,0.0346281036176,-0.991178226024
1204476000000,,8889,,1204,472242379,"""map""",,,0.0960306376219,0.198184236884,0.161495745182,,-0.0956941340649,0.0900284405624,0.0334898858268,-0.990765355496
1204508000000,,8890,,1204,504242379,"""map""",,,0.0860405787826,0.186349511147,0.175944194198,,-0.0987393138402,0.0941439682023,0.0310768944558,-0.990162486975
1204540000000,,8891,,1204,536241518,"""map""",,,0.0743848085403,0.172812402248,0.19179263711,,-0.0989782912457,0.0952145987471,0.0290334045058,-0.990098297325
1204572000000,,8892,,1204,568241518,"""map""",,,0.0613405890763,0.157753452659,0.208748474717,,-0.0986654300855,0.0950554994977,0.0279860974671,-0.990174962442
1204608000000,,8893,,1204,600241518,"""map""",,,0.0473641939461,0.141531065106,0.226576641202,,-0.098319005052,0.0944310929492,0.026288717437,-0.990315690769
1204640000000,,8894,,1204,632240657,"""map""",,,0.0317952372134,0.123737037182,0.245690405369,,-0.0982591214596,0.0945961750755,0.0253826444877,-0.990329514935
1204676000000,,8895,,1204,672240657,"""map""",,,0.0102104041725,0.0992305576801,0.271590203047,,-0.0980835273166,0.0947795663854,0.0252587327531,-0.990332549509
1204708000000,,8896,,1204,704240657,"""map""",,,-0.00857904087752,0.0779231339693,0.293796539307,,-0.0969891573947,0.0937987519272,0.0255733589773,-0.990525539928
1204736000000,,8897,,1204,736239796,"""map""",,,-0.0286158882082,0.0552941188216,0.317342370749,,-0.0950067877836,0.091157085421,0.0261182755817,-0.990950000839
1204776000000,,8898,,1204,768239796,"""map""",,,-0.0498283430934,0.0316889472306,0.342272698879,,-0.0941185655064,0.0900115325968,0.0263506311575,-0.991133381777
1204808000000,,8899,,1204,800239796,"""map""",,,-0.0721889659762,0.0075330468826,0.368534117937,,-0.093118310979,0.0893212138102,0.026721354837,-0.991280305691
1204840000000,,8900,,1204,832238936,"""map""",,,-0.0955293178558,-0.0177949592471,0.396256327629,,-0.0932799741068,0.0897035189827,0.0271498618458,-0.991218982026
1204876000000,,8901,,1204,872238936,"""map""",,,-0.125961080194,-0.0510176122189,0.43260076642,,-0.0934912088431,0.0897791778441,0.0274066625938,-0.991185138107
1204908000000,,8902,,1204,904238936,"""map""",,,-0.151368260384,-0.0787843614817,0.46312084794,,-0.0938883987679,0.089959399744,0.0280922653785,-0.991112097619
1204936000000,,8903,,1204,936238076,"""map""",,,-0.177640423179,-0.10762475431,0.495023876429,,-0.0943559903932,0.090142724047,0.0291356949071,-0.991020933985
1204976000000,,8904,,1204,968238076,"""map""",,,-0.204581826925,-0.136982217431,0.525131106377,,-0.0944710608386,0.0892113112929,0.0297499852241,-0.991075935623
1205008000000,,8905,,1205,238076,"""map""",,,-0.232051432133,-0.165862634778,0.547627866268,,-0.0944901787149,0.0809711450498,0.0308061009541,-0.991749105087
1205040000000,,8906,,1205,32237216,"""map""",,,-0.259336382151,-0.194800406694,0.562015593052,,-0.0942586476368,0.0690034604873,0.0316166269978,-0.992650162561
1205076000000,,8907,,1205,72237216,"""map""",,,-0.293013036251,-0.231100142002,0.56837952137,,-0.0934724837886,0.0603041599767,0.031965181435,-0.993279752184
1205108000000,,8908,,1205,104237216,"""map""",,,-0.319574713707,-0.260337620974,0.565819621086,,-0.0823878850208,0.0381519015229,0.0321141283977,-0.995351944138
1205140000000,,8909,,1205,136236358,"""map""",,,-0.34558236599,-0.289800584316,0.559314548969,,-0.0519372571724,0.0133537640183,0.0315823194632,-0.998061480735
1205176000000,,8910,,1205,168236358,"""map""",,,-0.370925724506,-0.318883031607,0.552139103413,,-0.0337329414338,0.00214781657101,0.0313015793052,-0.998938345919
1205208000000,,8911,,1205,200236358,"""map""",,,-0.395523309708,-0.346398741007,0.549157500267,,-0.0105002651877,-0.00932709012568,0.0310351269289,-0.999419662929
1205240000000,,8912,,1205,240235499,"""map""",,,-0.423220694065,-0.379338115454,0.559054732323,,-0.00985836535102,-0.00528014516301,0.0316908475981,-0.999435172969
1205276000000,,8913,,1205,272235499,"""map""",,,-0.44311657548,-0.404473543167,0.582920253277,,-0.00943256084424,-0.00302758461847,0.0321209140403,-0.999434920088
1205308000000,,8914,,1205,304235499,"""map""",,,-0.461419999599,-0.42865100503,0.621560692787,,-0.00845210232932,0.00200405926836,0.0335181663621,-0.999400359672
1205340000000,,8915,,1205,336234641,"""map""",,,-0.478416293859,-0.452013552189,0.671623706818,,-0.0166126793527,0.0130332242291,0.0350665572827,-0.999161892803
1205376000000,,8916,,1205,368234641,"""map""",,,-0.495084911585,-0.474503129721,0.728271126747,,-0.0234740522764,0.0208653121725,0.0353636504179,-0.998880899764
1205408000000,,8917,,1205,400234641,"""map""",,,-0.512845337391,-0.495962619781,0.786900401115,,-0.0413154850488,0.0436088552672,0.0358308903804,-0.997550745225
1205440000000,,8918,,1205,436233783,"""map""",,,-0.530496239662,-0.517575860023,0.844933629036,,-0.0530886860247,0.0616685002197,0.0362690911644,-0.996023638463
1205476000000,,8919,,1205,468233783,"""map""",,,-0.548164665699,-0.539526998997,0.901098966599,,-0.0578126575881,0.0688477153697,0.0366105227842,-0.995277597097
1205508000000,,8920,,1205,500233783,"""map""",,,-0.566229581833,-0.561924099922,0.956082880497,,-0.0649996330266,0.0788440838261,0.037419067926,-0.994061660518
1205540000000,,8921,,1205,532232926,"""map""",,,-0.584989309311,-0.584920346737,1.01141929626,,-0.0682244069442,0.0839035469378,0.0380086601899,-0.993408847981
1205576000000,,8922,,1205,572232926,"""map""",,,-0.609682321548,-0.614731967449,1.08271718025,,-0.0694655018995,0.0855965680618,0.0382725837552,-0.993168189476
1205608000000,,8923,,1205,604232926,"""map""",,,-0.630473554134,-0.639470517635,1.14195847511,,-0.0714679289653,0.0865062774939,0.038711121714,-0.992930270517
1205640000000,,8924,,1205,636232070,"""map""",,,-0.652165234089,-0.664954483509,1.20311677456,,-0.0725683337891,0.0864898896138,0.0390634272207,-0.992838095359
1205676000000,,8925,,1205,668232070,"""map""",,,-0.674900174141,-0.690395474434,1.26627004147,,-0.0729251114716,0.0866648365722,0.0391803004316,-0.992792113147
1205708000000,,8926,,1205,700232070,"""map""",,,-0.699004173279,-0.714368104935,1.33163046837,,-0.0733111647501,0.0865635168654,0.0394341509002,-0.992762399619
1205740000000,,8927,,1205,732243213,"""map""",,,-0.723657369614,-0.739216268063,1.39799022675,,-0.0735556362278,0.0858850592886,0.0396055199862,-0.992796454272
1205776000000,,8928,,1205,772243213,"""map""",,,-0.755221426487,-0.771366894245,1.48237359524,,-0.0735743955267,0.0857592048477,0.0396416398354,-0.992804504321
1205808000000,,8929,,1205,804243213,"""map""",,,-0.781002104282,-0.79791277647,1.55127370358,,-0.0734757205347,0.0856677659428,0.0397798393517,-0.992814155949
1205840000000,,8930,,1205,836242358,"""map""",,,-0.807262063026,-0.825177550316,1.62139689922,,-0.0733726418556,0.0852203224866,0.0398090892645,-0.992859168783
1205876000000,,8931,,1205,868242358,"""map""",,,-0.834197163582,-0.852099657059,1.69241333008,,-0.0732038766545,0.0850220518574,0.0398738268239,-0.992885974179
1205908000000,,8932,,1205,900242358,"""map""",,,-0.862110972404,-0.876796245575,1.76340556145,,-0.0727562395863,0.0849001269516,0.0399382693552,-0.992926730181
1205940000000,,8933,,1205,932241502,"""map""",,,-0.890154361725,-0.902252614498,1.83408439159,,-0.0724319011478,0.0847267637928,0.0400202871224,-0.992961964947
1205976000000,,8934,,1205,972241502,"""map""",,,-0.925177037716,-0.934878587723,1.91993808746,,-0.0722485597226,0.0846449804674,0.040073265711,-0.992980130238
1206008000000,,8935,,1206,4241502,"""map""",,,-0.953059196472,-0.961479246616,1.98560810089,,-0.0706943308049,0.0855678706678,0.0536406734215,-0.992372456976
1206040000000,,8936,,1206,36240647,"""map""",,,-0.980819880962,-0.988516569138,2.04834675789,,-0.0702966179958,0.0854484205722,0.0536788163194,-0.992408998294
1206076000000,,8937,,1206,68240647,"""map""",,,-1.00917863846,-1.01501595974,2.10808539391,,-0.0701714984906,0.0852672483926,0.0536025305235,-0.992437573857
1206108000000,,8938,,1206,100240647,"""map""",,,-1.03938758373,-1.03930985928,2.16465449333,,-0.0699232153573,0.0849859563744,0.0531789125492,-0.992502016389
1206140000000,,8939,,1206,132239793,"""map""",,,-1.06940901279,-1.06429827213,2.21952009201,,-0.0697119858893,0.0848237015443,0.0524780526053,-0.9925680605
1206176000000,,8940,,1206,172239793,"""map""",,,-1.10669732094,-1.09640431404,2.28588867188,,-0.0696147116214,0.0847843884129,0.052041326961,-0.992601187923
1206208000000,,8941,,1206,204239793,"""map""",,,-1.13635826111,-1.12272357941,2.33732843399,,-0.0694091232457,0.0844795573797,0.051041688008,-0.992693489522
1206240000000,,8942,,1206,236238938,"""map""",,,-1.16590499878,-1.14959323406,2.38736844063,,-0.0693457172634,0.0843642501877,0.0501706812367,-0.992752157935
1206276000000,,8943,,1206,268238938,"""map""",,,-1.1961247921,-1.17619478703,2.43661642075,,-0.0692578160595,0.0843608613176,0.0496968663657,-0.992782419372
1206308000000,,8944,,1206,300238938,"""map""",,,-1.22849023342,-1.20116257668,2.48588705063,,-0.068651109541,0.083959699711,0.0486652379547,-0.992909660708
1206340000000,,8945,,1206,332238085,"""map""",,,-1.26048791409,-1.22680306435,2.53334355354,,-0.067101358726,0.082722753586,0.0478048521892,-0.9931611931
1206376000000,,8946,,1206,372238085,"""map""",,,-1.29995131493,-1.2596834898,2.59018301964,,-0.0659582591447,0.0816746490499,0.0473744485722,-0.993345121946
1206408000000,,8947,,1206,404238085,"""map""",,,-1.33110976219,-1.28656518459,2.63360500336,,-0.0629689886457,0.0785940463302,0.0465820035265,-0.993825005964
1206440000000,,8948,,1206,436249231,"""map""",,,-1.36189317703,-1.31388580799,2.67550158501,,-0.059281930313,0.0744910815793,0.0459194129211,-0.994398413838
1206476000000,,8949,,1206,468249231,"""map""",,,-1.39304614067,-1.34079408646,2.71616196632,,-0.0572627176062,0.0722277530088,0.0456433932102,-0.99469634991
1206508000000,,8950,,1206,500249231,"""map""",,,-1.42597603798,-1.3658721447,2.75616121292,,-0.0529812826838,0.0677004965925,0.0451542368864,-0.995274183203
1206536000000,,8951,,1206,532248378,"""map""",,,-1.45816993713,-1.39135563374,2.79464769363,,-0.0487554355033,0.0630005263422,0.0447309139399,-0.995817793255
1206576000000,,8952,,1206,572248378,"""map""",,,-1.49728965759,-1.42368471622,2.84095358849,,-0.0467184723878,0.0607389218413,0.0445691121885,-0.99606313006
1206608000000,,8953,,1206,604248378,"""map""",,,-1.52769982815,-1.44979929924,2.87649035454,,-0.0431630294434,0.0564883364363,0.0443366301721,-0.996484008489
1206640000000,,8954,,1206,636259526,"""map""",,,-1.55730903149,-1.47603642941,2.91066336632,,-0.0399271820999,0.0528044404343,0.0441430075501,-0.99682944406
1206676000000,,8955,,1206,668259526,"""map""",,,-1.58718121052,-1.50159132481,2.9436814785,,-0.0384568280449,0.051177464739,0.0440829482909,-0.99697480854
1206708000000,,8956,,1206,700259526,"""map""",,,-1.61933612823,-1.52507066727,2.97624325752,,-0.0356966151309,0.04817697791,0.0439666651359,-0.997232030757
1206740000000,,8957,,1206,732258673,"""map""",,,-1.65036046505,-1.54880678654,3.00760054588,,-0.0334289487278,0.0462089018428,0.0438950997871,-0.997406855884
1206776000000,,8958,,1206,772258673,"""map""",,,-1.68752384186,-1.57871580124,3.04512929916,,-0.0325802284197,0.0454481867886,0.0438637425318,-0.997471340562
1206808000000,,8959,,1206,804258673,"""map""",,,-1.71603477001,-1.60274422169,3.07388138771,,-0.0306159508373,0.0436041383599,0.0437356582592,-0.99762142549
1206840000000,,8960,,1206,836257821,"""map""",,,-1.74353051186,-1.62683200836,3.10165882111,,-0.0289341328724,0.0419684567062,0.0436291953199,-0.997746517336
1206876000000,,8961,,1206,868257821,"""map""",,,-1.7711545229,-1.65031719208,3.12843942642,,-0.0281838913101,0.0412713122704,0.043591600331,-0.997798695135
1206908000000,,8962,,1206,900257821,"""map""",,,-1.80092191696,-1.67203235626,3.15434145927,,-0.0265957229841,0.0397011274779,0.0435049464105,-0.997909794228
