rosbagTimestamp,header,seq,stamp,secs,nsecs,frame_id,pose,position,x,y,z,orientation,x,y,z,w
1120236000000,,18714,,1120,232155824,"""map""",,,0.137531474233,0.0305733829737,0.00687902094796,,0.00689783328161,-0.007800768184,0.0502222689793,-0.9986838211
1120272000000,,18715,,1120,264155824,"""map""",,,0.137158438563,0.0308137014508,0.00716200144961,,0.00690322552636,-0.00787517836273,0.050224292028,-0.998683062457
1120304000000,,18716,,1120,296155341,"""map""",,,0.1366558671,0.0309415552765,0.00739826960489,,0.00692449556731,-0.00793112003116,0.0502019541983,-0.998683568219
1120336000000,,18717,,1120,328155341,"""map""",,,0.136046156287,0.0309664346278,0.00756918778643,,0.00690197350977,-0.0079260740985,0.0501799956902,-0.998684874772
1120372000000,,18718,,1120,368155341,"""map""",,,0.135141119361,0.0308763999492,0.00774060003459,,0.00685903768378,-0.00794838826177,0.0501454774213,-0.99868677138
1120404000000,,18719,,1120,400154859,"""map""",,,0.13498981297,0.0310803409666,0.00817523337901,,0.00688245009349,-0.00793221457329,0.050183114557,-0.998684874772
1120436000000,,18720,,1120,432154859,"""map""",,,0.134720638394,0.031154634431,0.00852202624083,,0.00691515316681,-0.00794746539396,0.0502003947649,-0.998683610366
1120472000000,,18721,,1120,464154859,"""map""",,,0.134304925799,0.0311032943428,0.00873079802841,,0.00699695036276,-0.0079218828743,0.0501161853616,-0.998687487876
1120500000000,,18722,,1120,496154376,"""map""",,,0.133757442236,0.0309612341225,0.00893548224121,,0.00698974794379,-0.00796542773048,0.0501134036696,-0.998687319289
1120536000000,,18723,,1120,528154376,"""map""",,,0.133121982217,0.0307262726128,0.00918181147426,,0.00697655108228,-0.00802372962243,0.0501513358332,-0.998685043359
1120572000000,,18724,,1120,568154376,"""map""",,,0.132256031036,0.0303308796138,0.00942679494619,,0.00691604907545,-0.00802201497833,0.0501111698866,-0.998687530023
1120604000000,,18725,,1120,600153894,"""map""",,,0.132401615381,0.0304892268032,0.00963623914868,,0.00688629438822,-0.00804300707234,0.0501112120335,-0.99868757217
1120636000000,,18726,,1120,632153894,"""map""",,,0.132384449244,0.0305583029985,0.00980763044208,,0.00687212876658,-0.0080366419104,0.0501318639892,-0.998686644939
1120672000000,,18727,,1120,664153894,"""map""",,,0.132215633988,0.03056377545,0.00997144542634,,0.00692529738641,-0.00806176764712,0.050096882105,-0.998687825051
1120704000000,,18728,,1120,696153412,"""map""",,,0.131899774075,0.0304938424379,0.010193914175,,0.00689462357684,-0.00811728175553,0.0501087253694,-0.998687024261
1120736000000,,18729,,1120,728153412,"""map""",,,0.131432890892,0.0303407777101,0.0103799523786,,0.0068625406055,-0.00809957612789,0.0501258791367,-0.998686560646
1120772000000,,18730,,1120,768153412,"""map""",,,0.130662500858,0.0300706308335,0.0106065925211,,0.00690311015759,-0.00813352352105,0.0500975986014,-0.998687361436
1120800000000,,18731,,1120,800152930,"""map""",,,0.131003990769,0.0301383864135,0.0105555057526,,0.00693169296487,-0.00818630388773,0.0501172390328,-0.998685759855
1120836000000,,18732,,1120,832152930,"""map""",,,0.131176486611,0.030124116689,0.0106271570548,,0.00693417234379,-0.00819349984473,0.0501119285299,-0.998685928443
1120872000000,,18733,,1120,864152930,"""map""",,,0.131174728274,0.0300037227571,0.0107445046306,,0.00692168712194,-0.00819090176317,0.0501449295123,-0.998684453303
1120904000000,,18734,,1120,896152447,"""map""",,,0.131034851074,0.029817212373,0.0109311733395,,0.00693291044903,-0.00818318189286,0.0500841116099,-0.998687445729
1120936000000,,18735,,1120,928152447,"""map""",,,0.130706325173,0.0295887235552,0.0111716203392,,0.00694888184087,-0.0082033053255,0.0500653141154,-0.998688120079
1120972000000,,18736,,1120,968152447,"""map""",,,0.130071207881,0.0292317364365,0.0114898988977,,0.00694478458274,-0.00821045164471,0.0501235610601,-0.9986851698
1121004000000,,18737,,1121,151965,"""map""",,,0.130249679089,0.0294866301119,0.0117431432009,,0.00690914057313,-0.00826108676149,0.0501228867105,-0.998685001212
1121036000000,,18738,,1121,32151965,"""map""",,,0.130250543356,0.0296664703637,0.0119005832821,,0.00687000405504,-0.00827761017827,0.0501305574369,-0.998684748331
1121072000000,,18739,,1121,64151965,"""map""",,,0.130068749189,0.0297850333154,0.0119990706444,,0.0068689771372,-0.00832083794527,0.050116353949,-0.998685127653
1121104000000,,18740,,1121,96151483,"""map""",,,0.129721403122,0.0298068616539,0.0121911149472,,0.00685532855532,-0.00836204661481,0.0500761037086,-0.998686939967
1121136000000,,18741,,1121,128151483,"""map""",,,0.129221066833,0.029768358916,0.0124466279522,,0.00685288560215,-0.00832329760901,0.0500836479945,-0.99868689782
1121172000000,,18742,,1121,168151483,"""map""",,,0.128427997231,0.0296402927488,0.0128866741434,,0.00687815675373,-0.00834382295959,0.0501045528314,-0.998685464828
1121204000000,,18743,,1121,200151001,"""map""",,,0.128527998924,0.0300008915365,0.0138610294089,,0.00681478098214,-0.00829968870608,0.0500793068691,-0.998687530023
1121236000000,,18744,,1121,232151001,"""map""",,,0.128499239683,0.0302324034274,0.0146803194657,,0.00680557378906,-0.00829859889723,0.0500687280102,-0.998688162226
1121272000000,,18745,,1121,264151001,"""map""",,,0.128288149834,0.0303378570825,0.0153413228691,,0.00680079736574,-0.0083459251983,0.0500546931096,-0.998688457254
1121304000000,,18746,,1121,296150519,"""map""",,,0.127878546715,0.0303543172777,0.01590956375,,0.00680669545499,-0.00811753126158,0.0500796440439,-0.99868904731
1121336000000,,18747,,1121,328150519,"""map""",,,0.127340495586,0.0302948039025,0.0165825653821,,0.00678239047052,-0.00811600154501,0.0501088939568,-0.998687782904
1121372000000,,18748,,1121,368150519,"""map""",,,0.126514405012,0.030139727518,0.0173673760146,,0.00675515899657,-0.0081376762204,0.0501384388976,-0.998686307764
1121400000000,,18749,,1121,400150038,"""map""",,,0.126659840345,0.0304718296975,0.0181553810835,,0.00677890331271,-0.00812851076257,0.0501151738372,-0.998687403583
1121436000000,,18750,,1121,432150038,"""map""",,,0.126597806811,0.0307078696787,0.0187351852655,,0.00677621488708,-0.00809665194332,0.0501292508846,-0.998686982114
1121472000000,,18751,,1121,464150038,"""map""",,,0.126360669732,0.0308285038918,0.0192305017263,,0.00673899255208,-0.00813299446286,0.0501003381465,-0.998688330813
1121504000000,,18752,,1121,496161556,"""map""",,,0.125966697931,0.030877834186,0.0197575706989,,0.00681455040925,-0.00823120937919,0.050088537029,-0.998687656464
1121536000000,,18753,,1121,528161556,"""map""",,,0.125416457653,0.030847704038,0.0202678684145,,0.00683475397853,-0.00823520336931,0.0500455050966,-0.998689637366
1121572000000,,18754,,1121,568161556,"""map""",,,0.124537304044,0.0306623820215,0.0207774341106,,0.00675865595023,-0.00825481144972,0.0499998600597,-0.998692292617
1121604000000,,18755,,1121,600161074,"""map""",,,0.124687343836,0.0309635587037,0.021129200235,,0.00678047583468,-0.00827768302975,0.0499400958285,-0.998694905722
1121636000000,,18756,,1121,632161074,"""map""",,,0.124668292701,0.0311742331833,0.0215383749455,,0.00678625859632,-0.00830676229727,0.0499444791007,-0.998694399959
1121672000000,,18757,,1121,664161074,"""map""",,,0.124468684196,0.0313114635646,0.0217416565865,,0.00682485366735,-0.00829876847244,0.0499357125563,-0.99869465284
1121704000000,,18758,,1121,696160593,"""map""",,,0.124088808894,0.0313531905413,0.0219330377877,,0.00682533761524,-0.00831607839716,0.0499677441611,-0.998692966967
1121736000000,,18759,,1121,728160593,"""map""",,,0.123565845191,0.0313424952328,0.0221147052944,,0.00676857363052,-0.00837163592834,0.0499540885822,-0.998693557022
1121772000000,,18760,,1121,768160593,"""map""",,,0.122726045549,0.031237276271,0.0223430022597,,0.006803654955,-0.0083879790274,0.0499283790046,-0.998694399959
1121804000000,,18761,,1121,800160111,"""map""",,,0.122905723751,0.0316115692258,0.0222510192543,,0.00681400035995,-0.00837670244052,0.0499219726836,-0.998694821428
1121836000000,,18762,,1121,832160111,"""map""",,,0.122874565423,0.0319050624967,0.0221536289901,,0.00682833012381,-0.00839522482798,0.0498983283016,-0.998695706512
1121872000000,,18763,,1121,864160111,"""map""",,,0.122628740966,0.0320904776454,0.0219916850328,,0.00681233037339,-0.00840803722298,0.0499006042314,-0.998695622218
1121904000000,,18764,,1121,896159629,"""map""",,,0.122237168252,0.0321789309382,0.0218543242663,,0.00681661535787,-0.00824742430902,0.0498437481328,-0.998699710462
1121936000000,,18765,,1121,928159629,"""map""",,,0.121720001101,0.0321968868375,0.0215700417757,,0.00682430715772,-0.00828376147788,0.0498442117481,-0.998699331141
1121972000000,,18766,,1121,968159629,"""map""",,,0.120912566781,0.0321354009211,0.0212860330939,,0.00680533020991,-0.0083133620657,0.0497956164318,-0.998701733511
1122004000000,,18767,,1122,159148,"""map""",,,0.121517248452,0.0324395373464,0.0206091217697,,0.00682601270568,-0.00831259000458,0.0498292917638,-0.998699836903
1122036000000,,18768,,1122,32159148,"""map""",,,0.121895186603,0.0326377898455,0.0199886597693,,0.00681177052824,-0.00834791877716,0.0498111686189,-0.998700595546
1122072000000,,18769,,1122,64159148,"""map""",,,0.122056186199,0.0327325575054,0.0193618796766,,0.00686101385237,-0.00833226122294,0.0497711712597,-0.998702323567
1122104000000,,18770,,1122,96158666,"""map""",,,0.122049838305,0.0327204614878,0.018726715818,,0.00689019231316,-0.00839318482173,0.0497249783137,-0.998703925147
1122136000000,,18771,,1122,128158666,"""map""",,,0.121903598309,0.0326371155679,0.0180485211313,,0.00684328492872,-0.00842011591707,0.0496936210584,-0.998705611021
1122172000000,,18772,,1122,168158666,"""map""",,,0.121502645314,0.0324249118567,0.0170224104077,,0.00690613559338,-0.00848542328202,0.0497199628387,-0.998703292944
1122204000000,,18773,,1122,200158184,"""map""",,,0.121984302998,0.0326031371951,0.0164653565735,,0.00692206240999,-0.0085089116713,0.0497466417938,-0.998701649217
1122236000000,,18774,,1122,232158184,"""map""",,,0.122253924608,0.0326646305621,0.0159511454403,,0.00693328524318,-0.00854619986075,0.0497405726476,-0.998701564924
1122272000000,,18775,,1122,264158184,"""map""",,,0.122358083725,0.0326207764447,0.0154198938981,,0.00696257310467,-0.0085906149835,0.0497778304617,-0.998699120406
1122304000000,,18776,,1122,296157703,"""map""",,,0.122299365699,0.0325171612203,0.0148093774915,,0.0070164592499,-0.00861241799276,0.0497564198627,-0.998699626169
1122336000000,,18777,,1122,328157703,"""map""",,,0.12207634002,0.0323582999408,0.0142400767654,,0.00700884491134,-0.008635238124,0.049785543335,-0.998698066735
1122372000000,,18778,,1122,368157703,"""map""",,,0.121558457613,0.0320852659643,0.0137375108898,,0.00703663046818,-0.00843817633557,0.0498112529126,-0.998698235323
1122404000000,,18779,,1122,400157221,"""map""",,,0.122394099832,0.0323056466877,0.0138550335541,,0.00698867443393,-0.00847195390656,0.0498160576533,-0.998698066735
1122436000000,,18780,,1122,432157221,"""map""",,,0.123018220067,0.0324251949787,0.0141577320173,,0.00701581733364,-0.00847452848631,0.0498047622979,-0.99869840391
1122472000000,,18781,,1122,464157221,"""map""",,,0.12342569232,0.0324814319611,0.0145668732002,,0.00702107029622,-0.00849826860424,0.0497980188022,-0.998698488204
1122504000000,,18782,,1122,496156740,"""map""",,,0.123649559915,0.0324647203088,0.0149731431156,,0.00697108907297,-0.00853710462023,0.0497949420822,-0.998698698938
1122536000000,,18783,,1122,528156740,"""map""",,,0.123710475862,0.0323746539652,0.015315563418,,0.00698507820469,-0.00855126694915,0.0498026128087,-0.998698108882
1122572000000,,18784,,1122,568156740,"""map""",,,0.123564258218,0.0321601070464,0.0158024933189,,0.0069302721551,-0.00857191429511,0.0497745430075,-0.998699626169
1122604000000,,18785,,1122,600156258,"""map""",,,0.124228924513,0.0324260666966,0.0159393753856,,0.00689981817592,-0.00853661787352,0.0497881985865,-0.998699541875
1122636000000,,18786,,1122,632156258,"""map""",,,0.124690763652,0.03256393224,0.0161189883947,,0.00688819996907,-0.00855242310635,0.0497673780433,-0.998700469106
1122672000000,,18787,,1122,664156258,"""map""",,,0.124946333468,0.0326011814177,0.016345847398,,0.00690479479676,-0.00859979797508,0.0497253154885,-0.998702070686
1122704000000,,18788,,1122,696155777,"""map""",,,0.125040560961,0.0325650908053,0.016511419788,,0.00686438823443,-0.00869984364514,0.0497211008036,-0.998701649217
1122736000000,,18789,,1122,728155777,"""map""",,,0.124954655766,0.0324450433254,0.0167332366109,,0.00682784683446,-0.00873186479561,0.0497269170687,-0.998701396336
1122772000000,,18790,,1122,768155777,"""map""",,,0.12463478744,0.0321890562773,0.0170995928347,,0.00679405230594,-0.00871834421832,0.0496573326218,-0.998705147406
1122804000000,,18791,,1122,800167295,"""map""",,,0.125122115016,0.0322278104722,0.017483798787,,0.00684995507909,-0.00869729030345,0.0496398838266,-0.998705821755
1122836000000,,18792,,1122,832167295,"""map""",,,0.125404924154,0.0321748107672,0.0178798250854,,0.00684672170787,-0.00865803965136,0.0496657619915,-0.998704894525
1122872000000,,18793,,1122,864167295,"""map""",,,0.125507667661,0.0320420190692,0.0182858631015,,0.00688856480273,-0.00867334241473,0.0496423704906,-0.998705695315
1122904000000,,18794,,1122,896166814,"""map""",,,0.12545402348,0.0318230763078,0.0187415610999,,0.00692961352827,-0.00866713069366,0.0496857395977,-0.998703292944
1122936000000,,18795,,1122,928166814,"""map""",,,0.125276491046,0.0315052941442,0.0191111136228,,0.00695186492402,-0.00869769983581,0.0497275492715,-0.998700764134
1122972000000,,18796,,1122,968166814,"""map""",,,0.124839670956,0.0310105420649,0.0192979723215,,0.0069302320662,-0.00849839891373,0.0496869197095,-0.998704641644
1123004000000,,18797,,1123,166332,"""map""",,,0.125388890505,0.0312089249492,0.0194964241236,,0.00695316283292,-0.00855068183236,0.0496605779292,-0.99870535814
1123036000000,,18798,,1123,32166332,"""map""",,,0.125737205148,0.0312814936042,0.0196292288601,,0.0069801848074,-0.00858540367386,0.0496429605465,-0.998705779609
1123072000000,,18799,,1123,64166332,"""map""",,,0.125909343362,0.031237564981,0.0196651089936,,0.0069474694687,-0.00861026125949,0.0496598192859,-0.998704936672
1123104000000,,18800,,1123,96165850,"""map""",,,0.125923335552,0.0310999434441,0.0197011269629,,0.00695233907606,-0.00859903406345,0.0496750342982,-0.998704220175
1123136000000,,18801,,1123,128165850,"""map""",,,0.125789910555,0.0308726802468,0.0197352338582,,0.0069800786171,-0.00862468404276,0.0496866668284,-0.998703292944
1123172000000,,18802,,1123,168165850,"""map""",,,0.125466048717,0.0304818302393,0.0198034960777,,0.00697528334295,-0.00863141412068,0.0497007438758,-0.998702534301
1123204000000,,18803,,1123,200165369,"""map""",,,0.125817939639,0.0306782796979,0.019988566637,,0.00700212849822,-0.00865110962287,0.0496690915926,-0.99870375656
1123236000000,,18804,,1123,232165369,"""map""",,,0.125976741314,0.0307603403926,0.0202007330954,,0.00698565912326,-0.00869427375801,0.0496628960058,-0.998703798707
1123272000000,,18805,,1123,264165369,"""map""",,,0.125954180956,0.030741089955,0.0204343721271,,0.00703783700403,-0.00867704351718,0.049652570028,-0.998704093735
1123304000000,,18806,,1123,304164887,"""map""",,,0.125764012337,0.0305810142308,0.0207622088492,,0.00705279394922,-0.0087375689435,0.049625005989,-0.998704852378
1123336000000,,18807,,1123,328164887,"""map""",,,0.125600874424,0.0304135642946,0.0209654420614,,0.00708315062845,-0.00879146644863,0.0496032582152,-0.998705189553
1123372000000,,18808,,1123,368164887,"""map""",,,0.125170588493,0.030061038211,0.0212651528418,,0.00710088177469,-0.00881897994426,0.0496054077045,-0.998704725937
1123404000000,,18809,,1123,400164405,"""map""",,,0.125733271241,0.030286937952,0.0214193947613,,0.00707583691546,-0.00879511865415,0.0495745140645,-0.998706706839
1123436000000,,18810,,1123,432164405,"""map""",,,0.126067399979,0.0304098539054,0.0214232299477,,0.00706540779304,-0.00880287803713,0.0495982427402,-0.998705484581
1123472000000,,18811,,1123,464164405,"""map""",,,0.126235112548,0.0304354969412,0.0213728379458,,0.00708050895947,-0.008752906939,0.0496034689494,-0.998705568874
1123504000000,,18812,,1123,496163924,"""map""",,,0.126221299171,0.0303619243205,0.0212328135967,,0.00700424736518,-0.0087378455322,0.0496068406973,-0.998706074636
1123536000000,,18813,,1123,528163924,"""map""",,,0.126057311893,0.0302164442837,0.0210758987814,,0.00700339158659,-0.00870805396647,0.0496087794524,-0.998706243224
1123572000000,,18814,,1123,568163924,"""map""",,,0.125686272979,0.0299185551703,0.0208586491644,,0.00698385643999,-0.00871027202669,0.0497038205957,-0.998701649217
1123604000000,,18815,,1123,600163442,"""map""",,,0.126251980662,0.0301398467273,0.0207418315113,,0.00695922901566,-0.00866544539594,0.0497275492715,-0.998701017015
1123636000000,,18816,,1123,632163442,"""map""",,,0.126628562808,0.0302509777248,0.0206405818462,,0.00696748074298,-0.00869691312208,0.0497262427192,-0.998700721987
1123672000000,,18817,,1123,664163442,"""map""",,,0.126822754741,0.030254047364,0.0205793213099,,0.00695940698731,-0.00868480380567,0.0497459674443,-0.998699963343
1123704000000,,18818,,1123,696162960,"""map""",,,0.1268376261,0.0301746763289,0.0205234289169,,0.0070030188504,-0.00870617316336,0.049727127803,-0.998700342665
1123736000000,,18819,,1123,728162960,"""map""",,,0.126704767346,0.0300107542425,0.0207900237292,,0.00696778186246,-0.00872132717799,0.0497236296145,-0.998700637693
1123772000000,,18820,,1123,768162960,"""map""",,,0.126359283924,0.0296818111092,0.0210599657148,,0.00692785562603,-0.00872912171078,0.0497109434131,-0.998701522777
1123804000000,,18821,,1123,800162478,"""map""",,,0.126736611128,0.0298738833517,0.0215191859752,,0.0069272370881,-0.00874239879124,0.0497294037328,-0.998700511252
1123836000000,,18822,,1123,832162478,"""map""",,,0.126924857497,0.0299203302711,0.0219428502023,,0.00691473445598,-0.00875398472941,0.0497782097834,-0.998697982442
1123872000000,,18823,,1123,864162478,"""map""",,,0.126906111836,0.0298426281661,0.0223953612149,,0.00694413575176,-0.00849112150301,0.0497467682344,-0.998701691364
1123904000000,,18824,,1123,896161996,"""map""",,,0.12674164772,0.0296472776681,0.0228417813778,,0.00695922317108,-0.00854069656894,0.04978360458,-0.998699331141
1123936000000,,18825,,1123,928161996,"""map""",,,0.126391261816,0.0293389558792,0.0232833568007,,0.00695346477558,-0.00855234366942,0.0497906009568,-0.998698909672
1123972000000,,18826,,1123,968161996,"""map""",,,0.12577444315,0.028818609193,0.0238430798054,,0.00693660998744,-0.00860341906437,0.0497553240446,-0.998700300518
1124004000000,,18827,,1124,161514,"""map""",,,0.126023635268,0.0289062876254,0.0241596065462,,0.00696066439573,-0.00859068371909,0.049792792593,-0.99869840391
1124036000000,,18828,,1124,32161514,"""map""",,,0.126091018319,0.0288765523583,0.0242230929434,,0.007006650888,-0.00860027179785,0.049791949656,-0.998697982442
1124072000000,,18829,,1124,64161514,"""map""",,,0.12599940598,0.0287365093827,0.024171769619,,0.00697477889785,-0.00863424586206,0.0496925673872,-0.998702871476
1124104000000,,18830,,1124,96173032,"""map""",,,0.125726178288,0.0285050477833,0.0240917652845,,0.00703980802775,-0.00868543534985,0.0496869618563,-0.998702323567
1124136000000,,18831,,1124,128173032,"""map""",,,0.125303611159,0.0281703583896,0.0242239683867,,0.00705664437664,-0.0087150224375,0.0497050428544,-0.998701017015
1124172000000,,18832,,1124,168173032,"""map""",,,0.124573506415,0.0276570934802,0.0243866592646,,0.00706870981752,-0.00868784998561,0.0498015591374,-0.998696380861
1124204000000,,18833,,1124,200172550,"""map""",,,0.124496154487,0.0280345808715,0.0245841406286,,0.00711727327676,-0.00875234939876,0.0497716770218,-0.99869692877
1124232000000,,18834,,1124,232172550,"""map""",,,0.124273113906,0.0282814707607,0.0248298160732,,0.00708853315967,-0.00877236643531,0.0498032028645,-0.998695411484
1124272000000,,18835,,1124,264172550,"""map""",,,0.123912319541,0.0284275431186,0.0251137390733,,0.0071550203071,-0.00877508968148,0.0497557455131,-0.998697265945
1124304000000,,18836,,1124,296172068,"""map""",,,0.123396612704,0.0284713450819,0.0253526978195,,0.00718960755857,-0.00878760811867,0.049779979951,-0.998695706512
1124336000000,,18837,,1124,328172068,"""map""",,,0.122741572559,0.0284489188343,0.0256312154233,,0.00722274905789,-0.00882862926766,0.0497621939809,-0.998695959393
1124372000000,,18838,,1124,368172068,"""map""",,,0.121710576117,0.0282786227763,0.0260119903833,,0.00726946176011,-0.00863760180488,0.0497307945788,-0.998698867525
1124404000000,,18839,,1124,400171586,"""map""",,,0.120789498091,0.0280484799296,0.026379743591,,0.00737592963853,-0.00867743617435,0.0497094682734,-0.998698783232
1124436000000,,18840,,1124,432171586,"""map""",,,0.11978457123,0.0277488902211,0.0266182422638,,0.00738674446223,-0.00867710406212,0.0497115756159,-0.998698614644
1124472000000,,18841,,1124,464171586,"""map""",,,0.118665769696,0.0273531507701,0.0268822964281,,0.00741306574536,-0.00868423157165,0.0496808927102,-0.99869987905
1124504000000,,18842,,1124,504171104,"""map""",,,0.118547804654,0.0275500677526,0.0269549693912,,0.00742398745907,-0.00867951071302,0.0497072344905,-0.998698572497
1124536000000,,18843,,1124,528171104,"""map""",,,0.118325658143,0.027589911595,0.0270375255495,,0.00741223602043,-0.00869498687939,0.0497194570765,-0.998697898148
1124572000000,,18844,,1124,568171104,"""map""",,,0.11777061969,0.0275085438043,0.0272600539029,,0.00740943399587,-0.00874357486942,0.0497613931908,-0.998695411484
1124604000000,,18845,,1124,600170621,"""map""",,,0.117199845612,0.0273749083281,0.0274232011288,,0.00738493696335,-0.00877546077131,0.0497148209232,-0.998697645267
1124636000000,,18846,,1124,632170621,"""map""",,,0.116525024176,0.0271894037724,0.0275544971228,,0.00735916729358,-0.00883301179905,0.0496714939629,-0.998699499728
1124672000000,,18847,,1124,664170621,"""map""",,,0.115737885237,0.0269451867789,0.0276114437729,,0.00738384945942,-0.00881979884436,0.0496260596602,-0.998701691364
1124704000000,,18848,,1124,696170139,"""map""",,,0.11614523828,0.027429997921,0.0275684036314,,0.00735402233229,-0.00886415346333,0.0496699766764,-0.998699331141
1124736000000,,18849,,1124,728170139,"""map""",,,0.116361811757,0.0278033837676,0.0275832936168,,0.00742572268269,-0.0088648706183,0.0496886477303,-0.998697856001
1124772000000,,18850,,1124,768170139,"""map""",,,0.116372413933,0.0281262416393,0.0275744199753,,0.00742496206378,-0.00893049523706,0.0497550711635,-0.998693978491
1124804000000,,18851,,1124,800169656,"""map""",,,0.11618411541,0.0282894857228,0.0276193860918,,0.00742886698576,-0.00893016489468,0.0497531324085,-0.998693978491
1124836000000,,18852,,1124,832169656,"""map""",,,0.115828715265,0.0283653475344,0.0276614110917,,0.00743971765898,-0.00897596748839,0.0497642170297,-0.998693009113
1124872000000,,18853,,1124,864169656,"""map""",,,0.115325912833,0.0283316466957,0.0275804176927,,0.00748290492549,-0.00870284018729,0.0497366529907,-0.998696465155
1124904000000,,18854,,1124,896169174,"""map""",,,0.115855850279,0.0288954135031,0.0274585131556,,0.00750478588995,-0.00876600892894,0.0497618146593,-0.998694484253
1124936000000,,18855,,1124,928169174,"""map""",,,0.116167388856,0.0293339900672,0.0274960808456,,0.00753493245233,-0.00876404675442,0.0497350935573,-0.998695580071
1124972000000,,18856,,1124,968169174,"""map""",,,0.116307862103,0.0297060906887,0.0272301249206,,0.00756083119683,-0.0088035493821,0.0497512779472,-0.998694231372
1125004000000,,18857,,1125,168691,"""map""",,,0.116225898266,0.0298872049898,0.0270402692258,,0.00757159263727,-0.00883446590648,0.049759960198,-0.998693472729
1125036000000,,18858,,1125,32168691,"""map""",,,0.115968242288,0.029984690249,0.0268887709826,,0.00761133287603,-0.00885053863185,0.0497706233506,-0.998692503351
1125072000000,,18859,,1125,64168691,"""map""",,,0.115590788424,0.029992794618,0.026770664379,,0.00757796327336,-0.00884151772455,0.0497828880836,-0.998692208323
1125104000000,,18860,,1125,96168208,"""map""",,,0.116011552513,0.0302006173879,0.0264332834631,,0.00764850507933,-0.00890925050892,0.0498204409256,-0.998689215897
1125136000000,,18861,,1125,128168208,"""map""",,,0.116207204759,0.0303197875619,0.0261858794838,,0.00765739135545,-0.00895977284996,0.04980446727,-0.998689510925
1125172000000,,18862,,1125,168168208,"""map""",,,0.116221986711,0.0303414072841,0.0259608477354,,0.00764985381964,-0.00899778519141,0.0498091455702,-0.998688963016
1125204000000,,18863,,1125,200167725,"""map""",,,0.116045460105,0.0302656423301,0.0257894843817,,0.00769605326874,-0.00904253073887,0.0498172799119,-0.998687825051
1125236000000,,18864,,1125,232167725,"""map""",,,0.115716382861,0.0301198046654,0.0256232935935,,0.00774226864638,-0.0090670891395,0.0498449703914,-0.998685844149
1125272000000,,18865,,1125,264167725,"""map""",,,0.115235939622,0.0298982001841,0.0254368241876,,0.00772954157406,-0.00911012374717,0.0498608597533,-0.998684790478
1125300000000,,18866,,1125,296167242,"""map""",,,0.116001784801,0.0303113684058,0.0251001212746,,0.00772735574136,-0.00915435896379,0.049824782051,-0.998686139177
1125336000000,,18867,,1125,328167242,"""map""",,,0.116519935429,0.0305774323642,0.024722199887,,0.00777722748158,-0.00918135385563,0.0498079654584,-0.998686349911
1125372000000,,18868,,1125,368167242,"""map""",,,0.116876997054,0.0307674985379,0.0246022138745,,0.00778855634044,-0.00915715835418,0.0497922868308,-0.998687277142
1125396000000,,18869,,1125,400178759,"""map""",,,0.116951152682,0.030803957954,0.0245633814484,,0.00777592446896,-0.00912326932453,0.0497643013234,-0.998689131603
1125436000000,,18870,,1125,432178759,"""map""",,,0.116813071072,0.0307550039142,0.0245098974556,,0.00775271867759,-0.00912464041419,0.0497666615469,-0.998689131603
1125472000000,,18871,,1125,464178759,"""map""",,,0.116488449275,0.0306276865304,0.0244681239128,,0.00776367529415,-0.00914209999314,0.0497656500225,-0.998688963016
1125504000000,,18872,,1125,496178276,"""map""",,,0.117208600044,0.030980437994,0.0241226237267,,0.00778671163379,-0.00909368203108,0.0497494656327,-0.99868997454
1125536000000,,18873,,1125,528178276,"""map""",,,0.117716692388,0.0312413070351,0.0238649006933,,0.00777502625541,-0.0090869084069,0.0497113227348,-0.998692039736
1125572000000,,18874,,1125,568178276,"""map""",,,0.118043288589,0.0314389169216,0.023660140112,,0.00775681988699,-0.00909507197158,0.0497058014976,-0.998692419058
1125604000000,,18875,,1125,600177793,"""map""",,,0.118065446615,0.0315251462162,0.0234625637531,,0.00777649229896,-0.00889542593102,0.049679544011,-0.99869532719
1125636000000,,18876,,1125,632177793,"""map""",,,0.117909498513,0.031544547528,0.0231727231294,,0.00778047262428,-0.00892215748737,0.0496482289026,-0.998696633742
1125672000000,,18877,,1125,664177793,"""map""",,,0.117609210312,0.0315332561731,0.0230344329029,,0.00781639737965,-0.00896426893911,0.0496777316965,-0.9986945264
1125700000000,,18878,,1125,696177309,"""map""",,,0.118218444288,0.0320168882608,0.023395197466,,0.00781768960861,-0.00898677914285,0.0496863296536,-0.99869385205
1125736000000,,18879,,1125,728177309,"""map""",,,0.11862308532,0.0323839969933,0.0237708687782,,0.00785648668816,-0.00897651416265,0.0497066022877,-0.998692629792
1125772000000,,18880,,1125,768177309,"""map""",,,0.118877708912,0.0327474996448,0.0243610534817,,0.00790515176905,-0.00898574436363,0.0497331126555,-0.998690901771
1125804000000,,18881,,1125,800176826,"""map""",,,0.118881382048,0.0329525731504,0.0248647853732,,0.00795787093225,-0.00904069195913,0.0497377909556,-0.998689679512
1125836000000,,18882,,1125,832176826,"""map""",,,0.118698082864,0.0330924652517,0.0255129933357,,0.00793569621579,-0.00906629637539,0.0497445765983,-0.998689300191
1125872000000,,18883,,1125,864176826,"""map""",,,0.118358388543,0.0331922695041,0.0262415036559,,0.00796112080824,-0.0091064667672,0.0497143573079,-0.998690269568
1125904000000,,18884,,1125,896176342,"""map""",,,0.119065098464,0.0338118411601,0.0265580452979,,0.00794295090672,-0.00917432253476,0.0496956019603,-0.998690733184
1125936000000,,18885,,1125,928176342,"""map""",,,0.119512952864,0.0343310087919,0.0267773289233,,0.00792644959235,-0.00917653606748,0.0496870040032,-0.998691238946
1125972000000,,18886,,1125,968176342,"""map""",,,0.11979611218,0.0348450653255,0.0270653665066,,0.00791942321056,-0.00919162961949,0.0497522894715,-0.998687909345
1126004000000,,18887,,1126,175858,"""map""",,,0.119820766151,0.03517857939,0.0273074191064,,0.00786581324244,-0.00922027153114,0.0497898423136,-0.998686181324
1126036000000,,18888,,1126,32175858,"""map""",,,0.119673572481,0.0354294925928,0.0276530645788,,0.00789285620802,-0.00926983704817,0.0497925397119,-0.998685422681
1126072000000,,18889,,1126,64175858,"""map""",,,0.119357593358,0.0356427766383,0.0279445722699,,0.00792331743119,-0.00932074426732,0.049816984884,-0.998683483926
1126104000000,,18890,,1126,96175374,"""map""",,,0.119899839163,0.0361823663116,0.02811434865,,0.00787830311526,-0.00931558144301,0.0498305561692,-0.998683146751
1126136000000,,18891,,1126,128175374,"""map""",,,0.120213069022,0.0366554670036,0.0281614828855,,0.0078798994683,-0.00910273191434,0.0498491850763,-0.998684242569
1126172000000,,18892,,1126,168175374,"""map""",,,0.120335891843,0.0371180176735,0.0282272044569,,0.00787302846186,-0.00912320318196,0.0498248663447,-0.99868529624
1126204000000,,18893,,1126,200174890,"""map""",,,0.120221227407,0.037445884198,0.0282472055405,,0.00786407386176,-0.00909091182244,0.0498753161223,-0.998683146751
1126236000000,,18894,,1126,232174890,"""map""",,,0.119973659515,0.0377263240516,0.0281280744821,,0.00782336486286,-0.00909838539711,0.0498838719326,-0.99868302031
1126272000000,,18895,,1126,264174890,"""map""",,,0.119614623487,0.0379544608295,0.0279512349516,,0.00780039371913,-0.00914444642838,0.049869837032,-0.998683399632
1126304000000,,18896,,1126,296174406,"""map""",,,0.120397798717,0.0384544879198,0.0281585212797,,0.00775412977383,-0.0091716665836,0.0498566450684,-0.998684200422
1126336000000,,18897,,1126,328174406,"""map""",,,0.12096913904,0.0388947576284,0.0283840093762,,0.00772524477694,-0.00920297502428,0.0498374682524,-0.998685085506
1126372000000,,18898,,1126,368174406,"""map""",,,0.121405951679,0.0393524169922,0.0287009105086,,0.00768668823077,-0.00922715422675,0.0498227590022,-0.998685886296
1126408000000,,18899,,1126,400173921,"""map""",,,0.1215428859,0.039684843272,0.0288403816521,,0.00765536258561,-0.00927529778155,0.0498444224824,-0.998684621891
1126436000000,,18900,,1126,432173921,"""map""",,,0.121529854834,0.0399623438716,0.0288601312786,,0.00765605735007,-0.00928699550765,0.0499084013984,-0.998681334436
1126472000000,,18901,,1126,464173921,"""map""",,,0.121377691627,0.0402037464082,0.0290130861104,,0.00765810089599,-0.0093379542579,0.0498989183575,-0.99868129229
1126504000000,,18902,,1126,496173437,"""map""",,,0.122208625078,0.0408005267382,0.0291310399771,,0.00765427862135,-0.00941727602621,0.0498888031139,-0.998681039408
1126536000000,,18903,,1126,528173437,"""map""",,,0.122831955552,0.0413142368197,0.0292526483536,,0.00765592843998,-0.00943394428161,0.0498861057156,-0.998681039408
1126572000000,,18904,,1126,568173437,"""map""",,,0.123335421085,0.0418497249484,0.0295435395092,,0.0076767592729,-0.0094866768215,0.0499172943835,-0.998678847772
1126604000000,,18905,,1126,600172952,"""map""",,,0.123538762331,0.0422205775976,0.0297557376325,,0.00766404771754,-0.0095028852482,0.0499454906251,-0.998677372633
1126636000000,,18906,,1126,632172952,"""map""",,,0.12360239774,0.0425508134067,0.0298874266446,,0.00766144218619,-0.00952387339094,0.0499579660923,-0.998676529696
1126672000000,,18907,,1126,664172952,"""map""",,,0.123537652194,0.0428397320211,0.0299184080213,,0.00765428397203,-0.00962755315655,0.0499543414633,-0.998675771052
1126704000000,,18908,,1126,696172468,"""map""",,,0.124260753393,0.0432970672846,0.0297661889344,,0.00764364765504,-0.00966729714079,0.050008120842,-0.998672820773
1126736000000,,18909,,1126,736172468,"""map""",,,0.124928385019,0.0437590144575,0.0294422060251,,0.00762561835277,-0.0096575503528,0.0500333246574,-0.998671809249
1126772000000,,18910,,1126,768172468,"""map""",,,0.125272899866,0.0440337024629,0.0292194075882,,0.0075835582675,-0.00968613530035,0.0500211020713,-0.998672399304
1126804000000,,18911,,1126,800171983,"""map""",,,0.125420168042,0.0442516133189,0.029007030651,,0.00756030028648,-0.00968462542243,0.0500577698295,-0.998670797724
1126836000000,,18912,,1126,832171983,"""map""",,,0.12545375526,0.0444741696119,0.0286757219583,,0.00761958509726,-0.00970899288631,0.0500152858062,-0.998672230717
1126872000000,,18913,,1126,864171983,"""map""",,,0.125329405069,0.0446540638804,0.028444301337,,0.00759149833863,-0.00973154391981,0.0500280141545,-0.998671556368
1126904000000,,18914,,1126,896171498,"""map""",,,0.126213490963,0.0449881367385,0.0284172613174,,0.00754191207745,-0.00972456252484,0.0500251903156,-0.99867218857
1126936000000,,18915,,1126,928171498,"""map""",,,0.126889675856,0.0452634692192,0.0283610727638,,0.00752183964085,-0.00968364978874,0.0500420069082,-0.998671893542
1126972000000,,18916,,1126,968171498,"""map""",,,0.127435743809,0.045557513833,0.0283659715205,,0.00760955472354,-0.00971745328993,0.0500416697334,-0.998670882018
1127004000000,,18917,,1127,171013,"""map""",,,0.12770883739,0.0457919202745,0.0282723121345,,0.00766648350904,-0.00978491565946,0.0500159601558,-0.998671050605
1127036000000,,18918,,1127,32171013,"""map""",,,0.127829402685,0.0460006035864,0.0283556561917,,0.0076740199747,-0.00979798373436,0.0500406160622,-0.998669659759
1127072000000,,18919,,1127,64171013,"""map""",,,0.127798780799,0.0461767576635,0.0284238308668,,0.00763762147888,-0.00978147608149,0.0501039627755,-0.998666920214
1127104000000,,18920,,1127,96170528,"""map""",,,0.12839692831,0.0464110523462,0.0278051570058,,0.00761971005608,-0.00977552843677,0.0500892956722,-0.998667847445
1127136000000,,18921,,1127,128170528,"""map""",,,0.128824919462,0.0466511175036,0.027255255729,,0.00761602574652,-0.00971593979001,0.0501089782505,-0.998667468123
1127172000000,,18922,,1127,168170528,"""map""",,,0.129153236747,0.0469277799129,0.0267542116344,,0.00759213169382,-0.00975505412338,0.0501402090652,-0.998665740102
1127204000000,,18923,,1127,200170043,"""map""",,,0.129295244813,0.0471295118332,0.0263779200613,,0.00758675492486,-0.00973753329979,0.0501865284517,-0.998663590613
1127236000000,,18924,,1127,232170043,"""map""",,,0.129326298833,0.0473142527044,0.0260728634894,,0.00757636910174,-0.00973685162391,0.0501600602309,-0.998665023606
1127272000000,,18925,,1127,264170043,"""map""",,,0.129243940115,0.0474813021719,0.0258692149073,,0.0075696826524,-0.00970202869582,0.0501597652029,-0.998665487221
1127304000000,,18926,,1127,296169558,"""map""",,,0.129879578948,0.0478424243629,0.0257740262896,,0.00754689330811,-0.00971874757684,0.050173926544,-0.998664728578
1127336000000,,18927,,1127,328169558,"""map""",,,0.130361333489,0.0481698736548,0.0257251616567,,0.0075494962876,-0.00972567768765,0.050172535698,-0.998664686431
1127372000000,,18928,,1127,368169558,"""map""",,,0.130790457129,0.0485480055213,0.0256271585822,,0.00752954535246,-0.00973179128559,0.0501959693458,-0.998663590613
1127404000000,,18929,,1127,400169072,"""map""",,,0.130982711911,0.048821888864,0.0255685560405,,0.00753375583909,-0.00973946225897,0.050231246258,-0.998661694005
1127436000000,,18930,,1127,432169072,"""map""",,,0.131014287472,0.0491039678454,0.0255488660187,,0.00750183198856,-0.00977302061697,0.0502331007193,-0.998661525418
1127472000000,,18931,,1127,464169072,"""map""",,,0.130922883749,0.0493672154844,0.0256264992058,,0.00749445925352,-0.00978259815902,0.0502715386452,-0.998659586663
1127504000000,,18932,,1127,496168587,"""map""",,,0.131506949663,0.0498323999345,0.0254600867629,,0.00752154946968,-0.00977943681611,0.0502763855328,-0.998659207341
1127536000000,,18933,,1127,528168587,"""map""",,,0.131975665689,0.0502806119621,0.0254320390522,,0.00750591208338,-0.00978138964753,0.050264078653,-0.99865988169
1127572000000,,18934,,1127,568168587,"""map""",,,0.132373452187,0.0508204884827,0.0254943035543,,0.00750214866615,-0.00973861240729,0.0502094984842,-0.998663126998
1127604000000,,18935,,1127,600168102,"""map""",,,0.132552012801,0.0512135960162,0.0256742723286,,0.00750224349656,-0.0097611899472,0.0501864863049,-0.998664054228
1127636000000,,18936,,1127,632168102,"""map""",,,0.132625237107,0.0515775196254,0.0259608887136,,0.00750203712518,-0.00975418393913,0.0501748537747,-0.998664644284
1127672000000,,18937,,1127,664168102,"""map""",,,0.132586583495,0.0519254244864,0.0262150652707,,0.00754601390424,-0.00971882619059,0.0501779726415,-0.998664475697
1127704000000,,18938,,1127,696167616,"""map""",,,0.133312627673,0.0522329136729,0.026322575286,,0.00755969417858,-0.00972135401368,0.0502262729299,-0.998661946886
1127736000000,,18939,,1127,728167616,"""map""",,,0.133881360292,0.0525556579232,0.026527704671,,0.00756790532309,-0.00972570263002,0.0502054523867,-0.998662874117
1127772000000,,18940,,1127,768167616,"""map""",,,0.134369641542,0.0529480352998,0.0267045777291,,0.0075390618145,-0.00977790734649,0.0501863598643,-0.998663590613
1127804000000,,18941,,1127,800167131,"""map""",,,0.134613260627,0.0532542802393,0.0266741532832,,0.0075137760103,-0.00968341049013,0.0501375959606,-0.998667088802
1127836000000,,18942,,1127,832167131,"""map""",,,0.134794160724,0.0535814017057,0.0266867652535,,0.0074844297853,-0.00957335469659,0.0501234346195,-0.99866911185
1127872000000,,18943,,1127,864167131,"""map""",,,0.134894236922,0.0539182275534,0.0268601942807,,0.0074449274869,-0.00959417672148,0.0501565198956,-0.998667552417
1127904000000,,18944,,1127,896166645,"""map""",,,0.135518655181,0.0542233251035,0.0265884585679,,0.00744186838302,-0.00961466354722,0.0500956598464,-0.998670418403
1127936000000,,18945,,1127,928166645,"""map""",,,0.136000216007,0.0545199327171,0.0264762658626,,0.00746479305821,-0.00961375138076,0.0501166068301,-0.998669196144
1127972000000,,18946,,1127,968166645,"""map""",,,0.1363799721,0.0548210218549,0.0265617780387,,0.00749227132171,-0.00962055957852,0.0501552133433,-0.998667004508
1128004000000,,18947,,1128,166160,"""map""",,,0.136531561613,0.0550355426967,0.026674028486,,0.00748721765116,-0.00964283155378,0.0501472054421,-0.998667257389
1128036000000,,18948,,1128,32166160,"""map""",,,0.136556968093,0.0552555248141,0.0266906898469,,0.00751197061053,-0.00967685105756,0.0501268063674,-0.998667763151
1128072000000,,18949,,1128,64166160,"""map""",,,0.136488094926,0.0554865896702,0.0266382973641,,0.0074587360951,-0.00969326634956,0.0500750500374,-0.998670629137
1128104000000,,18950,,1128,96165674,"""map""",,,0.136891037226,0.0557831041515,0.0265432037413,,0.0074473733212,-0.00968532059848,0.0500790961349,-0.998670544843
1128136000000,,18951,,1128,128165674,"""map""",,,0.137147679925,0.0560794249177,0.0265332590789,,0.00745650807439,-0.00970540151384,0.0500726476671,-0.99867058699
1128172000000,,18952,,1128,168165674,"""map""",,,0.137320205569,0.0564606077969,0.0265438817441,,0.00747024630064,-0.00973143937587,0.0501090625442,-0.998668395354
1128204000000,,18953,,1128,200165188,"""map""",,,0.137347757816,0.0567758008838,0.0265746600926,,0.00740682624194,-0.00975790323388,0.0501430329041,-0.998666962361
1128236000000,,18954,,1128,232165188,"""map""",,,0.137261986732,0.057047970593,0.0266340076923,,0.00735519182502,-0.0098062870751,0.0501560141334,-0.998666203718
1128272000000,,18955,,1128,272165188,"""map""",,,0.137233227491,0.057344570756,0.0267340987921,,0.00731810679655,-0.0098332002251,0.0502097092184,-0.998663506319
1128304000000,,18956,,1128,296164702,"""map""",,,0.137541636825,0.0574801824987,0.0266081728041,,0.00725532560833,-0.0098143495532,0.0501707233835,-0.998666077277
1128336000000,,18957,,1128,328164702,"""map""",,,0.137825965881,0.057635050267,0.0264082383364,,0.00722411405601,-0.00983026048242,0.0501681102789,-0.998666330158
1128372000000,,18958,,1128,368164702,"""map""",,,0.138025343418,0.0578047484159,0.0263014230877,,0.00716695873121,-0.00985918532125,0.0502213417486,-0.998663759201
1128404000000,,18959,,1128,400164217,"""map""",,,0.13807502389,0.0579549334943,0.026360925287,,0.00717791831123,-0.009862426595,0.0502224797135,-0.998663548466
1128436000000,,18960,,1128,432164217,"""map""",,,0.138065099716,0.0581022277474,0.0264263674617,,0.00718329565641,-0.00986039070466,0.0502169584764,-0.998663843494
1128472000000,,18961,,1128,464164217,"""map""",,,0.138002485037,0.0582180283964,0.0264732502401,,0.00719086941216,-0.00982886173388,0.0502322999292,-0.998663337732
1128504000000,,18962,,1128,496163731,"""map""",,,0.138359829783,0.0583887025714,0.0268332157284,,0.00725503831829,-0.00986327825769,0.0502281695381,-0.998662747676
1128536000000,,18963,,1128,528163731,"""map""",,,0.138594299555,0.0585333891213,0.0271044112742,,0.00726096587741,-0.00988932435152,0.0502780292599,-0.998659923837
1128572000000,,18964,,1128,568163731,"""map""",,,0.138754859567,0.0587036088109,0.0274232514203,,0.00721278313921,-0.00984475504704,0.0502818646231,-0.99866055604
1128604000000,,18965,,1128,600163245,"""map""",,,0.138779759407,0.0588276833296,0.0277867335826,,0.00721293131172,-0.00987288609279,0.0502714964983,-0.998660808921
1128636000000,,18966,,1128,632163245,"""map""",,,0.138732939959,0.0589474663138,0.0281771402806,,0.00720677161567,-0.00987121701173,0.0502711593236,-0.998660893215
1128672000000,,18967,,1128,664163245,"""map""",,,0.138615250587,0.059061575681,0.0286960694939,,0.00719306088365,-0.0099230890809,0.05027187582,-0.9986604296
1128704000000,,18968,,1128,696162759,"""map""",,,0.138992756605,0.0592161267996,0.0291990377009,,0.00721751173573,-0.00988259081625,0.0502981333066,-0.998659291635
1128736000000,,18969,,1128,728162759,"""map""",,,0.139248788357,0.059365157038,0.0298535488546,,0.00723107421292,-0.00987084723899,0.0503037809843,-0.998659038754
1128772000000,,18970,,1128,768162759,"""map""",,,0.139415562153,0.059527091682,0.0306849051267,,0.00730215651929,-0.00970223712516,0.0502579252131,-0.998662494795
1128804000000,,18971,,1128,800162274,"""map""",,,0.139463201165,0.0595897659659,0.0314205177128,,0.00733887885437,-0.00974622073662,0.0502733509597,-0.998660977509
1128836000000,,18972,,1128,832162274,"""map""",,,0.139449253678,0.0596017353237,0.0321487523615,,0.0073023041979,-0.00974930577069,0.0502723394353,-0.998661314683
1128872000000,,18973,,1128,864162274,"""map""",,,0.139399111271,0.0595601014793,0.032792314887,,0.00733845738589,-0.0097717762148,0.0502744046309,-0.998660682481
1128904000000,,18974,,1128,896161788,"""map""",,,0.139835819602,0.059420928359,0.0331586711109,,0.00730460062492,-0.00980324245921,0.0502585995627,-0.998661483271
1128936000000,,18975,,1128,928161788,"""map""",,,0.140184417367,0.0592698529363,0.0336437672377,,0.00733819125159,-0.00982713091428,0.050252951885,-0.99866123039
1128972000000,,18976,,1128,968161788,"""map""",,,0.140455260873,0.0591009035707,0.0343312360346,,0.00732622953147,-0.00986742585332,0.050301631495,-0.998658490844
1129004000000,,18977,,1129,161302,"""map""",,,0.140573397279,0.058973044157,0.0348722599447,,0.00729549328364,-0.00987945285167,0.0502760062111,-0.998659923837
1129036000000,,18978,,1129,32161302,"""map""",,,0.140608340502,0.0588189586997,0.0354120284319,,0.0072971596482,-0.00988478418105,0.0502280852444,-0.998662241914
1129072000000,,18979,,1129,64161302,"""map""",,,0.140526518226,0.0586609765887,0.0360509455204,,0.00735806316139,-0.00991031200036,0.0502055788273,-0.998662663382
1129104000000,,18980,,1129,96160816,"""map""",,,0.140867829323,0.0581624694169,0.0361783131957,,0.00736937572127,-0.00992448247876,0.0502436374315,-0.998660513893
1129136000000,,18981,,1129,128160816,"""map""",,,0.14113022387,0.057704295963,0.0363310277462,,0.00734229521865,-0.00992951754543,0.0502695577433,-0.998659375928
1129172000000,,18982,,1129,168160816,"""map""",,,0.141375660896,0.0572096146643,0.0365138500929,,0.00733462111718,-0.00987810703365,0.0503291112403,-0.998656889264
1129204000000,,18983,,1129,200160331,"""map""",,,0.141446366906,0.0568787455559,0.0366710573435,,0.00743018456868,-0.00996526334133,0.0503023479914,-0.99865667853
1129236000000,,18984,,1129,232160331,"""map""",,,0.141476258636,0.056585136801,0.0368730574846,,0.00745803836719,-0.00996772102943,0.0503128004099,-0.998655919887
1129272000000,,18985,,1129,264160331,"""map""",,,0.141469448805,0.0563174895942,0.0371178127825,,0.00746446106946,-0.00996467139213,0.0502439746063,-0.998659418075
1129304000000,,18986,,1129,296159845,"""map""",,,0.141914799809,0.0559032820165,0.0370626598597,,0.00745219279687,-0.00996937825668,0.0502977961318,-0.998656762824
1129336000000,,18987,,1129,328159845,"""map""",,,0.142259001732,0.0555622428656,0.0370260179043,,0.00744595992005,-0.00998185018417,0.0502833819096,-0.99865735288
1129372000000,,18988,,1129,368159845,"""map""",,,0.142544001341,0.0551775358617,0.0370075851679,,0.00747040147019,-0.00998892789127,0.0502398442151,-0.998659333781
1129404000000,,18989,,1129,400159359,"""map""",,,0.142670631409,0.0549021922052,0.0370034538209,,0.00744621856341,-0.0100063146187,0.0502347865933,-0.998659586663
1129436000000,,18990,,1129,432159359,"""map""",,,0.142727598548,0.0546479336917,0.0370295494795,,0.00738932682105,-0.0099921230669,0.0502405607115,-0.998659797397
1129472000000,,18991,,1129,464159359,"""map""",,,0.142703860998,0.0544103682041,0.0369751825929,,0.00739888312504,-0.00979366327079,0.0502366410546,-0.998661946886
1129504000000,,18992,,1129,504158873,"""map""",,,0.142608508468,0.0541288256645,0.0371645949781,,0.00736280550503,-0.00984979357107,0.0502105100085,-0.99866295841
1129536000000,,18993,,1129,528158873,"""map""",,,0.142549261451,0.0539752580225,0.0373137257993,,0.0073900648848,-0.00988918416386,0.0502114372392,-0.998662368355
1129572000000,,18994,,1129,568158873,"""map""",,,0.142402499914,0.0537255853415,0.0377427563071,,0.00731825373429,-0.00994793110842,0.0501936512691,-0.998663211292
1129604000000,,18995,,1129,600158388,"""map""",,,0.142903283238,0.0536195449531,0.038063455373,,0.0073465659621,-0.00994512299232,0.0501519258891,-0.998665065753
1129636000000,,18996,,1129,632158388,"""map""",,,0.143355622888,0.0535611249506,0.0384009890258,,0.00730548414469,-0.00991428516401,0.0501286186819,-0.998666878067
1129672000000,,18997,,1129,664158388,"""map""",,,0.143721073866,0.0535508915782,0.0387154966593,,0.00729219570434,-0.00993399968167,0.0501386496318,-0.998666288011
1129704000000,,18998,,1129,696157902,"""map""",,,0.144046753645,0.0535590574145,0.0389736555517,,0.00732504201108,-0.0099694576113,0.0500834372603,-0.998668395354
1129736000000,,18999,,1129,728157902,"""map""",,,0.144307181239,0.0535570681095,0.0393308587372,,0.00733423216433,-0.00997618052754,0.0500601300531,-0.998669449025
1129772000000,,19000,,1129,768157902,"""map""",,,0.144541472197,0.0535395368934,0.0398627109826,,0.00730085482376,-0.00997846929898,0.0500264125742,-0.99867138778
1129804000000,,19001,,1129,800157416,"""map""",,,0.145086377859,0.0535376928747,0.0399965383112,,0.00732414079292,-0.0100404042575,0.0500204698686,-0.998670924165
1129836000000,,19002,,1129,832157416,"""map""",,,0.145569965243,0.053539108485,0.0402250699699,,0.00734844001513,-0.0100622123705,0.050003105367,-0.998671345633
1129872000000,,19003,,1129,864157416,"""map""",,,0.146006926894,0.0535487607121,0.040466889739,,0.00737048915539,-0.0100982099773,0.0499982163326,-0.998671092752
1129904000000,,19004,,1129,896156931,"""map""",,,0.146401226521,0.053550068289,0.0407913774252,,0.0073629238784,-0.0101254749547,0.0500134734918,-0.998670081228
1129936000000,,19005,,1129,928156931,"""map""",,,0.146743670106,0.0535712316632,0.0412055999041,,0.00737025067996,-0.0101570905241,0.0500174352955,-0.998669491172
1129972000000,,19006,,1129,968156931,"""map""",,,0.147100523114,0.0535974986851,0.041822463274,,0.00732962622172,-0.0101520686283,0.0500035689824,-0.998670544843
1130004000000,,19007,,1130,156445,"""map""",,,0.147672176361,0.0536460056901,0.042563509196,,0.00729680255244,-0.0101486591788,0.0500161708901,-0.998670249815
1130036000000,,19008,,1130,32156445,"""map""",,,0.148181989789,0.0537098310888,0.0433060526848,,0.00727702004006,-0.0101946003961,0.0500010823183,-0.998670671284
1130072000000,,19009,,1130,64156445,"""map""",,,0.148590624332,0.0537801608443,0.0440340042114,,0.00727217628057,-0.0101934290101,0.0500809084494,-0.99866670948
1130104000000,,19010,,1130,96155960,"""map""",,,0.148947522044,0.0538666956127,0.04471013695,,0.00722755215225,-0.0102023705627,0.0500939739724,-0.998666288011
1130136000000,,19011,,1130,128155960,"""map""",,,0.149269536138,0.053950406611,0.0453128293157,,0.00719497724817,-0.0101767274981,0.0500911501336,-0.998666920214
1130172000000,,19012,,1130,168155960,"""map""",,,0.149660125375,0.0540874376893,0.0460924878716,,0.00723466887812,-0.0101927079038,0.0501432014915,-0.998663843494
1130204000000,,19013,,1130,200155474,"""map""",,,0.150262996554,0.0541934892535,0.0463886521757,,0.00723920262778,-0.0102341958785,0.0501713555863,-0.998661989033
1130236000000,,19014,,1130,232155474,"""map""",,,0.150833457708,0.0543220154941,0.0466757193208,,0.00727987104387,-0.0102383664409,0.0501888043816,-0.998660808921
1130272000000,,19015,,1130,264155474,"""map""",,,0.151331871748,0.0544656179845,0.0469167530537,,0.00726884453927,-0.0102608094731,0.0501966436954,-0.998660218865
1130304000000,,19016,,1130,296154989,"""map""",,,0.15178874135,0.0546128042042,0.0471111163497,,0.00728036989134,-0.0103025406154,0.0501945784998,-0.998659839544
1130336000000,,19017,,1130,328154989,"""map""",,,0.152238056064,0.0547782108188,0.0473944582045,,0.00732750883649,-0.0102686529028,0.0501958850521,-0.998659713103
1130372000000,,19018,,1130,368154989,"""map""",,,0.152791500092,0.0550416857004,0.0478208996356,,0.00735556596062,-0.0103165246434,0.0501818501516,-0.99865975525
1130404000000,,19019,,1130,400154504,"""map""",,,0.152996137738,0.0553623959422,0.0475761145353,,0.00733866260482,-0.0103248708719,0.0501658343491,-0.998660598187
1130436000000,,19020,,1130,432154504,"""map""",,,0.153177425265,0.0556998513639,0.0473522432148,,0.00734450175434,-0.0103405727132,0.0501937777097,-0.99865895446
1130472000000,,19021,,1130,464154504,"""map""",,,0.153333827853,0.0560357347131,0.0472095124424,,0.00733040231642,-0.0103333563825,0.0501977395134,-0.99865895446
1130504000000,,19022,,1130,496154018,"""map""",,,0.153452336788,0.0563452318311,0.0472144261003,,0.00737364201954,-0.0103023879977,0.0502365146141,-0.998657015705
1130536000000,,19023,,1130,528154018,"""map""",,,0.153536230326,0.0566395148635,0.0473561063409,,0.00741308060377,-0.0102999793712,0.0502352080618,-0.998656804971
1130572000000,,19024,,1130,568154018,"""map""",,,0.153598487377,0.0570491105318,0.0476991720498,,0.00740038617056,-0.010251945464,0.0502766805607,-0.998655287684
1130604000000,,19025,,1130,600153533,"""map""",,,0.153699830174,0.057294908911,0.0479456856847,,0.00738217543928,-0.0102458624884,0.050279672987,-0.998655414125
1130636000000,,19026,,1130,632153533,"""map""",,,0.153816595674,0.0575591884553,0.0482269488275,,0.0073569854533,-0.0102457788533,0.0503181109128,-0.998653643957
1130672000000,,19027,,1130,664153533,"""map""",,,0.1539452672,0.0578473210335,0.0484516993165,,0.00733216392298,-0.0102240017742,0.0503349275053,-0.998653180342
1130704000000,,19028,,1130,696153048,"""map""",,,0.154039084911,0.0581377111375,0.0486134625971,,0.00737096001472,-0.00999292517411,0.0503627022785,-0.998653812544
1130736000000,,19029,,1130,728153048,"""map""",,,0.15415725112,0.05844745785,0.0488700978458,,0.00735869355312,-0.00997511722512,0.0503524605943,-0.998654613334
1130772000000,,19030,,1130,768153048,"""map""",,,0.154249086976,0.0588335283101,0.0491007529199,,0.00735514440981,-0.0100411253637,0.050318321647,-0.998655709152
1130804000000,,19031,,1130,800152563,"""map""",,,0.154562905431,0.0592469722033,0.0492875501513,,0.00734062333878,-0.0100417340235,0.0503092600746,-0.998656257062
1130836000000,,19032,,1130,832152563,"""map""",,,0.154863327742,0.0596465170383,0.0494237691164,,0.00735126434789,-0.0100211568949,0.0502521932417,-0.998659291635
1130872000000,,19033,,1130,864152563,"""map""",,,0.155173063278,0.0600131712854,0.0496653020382,,0.00738912366006,-0.0100807582186,0.0502672396666,-0.998657647908
1130904000000,,19034,,1130,896152078,"""map""",,,0.15546746552,0.060349944979,0.049937531352,,0.00741297852937,-0.0101119155233,0.0503223677445,-0.998654360453
1130936000000,,19035,,1130,928152078,"""map""",,,0.155744031072,0.0606802888215,0.0502391792834,,0.00742612464179,-0.010087111856,0.0503786337873,-0.998651620908
1130972000000,,19036,,1130,968152078,"""map""",,,0.156136333942,0.0610836260021,0.0507655628026,,0.00743100149314,-0.0100309752172,0.0503817105072,-0.998652084524
1131000000000,,19037,,1131,151593,"""map""",,,0.156579971313,0.0613575354218,0.0511655025184,,0.00742068325316,-0.010075143962,0.0504384823121,-0.998648839216
1131036000000,,19038,,1131,32151593,"""map""",,,0.157017856836,0.0616354197264,0.0514729246497,,0.00744154413217,-0.0100795277282,0.0504665099664,-0.998647195489
1131072000000,,19039,,1131,72151593,"""map""",,,0.157523363829,0.0619995743036,0.0517674200237,,0.00744652371647,-0.0101213930489,0.0505030512841,-0.998644877412
1131104000000,,19040,,1131,96151108,"""map""",,,0.157822966576,0.0622237287462,0.0519779287279,,0.00746794435832,-0.0101581811561,0.0504548774362,-0.998646774021
1131136000000,,19041,,1131,128151108,"""map""",,,0.158236309886,0.0625712126493,0.0523179210722,,0.00751023246462,-0.0101723263629,0.0504538659118,-0.998646352552
1131172000000,,19042,,1131,168151108,"""map""",,,0.158759459853,0.0630497783422,0.0527651160955,,0.00747812619727,-0.0100913513186,0.0504904915232,-0.998645551762
1131204000000,,19043,,1131,200150624,"""map""",,,0.159059166908,0.0631433799863,0.0526173040271,,0.00749546921384,-0.0100878443221,0.0504316545227,-0.998648417748
1131236000000,,19044,,1131,232150624,"""map""",,,0.159357279539,0.063265055418,0.0524783730507,,0.00748312430313,-0.010106301843,0.0504581227435,-0.998647069049
1131272000000,,19045,,1131,264150624,"""map""",,,0.159637257457,0.0634184330702,0.0522557608783,,0.00750837726243,-0.0100858154288,0.0504569426318,-0.998647153342
1131304000000,,19046,,1131,296150139,"""map""",,,0.159904360771,0.0636165961623,0.0519798360765,,0.00752769541861,-0.00987809032308,0.050432961075,-0.998650230062
1131336000000,,19047,,1131,328150139,"""map""",,,0.160182952881,0.0638292506337,0.0520008616149,,0.00751954642424,-0.00987657583535,0.0504540766461,-0.998649260685
1131372000000,,19048,,1131,368150139,"""map""",,,0.160529524088,0.0641102939844,0.0521751716733,,0.00757256625416,-0.0098972550384,0.0504782689371,-0.998647406223
1131404000000,,19049,,1131,400149655,"""map""",,,0.160791531205,0.064215682447,0.0513879135251,,0.0076053022547,-0.00996913278422,0.0504772995596,-0.998646521139
1131436000000,,19050,,1131,432149655,"""map""",,,0.161052763462,0.0643254071474,0.0507291592658,,0.00759567869685,-0.00998141159352,0.0504735906369,-0.998646689727
1131472000000,,19051,,1131,464149655,"""map""",,,0.161307513714,0.0644772425294,0.050157610327,,0.00758334020695,-0.0100067589716,0.0505045685706,-0.998644877412
1131504000000,,19052,,1131,496149170,"""map""",,,0.161570340395,0.0646854639053,0.0495606847107,,0.00756417186964,-0.0100147847359,0.0505176762405,-0.998644329503
1131536000000,,19053,,1131,528149170,"""map""",,,0.161854222417,0.0649273395538,0.049129690975,,0.0075715232843,-0.0100366410872,0.0505299831203,-0.998643402273
1131572000000,,19054,,1131,568149170,"""map""",,,0.162188455462,0.0652794167399,0.0489371828735,,0.00753406025128,-0.0100495799228,0.0505223966875,-0.998643992329
1131604000000,,19055,,1131,600148686,"""map""",,,0.162642717361,0.0655096769333,0.0486154444516,,0.00757373171331,-0.0100584208005,0.0505034306057,-0.998644498091
1131636000000,,19056,,1131,632148686,"""map""",,,0.163131788373,0.0657610744238,0.0482585281134,,0.00760879608027,-0.0100695230377,0.05053533577,-0.998642517189
1131672000000,,19057,,1131,664148686,"""map""",,,0.163650631905,0.0660277456045,0.0479086041451,,0.00760533633438,-0.0101319053949,0.0505402669513,-0.998641716399
1131704000000,,19058,,1131,696148202,"""map""",,,0.164201423526,0.0663377642632,0.0476166792214,,0.00767495922381,-0.0102184550184,0.0505223123938,-0.998641210637
1131736000000,,19059,,1131,728148202,"""map""",,,0.164769575,0.0666523426771,0.0474336072803,,0.00770591114496,-0.0102146878146,0.0505201629046,-0.998641084196
1131772000000,,19060,,1131,768148202,"""map""",,,0.165471374989,0.0670769810677,0.047448463738,,0.00765493420241,-0.0101785156111,0.0505215537506,-0.998641800692
1131804000000,,19061,,1131,800147718,"""map""",,,0.165706366301,0.0672726929188,0.0470411367714,,0.00764036958512,-0.0102094213518,0.0505240825615,-0.998641463518
1131832000000,,19062,,1131,828147718,"""map""",,,0.165845528245,0.0674411058426,0.0464244112372,,0.00764983410447,-0.0099589848603,0.050543132937,-0.998642980804
1131872000000,,19063,,1131,868147718,"""map""",,,0.166143521667,0.0677742063999,0.0456114783883,,0.00764829821404,-0.00997523922049,0.0506070697062,-0.998639566909
1131900000000,,19064,,1131,900159234,"""map""",,,0.166466146708,0.0680947229266,0.0451205894351,,0.00759215696546,-0.0100238216952,0.0506169320687,-0.998638976854
1131936000000,,19065,,1131,932159234,"""map""",,,0.166832670569,0.0684358030558,0.044709507376,,0.0076344087695,-0.00999365813415,0.0506197559076,-0.998638850413
1131972000000,,19066,,1131,964159234,"""map""",,,0.16724409163,0.06880864501,0.0443332903087,,0.00758789840508,-0.0100014500328,0.0505608767602,-0.99864209572
1132004000000,,19067,,1132,4158750,"""map""",,,0.167706936598,0.0691024437547,0.0439233928919,,0.00753994220619,-0.0100145112753,0.0504614101977,-0.998647406223
1132036000000,,19068,,1132,28158750,"""map""",,,0.168007224798,0.0692513212562,0.0436704233289,,0.00755914363537,-0.0100613500064,0.0504856867825,-0.998645551762
1132072000000,,19069,,1132,68158750,"""map""",,,0.168547287583,0.0694910958409,0.0434095710516,,0.00752788376234,-0.010111498253,0.0504525172127,-0.998646942608
1132104000000,,19070,,1132,100158266,"""map""",,,0.16903270781,0.0696941018105,0.0432517789304,,0.0075030097131,-0.0101197361509,0.0504779739092,-0.998645762496
1132136000000,,19071,,1132,132158266,"""map""",,,0.169569119811,0.0698877796531,0.0431691370904,,0.00754163236067,-0.0100906281544,0.0505013232633,-0.998644582384
1132172000000,,19072,,1132,164158266,"""map""",,,0.170144572854,0.0700909122825,0.0431368611753,,0.00750623477019,-0.0101497649573,0.0504655827357,-0.998646015377
1132204000000,,19073,,1132,196157782,"""map""",,,0.170506864786,0.0700041130185,0.0430264919996,,0.00748286771773,-0.0101686486388,0.0504975721938,-0.998644455944
1132236000000,,19074,,1132,228157782,"""map""",,,0.170917972922,0.0699791163206,0.0429290793836,,0.00746753433204,-0.0101919978282,0.0504875412438,-0.998644793119
1132272000000,,19075,,1132,268157782,"""map""",,,0.171500861645,0.0700478553772,0.0429162271321,,0.00745874572631,-0.0102310096756,0.050458544212,-0.998645888937
1132304000000,,19076,,1132,300157299,"""map""",,,0.172016844153,0.070124424994,0.0428969115019,,0.00741579833463,-0.010163648228,0.0505175919468,-0.998643908035
1132336000000,,19077,,1132,332157299,"""map""",,,0.172552034259,0.0702508166432,0.0428761690855,,0.00737962506104,-0.0101711866693,0.0505596123548,-0.998642011427
1132372000000,,19078,,1132,364157299,"""map""",,,0.173116028309,0.0703745037317,0.042775567621,,0.00737126714341,-0.0101485007988,0.0505760496257,-0.998641505665
