rosbagTimestamp,header,seq,stamp,secs,nsecs,frame_id,pose,position,x,y,z,orientation,x,y,z,w
99948000000,,110,,99,948000000,"""map""",,,0.0264463853091,0.010611211881,0.0358235314488,,0.00921060911917,-0.0130330381903,0.0428813837867,-0.998952717994
99980000000,,111,,99,980000000,"""map""",,,0.0253380425274,0.00990360230207,0.0358719564974,,0.00911106204962,-0.0129390719561,0.0427642155479,-0.998959882958
100016000000,,112,,100,16000000,"""map""",,,0.0243064127862,0.00911543518305,0.0359656438231,,0.00910561901462,-0.0129182416994,0.0426230236054,-0.998966204985
100048000000,,113,,100,48000000,"""map""",,,0.0237425379455,0.00853373948485,0.0359604805708,,0.00910905645232,-0.0128957051539,0.0425941108673,-0.998967722272
100080000000,,114,,100,80000000,"""map""",,,0.0233975984156,0.00799425784498,0.0360280945897,,0.00899924975324,-0.01283281119,0.0425017671222,-0.998973412097
100116000000,,115,,100,116000000,"""map""",,,0.0232276655734,0.00750803435221,0.0363161824644,,0.00898384343375,-0.0127340825266,0.0423634833122,-0.998980787795
100148000000,,116,,100,148000000,"""map""",,,0.0225104708225,0.00696119805798,0.0364209152758,,0.00897451432761,-0.0126965680448,0.042292339432,-0.99898432813
100180000000,,117,,100,180000000,"""map""",,,0.0217586457729,0.00640627834946,0.0365636385977,,0.00897966628593,-0.0126528938669,0.0421755505147,-0.998989765074
100216000000,,118,,100,216000000,"""map""",,,0.0211095418781,0.00572999659926,0.0369394235313,,0.00897742789315,-0.012540718054,0.0420166568958,-0.998997857269
100248000000,,119,,100,248000000,"""map""",,,0.0208120979369,0.00520634418353,0.0374353118241,,0.00902227279851,-0.0125374957957,0.0419334590169,-0.999001060429
100280000000,,120,,100,280000000,"""map""",,,0.0206921063364,0.00472568580881,0.0376896262169,,0.0089563841034,-0.0125484131466,0.0417675268743,-0.999008436128
100316000000,,121,,100,316000000,"""map""",,,0.020725293085,0.0043084830977,0.0378730669618,,0.00896634491835,-0.0125154994213,0.0415543902614,-0.999017666287
100348000000,,122,,100,348000000,"""map""",,,0.0200832951814,0.00369714619592,0.0380628891289,,0.00890334476409,-0.0124651640658,0.0415171745941,-0.999020405833
100380000000,,123,,100,380000000,"""map""",,,0.0193797629327,0.0030432078056,0.0383657328784,,0.00885147450592,-0.0124392549492,0.041398404775,-0.999026137804
100416000000,,124,,100,416000000,"""map""",,,0.0187405515462,0.00224937498569,0.0386539958417,,0.00885445540763,-0.0123549675083,0.041278496991,-0.99903208051
100448000000,,125,,100,448000000,"""map""",,,0.0184177085757,0.0016272268258,0.039073061198,,0.00884495293966,-0.0123853655936,0.0411928545949,-0.999035367964
100476000000,,126,,100,476000000,"""map""",,,0.0182572901249,0.0010236176895,0.0394865944982,,0.00887374615191,-0.0121550854207,0.0410949896126,-0.999041942872
100516000000,,127,,100,516000000,"""map""",,,0.0182723198086,0.000475446489872,0.0400321707129,,0.00884334790205,-0.0120721692342,0.0410396929474,-0.999045483208
100548000000,,128,,100,548000000,"""map""",,,0.0176870841533,0.000273482291959,0.0399762503803,,0.00883250085083,-0.0120831374576,0.0409750396817,-0.999048096312
100572000000,,129,,100,576000000,"""map""",,,0.0170567613095,0.000197957386263,0.0397167950869,,0.00880937490798,-0.0120503779964,0.0408190963423,-0.999055092689
100616000000,,130,,100,616000000,"""map""",,,0.0165584068745,0.000108271102363,0.039439547807,,0.00882074945335,-0.0120234104342,0.0406729732185,-0.999061288276
100648000000,,131,,100,648000000,"""map""",,,0.0163466855884,4.08103514928e-05,0.0392250046134,,0.00877844159071,-0.0120229682215,0.0406006070796,-0.999064617877
100680000000,,132,,100,680000000,"""map""",,,0.0162865091115,-5.44386712136e-05,0.0391871631145,,0.00873851617746,-0.0120342588025,0.0404865998544,-0.999069380471
100716000000,,133,,100,716000000,"""map""",,,0.0163757558912,-0.000178833128302,0.0392565838993,,0.0087587300365,-0.0119875055998,0.0403619294765,-0.999074859561
100748000000,,134,,100,748000000,"""map""",,,0.015513446182,-0.000356724893209,0.0391299650073,,0.00877916780067,-0.0119898310851,0.0403153572089,-0.999076503288
100780000000,,135,,100,780000000,"""map""",,,0.014482146129,-0.000542081543244,0.0388450138271,,0.00880735762151,-0.0118466172463,0.0401685597355,-0.999083878986
100816000000,,136,,100,816000000,"""map""",,,0.0134869953617,-0.000766429468058,0.0385371036828,,0.00878126230147,-0.0117353691579,0.0400491577137,-0.999090243161
100848000000,,137,,100,848000000,"""map""",,,0.0128954853863,-0.000922143168282,0.0385010279715,,0.00879417339583,-0.0117384211824,0.0399697109042,-0.999093235587
100880000000,,138,,100,880000000,"""map""",,,0.0124950790778,-0.00108818092849,0.038623675704,,0.00880848768389,-0.0117339350126,0.0398211011164,-0.999099136146
100916000000,,139,,100,916000000,"""map""",,,0.0122001832351,-0.00124355521984,0.0388696976006,,0.0087985563388,-0.0116827099634,0.0396947027177,-0.99910482597
100948000000,,140,,100,948000000,"""map""",,,0.0115335136652,-0.00132750766352,0.0396062210202,,0.00882033012514,-0.0116486134923,0.0396533988061,-0.999106680432
100980000000,,141,,100,980000000,"""map""",,,0.0108381183818,-0.00141765398439,0.0404637642205,,0.00873677399797,-0.0115788407016,0.0395239658344,-0.99911338178
101016000000,,142,,101,16000000,"""map""",,,0.0102001428604,-0.00153378234245,0.0414827018976,,0.00870576346636,-0.0115512183815,0.0394096635812,-0.999118439402
101048000000,,143,,101,48000000,"""map""",,,0.00983935687691,-0.00162954942789,0.0423227958381,,0.00868724371307,-0.0115230934273,0.0393775898295,-0.999120167423
101080000000,,144,,101,80000000,"""map""",,,0.00961206760257,-0.00176975189243,0.0432166792452,,0.00868536998931,-0.0115165693915,0.0392535095075,-0.999125225045
101116000000,,145,,101,116000000,"""map""",,,0.00951026100665,-0.00194211525377,0.0440829582512,,0.0087019356764,-0.0114872318922,0.039106459153,-0.999131167751
101148000000,,146,,101,148000000,"""map""",,,0.00947394315153,-0.00207792851143,0.0446019358933,,0.00869918559454,-0.01151559277,0.039035230979,-0.999133612268
101180000000,,147,,101,180000000,"""map""",,,0.00957991555333,-0.00221652654,0.0451486334205,,0.00869735731035,-0.0115342508176,0.0388763373601,-0.99913959712
101216000000,,148,,101,216000000,"""map""",,,0.00977475568652,-0.00232438882813,0.0456789322197,,0.00872245032565,-0.0115038499336,0.0386811553047,-0.999147309994
101248000000,,149,,101,248000000,"""map""",,,0.01006294135,-0.00243384228088,0.0462354458869,,0.00875901979608,-0.0115464098542,0.0386014134673,-0.999149585923
101280000000,,150,,101,280000000,"""map""",,,0.0104633532465,-0.00255353027023,0.0467607676983,,0.00877273456169,-0.0115049255837,0.0384755208308,-0.999154854279
101316000000,,151,,101,316000000,"""map""",,,0.0109404539689,-0.00268025952391,0.0472709722817,,0.00878082502792,-0.0114561515549,0.038311864618,-0.999161639922
101348000000,,152,,101,348000000,"""map""",,,0.0110170021653,-0.0028501576744,0.0471593663096,,0.00900944319904,-0.0114667878719,0.0382443875136,-0.999162019244
101380000000,,153,,101,380000000,"""map""",,,0.0110989836976,-0.00305374991149,0.0471396446228,,0.00898303572891,-0.0114519493824,0.0380691409175,-0.999169099914
101416000000,,154,,101,416000000,"""map""",,,0.0113724516705,-0.00332374288701,0.0472358167171,,0.00896514998934,-0.0113551772548,0.0378877830283,-0.99917731855
101448000000,,155,,101,448000000,"""map""",,,0.0116918655112,-0.00355633324943,0.0474093444645,,0.00896816241888,-0.0113901602092,0.0378200530428,-0.999179468039
101480000000,,156,,101,476000000,"""map""",,,0.0121139241382,-0.00379926734604,0.0475335270166,,0.00904066652285,-0.0114501262842,0.0377155710053,-0.999182038997
101516000000,,157,,101,516000000,"""map""",,,0.0126027381048,-0.00404853466898,0.0476450808346,,0.0089903312496,-0.0113775271029,0.0375684363572,-0.999188908933
101548000000,,158,,101,548000000,"""map""",,,0.0124598918483,-0.00403922563419,0.047406706959,,0.00898559154014,-0.0114095924582,0.0375535163728,-0.99918907752
101580000000,,159,,101,580000000,"""map""",,,0.012233206071,-0.00397712690756,0.0470495000482,,0.00890870317612,-0.0113427152878,0.0374376546862,-0.999194935932
101616000000,,160,,101,616000000,"""map""",,,0.0121399704367,-0.00393552938476,0.0466958880424,,0.00895033035069,-0.0113969656081,0.0373016468061,-0.999199024177
101648000000,,161,,101,648000000,"""map""",,,0.0122037129477,-0.00392426596954,0.0464815832675,,0.0089174446136,-0.0113491295936,0.0372262460941,-0.999202690952
101680000000,,162,,101,680000000,"""map""",,,0.0123753165826,-0.0039607626386,0.046384319663,,0.0089350361484,-0.0114003783504,0.0370848434173,-0.999207200665
101716000000,,163,,101,716000000,"""map""",,,0.012662421912,-0.00401853676885,0.0464530326426,,0.00886868235623,-0.0114105214175,0.0369541460401,-0.999212469021
101748000000,,164,,101,748000000,"""map""",,,0.0121602583677,-0.00396563624963,0.046347361058,,0.00889167568468,-0.0113772785023,0.0368515606108,-0.999216430825
101780000000,,165,,101,780000000,"""map""",,,0.0115290796384,-0.00386368692853,0.0461553074419,,0.00891048577378,-0.0113331565965,0.0366985254039,-0.999222373531
101816000000,,166,,101,816000000,"""map""",,,0.0109563628212,-0.00373795302585,0.0461237840354,,0.00885507946087,-0.0112025464765,0.0364959676499,-0.999231814425
101848000000,,167,,101,848000000,"""map""",,,0.0106626888737,-0.00364916934632,0.0460740141571,,0.0088214796969,-0.0111755219501,0.0364477516553,-0.999234174648
101880000000,,168,,101,880000000,"""map""",,,0.0104974564165,-0.0035911751911,0.0459995903075,,0.00885836279915,-0.0111074857414,0.0363449554917,-0.999238347186
101916000000,,169,,101,916000000,"""map""",,,0.0104448478669,-0.00355864479207,0.0458873994648,,0.00880244043431,-0.0110522234028,0.0362139630866,-0.999244163451
101948000000,,170,,101,948000000,"""map""",,,0.0104730967432,-0.0035485306289,0.045717086643,,0.0087880293402,-0.0110864395644,0.0361520493661,-0.999246228647
101980000000,,171,,101,980000000,"""map""",,,0.0105792116374,-0.00354237412103,0.0454828962684,,0.00879855238753,-0.0108730281738,0.035960955555,-0.999255332366
102016000000,,172,,102,16000000,"""map""",,,0.0108439493924,-0.00354240904562,0.0454064719379,,0.00883682995779,-0.0109096126261,0.0358199321998,-0.999259631345
102048000000,,173,,102,48000000,"""map""",,,0.010403665714,-0.00326039502397,0.0452193468809,,0.00885597483445,-0.0109204170366,0.0356990550383,-0.999263677442
102080000000,,174,,102,80000000,"""map""",,,0.00985318049788,-0.00291224545799,0.0449914000928,,0.00883607584201,-0.0109923028496,0.0355232605332,-0.999269367267
102116000000,,175,,102,116000000,"""map""",,,0.00938475411385,-0.00258764228784,0.0447401590645,,0.00883960333566,-0.0109337684502,0.0353966935471,-0.999274467035
102148000000,,176,,102,148000000,"""map""",,,0.00901281274855,-0.00228394428268,0.0445875301957,,0.00887577306958,-0.0109360906428,0.0353167831223,-0.999276911553
102180000000,,177,,102,180000000,"""map""",,,0.00875782966614,-0.00200836197473,0.0445101521909,,0.00894824531646,-0.0109877790604,0.0352386428652,-0.999278428839
102216000000,,178,,102,216000000,"""map""",,,0.00865425355732,-0.00171447626781,0.0443925000727,,0.00893827404711,-0.0110227170691,0.0350546297246,-0.999284666573
102248000000,,179,,102,248000000,"""map""",,,0.00814324431121,-0.00146972341463,0.0442571975291,,0.00891064843427,-0.0109805593546,0.0350071723731,-0.999287026796
102280000000,,180,,102,280000000,"""map""",,,0.00755939958617,-0.00121680472512,0.0440838448703,,0.00895113039995,-0.0109034702168,0.0348267417147,-0.999293812439
102316000000,,181,,102,316000000,"""map""",,,0.00709790084511,-0.000979225034826,0.0440600290895,,0.00891290806512,-0.0108736886116,0.0346581121738,-0.9993003452
102348000000,,182,,102,348000000,"""map""",,,0.00674697058275,-0.000745084544178,0.0440978594124,,0.00891211986966,-0.0108769331781,0.0346255748067,-0.999301441019
102376000000,,183,,102,376000000,"""map""",,,0.00648797070608,-0.000523285532836,0.0441419892013,,0.00891860834406,-0.0107991704316,0.0345617644781,-0.999304475592
102416000000,,184,,102,416000000,"""map""",,,0.00626220414415,-0.000220133922994,0.0441753789783,,0.00895268794003,-0.0107330750358,0.0345057934633,-0.999306751521
102448000000,,185,,102,448000000,"""map""",,,0.005625189282,0.000188581325347,0.0435846820474,,0.00892605302509,-0.0107391225323,0.0344593897831,-0.999308563836
102480000000,,186,,102,480000000,"""map""",,,0.004964933265,0.000609841197729,0.0428005084395,,0.0089343270606,-0.0107159140245,0.0343635057027,-0.999312062024
102516000000,,187,,102,516000000,"""map""",,,0.00441148271784,0.00102719897404,0.042097710073,,0.00891074342932,-0.0107225901841,0.0343073661005,-0.999314085073
102548000000,,188,,102,548000000,"""map""",,,0.00396944303066,0.00142817583401,0.0414919629693,,0.00895471658639,-0.0107256463245,0.0342756716704,-0.999314759423
102580000000,,189,,102,580000000,"""map""",,,0.00364079722203,0.00179359049071,0.040977627039,,0.00895941999358,-0.0106935790759,0.034188975603,-0.999318089024
102616000000,,190,,102,616000000,"""map""",,,0.00334374886006,0.00227799010463,0.0402842313051,,0.00900968669588,-0.0107532787697,0.0340720602452,-0.999320955009
102648000000,,191,,102,648000000,"""map""",,,0.00284858606756,0.00260829017498,0.0401699692011,,0.00902073402695,-0.0107588017355,0.0340031080011,-0.999323146645
102680000000,,192,,102,680000000,"""map""",,,0.00232792971656,0.00291019957513,0.040197737515,,0.00899327272097,-0.010748658833,0.0339400984625,-0.99932563331
102716000000,,193,,102,716000000,"""map""",,,0.00188254541717,0.00318101933226,0.0401911474764,,0.00894546313055,-0.0106715609695,0.0338605673594,-0.999329552966
102748000000,,194,,102,748000000,"""map""",,,0.00152965367306,0.00343261472881,0.0401365384459,,0.00893905269367,-0.0106654880367,0.0338410112217,-0.99933031161
102780000000,,195,,102,780000000,"""map""",,,0.00121614092495,0.00365829118527,0.0401335097849,,0.00897777799188,-0.0105947429874,0.0337202183539,-0.999334863469
102816000000,,196,,102,816000000,"""map""",,,0.000911206821911,0.00395336747169,0.040125977248,,0.00904278892948,-0.0105827751758,0.0336379477056,-0.999337139399
102848000000,,197,,102,848000000,"""map""",,,0.000470439670607,0.00422058487311,0.0399516113102,,0.00902207638761,-0.0105681278288,0.0336061268349,-0.999338614539
102880000000,,198,,102,880000000,"""map""",,,3.7049248931e-05,0.00449740700424,0.0397477596998,,0.00901719212763,-0.0104511207687,0.0334866826663,-0.999343840748
102916000000,,199,,102,916000000,"""map""",,,-0.000342958781403,0.00478959688917,0.0396277718246,,0.00911639333784,-0.0103990331497,0.0334594136553,-0.999344388657
102948000000,,200,,102,948000000,"""map""",,,-0.000664870836772,0.00503720389679,0.0396311730146,,0.00920683734666,-0.0104193774006,0.0334169717788,-0.999344852272
102980000000,,201,,102,980000000,"""map""",,,-0.000934195064474,0.00522354105487,0.0397204943001,,0.00920277647311,-0.0103854204997,0.0333182638596,-0.999348476901
103016000000,,202,,103,16000000,"""map""",,,-0.00118396955077,0.00543907936662,0.0397736281157,,0.0091682701403,-0.0103960071789,0.033258626069,-0.999350710684
103048000000,,203,,103,48000000,"""map""",,,-0.0014851167798,0.0052928281948,0.0394758284092,,0.0091178072329,-0.0103894440832,0.0331879036572,-0.99935357667
103080000000,,204,,103,80000000,"""map""",,,-0.00175815285183,0.005044081714,0.0390642471611,,0.00906728962515,-0.0103238760992,0.0331221124267,-0.999356906271
103116000000,,205,,103,116000000,"""map""",,,-0.00193238817155,0.0048157335259,0.0387529656291,,0.00903864083994,-0.0103343925199,0.0330395888973,-0.999359772257
103148000000,,206,,103,148000000,"""map""",,,-0.00207117665559,0.00461131427437,0.0385237820446,,0.00900087557615,-0.010303625691,0.0330455316029,-0.999360235872
103180000000,,207,,103,180000000,"""map""",,,-0.00217248126864,0.00445976108313,0.0383166000247,,0.00897075309181,-0.0103370962156,0.0330030054328,-0.999361542424
103216000000,,208,,103,216000000,"""map""",,,-0.00224426644854,0.00432575820014,0.0380616039038,,0.00892836649194,-0.0103277818032,0.0328822968586,-0.99936600999
103248000000,,209,,103,248000000,"""map""",,,-0.0025489742402,0.00414157472551,0.0376718603075,,0.00888683571182,-0.0103452599037,0.0328457133941,-0.999367442983
103280000000,,210,,103,280000000,"""map""",,,-0.00290052010678,0.00395919848233,0.0373006984591,,0.00891364966855,-0.0103838288799,0.0327202843729,-0.999370899025
103316000000,,211,,103,316000000,"""map""",,,-0.00318879727274,0.00380239053629,0.0369828529656,,0.00890006405999,-0.0103833413924,0.0325892498209,-0.999375324444
103348000000,,212,,103,348000000,"""map""",,,-0.00342247355729,0.00366402533837,0.0366695076227,,0.00887625841689,-0.0104015046261,0.0325507697482,-0.999376546703
103380000000,,213,,103,380000000,"""map""",,,-0.00359029602259,0.00357493269257,0.0364096798003,,0.00888512950532,-0.0104244741646,0.0324386591312,-0.99937991845
103416000000,,214,,103,416000000,"""map""",,,-0.00373666547239,0.00352470576763,0.0361214317381,,0.00884091128737,-0.0104052389851,0.0323320276045,-0.999383964548
103448000000,,215,,103,448000000,"""map""",,,-0.0038517084904,0.00334476213902,0.0355739295483,,0.00888367560368,-0.0104491154184,0.0323012182582,-0.999384090988
103480000000,,216,,103,480000000,"""map""",,,-0.00395240820944,0.00312036764808,0.0348434560001,,0.00884546586351,-0.0103569741758,0.0322452050965,-0.999387167708
103516000000,,217,,103,516000000,"""map""",,,-0.00397264026105,0.00289444345981,0.0340505205095,,0.00883405262864,-0.0102415293479,0.0321037181261,-0.99939302612
103548000000,,218,,103,548000000,"""map""",,,-0.00393042294309,0.00263860728592,0.0332293473184,,0.00883872105066,-0.0103022820544,0.0320329114206,-0.999394627701
103580000000,,219,,103,580000000,"""map""",,,-0.00385171966627,0.00237847445533,0.0324643291533,,0.00886602850418,-0.0103799413271,0.0319923661523,-0.999394880582
103616000000,,220,,103,616000000,"""map""",,,-0.00372892175801,0.00213659298606,0.031899381429,,0.00893515435714,-0.0103515556715,0.0319213065657,-0.99939690363
103648000000,,221,,103,648000000,"""map""",,,-0.00383933447301,0.00184513535351,0.0313945449889,,0.00895004610642,-0.0103617386629,0.0318675693339,-0.99939837877
103680000000,,222,,103,680000000,"""map""",,,-0.00410575419664,0.00150077289436,0.0309660024941,,0.00897256059069,-0.0103800262793,0.0317621179189,-0.999401329049
103716000000,,223,,103,716000000,"""map""",,,-0.00431063072756,0.00108617148362,0.0303966458887,,0.00895036475964,-0.0103862458206,0.0315504564457,-0.999408156839
103748000000,,224,,103,748000000,"""map""",,,-0.00442588562146,0.000750187493395,0.0299053527415,,0.00893489966505,-0.0104072940555,0.03150586508,-0.999409421244
103780000000,,225,,103,780000000,"""map""",,,-0.00452441861853,0.000379092991352,0.0294989738613,,0.00894428359502,-0.0103868610658,0.0313894133375,-0.999413256608
103816000000,,226,,103,816000000,"""map""",,,-0.00460423529148,-3.92364017898e-06,0.0290445480496,,0.00894375058556,-0.0104589264968,0.0312965216834,-0.999415448244
103848000000,,227,,103,848000000,"""map""",,,-0.00512041943148,-0.000298528640997,0.0287007782608,,0.00892145284474,-0.0103965459506,0.0312633521136,-0.999417344852
103880000000,,228,,103,880000000,"""map""",,,-0.00571391172707,-0.000548778276425,0.0284669008106,,0.00892555351908,-0.0104341851443,0.0311923346739,-0.999419072873
103916000000,,229,,103,916000000,"""map""",,,-0.00638828473166,-0.00086471188115,0.0279961638153,,0.00886720359454,-0.010385458366,0.0310969563557,-0.999423161117
103948000000,,230,,103,948000000,"""map""",,,-0.00686463760212,-0.00113379477989,0.0275471005589,,0.00884361173145,-0.0103841506612,0.0310621430588,-0.999424425522
103980000000,,231,,103,980000000,"""map""",,,-0.00729286530986,-0.00140609429218,0.0271408818662,,0.00883007971194,-0.0104023846885,0.0310211341752,-0.999425647781
104016000000,,232,,104,16000000,"""map""",,,-0.00770203908905,-0.00167174416129,0.0267746411264,,0.00878152555464,-0.0103481439994,0.0309777229213,-0.999427923711
104048000000,,233,,104,48000000,"""map""",,,-0.0081103881821,-0.00185882637743,0.0268716719002,,0.00876829514852,-0.0103522324907,0.0309230163119,-0.999429693879
104080000000,,234,,104,80000000,"""map""",,,-0.00846949964762,-0.0020092993509,0.0270290356129,,0.00877271052481,-0.0103068108649,0.0308271743784,-0.99943314992
104116000000,,235,,104,116000000,"""map""",,,-0.0088463164866,-0.00219473894686,0.0271377600729,,0.00881414713307,-0.0103012965425,0.0307787897963,-0.999434330032
104148000000,,236,,104,148000000,"""map""",,,-0.00907573848963,-0.00234695104882,0.0271657630801,,0.00882655765128,-0.010266362485,0.030776935335,-0.999434582913
104180000000,,237,,104,180000000,"""map""",,,-0.00927319936454,-0.00248420028947,0.0272994190454,,0.00886585003862,-0.0102610259696,0.0306974463787,-0.999436774549
104216000000,,238,,104,216000000,"""map""",,,-0.00942322984338,-0.00264092977159,0.0274288710207,,0.0087886577563,-0.0102830993937,0.0306685336406,-0.999438123248
104248000000,,239,,104,248000000,"""map""",,,-0.00965254753828,-0.00271325698122,0.0273256152868,,0.00879623793286,-0.0102645860612,0.0306623380539,-0.999438418276
104280000000,,240,,104,280000000,"""map""",,,-0.0098829343915,-0.00278881937265,0.0270929280668,,0.00875432387983,-0.0102065580826,0.0305971368792,-0.999441410702
104316000000,,241,,104,316000000,"""map""",,,-0.0101395668462,-0.00296148052439,0.0267140157521,,0.0088245079315,-0.0102057174506,0.0305412080112,-0.999442464374
104348000000,,242,,104,348000000,"""map""",,,-0.0103111099452,-0.00313505809754,0.0263304710388,,0.00879154839626,-0.0101511643232,0.0305271309638,-0.999443728779
104380000000,,243,,104,380000000,"""map""",,,-0.0104420837015,-0.00330743007362,0.026093699038,,0.00883837325684,-0.0101942689836,0.0304365152395,-0.999445667534
104416000000,,244,,104,416000000,"""map""",,,-0.0105533022434,-0.0034620128572,0.0258137416095,,0.00905954843446,-0.0101897773396,0.0303198949097,-0.999447311261
104448000000,,245,,104,448000000,"""map""",,,-0.0104832714424,-0.00351147307083,0.0255902912468,,0.00905778048941,-0.0102101504841,0.0302919094023,-0.999447901317
104480000000,,246,,104,480000000,"""map""",,,-0.010317498818,-0.00354677904397,0.0251958463341,,0.00907021096974,-0.0101516877426,0.0302486245889,-0.999449713632
104516000000,,247,,104,516000000,"""map""",,,-0.0100898733363,-0.00365527672693,0.0247160643339,,0.00907903888235,-0.0102048894543,0.0301465027749,-0.999452200296
104548000000,,248,,104,548000000,"""map""",,,-0.00988942105323,-0.00378765002824,0.0241868849844,,0.00911818033952,-0.0102100588229,0.030109750723,-0.999452874645
104580000000,,249,,104,580000000,"""map""",,,-0.00965549703687,-0.00392518239096,0.023686112836,,0.00909797516504,-0.0102125214913,0.0300469097719,-0.999454939841
104616000000,,250,,104,616000000,"""map""",,,-0.0094053670764,-0.0040551382117,0.0231813471764,,0.00909133720104,-0.0103106681659,0.0299939311833,-0.999455572044
104648000000,,251,,104,648000000,"""map""",,,-0.00897354912013,-0.00423737848178,0.022468097508,,0.00906553341042,-0.0102764192829,0.0299579799215,-0.999457215771
104680000000,,252,,104,680000000,"""map""",,,-0.00847871508449,-0.00442233262584,0.0216580722481,,0.00901170015455,-0.0103015452665,0.0299199213173,-0.999458606617
104716000000,,253,,104,716000000,"""map""",,,-0.00785567611456,-0.00463477522135,0.0206747297198,,0.00894486895877,-0.0103334314565,0.0298548465832,-0.999460798253
104748000000,,254,,104,748000000,"""map""",,,-0.00734654674307,-0.00481537124142,0.020058484748,,0.00894836480113,-0.0103077624206,0.0297818903885,-0.999463200623
104780000000,,255,,104,780000000,"""map""",,,-0.00684635853395,-0.00499766133726,0.0196911413223,,0.00887996643406,-0.0103361897702,0.029704129453,-0.999465855875
104816000000,,256,,104,816000000,"""map""",,,-0.00637435540557,-0.00518330605701,0.0195194110274,,0.00892205689469,-0.0103387512614,0.029689378056,-0.999465940168
104848000000,,257,,104,848000000,"""map""",,,-0.00598546443507,-0.00523542845622,0.0196356624365,,0.00889891152478,-0.0103287296957,0.0296650593244,-0.999466909546
104880000000,,258,,104,880000000,"""map""",,,-0.00563102122396,-0.00525529310107,0.0197869297117,,0.00899425411692,-0.0103333317694,0.0295317066957,-0.999469944119
104916000000,,259,,104,916000000,"""map""",,,-0.00518654240295,-0.00528232054785,0.0196681842208,,0.0089844363296,-0.0103021433073,0.0294729539889,-0.999472135755
104948000000,,260,,104,948000000,"""map""",,,-0.0048187780194,-0.00530110765249,0.0195879619569,,0.00895668756894,-0.0103239941433,0.0294277725673,-0.999473484454
104980000000,,261,,104,980000000,"""map""",,,-0.00446383655071,-0.00530344760045,0.0196004100144,,0.00901810540539,-0.0103053132113,0.0293729816642,-0.99947474886
105016000000,,262,,105,16000000,"""map""",,,-0.00410767924041,-0.00531917111948,0.0195350106806,,0.00901118661331,-0.0103059652938,0.0293335743609,-0.999475971118
105048000000,,263,,105,48000000,"""map""",,,-0.00384987844154,-0.00522484816611,0.0187584534287,,0.00900768360928,-0.0103299714225,0.0293530462049,-0.999475128181
105080000000,,264,,105,80000000,"""map""",,,-0.00360377086326,-0.00511407665908,0.0178016386926,,0.00902536602322,-0.0102463542154,0.0293625292458,-0.999475591797
105116000000,,265,,105,116000000,"""map""",,,-0.00330281537026,-0.00500623974949,0.0167544800788,,0.0089415314552,-0.0102703758199,0.0293832233484,-0.999475465356
105148000000,,266,,105,148000000,"""map""",,,-0.00301789632067,-0.00490793399513,0.0160408318043,,0.00920953898434,-0.0102854423304,0.0293618127494,-0.999473526601
105180000000,,267,,105,180000000,"""map""",,,-0.00268236664124,-0.00480916257948,0.0154372965917,,0.00919188134813,-0.0102857973682,0.0293617706025,-0.999473653042
105216000000,,268,,105,216000000,"""map""",,,-0.00235505541787,-0.00472042895854,0.0148624936119,,0.00913644799374,-0.0102853914167,0.0293250606975,-0.999475296769
105248000000,,269,,105,248000000,"""map""",,,-0.00242733838968,-0.00416343985125,0.0140677550808,,0.00911927352341,-0.0102806640138,0.0293084548391,-0.999475971118
105280000000,,270,,105,280000000,"""map""",,,-0.00251786387525,-0.00377505552024,0.0135819874704,,0.00905616940143,-0.0102964609325,0.0292670244871,-0.999477614845
105316000000,,271,,105,316000000,"""map""",,,-0.00260596862063,-0.00319601013325,0.0126663623378,,0.00911759600475,-0.0103084659931,0.0292283336801,-0.999478036314
105348000000,,272,,105,348000000,"""map""",,,-0.00262295384891,-0.00278761726804,0.011964824982,,0.00911946713549,-0.010275755223,0.0292076395775,-0.999479005691
105380000000,,273,,105,380000000,"""map""",,,-0.00260345102288,-0.00241346145049,0.0113619891927,,0.00909606386308,-0.0101940363527,0.0291567683314,-0.999481492355
105416000000,,274,,105,416000000,"""map""",,,-0.00255777407438,-0.00205997959711,0.0107471626252,,0.00910695602461,-0.0101504922374,0.0290991535894,-0.999483557551
105448000000,,275,,105,448000000,"""map""",,,-0.00256686750799,-0.00172701582778,0.0103099010885,,0.00909595256906,-0.0101784216039,0.029084528633,-0.999483768285
105480000000,,276,,105,480000000,"""map""",,,-0.00260173855349,-0.00141009187791,0.00994048081338,,0.00908619796086,-0.0101469750335,0.0290427189593,-0.999485454159
105516000000,,277,,105,516000000,"""map""",,,-0.00260533276014,-0.00107620854396,0.00939981266856,,0.00911159156056,-0.0101488952258,0.0289749889737,-0.999487097886
105548000000,,278,,105,548000000,"""map""",,,-0.00255405949429,-0.000815960403997,0.00872635934502,,0.00911490906084,-0.0101531641583,0.0289202402175,-0.999488573026
105580000000,,279,,105,580000000,"""map""",,,-0.00245900824666,-0.000591426272877,0.00818912405521,,0.00908788889736,-0.0101110885149,0.0288666294262,-0.999490848956
105616000000,,280,,105,616000000,"""map""",,,-0.00231127417646,-0.000393380236346,0.00763510772958,,0.00909401496648,-0.0100684224452,0.0288478319318,-0.999491776186
105648000000,,281,,105,648000000,"""map""",,,-0.00248585571535,-0.000114818962174,0.0064833778888,,0.0090675295823,-0.00998750317138,0.02883969759,-0.999492998445
105680000000,,282,,105,680000000,"""map""",,,-0.00269208522514,0.000191068524146,0.00522347306833,,0.00908619458582,-0.00998382927505,0.0287749178838,-0.999494810759
105716000000,,283,,105,716000000,"""map""",,,-0.00284569431096,0.000602956919465,0.0038379766047,,0.00909152097611,-0.00979110482538,0.0287135099256,-0.999498393242
105748000000,,284,,105,748000000,"""map""",,,-0.00290219997987,0.000897606194485,0.00298723974265,,0.00907540556882,-0.00981992223914,0.0287077358073,-0.999498435388
105780000000,,285,,105,780000000,"""map""",,,-0.00295130675659,0.00113209034316,0.00218887580559,,0.00907561506829,-0.00981196035372,0.0286861566209,-0.999499109738
105816000000,,286,,105,816000000,"""map""",,,-0.00298153283074,0.00134119438007,0.00134224817157,,0.00905515618954,-0.00982989042156,0.0286014836022,-0.999501596402
105848000000,,287,,105,848000000,"""map""",,,-0.00300626573153,0.0014993926743,0.000573808792979,,0.00905338528104,-0.00983235148471,0.028605150378,-0.999501469962
105880000000,,288,,105,880000000,"""map""",,,-0.00300152413547,0.00166144198738,-9.98037867248e-05,,0.00910407316371,-0.00985670211455,0.0285184964575,-0.999503240129
105916000000,,289,,105,916000000,"""map""",,,-0.00295696617104,0.00184594094753,-0.00075779017061,,0.00909733880525,-0.00989974334882,0.0284464253465,-0.999504926003
105948000000,,290,,105,948000000,"""map""",,,-0.00288323825225,0.00194138556253,-0.0012173143914,,0.00905304748887,-0.00991600964512,0.0284131293362,-0.999506106115
105980000000,,291,,105,980000000,"""map""",,,-0.00279990816489,0.00204064813443,-0.00176836468745,,0.00905907131896,-0.00999298086228,0.0283153486477,-0.99950804487
106016000000,,292,,106,16000000,"""map""",,,-0.00269624427892,0.00210418226197,-0.00225734710693,,0.00903003135831,-0.00999646007639,0.0282728646244,-0.999509477863
106048000000,,293,,106,48000000,"""map""",,,-0.00267723412253,0.00195562141016,-0.00213887216523,,0.00900489714283,-0.0100222159579,0.0282646881358,-0.999509730744
106080000000,,294,,106,80000000,"""map""",,,-0.00268624769524,0.00177568942308,-0.00197380129248,,0.00899259902994,-0.0100296816712,0.0281514817007,-0.999512933904
106116000000,,295,,106,116000000,"""map""",,,-0.00264567090198,0.00157931819558,-0.00181107828394,,0.00900212771622,-0.0100316709284,0.0281475198969,-0.999512933904
106148000000,,296,,106,148000000,"""map""",,,-0.00258131767623,0.00143971631769,-0.00175099936314,,0.00896911426265,-0.0100332757602,0.0281261935916,-0.999513776841
106180000000,,297,,106,180000000,"""map""",,,-0.00249249767512,0.00131854473148,-0.00165514426772,,0.00898271044908,-0.00997373424049,0.0281010740699,-0.999514956953
106216000000,,298,,106,216000000,"""map""",,,-0.00239236676134,0.00121927214786,-0.00152869627345,,0.00898937072128,-0.00991764098334,0.0280691267587,-0.999516389946
106248000000,,299,,106,248000000,"""map""",,,-0.00224558659829,0.00155048363376,-0.00119804160204,,0.00895595008141,-0.00991447420744,0.0280668508289,-0.999516811414
106280000000,,300,,106,276000000,"""map""",,,-0.00207246025093,0.00199756398797,-0.000835506245494,,0.00887654109712,-0.00982100867294,0.0279780052722,-0.999520941806
106316000000,,301,,106,316000000,"""map""",,,-0.00179683824535,0.00254107662477,-0.000425947248004,,0.00885612168988,-0.00988017157068,0.0279280612567,-0.999521911183
106348000000,,302,,106,348000000,"""map""",,,-0.00154227321036,0.0029470527079,-6.93482288625e-05,,0.00885617112187,-0.00982116264888,0.0279023516791,-0.999523175589
106380000000,,303,,106,380000000,"""map""",,,-0.00125691958237,0.00330550596118,0.00024315767223,,0.00889309357217,-0.00983789445383,0.0278865044641,-0.999523175589
106416000000,,304,,106,416000000,"""map""",,,-0.000972885929514,0.00362920248881,0.000483703042846,,0.00883750953456,-0.00978803629609,0.0278504267618,-0.999525114344
106448000000,,305,,106,448000000,"""map""",,,-0.000826800474897,0.00384687352926,0.000552014855202,,0.00880449270595,-0.00979668039246,0.0278666111516,-0.999524861462
106480000000,,306,,106,480000000,"""map""",,,-0.000701463373844,0.00402251118794,0.000551402627025,,0.00882061712707,-0.00973805087462,0.0278467178391,-0.999525872987
106516000000,,307,,106,516000000,"""map""",,,-0.000480070651975,0.00420325016603,0.000556841085199,,0.0088192034378,-0.00971033318902,0.027832008589,-0.999526589483
106548000000,,308,,106,548000000,"""map""",,,-0.000236186155234,0.00432514958084,0.000410633248976,,0.00882079839144,-0.00964823511726,0.0278457906084,-0.999526800217
106580000000,,309,,106,580000000,"""map""",,,6.1852944782e-05,0.00443234341219,0.000443264463684,,0.00879209198359,-0.00961217498984,0.0278120309828,-0.999528275357
106616000000,,310,,106,616000000,"""map""",,,0.000359226571163,0.0045640883036,0.000485225988086,,0.00875711697288,-0.00954971438932,0.0278252229463,-0.999528823266
106648000000,,311,,106,648000000,"""map""",,,0.00052318588132,0.00482383929193,0.000642068334855,,0.00898882281225,-0.00955231078336,0.0277702634559,-0.999528317504
106680000000,,312,,106,680000000,"""map""",,,0.000600374129135,0.00508631207049,0.000918013392948,,0.0090072269704,-0.00957333763617,0.0277457761369,-0.999528612532
106716000000,,313,,106,716000000,"""map""",,,0.000651242269669,0.0053919670172,0.00122781121172,,0.00898597267278,-0.00956652476686,0.0277034185542,-0.999530003378
106748000000,,314,,106,748000000,"""map""",,,0.000726465252228,0.00561377266422,0.00148877082393,,0.00898125992248,-0.00954096290904,0.0277093612598,-0.999530129819
106780000000,,315,,106,780000000,"""map""",,,0.000824395858217,0.00580856110901,0.001763094333,,0.00891386132887,-0.00951323869974,0.0276788890883,-0.999531857839
106816000000,,316,,106,816000000,"""map""",,,0.000925486267079,0.0059914952144,0.00208258954808,,0.00893171206268,-0.00953405111399,0.0276996253378,-0.999530930609
106848000000,,317,,106,848000000,"""map""",,,0.00104663788807,0.00618054578081,0.00247982353903,,0.00890962532364,-0.00950254945224,0.0276857168778,-0.999531857839
106880000000,,318,,106,880000000,"""map""",,,0.00124216335826,0.00637139938772,0.00294935726561,,0.00883729390239,-0.00951578440643,0.0276259104997,-0.999534007329
106916000000,,319,,106,916000000,"""map""",,,0.00154372106772,0.00662753405049,0.00349821383134,,0.00881190268991,-0.00948283647804,0.0276193777382,-0.999534723825
106948000000,,320,,106,948000000,"""map""",,,0.00168358988594,0.00676679145545,0.00412488123402,,0.00881827419034,-0.00948326115693,0.0275951433003,-0.999535356028
106980000000,,321,,106,980000000,"""map""",,,0.00180373981129,0.00688268430531,0.00466318707913,,0.00890143584936,-0.00948230692594,0.0276264162619,-0.999533754448
107016000000,,322,,107,16000000,"""map""",,,0.00191957177594,0.00698223477229,0.00517340237275,,0.00891683496602,-0.00942509550138,0.0276514514899,-0.999533501566
107048000000,,323,,107,48000000,"""map""",,,0.00203762948513,0.00707872724161,0.00559130357578,,0.00893630038922,-0.00942096099432,0.0276458881059,-0.999533501566
107080000000,,324,,107,80000000,"""map""",,,0.00218473281711,0.00716505153105,0.00583622697741,,0.00894480265157,-0.00931693685109,0.0275505940814,-0.999536999755
107116000000,,325,,107,116000000,"""map""",,,0.00240783253685,0.00726907281205,0.005948420614,,0.00892867561685,-0.00930082813214,0.0275653033316,-0.999536873314
107148000000,,326,,107,148000000,"""map""",,,0.00204359623604,0.00721949711442,0.00582588277757,,0.00893553058671,-0.00903228206279,0.0275801390223,-0.999538896363
107180000000,,327,,107,180000000,"""map""",,,0.00160954846069,0.0071489228867,0.00592427654192,,0.00902305371397,-0.00906423076308,0.02752012191,-0.999539486419
107216000000,,328,,107,216000000,"""map""",,,0.00122397020459,0.00707498332486,0.00589740741998,,0.00894765356277,-0.00912048307416,0.027444721198,-0.999541720202
107248000000,,329,,107,248000000,"""map""",,,0.00091318890918,0.00699445512146,0.00583074288443,,0.0089916448967,-0.00910290069209,0.0274712315657,-0.999540750824
107280000000,,330,,107,280000000,"""map""",,,0.000657064840198,0.00693650310859,0.00580665282905,,0.00903969877111,-0.00914970751988,0.0274322878777,-0.999540919412
107316000000,,331,,107,316000000,"""map""",,,0.00040536414599,0.00686180219054,0.00607719738036,,0.00907217487294,-0.00916493243094,0.0273643471579,-0.999542352405
107348000000,,332,,107,348000000,"""map""",,,0.000593007425778,0.0067697246559,0.00619194190949,,0.0090999387544,-0.00918901180732,0.0273466033347,-0.999542394551
107380000000,,333,,107,380000000,"""map""",,,0.000914810225368,0.00668141199276,0.00615777587518,,0.00909696993801,-0.00921141032088,0.0273626612839,-0.999541762349
107416000000,,334,,107,416000000,"""map""",,,0.00121137849055,0.00662505114451,0.00606805738062,,0.00902804251789,-0.00915872432671,0.0273427679714,-0.999543448223
107448000000,,335,,107,448000000,"""map""",,,0.00150424428284,0.00660339090973,0.00589518435299,,0.00901226526806,-0.0091766892614,0.0273226217779,-0.999543953985
107480000000,,336,,107,480000000,"""map""",,,0.00179374520667,0.00661007501185,0.00560117745772,,0.00894904931699,-0.00917663093905,0.0272935825992,-0.999545260537
107516000000,,337,,107,516000000,"""map""",,,0.00217966060154,0.00666853459552,0.00504666008055,,0.00899491458561,-0.00919022565405,0.0272881035089,-0.999544923362
107548000000,,338,,107,548000000,"""map""",,,0.00218126550317,0.00665266532451,0.00493324780837,,0.00901391409887,-0.00915745860932,0.0272658078261,-0.999545639859
107580000000,,339,,107,580000000,"""map""",,,0.00212087878026,0.00660562608391,0.00490849977359,,0.00897239395835,-0.009127072275,0.0272348298924,-0.999547199292
107616000000,,340,,107,616000000,"""map""",,,0.00209093093872,0.00658249808475,0.0048070945777,,0.00900421957256,-0.00916315577046,0.0272229444811,-0.999546862117
107648000000,,341,,107,648000000,"""map""",,,0.00209240918048,0.00655155070126,0.00461046444252,,0.00894147150707,-0.00916301810379,0.0271797439614,-0.999548590138
107680000000,,342,,107,680000000,"""map""",,,0.0021283859387,0.00653098756447,0.00438440032303,,0.00896632821808,-0.00917146267146,0.0271151749895,-0.999550023131
107716000000,,343,,107,716000000,"""map""",,,0.00219662627205,0.00653068395332,0.00403609778732,,0.00900087188213,-0.00916689200215,0.0270700357147,-0.999550992509
107748000000,,344,,107,748000000,"""map""",,,0.00220926245674,0.00647639203817,0.00348946545273,,0.00902261156821,-0.00922064390719,0.0270445368714,-0.999551034655
107780000000,,345,,107,780000000,"""map""",,,0.00221803667955,0.00641720648855,0.0028671848122,,0.00903130618215,-0.00916744090414,0.0269607489365,-0.99955364776
107816000000,,346,,107,816000000,"""map""",,,0.00228896993212,0.00635637994856,0.00195956416428,,0.0090479580717,-0.00922881863626,0.0268805434838,-0.9995551229
107848000000,,347,,107,848000000,"""map""",,,0.0023452101741,0.00635597901419,0.00128818594385,,0.00905878682259,-0.00917494873341,0.0268711868835,-0.999555797249
107880000000,,348,,107,880000000,"""map""",,,0.00242558098398,0.00637421989813,0.000337342353305,,0.00908212969412,-0.00918849225686,0.0268416840895,-0.999556218718
107916000000,,349,,107,916000000,"""map""",,,0.00258501432836,0.00638948287815,-0.000869803421665,,0.00915221022053,-0.00917507816828,0.0268058171214,-0.999556682333
107948000000,,350,,107,948000000,"""map""",,,0.00264054629952,0.00633422192186,-0.00148766417988,,0.00915149553124,-0.00918004968926,0.0267993686536,-0.999556808774
107980000000,,351,,107,980000000,"""map""",,,0.00269206264056,0.00622752634808,-0.00194244994782,,0.00916297715827,-0.00914445347944,0.0268108325964,-0.99955672448
108016000000,,352,,108,16000000,"""map""",,,0.00275308033451,0.00616378337145,-0.0022895175498,,0.00920203363233,-0.00913032686627,0.0268031197231,-0.999556682333
108048000000,,353,,108,48000000,"""map""",,,0.00283095287159,0.00611125817522,-0.00247807870619,,0.00920633974683,-0.00913651268288,0.0267749234815,-0.99955739883
108080000000,,354,,108,80000000,"""map""",,,0.00292086810805,0.00611169822514,-0.00263732625172,,0.00922286132431,-0.00911619525486,0.0267022623146,-0.999559337585
108116000000,,355,,108,116000000,"""map""",,,0.00311578158289,0.00613984605297,-0.00275576650165,,0.00917382117916,-0.00909137436507,0.0266777328488,-0.999560686284
108148000000,,356,,108,148000000,"""map""",,,0.00316274748184,0.00620578788221,-0.00280978973024,,0.00918209882381,-0.00910504864305,0.0266811467435,-0.999560391256
108180000000,,357,,108,180000000,"""map""",,,0.00316326366737,0.00628248183057,-0.00299976509996,,0.00917825715812,-0.00906002894043,0.0266875109176,-0.99956060199
108216000000,,358,,108,216000000,"""map""",,,0.00321725080721,0.00641074124724,-0.00327955279499,,0.00936201787552,-0.00905850197636,0.026631497756,-0.999560475549
108248000000,,359,,108,248000000,"""map""",,,0.00330660049804,0.00656594894826,-0.00345365982503,,0.00934645351564,-0.00905835346429,0.0266027536053,-0.99956140278
108280000000,,360,,108,280000000,"""map""",,,0.00343448016793,0.00674394145608,-0.00368504738435,,0.00931177974789,-0.00912141576869,0.0265607753442,-0.999562245717
108316000000,,361,,108,316000000,"""map""",,,0.00360904028639,0.0070100701414,-0.00389876053669,,0.0093085019455,-0.00918765701149,0.026515467482,-0.99956287792
108348000000,,362,,108,348000000,"""map""",,,0.0037039143499,0.0070030419156,-0.00392187666148,,0.00932069610611,-0.00916375261244,0.0264578105933,-0.9995644795
108388000000,,363,,108,384000000,"""map""",,,0.00379451783374,0.00694465171546,-0.003964306321,,0.00933206424611,-0.0091289337025,0.0264644697953,-0.999564563794
108416000000,,364,,108,416000000,"""map""",,,0.00387398852035,0.00689757335931,-0.00406419346109,,0.00938893314521,-0.00916277535811,0.0264407411196,-0.99956435306
108448000000,,365,,108,448000000,"""map""",,,0.00398505898193,0.00683468487114,-0.00427817646414,,0.00934900219607,-0.00914360193766,0.026400027264,-0.99956595464
108480000000,,366,,108,480000000,"""map""",,,0.00414269091561,0.00678006606176,-0.00474388943985,,0.00934435557805,-0.00918078328855,0.0263905020762,-0.999565870346
108516000000,,367,,108,516000000,"""map""",,,0.00438098050654,0.00671374751255,-0.00538429385051,,0.00921562291434,-0.00915364900394,0.0263176301751,-0.999569284241
108548000000,,368,,108,548000000,"""map""",,,0.00450646085665,0.00668127415702,-0.00508196977898,,0.00919315975988,-0.00917569332409,0.0263035109809,-0.999569663562
108580000000,,369,,108,580000000,"""map""",,,0.00460197450593,0.0066799428314,-0.00443827128038,,0.00914165533411,-0.00917025077207,0.0262682340687,-0.999571054408
108616000000,,370,,108,616000000,"""map""",,,0.00469091162086,0.00670044589788,-0.00380050158128,,0.00912986093574,-0.00919652393,0.0261587787031,-0.999573878247
108648000000,,371,,108,648000000,"""map""",,,0.00481405900791,0.00671342015266,-0.00318849436007,,0.00906540975326,-0.00920528990598,0.0260842630749,-0.999576322764
108680000000,,372,,108,680000000,"""map""",,,0.00495571736246,0.00675945775583,-0.00255457079038,,0.00908277906016,-0.00917424526382,0.0260719561951,-0.999576744233
108716000000,,373,,108,716000000,"""map""",,,0.00515384785831,0.00682714162394,-0.00165705743711,,0.00905405832896,-0.00913310364234,0.0260165752362,-0.999578851575
108748000000,,374,,108,748000000,"""map""",,,0.00536228390411,0.0068837525323,-0.00102412258275,,0.00903884395462,-0.00912864334097,0.026015521565,-0.99957906231
108780000000,,375,,108,780000000,"""map""",,,0.00554483663291,0.00694667454809,-0.000523101422004,,0.00904059906319,-0.00893077236083,0.0259820569673,-0.999581675414
108816000000,,376,,108,816000000,"""map""",,,0.00576411280781,0.0070184301585,-2.45313131018e-05,,0.00906844614249,-0.00892130262457,0.025986018771,-0.999581338239
108848000000,,377,,108,848000000,"""map""",,,0.00598829053342,0.00711463252082,0.0003502087784,,0.00907718982828,-0.00891277757555,0.0260003486995,-0.999581001065
108880000000,,378,,108,880000000,"""map""",,,0.00623456807807,0.00722066732123,0.000610977993347,,0.00904715295988,-0.00890967253305,0.0260133720757,-0.999580958918
108916000000,,379,,108,916000000,"""map""",,,0.00659389793873,0.0073444317095,0.000921199214645,,0.00901844630507,-0.00893291458553,0.0260188933129,-0.999580916771
108948000000,,380,,108,948000000,"""map""",,,0.00652975868434,0.0072453096509,0.00130334449932,,0.00900772819223,-0.00894018719351,0.0260470895545,-0.999580200275
108980000000,,381,,108,980000000,"""map""",,,0.00638503255323,0.0071074180305,0.00171377486549,,0.00903320442126,-0.00892375409766,0.0260333496819,-0.999580453156
109016000000,,382,,109,16000000,"""map""",,,0.00627476116642,0.00701697170734,0.00219279364683,,0.00906575900307,-0.00893082150471,0.0260127820198,-0.999580621743
109048000000,,383,,109,48000000,"""map""",,,0.00620080670342,0.00696749472991,0.00243929796852,,0.00908354422199,-0.00895506723047,0.0260157322992,-0.999580200275
109080000000,,384,,109,80000000,"""map""",,,0.0061739529483,0.00694402307272,0.00251384498551,,0.0091054190126,-0.00899290662167,0.025995754693,-0.999580200275
109116000000,,385,,109,116000000,"""map""",,,0.00620869547129,0.00696265790612,0.00239885505289,,0.00911888378339,-0.00900787911982,0.0259962604552,-0.9995798631
109148000000,,386,,109,148000000,"""map""",,,0.00618021469563,0.00680846394971,0.00240022316575,,0.00908189753145,-0.0089873520457,0.0260066707268,-0.999580158128
109180000000,,387,,109,180000000,"""map""",,,0.00617179600522,0.00663903029636,0.0024229104165,,0.00908600049011,-0.00902889280689,0.0259619950674,-0.999580916771
109216000000,,388,,109,216000000,"""map""",,,0.00622128508985,0.00648886850104,0.0024546503555,,0.00911649054004,-0.00896273862059,0.0259678956262,-0.999581085358
109248000000,,389,,109,248000000,"""map""",,,0.00628002500162,0.0064533315599,0.00252430466935,,0.00913956938152,-0.00893944641068,0.0259468222019,-0.999581591121
109280000000,,390,,109,280000000,"""map""",,,0.00639863498509,0.00645563099533,0.00256679742597,,0.00907211802203,-0.0089021654858,0.0259499832156,-0.999582476204
109316000000,,391,,109,316000000,"""map""",,,0.00661550927907,0.00656484998763,0.00265219458379,,0.00904465393781,-0.00889645209771,0.025903958857,-0.999583993491
109348000000,,392,,109,348000000,"""map""",,,0.00666223187,0.00660690432414,0.0029284527991,,0.00901893027354,-0.00889367790694,0.0258937171728,-0.999584457106
109380000000,,393,,109,380000000,"""map""",,,0.00672813411802,0.00663384981453,0.00321703404188,,0.00897335889584,-0.00886141459216,0.0258250599566,-0.99958694377
109416000000,,394,,109,416000000,"""map""",,,0.00681857345626,0.00668110884726,0.00344153004698,,0.0089469142308,-0.00886498273807,0.0258246806349,-0.999587154505
109448000000,,395,,109,448000000,"""map""",,,0.00692821573466,0.0067365556024,0.00357438321225,,0.00894733968914,-0.00889399817051,0.0257993082321,-0.999587575973
109480000000,,396,,109,480000000,"""map""",,,0.00704235862941,0.00681919185445,0.00370508083142,,0.00896762752639,-0.00891316241764,0.0257321261556,-0.999588924672
109516000000,,397,,109,516000000,"""map""",,,0.00721770199016,0.00697318278253,0.00386758195236,,0.00901983599347,-0.00887081894729,0.0257507550626,-0.99958841891
109548000000,,398,,109,548000000,"""map""",,,0.00741103990003,0.00696278875694,0.00416749063879,,0.00903072826818,-0.0089121202761,0.0257603223973,-0.999587702414
109580000000,,399,,109,580000000,"""map""",,,0.00764954928309,0.00694778561592,0.00451435847208,,0.00904790796057,-0.00884306834991,0.0257383217423,-0.999588713938
109616000000,,400,,109,616000000,"""map""",,,0.0079230312258,0.00700589548796,0.00478666694835,,0.00908063148992,-0.00882713638842,0.0256865654124,-0.99958989405
109648000000,,401,,109,648000000,"""map""",,,0.00823650881648,0.00711677130312,0.00491324579343,,0.00910137823495,-0.00880283086888,0.0256836994267,-0.999589978343
109680000000,,402,,109,680000000,"""map""",,,0.00857876241207,0.00727489730343,0.0049553909339,,0.00909481400735,-0.00879709085089,0.0256263375658,-0.999591537777
109716000000,,403,,109,716000000,"""map""",,,0.00902148801833,0.00751528283581,0.00494530750439,,0.00912640597202,-0.00859364379433,0.0256617830654,-0.999592085686
109748000000,,404,,109,748000000,"""map""",,,0.00890742987394,0.00761389778927,0.00524240126833,,0.0091322719778,-0.00857914822131,0.0256341347328,-0.999592928623
109780000000,,405,,109,780000000,"""map""",,,0.00866203103215,0.00774482358247,0.00558668654412,,0.00915952919673,-0.00856874315635,0.0256064442533,-0.999593476532
109816000000,,406,,109,816000000,"""map""",,,0.00846929475665,0.00790456775576,0.00586031517014,,0.00912837650182,-0.00859600912157,0.0255755084665,-0.999594235175
109848000000,,407,,109,848000000,"""map""",,,0.00835436210036,0.00809591729194,0.00619603088126,,0.00915670297065,-0.00860602574817,0.0256020188342,-0.999593265798
109880000000,,408,,109,880000000,"""map""",,,0.00829122774303,0.00834523234516,0.00644125184044,,0.00915461577557,-0.00864710404648,0.0255260702132,-0.999594867378
109916000000,,409,,109,916000000,"""map""",,,0.00822698045522,0.00872977171093,0.00672301370651,,0.00913886347326,-0.00871273450983,0.0254912569164,-0.999595288846
109948000000,,410,,109,948000000,"""map""",,,0.00809139851481,0.00909188576043,0.00708699319512,,0.00914720605914,-0.00869622992331,0.0254819846097,-0.999595626021
109980000000,,411,,109,980000000,"""map""",,,0.00791915599257,0.00951101724058,0.00750670069829,,0.00913393605803,-0.00865929249113,0.0253715177197,-0.999598871328
110016000000,,412,,110,16000000,"""map""",,,0.00776243349537,0.00993837974966,0.00775755615905,,0.00912495908799,-0.00869568335195,0.0253522987568,-0.99959912421
110048000000,,413,,110,48000000,"""map""",,,0.00759671349078,0.0103729972616,0.00788716040552,,0.009135697253,-0.0086984282272,0.0253509079108,-0.999599082063
110080000000,,414,,110,80000000,"""map""",,,0.00746559957042,0.0108409300447,0.00802514702082,,0.00911830033868,-0.00873028677892,0.0253617817977,-0.999598660594
110116000000,,415,,110,116000000,"""map""",,,0.00735871773213,0.01144445315,0.0082844235003,,0.00911482711321,-0.0087116592507,0.0253424785411,-0.999599334944
110148000000,,416,,110,148000000,"""map""",,,0.00716662732884,0.011391771026,0.0087289493531,,0.00911353074776,-0.00871476266227,0.0253309303046,-0.999599587825
110180000000,,417,,110,180000000,"""map""",,,0.006972333882,0.0112359672785,0.00909379310906,,0.00916170136463,-0.00869507804665,0.0253561762669,-0.999598702741
110216000000,,418,,110,216000000,"""map""",,,0.00682279933244,0.0111604006961,0.00929839070886,,0.00915140294271,-0.0086217953167,0.0252365635108,-0.999602495957
110248000000,,419,,110,248000000,"""map""",,,0.00670390576124,0.0111377369612,0.00934918876737,,0.00919267260994,-0.00857924807313,0.0252171759605,-0.99960300172
110280000000,,420,,110,280000000,"""map""",,,0.00658681476489,0.0111394580454,0.0092796171084,,0.00917670535458,-0.0085743368334,0.0251856501178,-0.99960392895
110316000000,,421,,110,316000000,"""map""",,,0.00645617302507,0.0112036950886,0.00909986812621,,0.00917993590641,-0.00854695745447,0.0250697462844,-0.999607047817
110348000000,,422,,110,348000000,"""map""",,,0.00641032960266,0.0111126936972,0.00888869725168,,0.00915646830243,-0.00852471680123,0.02506873476,-0.999607469286
110380000000,,423,,110,380000000,"""map""",,,0.00642649503425,0.0110573703423,0.00858217850327,,0.00918753374019,-0.00850696449925,0.0249767281897,-0.999609618775
110416000000,,424,,110,416000000,"""map""",,,0.00645175762475,0.0110776051879,0.00825451407582,,0.00915661419062,-0.00834083172696,0.0249569613178,-0.999611852558
110448000000,,425,,110,448000000,"""map""",,,0.00654930481687,0.0111976349726,0.00803464092314,,0.00913438259237,-0.00835607221672,0.0249092089384,-0.999613074816
110480000000,,426,,110,480000000,"""map""",,,0.00668163318187,0.0114239817485,0.00749892462045,,0.00913252014618,-0.00843133603376,0.0249276692581,-0.999612063292
110516000000,,427,,110,516000000,"""map""",,,0.00681163324043,0.0116163082421,0.00700769992545,,0.00913350627543,-0.00841163011834,0.024900695275,-0.999612821935
110548000000,,428,,110,548000000,"""map""",,,0.00721827056259,0.0116010047495,0.00631298869848,,0.0091385821307,-0.00843585817658,0.0249217265524,-0.999612105439
110580000000,,429,,110,580000000,"""map""",,,0.00770043861121,0.0115796346217,0.00549737457186,,0.00913235592165,-0.00848856577409,0.0248687479639,-0.999612990523
110616000000,,430,,110,616000000,"""map""",,,0.0081790741533,0.0116451252252,0.00471233436838,,0.00917707315169,-0.00848343365442,0.024814462823,-0.999614002047
110648000000,,431,,110,648000000,"""map""",,,0.00867705978453,0.0117470435798,0.00398256629705,,0.00917918580363,-0.0085046532344,0.024790523413,-0.999614339222
110680000000,,432,,110,680000000,"""map""",,,0.00913799181581,0.0118832858279,0.00330855487846,,0.00919471592949,-0.0085343216523,0.024806117747,-0.999613580579
110716000000,,433,,110,716000000,"""map""",,,0.00965832453221,0.0121050635353,0.00252262502909,,0.00920810953117,-0.00853947529815,0.02477050366,-0.999614297075
110748000000,,434,,110,748000000,"""map""",,,0.00985899753869,0.0121696135029,0.00202441494912,,0.00921908359917,-0.00856209621968,0.0247251115041,-0.999615097865
110780000000,,435,,110,780000000,"""map""",,,0.0100223841146,0.0122433388606,0.00168552505784,,0.0091954985479,-0.00858594864002,0.0246891180955,-0.999616025096
110816000000,,436,,110,816000000,"""map""",,,0.010185177438,0.0123774316162,0.00135229423176,,0.00924346077659,-0.00852972694611,0.0246836390052,-0.999616193683
110848000000,,437,,110,848000000,"""map""",,,0.010376569815,0.0125481141731,0.00103717541788,,0.00920517995477,-0.00852560540415,0.024695102948,-0.999616362271
110880000000,,438,,110,880000000,"""map""",,,0.0106073794886,0.0127802425995,0.000770273501985,,0.00926293093308,-0.00851816195789,0.0246658108883,-0.999616573005
110916000000,,439,,110,916000000,"""map""",,,0.010888020508,0.0131211671978,0.000510827172548,,0.00917405104978,-0.0085411979271,0.0246941335705,-0.999616488711
110948000000,,440,,110,948000000,"""map""",,,0.0109188389033,0.0130432387814,0.000459731847513,,0.00921444001663,-0.0085624250186,0.0246644621891,-0.999616657299
110980000000,,441,,110,980000000,"""map""",,,0.0109037412331,0.0129129281268,0.000480437360238,,0.00916317006294,-0.00849842465871,0.0246641671612,-0.99961771097
111016000000,,442,,111,16000000,"""map""",,,0.0109571162611,0.012877332978,0.000594252021983,,0.00922763990333,-0.00852165714171,0.0246682132586,-0.999616868033
111048000000,,443,,111,48000000,"""map""",,,0.0110598094761,0.0129113933071,0.000681407283992,,0.00923531462218,-0.00849461331179,0.0246542205049,-0.999617289501
111080000000,,444,,111,80000000,"""map""",,,0.0111939292401,0.012994337827,0.000721649732441,,0.00924071690973,-0.00847813035434,0.0246495000579,-0.999617542382
111116000000,,445,,111,116000000,"""map""",,,0.0113581884652,0.0132006080821,0.000783070572652,,0.00914731315494,-0.00838241198024,0.024628595221,-0.999619734018
111148000000,,446,,111,148000000,"""map""",,,0.0113605614752,0.013157135807,0.000974499038421,,0.00908945096493,-0.00839574470771,0.0246189435927,-0.999620366221
111180000000,,447,,111,180000000,"""map""",,,0.0113231372088,0.0130957849324,0.00124626769684,,0.00907116639435,-0.00836481229595,0.0246219781658,-0.999620703396
111216000000,,448,,111,216000000,"""map""",,,0.0113304397091,0.0130921509117,0.00146720744669,,0.00904218401519,-0.00831602056872,0.0245859004635,-0.999622304976
111248000000,,449,,111,248000000,"""map""",,,0.0113499406725,0.0131226908416,0.00161647761706,,0.00903559990778,-0.00837070476699,0.0245952992107,-0.99962158848
111280000000,,450,,111,280000000,"""map""",,,0.011390466243,0.0131987789646,0.00172993901651,,0.00900356293165,-0.00829371179728,0.024542362769,-0.99962386441
111316000000,,451,,111,316000000,"""map""",,,0.0114327985793,0.0133522069082,0.00183774565812,,0.0089526568238,-0.00823231235892,0.0245405083077,-0.999624875934
111348000000,,452,,111,348000000,"""map""",,,0.0114108864218,0.0133930956945,0.00166232930496,,0.00895204631188,-0.0082121352549,0.024556819138,-0.9996246652
111380000000,,453,,111,380000000,"""map""",,,0.011383453384,0.0132969794795,0.0014617574634,,0.00918428709518,-0.00820869785836,0.0244945682428,-0.999624117291
111416000000,,454,,111,416000000,"""map""",,,0.0113638937473,0.0132954902947,0.00136141339317,,0.00916111509538,-0.0082270822396,0.0244958326482,-0.999624117291
111448000000,,455,,111,448000000,"""map""",,,0.0113515835255,0.0133300516754,0.00134534807876,,0.00908843655943,-0.00822373181209,0.0244844529991,-0.999625128815
111480000000,,456,,111,480000000,"""map""",,,0.0113629335538,0.0134080927819,0.00139407825191,,0.0091261643685,-0.00829936848881,0.0244353940675,-0.999625381696
111516000000,,457,,111,516000000,"""map""",,,0.0113738132641,0.013535243459,0.00136115180794,,0.00912398903135,-0.00831900710922,0.0244164279856,-0.999625634577
111548000000,,458,,111,548000000,"""map""",,,0.0111365169287,0.0133503908291,0.001462477725,,0.0091180988858,-0.00832714420864,0.0244219492228,-0.999625508137
111580000000,,459,,111,580000000,"""map""",,,0.0108170257881,0.0131230261177,0.00158603978343,,0.00901636145605,-0.00832340519871,0.0244455093111,-0.999625887458
111616000000,,460,,111,616000000,"""map""",,,0.0104664489627,0.0129316840321,0.00174647360109,,0.00902867343954,-0.00831117092348,0.024429957124,-0.99962626678
111648000000,,461,,111,648000000,"""map""",,,0.0102017922327,0.0128687787801,0.00183241011109,,0.00901823472707,-0.00835944433503,0.0244249837959,-0.999626098193
111680000000,,462,,111,680000000,"""map""",,,0.00992817804217,0.0128655117005,0.00192048540339,,0.0090372024141,-0.00837369758424,0.02441743951,-0.999625971752
111716000000,,463,,111,716000000,"""map""",,,0.00965885818005,0.0129505284131,0.00210458040237,,0.00901776427933,-0.00838947026028,0.0243774000039,-0.999626983276
111748000000,,464,,111,748000000,"""map""",,,0.00919990707189,0.012953591533,0.00196553021669,,0.00898229813848,-0.0084415119664,0.0243645030683,-0.999627151864
111780000000,,465,,111,780000000,"""map""",,,0.0086995344609,0.012948342599,0.00166438566521,,0.00898855527854,-0.008455343068,0.0243535027408,-0.999627278304
111816000000,,466,,111,816000000,"""map""",,,0.00810998491943,0.0130305644125,0.00136642239522,,0.00899616838233,-0.00841676256728,0.0243066354453,-0.999628627003
111848000000,,467,,111,848000000,"""map""",,,0.00768192484975,0.0131450453773,0.00126103742514,,0.00900302109358,-0.00843204353694,0.0242807572803,-0.999629048472
111880000000,,468,,111,880000000,"""map""",,,0.00725773535669,0.0132913142443,0.0012448139023,,0.00898465807388,-0.00838512503956,0.0242470398015,-0.999630481465
111916000000,,469,,111,916000000,"""map""",,,0.00688863964751,0.013454885222,0.00119521142915,,0.00902847604082,-0.00821721357971,0.0242050193935,-0.999632462367
111948000000,,470,,111,948000000,"""map""",,,0.00652714818716,0.013657736592,0.00111260346603,,0.00903861186398,-0.00811399117326,0.0241556654339,-0.999634443269
111980000000,,471,,111,980000000,"""map""",,,0.00619423482567,0.0139026809484,0.00109878520016,,0.00911511358007,-0.00812087041151,0.0241880342136,-0.999632925982
112016000000,,472,,112,16000000,"""map""",,,0.0057856682688,0.0142401074991,0.00116348126903,,0.0091377761957,-0.0081303895489,0.0241853368152,-0.999632673101
112048000000,,473,,112,48000000,"""map""",,,0.00553528638557,0.0143481381238,0.00141370866913,,0.00917642724301,-0.00811092453728,0.0241788040537,-0.999632630954
112080000000,,474,,112,80000000,"""map""",,,0.00529264425859,0.0144349392503,0.00175412278622,,0.00915662135229,-0.00809912555997,0.0242354494181,-0.999631535136
112116000000,,475,,112,116000000,"""map""",,,0.00502026965842,0.014573007822,0.00213187304325,,0.00913567943114,-0.00821138389677,0.0242513809269,-0.999630439318
