rosbagTimestamp,header,seq,stamp,secs,nsecs,frame_id,pose,position,x,y,z,orientation,x,y,z,w
2916324000000,,19216,,2916,320360958,"""map""",,,0.37640324235,0.233490601182,-0.00233364640735,,-0.0004641857978,0.00150356330203,0.0476150227835,-0.998864588934
2916356000000,,19217,,2916,352359686,"""map""",,,0.375542104244,0.232867896557,-0.00265405955724,,-0.000496558446405,0.00147479914805,0.0476071834697,-0.998864926108
2916392000000,,19218,,2916,384359686,"""map""",,,0.37552306056,0.233107805252,-0.00287310685962,,-0.00050370011464,0.00149255803548,0.0475931064223,-0.998865600458
2916424000000,,19219,,2916,416359686,"""map""",,,0.375331163406,0.233184084296,-0.00316825276241,,-0.000542991349528,0.00146730153651,0.0475429516726,-0.998867960682
2916456000000,,19220,,2916,448358415,"""map""",,,0.374951213598,0.233123138547,-0.00372295430861,,-0.000524269011484,0.00144313846838,0.0475269358702,-0.998868803619
2916492000000,,19221,,2916,488358415,"""map""",,,0.374214887619,0.232860743999,-0.00446195481345,,-0.000485988066189,0.00163206048206,0.0475013105863,-0.998869730849
2916524000000,,19222,,2916,520369144,"""map""",,,0.373454242945,0.232498809695,-0.00497247744352,,-0.000440899458202,0.00157450883694,0.0474968430203,-0.998870068024
2916556000000,,19223,,2916,552369144,"""map""",,,0.372552990913,0.232022583485,-0.00538169778883,,-0.000434846364039,0.00150923711571,0.0474781298196,-0.998871079548
2916592000000,,19224,,2916,584369144,"""map""",,,0.372543990612,0.232130974531,-0.00582053791732,,-0.0003981333309,0.00146357182853,0.0474865170424,-0.99887078452
2916624000000,,19225,,2916,616369144,"""map""",,,0.372318059206,0.232101902366,-0.0061861644499,,-0.000389745202547,0.00142140382428,0.0475273994855,-0.998868845765
2916656000000,,19226,,2916,648367873,"""map""",,,0.371884703636,0.231938019395,-0.00647155474871,,-0.000378610161575,0.00140936633038,0.0475279895414,-0.998868845765
2916692000000,,19227,,2916,688367873,"""map""",,,0.371094971895,0.231584534049,-0.0068397782743,,-0.000387085999824,0.00137617778628,0.0474614818144,-0.998872048926
2916724000000,,19228,,2916,720367873,"""map""",,,0.370281070471,0.231165006757,-0.00706263864413,,-0.000416595214591,0.00127937981078,0.047439902628,-0.998873229038
2916756000000,,19229,,2916,752366603,"""map""",,,0.369335800409,0.230669528246,-0.00720576569438,,-0.00041873766567,0.00124602827692,0.047494988559,-0.99887065808
2916792000000,,19230,,2916,784366603,"""map""",,,0.369387179613,0.23094470799,-0.00708571495488,,-0.000395027799636,0.00122483067587,0.0474478683824,-0.99887293401
2916824000000,,19231,,2916,816366603,"""map""",,,0.369228214025,0.2310834378,-0.00696398131549,,-0.000419941978939,0.00115330175284,0.0474771182952,-0.998871585311
2916856000000,,19232,,2916,848365334,"""map""",,,0.368887603283,0.231104895473,-0.00683731073514,,-0.000483391219399,0.00114322392276,0.0475029964602,-0.998870320905
2916892000000,,19233,,2916,888365334,"""map""",,,0.368212878704,0.230973720551,-0.00659900251776,,-0.00041152907285,0.00111992737572,0.0474979388384,-0.99887065808
2916924000000,,19234,,2916,920365334,"""map""",,,0.367493957281,0.230726927519,-0.00635196268559,,-0.000338019783009,0.00109851850536,0.0475194337311,-0.998869646556
2916956000000,,19235,,2916,952364065,"""map""",,,0.366632580757,0.230369344354,-0.00606799172238,,-0.000362446433581,0.0010922047922,0.0474639684785,-0.998872343954
2916992000000,,19236,,2916,984364065,"""map""",,,0.366771042347,0.230700835586,-0.00531375128776,,-0.000323029457851,0.0010630821019,0.0474956207617,-0.998870868814
2917024000000,,19237,,2917,16364065,"""map""",,,0.366707831621,0.230846017599,-0.0045815827325,,-0.000309160510513,0.000953962347067,0.0475230162132,-0.998869688702
2917056000000,,19238,,2917,48362797,"""map""",,,0.366490095854,0.230853334069,-0.00391870597377,,-0.000315210188476,0.000943513838744,0.0475275680729,-0.998869435821
2917092000000,,19239,,2917,88362797,"""map""",,,0.366007447243,0.230700448155,-0.00327164493501,,-0.000341624388112,0.000965208538004,0.0475447639871,-0.998868592884
2917124000000,,19240,,2917,120362797,"""map""",,,0.365461468697,0.230420127511,-0.00300195952877,,-0.000399088282175,0.000985649718373,0.0475600211462,-0.998867834241
2917156000000,,19241,,2917,152361529,"""map""",,,0.364785522223,0.230030417442,-0.00270094792359,,-0.000347144822666,0.000951704979971,0.0476084478752,-0.998865600458
2917192000000,,19242,,2917,184361529,"""map""",,,0.365135878325,0.230370789766,-0.00280546047725,,-0.000319486920568,0.000983980596159,0.047574561809,-0.998867202038
2917224000000,,19243,,2917,216361529,"""map""",,,0.365263581276,0.23055921495,-0.0029545139987,,-0.000282945808704,0.000958703723468,0.0475899875555,-0.998866443395
2917256000000,,19244,,2917,248360261,"""map""",,,0.365161120892,0.230626866221,-0.0030739007052,,-0.000275458795613,0.000930880650175,0.047575657627,-0.998867202038
2917292000000,,19245,,2917,288360261,"""map""",,,0.364755123854,0.23053959012,-0.00325363036245,,-0.000212390029243,0.000929115545099,0.0475727494945,-0.998867328479
2917324000000,,19246,,2917,320360261,"""map""",,,0.364267259836,0.23032283783,-0.00332409935072,,-0.000257025558608,0.000948676498414,0.0476006507082,-0.99886597978
2917356000000,,19247,,2917,352358995,"""map""",,,0.363608926535,0.229998469353,-0.00328937289305,,-0.000263460608586,0.00096266077336,0.0475768377388,-0.998867117745
2917392000000,,19248,,2917,384358995,"""map""",,,0.363694369793,0.230231881142,-0.00262729264796,,-0.000210990663322,0.000953615993815,0.0475900718492,-0.998866527689
2917424000000,,19249,,2917,416358995,"""map""",,,0.363596200943,0.230296254158,-0.00202942313626,,-0.000228442319158,0.000898889237101,0.0475852671085,-0.99886678057
2917456000000,,19250,,2917,448357729,"""map""",,,0.363328367472,0.23022852838,-0.00146574445534,,-0.000210697158267,0.000921614558517,0.0475716536764,-0.998867412773
2917492000000,,19251,,2917,488357729,"""map""",,,0.362727999687,0.229995340109,-0.000983330188319,,-0.000187187777876,0.00111029603881,0.0475667224952,-0.998867454919
2917524000000,,19252,,2917,520357729,"""map""",,,0.362046897411,0.229680299759,-0.000568225455936,,-0.000179310721221,0.00102733437154,0.0475740981936,-0.998867244185
2917556000000,,19253,,2917,552356463,"""map""",,,0.361244678497,0.229253605008,-9.6572417533e-05,,-0.000169096984016,0.000994015435633,0.0475734659909,-0.998867286332
2917592000000,,19254,,2917,584356463,"""map""",,,0.361507177353,0.229802802205,0.000318470149068,,-0.000127165726513,0.00101968986341,0.0475920527511,-0.998866316954
2917624000000,,19255,,2917,616356463,"""map""",,,0.361574441195,0.230181545019,0.000689852458891,,-0.000114964090392,0.00095902075091,0.0476202489928,-0.998865094696
2917656000000,,19256,,2917,648355198,"""map""",,,0.361477434635,0.230416819453,0.00105942273512,,-0.000126371027928,0.000933639992823,0.0476298163274,-0.998864631081
2917692000000,,19257,,2917,688355198,"""map""",,,0.361131727695,0.230509907007,0.00143259880133,,-0.000128068385238,0.000909031707444,0.0475848034932,-0.998866822717
2917724000000,,19258,,2917,720355198,"""map""",,,0.360673040152,0.230401113629,0.001808115514,,-0.000166161192599,0.000893116868114,0.0476388778998,-0.998864251759
2917756000000,,19259,,2917,752353934,"""map""",,,0.360082834959,0.230144411325,0.00219299132004,,-0.000180758531322,0.000877256934933,0.0476414910044,-0.998864167465
2917792000000,,19260,,2917,784353934,"""map""",,,0.360793292522,0.230557486415,0.00281560583971,,-0.00018085383506,0.000841680487876,0.0476381192565,-0.998864336053
2917824000000,,19261,,2917,816353934,"""map""",,,0.361269026995,0.230827584863,0.00326390587725,,-0.000167025985015,0.000878126460638,0.0475733816972,-0.998867370626
2917856000000,,19262,,2917,848352670,"""map""",,,0.361538797617,0.230949774384,0.0037850481458,,-0.000128393006522,0.000849285874342,0.0475711900611,-0.998867539213
2917892000000,,19263,,2917,888352670,"""map""",,,0.36159363389,0.230943977833,0.00434134434909,,-0.00012650825214,0.00084917202846,0.0475173685355,-0.998870110171
2917924000000,,19264,,2917,920352670,"""map""",,,0.361428052187,0.230828404427,0.00474774511531,,-0.000119614155481,0.000839190098922,0.0475580402444,-0.998868129269
2917956000000,,19265,,2917,952351407,"""map""",,,0.361074239016,0.230589464307,0.00529712392017,,-0.000121638397821,0.000827882107698,0.0475581666849,-0.998868171416
2917992000000,,19266,,2917,984351407,"""map""",,,0.361899763346,0.23090068996,0.00580835295841,,-0.000115215201645,0.000872000967738,0.0475299282964,-0.998869520115
2918024000000,,19267,,2918,16351407,"""map""",,,0.362468957901,0.231035590172,0.00628650654107,,-0.000120269818857,0.000819206648145,0.047557871657,-0.998868129269
2918056000000,,19268,,2918,48350144,"""map""",,,0.36280888319,0.231028094888,0.00684612151235,,-0.000115242016754,0.000763347236037,0.0475958038206,-0.998866359101
2918092000000,,19269,,2918,88350144,"""map""",,,0.362892627716,0.230816721916,0.00745276594535,,-0.000133634526897,0.000674075333546,0.0475832862066,-0.998867075598
2918124000000,,19270,,2918,120350144,"""map""",,,0.362745195627,0.230522453785,0.00798679422587,,-0.000155507465344,0.000640464909379,0.047590409024,-0.99886678057
2918156000000,,19271,,2918,152348882,"""map""",,,0.362431794405,0.230141863227,0.00846962351352,,-9.83649615804e-05,0.000648959248612,0.0475975318414,-0.998866401248
2918192000000,,19272,,2918,184348882,"""map""",,,0.363126695156,0.230479627848,0.00884394720197,,-2.69165867771e-05,0.000664070704801,0.0475276945134,-0.998869730849
2918224000000,,19273,,2918,216348882,"""map""",,,0.363588958979,0.230694711208,0.00918147619814,,-3.7861843454e-05,0.000616525396527,0.0475784814659,-0.998867328479
2918256000000,,19274,,2918,248347621,"""map""",,,0.363859772682,0.230738177896,0.00950101669878,,-4.31245813095e-06,0.00056579800119,0.0475831597661,-0.998867117745
2918292000000,,19275,,2918,288347621,"""map""",,,0.3639293015,0.230591714382,0.00978648848832,,-1.58485115495e-05,0.000637418873496,0.0475975739883,-0.998866443395
2918324000000,,19276,,2918,320347621,"""map""",,,0.363787829876,0.230375722051,0.0100242961198,,1.41815501848e-06,0.000589116321355,0.047583454794,-0.998867075598
2918356000000,,19277,,2918,352346360,"""map""",,,0.363469183445,0.230046316981,0.0102327344939,,4.21303231597e-05,0.000571438640696,0.0475508752801,-0.998868719325
2918392000000,,19278,,2918,384346360,"""map""",,,0.363769710064,0.230391129851,0.010554918088,,0.000119962566685,0.000788538189249,0.0475554692866,-0.998868340003
2918424000000,,19279,,2918,416346360,"""map""",,,0.363846838474,0.23059925437,0.0108416695148,,0.00017731456992,0.000777858387748,0.047518085032,-0.998870068024
2918456000000,,19280,,2918,448345100,"""map""",,,0.363717287779,0.230639606714,0.0111436592415,,0.000194496716416,0.000767264155873,0.0475084334037,-0.998870531639
2918492000000,,19281,,2918,488345100,"""map""",,,0.363319188356,0.230483517051,0.0116039570421,,0.000137781628618,0.00072111179271,0.0475193072906,-0.998870110171
2918524000000,,19282,,2918,520345100,"""map""",,,0.362802743912,0.230248659849,0.0119325835258,,0.00016413474825,0.000664702784052,0.0475569022794,-0.998868340003
2918556000000,,19283,,2918,552343841,"""map""",,,0.362130641937,0.229936987162,0.0121611533687,,0.000140594786699,0.000611592527731,0.047531698464,-0.998869604409
2918592000000,,19284,,2918,584343841,"""map""",,,0.362329602242,0.230313152075,0.0122289573774,,0.00013587925817,0.000658285247242,0.0475214567799,-0.99886998373
2918624000000,,19285,,2918,616343841,"""map""",,,0.362339764833,0.230577871203,0.0122398892418,,0.000135676261826,0.000552693356492,0.0475383155193,-0.998869225087
2918656000000,,19286,,2918,648342582,"""map""",,,0.362190276384,0.230759859085,0.0122832646593,,0.000140129154573,0.00053062719697,0.0475121844732,-0.998870489492
2918692000000,,19287,,2918,688342582,"""map""",,,0.361796736717,0.23081164062,0.0124285835773,,0.000160009687191,0.000489794823877,0.0474708805616,-0.998872512541
2918724000000,,19288,,2918,720342582,"""map""",,,0.361303180456,0.230755567551,0.0126301245764,,0.000235691793187,0.00047965892869,0.0474768654141,-0.99887225966
2918756000000,,19289,,2918,752341325,"""map""",,,0.360673099756,0.230600014329,0.0129255587235,,0.000257731466872,0.000453409262284,0.0475306869397,-0.998869688702
2918792000000,,19290,,2918,784341325,"""map""",,,0.360937595367,0.230832874775,0.0135152377188,,0.000265435959142,0.000386838258467,0.047562044195,-0.998868171416
2918824000000,,19291,,2918,816341325,"""map""",,,0.360974937677,0.230936855078,0.0140783870593,,0.000248690947287,0.000368052571529,0.0475456912177,-0.998869014353
2918856000000,,19292,,2918,848340067,"""map""",,,0.360831797123,0.23090569675,0.0146523984149,,0.000239245145006,0.000379502036634,0.0475446375465,-0.9988690565
2918892000000,,19293,,2918,888340067,"""map""",,,0.360405683517,0.230750024319,0.0153381619602,,0.000258984826272,0.000417878702402,0.0475672282573,-0.998867960682
2918924000000,,19294,,2918,920340067,"""map""",,,0.359906375408,0.230536594987,0.0159932561219,,0.000280937494909,0.000444723152831,0.0475910412267,-0.998866822717
2918956000000,,19295,,2918,952338811,"""map""",,,0.359260767698,0.230224043131,0.0167243480682,,0.000235165893949,0.000449938207949,0.047583749822,-0.998867117745
2918992000000,,19296,,2918,984338811,"""map""",,,0.358489513397,0.229825004935,0.017467411235,,0.000270667817434,0.000423292637961,0.0475963095828,-0.998866527689
2919024000000,,19297,,2919,16338811,"""map""",,,0.357579827309,0.229357421398,0.0181826278567,,0.000285991273506,0.000339719316603,0.0476035166939,-0.998866232661
2919056000000,,19298,,2919,48337555,"""map""",,,0.356567203999,0.228828623891,0.0188662745059,,0.000275045425168,0.000561098082224,0.0476154863989,-0.998865558311
2919092000000,,19299,,2919,88337555,"""map""",,,0.356675595045,0.22883823514,0.0196253042668,,0.000234262021032,0.000584782707482,0.0476490774371,-0.998863998878
2919124000000,,19300,,2919,120348300,"""map""",,,0.356832653284,0.228902816772,0.0201170612127,,0.00022115799372,0.000553597147091,0.0476623958413,-0.998863324528
2919156000000,,19301,,2919,152348300,"""map""",,,0.356793731451,0.228858694434,0.0205656569451,,0.000218902684575,0.000584676208487,0.0476395101025,-0.998864462493
2919192000000,,19302,,2919,184348300,"""map""",,,0.356539368629,0.228690996766,0.0210634246469,,0.000224243130683,0.00056645010431,0.0476396365431,-0.998864420346
2919224000000,,19303,,2919,216348300,"""map""",,,0.356097221375,0.228457257152,0.0215474665165,,0.000248627356583,0.000585737751365,0.047592094898,-0.998866696276
2919256000000,,19304,,2919,248347046,"""map""",,,0.355490326881,0.22814963758,0.0219560023397,,0.000254282535517,0.00056610875188,0.0476147699025,-0.998865600458
2919292000000,,19305,,2919,288347046,"""map""",,,0.355916291475,0.228453844786,0.0223721712828,,0.000287588722411,0.000483779441677,0.0475858571644,-0.998867033451
2919324000000,,19306,,2919,320347046,"""map""",,,0.356299459934,0.228701502085,0.0229339301586,,0.000266634186019,0.000427917560027,0.0476476865911,-0.998864125318
2919356000000,,19307,,2919,352345792,"""map""",,,0.356464892626,0.228841245174,0.0235251300037,,0.00032434258531,0.000425955447245,0.0476434719063,-0.998864293906
2919392000000,,19308,,2919,384345792,"""map""",,,0.356445133686,0.228884845972,0.02406924963,,0.000397274403967,0.000402735836406,0.047655230877,-0.998863661703
2919424000000,,19309,,2919,416345792,"""map""",,,0.356243252754,0.228840559721,0.0245904158801,,0.000399160432671,0.000442144005711,0.0476350425366,-0.998864631081
2919456000000,,19310,,2919,448344539,"""map""",,,0.355892419815,0.228703349829,0.0252199787647,,0.000382606117042,0.00043181250094,0.0476197010837,-0.998865389724
2919492000000,,19311,,2919,488344539,"""map""",,,0.356477290392,0.229476228356,0.0258564017713,,0.000397661110756,0.000425993758586,0.0475530669162,-0.998868635031
2919524000000,,19312,,2919,520344539,"""map""",,,0.35692101717,0.230130746961,0.026354117319,,0.000335416057516,0.000439004295731,0.0475559750488,-0.998868424297
2919556000000,,19313,,2919,552343286,"""map""",,,0.357151091099,0.230631753802,0.0268409848213,,0.000327941510467,0.000428258974195,0.0475611591111,-0.998868213563
2919592000000,,19314,,2919,584343286,"""map""",,,0.357186585665,0.231008797884,0.0272882822901,,0.000376420766691,0.000381733125618,0.0476061297985,-0.998866064073
2919624000000,,19315,,2919,616343286,"""map""",,,0.357023090124,0.231282234192,0.0277030058205,,0.000441173129749,0.00039787422965,0.0475702206836,-0.998867749947
2919656000000,,19316,,2919,648342035,"""map""",,,0.356686890125,0.231443271041,0.0281277634203,,0.000423367456721,0.000412451882137,0.047544511106,-0.998868930059
2919692000000,,19317,,2919,688342035,"""map""",,,0.357281476259,0.232021868229,0.028438296169,,0.000482557936795,0.000397359188679,0.0475105828929,-0.998870573786
2919724000000,,19318,,2919,720342035,"""map""",,,0.357775062323,0.232479557395,0.0286816172302,,0.000414883371874,0.000380396131709,0.0475867422482,-0.998866991304
2919756000000,,19319,,2919,752340783,"""map""",,,0.358102440834,0.232828050852,0.0289674494416,,0.000396567888286,0.000337011921799,0.0475121423263,-0.998870531639
2919792000000,,19320,,2919,784340783,"""map""",,,0.358246833086,0.233063846827,0.0292260125279,,0.000373564607068,0.000291656389773,0.0475522239793,-0.998868719325
2919824000000,,19321,,2919,816340783,"""map""",,,0.358196079731,0.233185529709,0.0294771119952,,0.000340112925569,0.000287847540693,0.0475217939546,-0.998870152318
2919856000000,,19322,,2919,848339533,"""map""",,,0.357985317707,0.233202651143,0.0297389719635,,0.000337199727888,0.000277583427405,0.0475122687669,-0.99887065808
2919892000000,,19323,,2919,888339533,"""map""",,,0.358695715666,0.23371873796,0.0298415347934,,0.000337003976819,0.00031052542761,0.0475418558545,-0.998869140793
2919924000000,,19324,,2919,920339533,"""map""",,,0.359294086695,0.234122410417,0.0299912057817,,0.00034189463317,0.00025949249206,0.0475601475868,-0.998868297856
2919956000000,,19325,,2919,952338283,"""map""",,,0.359706252813,0.234384998679,0.0301416255534,,0.000361603007847,0.00024429267772,0.0475716115296,-0.998867792094
2919992000000,,19326,,2919,984338283,"""map""",,,0.359930872917,0.234542965889,0.0303318239748,,0.000282949497582,0.000235167308791,0.0475757419207,-0.998867539213
2920024000000,,19327,,2920,24338283,"""map""",,,0.359967529774,0.23461855948,0.0304398294538,,0.000263543487441,0.000211664904856,0.0475748568369,-0.998867665654
2920056000000,,19328,,2920,48337034,"""map""",,,0.359878510237,0.234620466828,0.0305231120437,,0.000279425101142,0.000212689445764,0.0475869529824,-0.998867117745
2920092000000,,19329,,2920,88337034,"""map""",,,0.360936045647,0.234839856625,0.0301756318659,,0.000291360664703,0.000378476111754,0.0475362924705,-0.998869477968
2920124000000,,19330,,2920,120337034,"""map""",,,0.361814141273,0.234964340925,0.0299160182476,,0.000324517292538,0.00039180091354,0.0475219203952,-0.998870110171
2920156000000,,19331,,2920,152335786,"""map""",,,0.362476676702,0.235014095902,0.029700351879,,0.000348041148045,0.000428303472253,0.0475014791737,-0.998870995255
2920192000000,,19332,,2920,184335786,"""map""",,,0.362927734852,0.23498159647,0.0295509696007,,0.000382984984,0.000396840537932,0.0475263458143,-0.998869815143
2920224000000,,19333,,2920,216335786,"""map""",,,0.363216102123,0.234872043133,0.0294518824667,,0.000399030582357,0.00036435108321,0.0475220468357,-0.998870068024
2920256000000,,19334,,2920,248334538,"""map""",,,0.363328307867,0.234688133001,0.029385201633,,0.00038851766015,0.000339523214396,0.0475001726214,-0.998871121695
2920292000000,,19335,,2920,288334538,"""map""",,,0.364253133535,0.234985470772,0.0288737323135,,0.000424817039875,0.000287347972945,0.0475040501314,-0.998870953108
2920324000000,,19336,,2920,320334538,"""map""",,,0.364929914474,0.235245883465,0.0284406300634,,0.000397497979506,0.000261960258981,0.0475583352723,-0.998868424297
2920356000000,,19337,,2920,352333292,"""map""",,,0.365422397852,0.235397204757,0.0280609149486,,0.000417456863486,0.000259757257821,0.0475626342508,-0.998868171416
2920392000000,,19338,,2920,384333292,"""map""",,,0.365710347891,0.235434517264,0.0277319010347,,0.000389806462621,0.000253551268145,0.0475805045146,-0.998867328479
2920424000000,,19339,,2920,416344045,"""map""",,,0.365849882364,0.235393717885,0.0273977890611,,0.000358169315624,0.000227239173777,0.047535618121,-0.998869477968
2920456000000,,19340,,2920,448344045,"""map""",,,0.365830600262,0.235312670469,0.0270592588931,,0.000370450290923,0.000242146126172,0.0475056095648,-0.998870910961
2920492000000,,19341,,2920,488344045,"""map""",,,0.366679430008,0.235752061009,0.0259753465652,,0.000410960625463,0.00024896246313,0.0475400013932,-0.998869225087
2920524000000,,19342,,2920,520344045,"""map""",,,0.367358654737,0.23607352376,0.0251412019134,,0.000367115251754,0.000248014627222,0.0475027014323,-0.998871037402
2920556000000,,19343,,2920,552342800,"""map""",,,0.367856830359,0.23629629612,0.0244400557131,,0.000360249981852,0.000220782438134,0.0474912374895,-0.998871627457
2920592000000,,19344,,2920,584342800,"""map""",,,0.368174284697,0.236452788115,0.0238467250019,,0.000335048805765,0.000205046306176,0.0475142918156,-0.998870489492
2920624000000,,19345,,2920,616342800,"""map""",,,0.36830368638,0.236519008875,0.0233244281262,,0.000374999608992,0.000222909042987,0.0475260086395,-0.998869899437
2920656000000,,19346,,2920,648341555,"""map""",,,0.368267983198,0.236458256841,0.0228807646781,,0.000353557631332,0.000253671894977,0.0475035865161,-0.998870995255
2920692000000,,19347,,2920,688341555,"""map""",,,0.368994265795,0.236854583025,0.022380663082,,0.000343083069342,0.000285269971764,0.0474817544486,-0.998872006779
2920724000000,,19348,,2920,720341555,"""map""",,,0.369555473328,0.237159356475,0.0220498163253,,0.000415890988703,0.000247589721958,0.0475005097961,-0.998871121695
2920756000000,,19349,,2920,752340311,"""map""",,,0.369944453239,0.2373662889,0.0218652263284,,0.000422978013178,0.000279376579789,0.0474853369307,-0.998871796045
2920792000000,,19350,,2920,784340311,"""map""",,,0.370175629854,0.23748344183,0.0217908304185,,0.000551769058406,0.000258616715327,0.047486095574,-0.998871796045
2920824000000,,19351,,2920,816340311,"""map""",,,0.370250076056,0.237517520785,0.0218034926802,,0.000530774957894,0.000252368146632,0.0474687310724,-0.998872638982
2920856000000,,19352,,2920,848339067,"""map""",,,0.370182573795,0.237514510751,0.0218263100833,,0.000515986949957,0.000254840219818,0.0474388068099,-0.998873987681
2920892000000,,19353,,2920,888339067,"""map""",,,0.370830327272,0.237990140915,0.0217165518552,,0.000499910221866,0.000275470042319,0.0474025605202,-0.998875673555
2920920000000,,19354,,2920,920339067,"""map""",,,0.371362447739,0.238392367959,0.0217250902206,,0.000553476571707,0.000265318815393,0.0474034877509,-0.998875673555
2920956000000,,19355,,2920,952337825,"""map""",,,0.371749550104,0.238693907857,0.0217601768672,,0.000532818205418,0.000248142811882,0.0474063958834,-0.998875547114
2920992000000,,19356,,2920,984337825,"""map""",,,0.371958017349,0.238910391927,0.0217912383378,,0.00054082803082,0.0002434962556,0.0474747580717,-0.99887225966
2921024000000,,19357,,2921,16337825,"""map""",,,0.372015208006,0.239039555192,0.0219110418111,,0.000572421868226,0.000195651021462,0.0474868120704,-0.998871753898
2921056000000,,19358,,2921,48336583,"""map""",,,0.371942430735,0.239114895463,0.0220548082143,,0.000585434275534,0.000171552922861,0.0474726928761,-0.998872386101
2921088000000,,19359,,2921,88336583,"""map""",,,0.372261106968,0.239519104362,0.0216424297541,,0.000595691209144,0.000164451734534,0.0474658229398,-0.998872681129
2921124000000,,19360,,2921,120336583,"""map""",,,0.372474968433,0.23979845643,0.0212392620742,,0.00062299082187,0.000147919077558,0.0474226224201,-0.998874746324
2921156000000,,19361,,2921,152335341,"""map""",,,0.37257283926,0.239998787642,0.0208713822067,,0.000640672783069,0.000131050995054,0.047390085053,-0.998876263611
2921192000000,,19362,,2921,184335341,"""map""",,,0.372524291277,0.240124732256,0.0206419024616,,0.00064046484764,0.000148213982021,0.0473836787321,-0.998876600786
2921224000000,,19363,,2921,216335341,"""map""",,,0.372343868017,0.240214571357,0.0204091370106,,0.00063202732845,8.50742163204e-05,0.0473622259862,-0.998877570163
2921256000000,,19364,,2921,248334100,"""map""",,,0.372057050467,0.240259736776,0.0202996339649,,0.000638081883758,5.39733200576e-05,0.0473723833767,-0.998877106548
2921292000000,,19365,,2921,288334100,"""map""",,,0.372451454401,0.240722566843,0.0196570008993,,0.000664996021573,7.97164834191e-05,0.047343344198,-0.998878497394
2921324000000,,19366,,2921,320334100,"""map""",,,0.372785240412,0.241057813168,0.0191064160317,,0.000685520795936,1.27600407048e-05,0.047341700471,-0.998878539541
2921356000000,,19367,,2921,352332860,"""map""",,,0.37300875783,0.241286680102,0.0186135452241,,0.000688780652989,1.44595177052e-05,0.0473725519641,-0.998877022254
2921392000000,,19368,,2921,384332860,"""map""",,,0.373092323542,0.241424515843,0.0181821193546,,0.000675088586589,-6.77831630254e-06,0.0473704024748,-0.998877232988
2921424000000,,19369,,2921,416332860,"""map""",,,0.373039215803,0.241493031383,0.0177715737373,,0.000684122994058,-6.99099736735e-05,0.047367283608,-0.998877317282
2921456000000,,19370,,2921,448331621,"""map""",,,0.372891753912,0.241516783834,0.0174145773053,,0.000683935370612,-0.00013653774094,0.0473478960577,-0.998878244513
2921492000000,,19371,,2921,488331621,"""map""",,,0.373411744833,0.241959571838,0.0168244522065,,0.000640904631894,-0.000151546340708,0.0474042042473,-0.998875631408
2921524000000,,19372,,2921,520331621,"""map""",,,0.373810201883,0.242352619767,0.0164613761008,,0.000631813671916,-0.000180756246996,0.0473720462019,-0.998877106548
2921556000000,,19373,,2921,552330383,"""map""",,,0.374037712812,0.242668136954,0.0161821767688,,0.000636332933602,-0.000211622063449,0.0473686323072,-0.998877317282
2921592000000,,19374,,2921,584330383,"""map""",,,0.374136775732,0.242898359895,0.0159094370902,,0.00062272005718,-0.000218242020377,0.0473835101447,-0.998876600786
2921624000000,,19375,,2921,616330383,"""map""",,,0.374122738838,0.243086874485,0.0156172551215,,0.000612817914424,-0.000240666798542,0.0473921502486,-0.998876221464
2921656000000,,19376,,2921,648329145,"""map""",,,0.374006479979,0.243193820119,0.0152574386448,,0.000579975785323,-0.000268420024958,0.0473866290115,-0.998876432198
2921692000000,,19377,,2921,688329145,"""map""",,,0.374544292688,0.243388816714,0.0143839940429,,0.000572657524262,-0.000216856010562,0.0474179019731,-0.998874999205
2921724000000,,19378,,2921,720339908,"""map""",,,0.374985456467,0.243484064937,0.0136131942272,,0.000535524576391,-0.000215884996975,0.0474083767853,-0.998875420674
2921756000000,,19379,,2921,752339908,"""map""",,,0.375308543444,0.243544712663,0.0129177356139,,0.000517495531368,-0.00021995199293,0.0474379217261,-0.998874114121
2921792000000,,19380,,2921,784339908,"""map""",,,0.375491052866,0.243560880423,0.0123884966597,,0.000499728885462,-0.000235068573418,0.0474662444083,-0.998872765422
2921828000000,,19381,,2921,816339908,"""map""",,,0.375579804182,0.243501335382,0.0119322892278,,0.000464855455246,-0.00021471493831,0.0474633784226,-0.998872849716
2921856000000,,19382,,2921,848344671,"""map""",,,0.375599443913,0.243398040533,0.0115362480283,,0.000448850436479,-0.00023111393133,0.0474684360444,-0.998872681129
2921892000000,,19383,,2921,888344671,"""map""",,,0.376516073942,0.2435349226,0.0113094877452,,0.000420229711441,-0.000261438146374,0.0475104143055,-0.99887065808
2921924000000,,19384,,2921,912344671,"""map""",,,0.37708106637,0.243620842695,0.0112718362361,,0.00044472405833,-0.000242998992758,0.047530602646,-0.998869688702
2921956000000,,19385,,2921,948343436,"""map""",,,0.37766495347,0.243682488799,0.0113300615922,,0.000430172581058,-0.000202389835384,0.0475628449851,-0.998868129269
2921992000000,,19386,,2921,988343436,"""map""",,,0.378176122904,0.24370932579,0.0115615306422,,0.00038860882226,-0.000218995909782,0.0475795351371,-0.998867370626
2922024000000,,19387,,2922,20343436,"""map""",,,0.378410935402,0.243660658598,0.0118968868628,,0.00035435965108,-0.000170920514338,0.0476091222248,-0.998865937633
2922056000000,,19388,,2922,52342200,"""map""",,,0.378511369228,0.243589088321,0.0122698126361,,0.000407272436656,-0.000160881075342,0.0475963517297,-0.998866569836
2922092000000,,19389,,2922,84342200,"""map""",,,0.379109472036,0.243797838688,0.0125193102285,,0.000441382654945,-0.000143246364712,0.047610175896,-0.998865895486
2922124000000,,19390,,2922,116352966,"""map""",,,0.379749298096,0.244060531259,0.0126269189641,,0.00043249476334,7.12585699284e-05,0.0476139691123,-0.998865726899
2922156000000,,19391,,2922,148352966,"""map""",,,0.380259037018,0.244281947613,0.0127844903618,,0.00045937766145,4.99434186795e-05,0.0475791979623,-0.998867370626
2922192000000,,19392,,2922,188352966,"""map""",,,0.380707293749,0.244436919689,0.0129947690293,,0.000468755232346,5.89523692873e-05,0.0476264024326,-0.99886517899
2922224000000,,19393,,2922,220352966,"""map""",,,0.380909830332,0.24446824193,0.0132603375241,,0.000450125584441,9.78391343762e-07,0.0475970682261,-0.998866611982
2922256000000,,19394,,2922,252351732,"""map""",,,0.380981206894,0.244460687041,0.0134487431496,,0.000448228955679,1.6905454906e-06,0.0475844663184,-0.998867159891
2922292000000,,19395,,2922,284351732,"""map""",,,0.381651997566,0.24439330399,0.0131374457851,,0.000445167649795,-2.63078241181e-05,0.0475535305316,-0.998868592884
2922324000000,,19396,,2922,316351732,"""map""",,,0.38218575716,0.244267404079,0.0128462770954,,0.00041811025797,-6.54250591995e-05,0.0475489786719,-0.998868845765
2922356000000,,19397,,2922,348350498,"""map""",,,0.382613539696,0.244108647108,0.0126182930544,,0.00041113203225,-9.73059808525e-05,0.0475970260792,-0.998866569836
2922392000000,,19398,,2922,388350498,"""map""",,,0.382928699255,0.243854254484,0.012522966601,,0.000389558566918,-0.000138417844351,0.0475989648343,-0.998866485542
2922424000000,,19399,,2922,420350498,"""map""",,,0.383030176163,0.243614166975,0.0125103546306,,0.000406003977036,-0.000141289396809,0.0476127468537,-0.998865853339
2922456000000,,19400,,2922,452349265,"""map""",,,0.383023589849,0.243361592293,0.012575048022,,0.000433247428264,-0.000155227985229,0.0475988383937,-0.998866443395
2922492000000,,19401,,2922,484349265,"""map""",,,0.383726924658,0.243531763554,0.0126472646371,,0.000416151273274,-0.000162223343395,0.0475781864379,-0.998867454919
2922524000000,,19402,,2922,516349265,"""map""",,,0.384268671274,0.243630483747,0.0128182545304,,0.000414145315834,-0.000204046671627,0.0476163293358,-0.998865642605
2922556000000,,19403,,2922,548348033,"""map""",,,0.384663373232,0.243642821908,0.0129778636619,,0.000418600184215,-0.000218750632822,0.0476105973645,-0.998865895486
2922592000000,,19404,,2922,588348033,"""map""",,,0.384968698025,0.243545755744,0.0131026105955,,0.00040450557734,-0.000231974973129,0.0476261495516,-0.99886517899
2922620000000,,19405,,2922,620348033,"""map""",,,0.38510787487,0.24341660738,0.0131958285347,,0.000387144378766,-0.00028301376741,0.0476392993683,-0.99886450464
2922656000000,,19406,,2922,652346801,"""map""",,,0.385132312775,0.243254631758,0.0133457137272,,0.000408097474592,-0.000281720859325,0.0476280883066,-0.998865094696
2922692000000,,19407,,2922,684346801,"""map""",,,0.385627657175,0.243310570717,0.0125968568027,,0.000403969619863,-0.000221773238926,0.0476286783625,-0.998865010402
2922724000000,,19408,,2922,716346801,"""map""",,,0.385964304209,0.243291690946,0.0119828945026,,0.000410669085751,-0.000219033848119,0.0476316707887,-0.998864883962
2922756000000,,19409,,2922,748345570,"""map""",,,0.386162191629,0.243184193969,0.0115237496793,,0.000411976167977,-0.000248089413183,0.047635211124,-0.998864715374
2922792000000,,19410,,2922,788345570,"""map""",,,0.386230170727,0.242988228798,0.0111853517592,,0.000435018995308,-0.000247832719736,0.0476449891928,-0.998864209612
2922824000000,,19411,,2922,820345570,"""map""",,,0.386181980371,0.242789253592,0.0110808415338,,0.000509052774691,-0.000293487429046,0.0477029411095,-0.998861385773
2922856000000,,19412,,2922,852344339,"""map""",,,0.386043429375,0.242536872625,0.0110508371145,,0.000538569161419,-0.000323502066433,0.0477296622115,-0.998860121368
2922892000000,,19413,,2922,884344339,"""map""",,,0.386389106512,0.242558583617,0.0107762347907,,0.000568234091092,-0.00039517388333,0.0477616095227,-0.998858519788
2922928000000,,19414,,2922,916344339,"""map""",,,0.386601001024,0.242517977953,0.0105275148526,,0.000592434439018,-0.000397587706195,0.0476957761453,-0.998861722948
2922956000000,,19415,,2922,948337109,"""map""",,,0.386703282595,0.242408841848,0.0104413563386,,0.000607888863128,-0.000420329357456,0.0476915614604,-0.998861807242
2922992000000,,19416,,2922,988337109,"""map""",,,0.38670361042,0.242195054889,0.0105274561793,,0.000580648853824,-0.000444078010733,0.0476819098321,-0.998862355151
2923024000000,,19417,,2923,20347880,"""map""",,,0.386601150036,0.241996467113,0.0107390191406,,0.000583819205418,-0.000391399435482,0.0476888640621,-0.998862060123
2923056000000,,19418,,2923,52347880,"""map""",,,0.386420071125,0.241772636771,0.0108718937263,,0.000570022667107,-0.000379261009344,0.0476996536554,-0.998861554361
2923092000000,,19419,,2923,84347880,"""map""",,,0.386656820774,0.241851910949,0.010779492557,,0.000545260205139,-0.000379827311317,0.0476923622506,-0.998861849389
2923124000000,,19420,,2923,116347880,"""map""",,,0.386751651764,0.241860896349,0.0108270579949,,0.000594012064705,-0.000395886768049,0.0477131827937,-0.998860837864
2923156000000,,19421,,2923,148346651,"""map""",,,0.386716723442,0.241776049137,0.0110104344785,,0.000573479593604,-0.000402257321824,0.0477001594175,-0.998861470067
2923192000000,,19422,,2923,188346651,"""map""",,,0.38659465313,0.241586968303,0.0113753844053,,0.000523784873229,-0.000399501688635,0.0477485439996,-0.998859194137
2923224000000,,19423,,2923,220346651,"""map""",,,0.386373788118,0.241367265582,0.011656046845,,0.000556712577101,-0.000377678444573,0.0477333711342,-0.99885995278
2923256000000,,19424,,2923,252345423,"""map""",,,0.386081129313,0.2410980165,0.0119862407446,,0.00056499883685,-0.000389986024042,0.0477380072875,-0.998859699899
2923292000000,,19425,,2923,284345423,"""map""",,,0.386466264725,0.241244569421,0.0121540427208,,0.000601523773215,-0.000459993091872,0.0477178189471,-0.998860584983
2923324000000,,19426,,2923,316345423,"""map""",,,0.386719465256,0.241290554404,0.0122884968296,,0.000624047333056,-0.000462567568728,0.0476772736788,-0.998862523738
2923356000000,,19427,,2923,348344195,"""map""",,,0.386865228415,0.241270810366,0.0124427853152,,0.0006341595618,-0.000441706411889,0.0476874310693,-0.998862060123
2923392000000,,19428,,2923,388344195,"""map""",,,0.386952519417,0.241147100925,0.0126865645871,,0.000659955264665,-0.000448538132035,0.0477042898087,-0.998861217186
2923424000000,,19429,,2923,420344195,"""map""",,,0.386918544769,0.240961700678,0.0129367206246,,0.000722811156524,-0.00042162444697,0.0476982628094,-0.998861512214
2923456000000,,19430,,2923,452342968,"""map""",,,0.38677868247,0.240730822086,0.0132937366143,,0.000722397436226,-0.000416350153716,0.0477083359061,-0.998860964305
2923492000000,,19431,,2923,484342968,"""map""",,,0.387038171291,0.240945264697,0.0135470153764,,0.000760106013736,-0.000436483433658,0.047655230877,-0.998863493116
2923524000000,,19432,,2923,516353741,"""map""",,,0.387177973986,0.241060361266,0.0138319479302,,0.000754268325365,-0.000425217815657,0.0476751241895,-0.998862565885
2923556000000,,19433,,2923,548353741,"""map""",,,0.387223899364,0.241087630391,0.014098119922,,0.00072974189501,-0.000422660121396,0.0476751663364,-0.998862608032
2923592000000,,19434,,2923,588353741,"""map""",,,0.387177944183,0.240998417139,0.0144389597699,,0.00075140261749,-0.000410207168227,0.0476578018348,-0.998863366675
2923624000000,,19435,,2923,620352515,"""map""",,,0.387068510056,0.240818321705,0.0145575404167,,0.000735936596822,-0.000424585931912,0.0476974198724,-0.998861512214
2923656000000,,19436,,2923,652352515,"""map""",,,0.386886298656,0.240541309118,0.0147422598675,,0.000757139075222,-0.000410405842873,0.0477122555631,-0.99886075357
2923692000000,,19437,,2923,684352515,"""map""",,,0.387383311987,0.240674778819,0.0147330407053,,0.000769460175433,-0.00036344118564,0.0477506513421,-0.998858941256
2923724000000,,19438,,2923,716352515,"""map""",,,0.387758821249,0.240694075823,0.0148824369535,,0.000814242498485,-0.000335673923994,0.0477485861465,-0.998858983403
2923756000000,,19439,,2923,748351290,"""map""",,,0.38799443841,0.240629017353,0.0150613440201,,0.000813695289158,-0.000318354244593,0.0477689852212,-0.998858056172
2923792000000,,19440,,2923,788351290,"""map""",,,0.388114482164,0.240446388721,0.0154266916215,,0.000784784485554,-0.000283212292855,0.0477806177513,-0.99885755041
2923824000000,,19441,,2923,820351290,"""map""",,,0.388110160828,0.240215912461,0.0158508028835,,0.000798213257627,-0.000243364526119,0.0477767823881,-0.998857676851
2923856000000,,19442,,2923,852350065,"""map""",,,0.388047546148,0.239914879203,0.0163512639701,,0.000801953666955,-0.000231067483362,0.0478192664114,-0.998855653802
2923892000000,,19443,,2923,884350065,"""map""",,,0.388435602188,0.240073397756,0.0164907537401,,0.000816446153045,-0.000263685131104,0.047832458375,-0.998855021599
2923924000000,,19444,,2923,916350065,"""map""",,,0.388709396124,0.240140795708,0.0166429560632,,0.000870441369707,-0.000235098701829,0.0478593059175,-0.998853715047
2923956000000,,19445,,2923,948348840,"""map""",,,0.388862460852,0.240107893944,0.0167354214936,,0.000869860903882,-0.000195200659336,0.0478908317602,-0.99885219776
2923992000000,,19446,,2923,988348840,"""map""",,,0.388907968998,0.239962026477,0.017020156607,,0.00080962710988,-0.000231032004277,0.0478899045295,-0.998852282054
2924020000000,,19447,,2924,20348840,"""map""",,,0.388842821121,0.239761799574,0.0173334628344,,0.000799515838084,-0.000246035932495,0.0479065103878,-0.998851523411
2924056000000,,19448,,2924,52347616,"""map""",,,0.388678789139,0.239488601685,0.017627870664,,0.000754791240574,-0.000230428304179,0.0479170892468,-0.998851059795
2924092000000,,19449,,2924,84347616,"""map""",,,0.388471335173,0.239124685526,0.0179637093097,,0.000747767760499,-0.000306133284307,0.0479130431494,-0.998851228383
2924124000000,,19450,,2924,124347616,"""map""",,,0.388139009476,0.238549754024,0.0182973202318,,0.000688577780121,-0.000333112453392,0.0479531669491,-0.998849289628
2924156000000,,19451,,2924,148346393,"""map""",,,0.387892454863,0.238142907619,0.0185058433563,,0.000686804319761,-0.000349522312396,0.0479758841005,-0.998848235956
2924192000000,,19452,,2924,188346393,"""map""",,,0.388082206249,0.238079145551,0.0181930158287,,0.000670461045781,-0.000360472765401,0.0479779492961,-0.998848109516
2924220000000,,19453,,2924,220346393,"""map""",,,0.388245820999,0.23807041347,0.0179294273257,,0.000664994406081,-0.000365482210575,0.0480189160328,-0.998846170761
2924256000000,,19454,,2924,252345170,"""map""",,,0.388320088387,0.237984076142,0.017811793834,,0.000688186954535,-0.000328681745363,0.0480222456339,-0.99884604432
2924292000000,,19455,,2924,284345170,"""map""",,,0.388339102268,0.237785458565,0.0177583899349,,0.000661835944303,-0.000381364740065,0.0480042910764,-0.998846887257
2924324000000,,19456,,2924,316355948,"""map""",,,0.388283669949,0.237491458654,0.017765102908,,0.000660509995805,-0.000354646817644,0.0480628751958,-0.998844021272
2924356000000,,19457,,2924,348355948,"""map""",,,0.3881508708,0.237120911479,0.0178960934281,,0.000679063376024,-0.000347084792218,0.0481088152607,-0.998841829635
2924392000000,,19458,,2924,388355948,"""map""",,,0.388497442007,0.236936226487,0.0175525061786,,0.000739551759217,-0.000394635163053,0.0481806756374,-0.998838331447
2924424000000,,19459,,2924,420355948,"""map""",,,0.388771116734,0.236749053001,0.0172599796206,,0.000712781904388,-0.000451679379049,0.048193867601,-0.998837699244
2924456000000,,19460,,2924,452354726,"""map""",,,0.388947576284,0.236478164792,0.017112987116,,0.000689254743296,-0.000432256925875,0.0481867447836,-0.998838078566
2924492000000,,19461,,2924,484354726,"""map""",,,0.389040052891,0.236125379801,0.0170861072838,,0.000713539076226,-0.000441721187981,0.0482247190941,-0.998836181958
2924524000000,,19462,,2924,516353504,"""map""",,,0.389052510262,0.235669359565,0.0171681698412,,0.000686958820477,-0.000418324830292,0.0482210944651,-0.998836434839
2924556000000,,19463,,2924,552353504,"""map""",,,0.388956606388,0.235121950507,0.0172043181956,,0.000689911240142,-0.000429103886799,0.0482285544573,-0.998836055517
2924592000000,,19464,,2924,584353504,"""map""",,,0.389095306396,0.235037818551,0.0170929413289,,0.000736915749608,-0.00040146857072,0.0482554862935,-0.998834664671
2924624000000,,19465,,2924,616353504,"""map""",,,0.389247953892,0.235024452209,0.0169372931123,,0.000777470731407,-0.000352684499067,0.0482685939634,-0.998834032469
2924656000000,,19466,,2924,648352283,"""map""",,,0.389308691025,0.234926357865,0.0168208722025,,0.000777926341309,-0.000367869321229,0.0482815751927,-0.998833442413
2924692000000,,19467,,2924,688352283,"""map""",,,0.389313340187,0.234683930874,0.0167605765164,,0.000771607647914,-0.000330288861496,0.0482349186314,-0.998835676196
2924728000000,,19468,,2924,720352283,"""map""",,,0.389249205589,0.23438373208,0.0169443693012,,0.000787248553307,-0.000370122099094,0.0481867447836,-0.998837994272
2924756000000,,19469,,2924,752345063,"""map""",,,0.389103204012,0.23397539556,0.0171602033079,,0.000775849394828,-0.000361359423552,0.0481935304262,-0.998837699244
2924792000000,,19470,,2924,784345063,"""map""",,,0.389514535666,0.234314963222,0.0169405955821,,0.000745027680278,-0.000382398871027,0.048186070434,-0.998838078566
2924824000000,,19471,,2924,824345063,"""map""",,,0.389843583107,0.234516337514,0.0168642494828,,0.000769817847418,-0.000339377310774,0.0482213894931,-0.998836308398
2924856000000,,19472,,2924,848343843,"""map""",,,0.389960974455,0.23451641202,0.016901569441,,0.000747683466802,-0.000319892830939,0.0482025077049,-0.998837319923
2924892000000,,19473,,2924,888343843,"""map""",,,0.390018463135,0.234336435795,0.0170175191015,,0.000781574472088,-0.000362119034063,0.0482414935398,-0.998835339021
2924924000000,,19474,,2924,920354624,"""map""",,,0.389914065599,0.234089419246,0.017128193751,,0.000803966384767,-0.000141032471843,0.048262861992,-0.998834369643
2924956000000,,19475,,2924,952354624,"""map""",,,0.389729350805,0.23374684155,0.0173453651369,,0.000804236058743,-0.000175402568259,0.0482932498698,-0.998832894504
2924992000000,,19476,,2924,984354624,"""map""",,,0.389882177114,0.234009578824,0.0175821967423,,0.000842130397252,-0.000217008381298,0.0483185801257,-0.998831587951
2925024000000,,19477,,2925,24354624,"""map""",,,0.389940828085,0.234123840928,0.0179355069995,,0.000871661323408,-0.000313066831898,0.0483142811472,-0.998831756539
2925056000000,,19478,,2925,48353405,"""map""",,,0.389903753996,0.234104022384,0.0181797854602,,0.000866231706258,-0.000323614986236,0.0483172314266,-0.998831672245
2925092000000,,19479,,2925,88353405,"""map""",,,0.389742910862,0.233961179852,0.0186554957181,,0.000902252403324,-0.000326781062436,0.0483378833824,-0.998830576427
2925124000000,,19480,,2925,120353405,"""map""",,,0.389536887407,0.233730390668,0.0190377216786,,0.000903836305763,-0.000430678703382,0.0483226262232,-0.99883133507
2925156000000,,19481,,2925,152352187,"""map""",,,0.389259338379,0.233404457569,0.0193916745484,,0.0008866204706,-0.000421158701656,0.0483364503895,-0.998830660721
2925192000000,,19482,,2925,184352187,"""map""",,,0.389440745115,0.233830809593,0.0198479555547,,0.000890213756969,-0.000531368162439,0.0483681026727,-0.998829101287
2925224000000,,19483,,2925,216352187,"""map""",,,0.389538198709,0.23408870399,0.0203119330108,,0.000938594202577,-0.000573505811907,0.0483740875252,-0.998828679819
2925256000000,,19484,,2925,248350969,"""map""",,,0.389542520046,0.234203636646,0.0208558365703,,0.000930734525323,-0.000597313955419,0.0483726545324,-0.998828764112
2925292000000,,19485,,2925,288350969,"""map""",,,0.389458179474,0.234141290188,0.0215220339596,,0.00092419255447,-0.000621054639278,0.0484126097448,-0.998826825357
2925324000000,,19486,,2925,320350969,"""map""",,,0.389327228069,0.233965054154,0.021991673857,,0.000902684923009,-0.000704001509883,0.0484532814536,-0.998824844456
2925356000000,,19487,,2925,352349752,"""map""",,,0.389123231173,0.233702763915,0.0225377269089,,0.000892724457906,-0.000691575906891,0.0484154335836,-0.998826698917
2925392000000,,19488,,2925,384349752,"""map""",,,0.389393061399,0.234035179019,0.0229144636542,,0.00093872203224,-0.000732332351861,0.0484267710859,-0.998826066714
2925424000000,,19489,,2925,416349752,"""map""",,,0.389535993338,0.234217226505,0.0233189761639,,0.000923186648314,-0.00068138832625,0.0484146327935,-0.99882665677
2925456000000,,19490,,2925,448348535,"""map""",,,0.389593541622,0.23424692452,0.023686029017,,0.000931221889418,-0.000716515903197,0.048458170488,-0.998824591574
2925492000000,,19491,,2925,488348535,"""map""",,,0.389546811581,0.234118461609,0.0240591242909,,0.000946692869749,-0.000710682886376,0.0484817305763,-0.998823369316
2925524000000,,19492,,2925,520347318,"""map""",,,0.389422148466,0.233888864517,0.0243403539062,,0.000957878454012,-0.000660474753384,0.0485228237536,-0.998821388414
2925556000000,,19493,,2925,552347318,"""map""",,,0.389259576797,0.233580395579,0.0246034301817,,0.000951995953745,-0.000631518767453,0.0485056278394,-0.998822315645
2925592000000,,19494,,2925,584347318,"""map""",,,0.38948404789,0.233923465014,0.024761274457,,0.00100055797242,-0.000635115614079,0.0484358326583,-0.998825603099
2925624000000,,19495,,2925,616358103,"""map""",,,0.389638870955,0.234173029661,0.0250196270645,,0.000976297069271,-0.000613402043403,0.0484565689078,-0.998824675868
2925656000000,,19496,,2925,648358103,"""map""",,,0.389722317457,0.234273403883,0.0252579096705,,0.000981435373084,-0.000641324978796,0.0484494039435,-0.998825013043
2925692000000,,19497,,2925,688358103,"""map""",,,0.389755159616,0.234217494726,0.025572637096,,0.000992820938793,-0.0006414731616,0.048441480336,-0.998825350218
2925724000000,,19498,,2925,720358103,"""map""",,,0.389698922634,0.234054803848,0.0258208978921,,0.000898492196502,-0.000674136125436,0.0484579597538,-0.998824633721
2925756000000,,19499,,2925,752356887,"""map""",,,0.389589041471,0.233787491918,0.0260929558426,,0.000924018863356,-0.000627438240466,0.0484944589246,-0.998822863554
2925792000000,,19500,,2925,784356887,"""map""",,,0.390090107918,0.234143897891,0.026495218277,,0.000929440495654,-0.000612203307182,0.0485363950388,-0.998820798358
2925824000000,,19501,,2925,816356887,"""map""",,,0.390492856503,0.234347313643,0.0268755853176,,0.000920859969408,-0.000641060254193,0.048507145126,-0.998822231351
2925856000000,,19502,,2925,848355672,"""map""",,,0.390809774399,0.23442055285,0.0272364970297,,0.00095392269034,-0.000661819223446,0.0484933209597,-0.998822905701
2925892000000,,19503,,2925,888355672,"""map""",,,0.391128063202,0.234348505735,0.0276869870722,,0.000966727059322,-0.000690255875004,0.0484894434496,-0.998823074288
2925924000000,,19504,,2925,920355672,"""map""",,,0.3912999928,0.234142020345,0.0277903731912,,0.000980651653671,-0.00045958847801,0.0485224022851,-0.998821557001
2925956000000,,19505,,2925,952354458,"""map""",,,0.391443669796,0.233827471733,0.02800735645,,0.0009794592971,-0.000486079974307,0.0485184826282,-0.998821683442
2925992000000,,19506,,2925,984354458,"""map""",,,0.391854703426,0.233864143491,0.0276053156704,,0.00101607593579,-0.000527461676418,0.0485462152545,-0.998820334743
2926024000000,,19507,,2926,16354458,"""map""",,,0.392198294401,0.233771845698,0.0273463279009,,0.000973296267163,-0.000566012336848,0.0485520315196,-0.998820081862
2926056000000,,19508,,2926,48353244,"""map""",,,0.392470210791,0.233578458428,0.0272002667189,,0.000999881873587,-0.000575738380686,0.0485527901629,-0.998819997568
2926092000000,,19509,,2926,88353244,"""map""",,,0.392730802298,0.233250483871,0.0270528886467,,0.000998328572888,-0.00063279035516,0.0485319274729,-0.998820966945
2926124000000,,19510,,2926,120353244,"""map""",,,0.392867445946,0.232897907495,0.0269956085831,,0.00104733352448,-0.000648792142943,0.0485181454534,-0.998821599148
2926156000000,,19511,,2926,152352030,"""map""",,,0.39294475317,0.232441708446,0.0269823558629,,0.00097975813225,-0.00066425098136,0.0485018767699,-0.998822442085
2926192000000,,19512,,2926,184352030,"""map""",,,0.393362343311,0.232569545507,0.0266349464655,,0.00103814463688,-0.000728489415384,0.0485083252377,-0.99882197847
2926224000000,,19513,,2926,216352030,"""map""",,,0.393710821867,0.232549652457,0.0262912511826,,0.00106496479833,-0.000761994729674,0.0485734842655,-0.998818775309
2926256000000,,19514,,2926,248356817,"""map""",,,0.394011259079,0.232404857874,0.0259974338114,,0.00108150474046,-0.000785053068815,0.0485450772896,-0.998820124009
2926292000000,,19515,,2926,288356817,"""map""",,,0.394296646118,0.232071772218,0.0256963614374,,0.00118089273035,-0.000755083737233,0.0485291879277,-0.998820756211
2926324000000,,19516,,2926,320356817,"""map""",,,0.394481390715,0.231737360358,0.0254360083491,,0.00121582829013,-0.000771370921743,0.0485042369934,-0.998821936323
2926356000000,,19517,,2926,352355604,"""map""",,,0.394635856152,0.231300488114,0.0252271704376,,0.00120302443563,-0.00078736575365,0.0484945010714,-0.998822484232
2926392000000,,19518,,2926,384355604,"""map""",,,0.395215511322,0.231516391039,0.0247653238475,,0.00120402145144,-0.000800130177792,0.0485308738017,-0.998820671918
2926424000000,,19519,,2926,416355604,"""map""",,,0.395703226328,0.23156106472,0.0244222953916,,0.00118774083179,-0.000803302469005,0.0484998115743,-0.998822231351
2926456000000,,19520,,2926,448354392,"""map""",,,0.396119713783,0.231479585171,0.0241588074714,,0.00119620539247,-0.000797654667827,0.0485084095314,-0.998821725589
2926492000000,,19521,,2926,488354392,"""map""",,,0.396543860435,0.23123562336,0.023785635829,,0.00124659271131,-0.000781254007867,0.0485496291493,-0.99881970254
2926524000000,,19522,,2926,520354392,"""map""",,,0.396832287312,0.230954706669,0.0234446842223,,0.00120072984019,-0.000764380307154,0.0485492919745,-0.998819786834
2926556000000,,19523,,2926,552353180,"""map""",,,0.397080749273,0.230608344078,0.0231386758387,,0.00127005514982,-0.000753415211824,0.0485464681356,-0.998819828981
2926592000000,,19524,,2926,584353180,"""map""",,,0.397757947445,0.231087267399,0.0223832763731,,0.00130755557582,-0.000623000905833,0.0485868026697,-0.998817932372
2926624000000,,19525,,2926,616353180,"""map""",,,0.398392021656,0.231432855129,0.0218554213643,,0.00135401788707,-0.000559434547348,0.0486012168919,-0.998817258023
2926656000000,,19526,,2926,648351969,"""map""",,,0.3989354074,0.231631144881,0.0212562605739,,0.00137019861374,-0.000566565802348,0.0486008375702,-0.998817215876
2926692000000,,19527,,2926,688351969,"""map""",,,0.399513185024,0.23169337213,0.0205229334533,,0.00138668753925,-0.00057250673815,0.0485929561095,-0.998817595198
2926724000000,,19528,,2926,720351969,"""map""",,,0.399899512529,0.231638297439,0.020029546693,,0.00141544222664,-0.000615301594456,0.0486567242913,-0.998814434184
2926756000000,,19529,,2926,752350758,"""map""",,,0.400216013193,0.231470271945,0.0196585971862,,0.00143219955019,-0.000638227998321,0.048661276151,-0.998814181303
2926792000000,,19530,,2926,784350758,"""map""",,,0.400771558285,0.23191820085,0.0191723313183,,0.00144864365351,-0.000712461522485,0.0486664602133,-0.998813801981
2926824000000,,19531,,2926,816350758,"""map""",,,0.401238203049,0.23221988976,0.0187133159488,,0.00147176527466,-0.00077630630124,0.0486610654167,-0.998813970569
2926856000000,,19532,,2926,848349548,"""map""",,,0.401648193598,0.232349425554,0.018348576501,,0.00149547489374,-0.000790314489582,0.0486474941315,-0.998814644918
2926892000000,,19533,,2926,888349548,"""map""",,,0.402082324028,0.232303917408,0.0179906096309,,0.00143146747507,-0.000786976018779,0.0486071174506,-0.998816667967
2926928000000,,19534,,2926,920360338,"""map""",,,0.402411162853,0.232120245695,0.0177858769894,,0.00142856930301,-0.000808654563119,0.0485999946332,-0.998817047289
2926956000000,,19535,,2926,944360338,"""map""",,,0.40262567997,0.231902971864,0.0176404733211,,0.00140469597388,-0.000805633593086,0.0485959485358,-0.998817215876
2926992000000,,19536,,2926,988360338,"""map""",,,0.403091341257,0.232125759125,0.017379924655,,0.00146595487473,-0.000815623116466,0.0485882356625,-0.998817510904
2927024000000,,19537,,2927,20360338,"""map""",,,0.403446435928,0.232285097241,0.0171566084027,,0.00146570135567,-0.000745622119594,0.0485984351999,-0.998817089435
2927056000000,,19538,,2927,52359128,"""map""",,,0.403756052256,0.23233474791,0.0169109012932,,0.00148732622864,-0.000757302311942,0.0485665300355,-0.998818564575
2927092000000,,19539,,2927,84359128,"""map""",,,0.404022216797,0.232263058424,0.0167236905545,,0.00148284226082,-0.000799256309809,0.0485350463397,-0.998820124009
2927124000000,,19540,,2927,116359128,"""map""",,,0.404253184795,0.232110634446,0.0165331438184,,0.00142116738622,-0.000820584467312,0.0485459202266,-0.998819618246
2927156000000,,19541,,2927,148357919,"""map""",,,0.40443906188,0.231845572591,0.0164488703012,,0.00142818749125,-0.000817614081729,0.0485498398835,-0.998819407512
2927192000000,,19542,,2927,188357919,"""map""",,,0.404483854771,0.232134491205,0.016475405544,,0.00144714398303,-0.000756270208062,0.0485491233871,-0.998819449659
2927224000000,,19543,,2927,220357919,"""map""",,,0.404458612204,0.232324317098,0.0165667589754,,0.00148396575833,-0.000764732751943,0.0485347934586,-0.998820124009
2927256000000,,19544,,2927,252356710,"""map""",,,0.404385536909,0.232363283634,0.0167028103024,,0.00148492291161,-0.000761108493403,0.0485334869063,-0.998820166155
2927292000000,,19545,,2927,284356710,"""map""",,,0.404286026955,0.232311055064,0.0168000608683,,0.00151363915648,-0.000795383841728,0.0485751279926,-0.998818143107
2927324000000,,19546,,2927,316356710,"""map""",,,0.404154986143,0.232184037566,0.0168738663197,,0.001529957272,-0.000766195461614,0.0486258306514,-0.998815656443
2927352000000,,19547,,2927,348355502,"""map""",,,0.403997778893,0.231978163123,0.0169385317713,,0.00152662664199,-0.000798536458924,0.0486454710828,-0.998814644918
2927392000000,,19548,,2927,388355502,"""map""",,,0.403971523046,0.232204556465,0.0168859064579,,0.00156757720324,-0.000824080783003,0.0486741730866,-0.998813169779
2927424000000,,19549,,2927,420355502,"""map""",,,0.403972834349,0.232346624136,0.0169704351574,,0.00156815824529,-0.000816605932406,0.048663509934,-0.998813717688
2927456000000,,19550,,2927,452354294,"""map""",,,0.40393486619,0.232374772429,0.0170703940094,,0.00155202382253,-0.000835616548308,0.0486695790801,-0.998813380513
2927492000000,,19551,,2927,484354294,"""map""",,,0.403873980045,0.232336059213,0.0172226764262,,0.00154636980634,-0.000829188906956,0.0487039287617,-0.998811736786
2927524000000,,19552,,2927,516354294,"""map""",,,0.403774350882,0.232226371765,0.0174118988216,,0.00157144129546,-0.000780413766813,0.0487382362964,-0.998810050912
2927556000000,,19553,,2927,548353087,"""map""",,,0.403688073158,0.232039898634,0.0175075680017,,0.00157662823896,-0.000797435413665,0.0487171628721,-0.998811062436
2927592000000,,19554,,2927,588353087,"""map""",,,0.403793007135,0.232456743717,0.017704801634,,0.00155346928657,-0.000820399930793,0.0486498965019,-0.99881434989
2927624000000,,19555,,2927,620353087,"""map""",,,0.403878241777,0.232791557908,0.0178132299334,,0.00164175997832,-0.00059643227751,0.0486626248501,-0.998813759834
2927656000000,,19556,,2927,652351880,"""map""",,,0.403942286968,0.232983723283,0.0180187560618,,0.00165410719394,-0.000597892270684,0.0486332484967,-0.99881515068
2927692000000,,19557,,2927,684351880,"""map""",,,0.403957664967,0.233068272471,0.0182280465961,,0.00158906221782,-0.000599692772528,0.0486289495182,-0.998815487855
2927724000000,,19558,,2927,716351880,"""map""",,,0.403941988945,0.233066827059,0.0184512212873,,0.00155894347895,-0.000636476640361,0.0486505708515,-0.998814434184
2927756000000,,19559,,2927,748350673,"""map""",,,0.403889983892,0.232946336269,0.0187391936779,,0.00157452097885,-0.000663410987261,0.0486456396702,-0.998814644918
2927792000000,,19560,,2927,788350673,"""map""",,,0.404064714909,0.233329936862,0.0191745907068,,0.00152681408022,-0.000644474828047,0.048643195153,-0.998814897799
2927824000000,,19561,,2927,820350673,"""map""",,,0.404200494289,0.233632907271,0.0195862278342,,0.00149954231158,-0.000663976923947,0.0486430687124,-0.998814855652
2927856000000,,19562,,2927,852337467,"""map""",,,0.404333174229,0.233823999763,0.0199925657362,,0.00152673962353,-0.00066851585965,0.0486793992958,-0.998813085485
2927892000000,,19563,,2927,884337467,"""map""",,,0.404417484999,0.233923479915,0.0203496962786,,0.00158911473674,-0.000663288744936,0.0486561763823,-0.998814139156
2927924000000,,19564,,2927,916337467,"""map""",,,0.40446010232,0.233936950564,0.0204997956753,,0.00161353550157,-0.000682154275252,0.0486207730296,-0.99881582503
2927956000000,,19565,,2927,948336262,"""map""",,,0.404481559992,0.233879625797,0.0205060839653,,0.00162631031837,-0.000693776227569,0.0486155889672,-0.998816035764
2927992000000,,19566,,2927,988336262,"""map""",,,0.40462988615,0.234361991286,0.0205843262374,,0.00159653673914,-0.000807252954031,0.0485948948646,-0.998817005142
2928024000000,,19567,,2928,20336262,"""map""",,,0.404744416475,0.234765648842,0.0207770559937,,0.00161811674876,-0.000772102647009,0.0485470160447,-0.998819281072
2928056000000,,19568,,2928,52335057,"""map""",,,0.404824793339,0.235062718391,0.0210644025356,,0.00160629994958,-0.000770396399348,0.0485639169309,-0.998818480281
2928092000000,,19569,,2928,84335057,"""map""",,,0.404901713133,0.235250458121,0.0212971605361,,0.0015361907662,-0.000759072932328,0.0485971286475,-0.998817047289
2928124000000,,19570,,2928,116335057,"""map""",,,0.404948413372,0.235340893269,0.021633464843,,0.00157435539607,-0.000744879816456,0.0486480420405,-0.998814518478
2928156000000,,19571,,2928,148333852,"""map""",,,0.405007392168,0.235322609544,0.0220720972866,,0.00154579152194,-0.000719491608585,0.0486511609073,-0.998814434184
2928192000000,,19572,,2928,188333852,"""map""",,,0.405224055052,0.235747650266,0.0226857122034,,0.00159550039588,-0.00073764722792,0.0486898095674,-0.998812453282
2928224000000,,19573,,2928,220344649,"""map""",,,0.405399858952,0.2360458076,0.0232696253806,,0.00158172776068,-0.000723152992572,0.0487201131515,-0.998810978142
2928256000000,,19574,,2928,252344649,"""map""",,,0.405534535646,0.236250415444,0.0235946346074,,0.00155662795414,-0.000746068077703,0.0487247493048,-0.998810809555
2928292000000,,19575,,2928,284344649,"""map""",,,0.405692845583,0.236362874508,0.023940961808,,0.00153017734934,-0.000531997977943,0.0487459491696,-0.998809924471
2928324000000,,19576,,2928,316355445,"""map""",,,0.405840992928,0.236397877336,0.0242510754615,,0.00156187988775,-0.000533969783677,0.0486855527357,-0.998812832604
2928356000000,,19577,,2928,348355445,"""map""",,,0.406003326178,0.236358836293,0.0246214810759,,0.00154986630725,-0.000518217316728,0.048676027548,-0.998813338366
2928392000000,,19578,,2928,388355445,"""map""",,,0.406362593174,0.236939281225,0.0255036205053,,0.00158721767581,-0.000530564655822,0.0486850048267,-0.998812790457
