rosbagTimestamp,header,seq,stamp,secs,nsecs,frame_id,pose,position,x,y,z,orientation,x,y,z,w
861740000000,,11127,,861,736060918,"""map""",,,10.0082235336,0.907342255116,-0.0134167969227,,0.0049301769954,0.00297359648116,0.0628455872831,-0.998006689832
861772000000,,11128,,861,768060587,"""map""",,,10.0083007812,0.907714366913,-0.0131903858855,,0.00494992666288,0.00294422942969,0.0628704539237,-0.998005172546
861808000000,,11129,,861,800060587,"""map""",,,10.0084342957,0.908184945583,-0.0128742242232,,0.00488915510554,0.00291515114998,0.0629381839093,-0.998001168595
861840000000,,11130,,861,832060587,"""map""",,,10.0086164474,0.908731579781,-0.0126021932811,,0.00491482722842,0.00294378524142,0.0629262563511,-0.998001800798
861872000000,,11131,,861,864060257,"""map""",,,10.0088243484,0.909370422363,-0.0124219562858,,0.00503644475861,0.00289166918151,0.0628932553687,-0.998003360231
861908000000,,11132,,861,904060257,"""map""",,,10.0088586807,0.909540176392,-0.0121868150309,,0.00515497766633,0.00294241448102,0.0629392797273,-0.997999735602
861940000000,,11133,,861,936060257,"""map""",,,10.0088920593,0.90962857008,-0.011995844543,,0.00513539749174,0.00295357252989,0.0629063630386,-0.998001800798
861972000000,,11134,,861,968059927,"""map""",,,10.0089769363,0.909843742847,-0.0118801994249,,0.00510263885374,0.00290902199393,0.0629156774922,-0.998001590064
862008000000,,11135,,862,59927,"""map""",,,10.0091085434,0.910150468349,-0.0118142161518,,0.00505463713296,0.00290551302184,0.0629516709008,-0.997999567015
862040000000,,11136,,862,32059927,"""map""",,,10.0092601776,0.910570144653,-0.0117647526786,,0.00508904995245,0.00285367643175,0.0629638091932,-0.997998724078
862072000000,,11137,,862,64059597,"""map""",,,10.0094385147,0.911094248295,-0.0116927186027,,0.00508673459228,0.00283871026695,0.0629840396804,-0.99799762826
862108000000,,11138,,862,104059597,"""map""",,,10.0094566345,0.911439180374,-0.0113099711016,,0.0050508047332,0.00281840503486,0.0629462339573,-0.998000199218
862140000000,,11139,,862,136059597,"""map""",,,10.0094804764,0.911746442318,-0.0110249314457,,0.0050416047841,0.00284838996571,0.0629405019859,-0.998000536392
862172000000,,11140,,862,168059268,"""map""",,,10.0095615387,0.912185788155,-0.0107481442392,,0.00505237774907,0.00279407469642,0.0628995352492,-0.998003149497
862208000000,,11141,,862,200059268,"""map""",,,10.009677887,0.912755846977,-0.0105653209612,,0.0050694999886,0.00278678255077,0.0628978915221,-0.998003275938
862240000000,,11142,,862,232059268,"""map""",,,10.0098667145,0.913430154324,-0.0104425745085,,0.00505853711586,0.00277721727411,0.0629769590099,-0.997998302609
862272000000,,11143,,862,264058939,"""map""",,,10.0100488663,0.914190769196,-0.0103400116786,,0.00503838178496,0.00278015627593,0.0630192322989,-0.997995731652
862308000000,,11144,,862,304058939,"""map""",,,10.0101556778,0.914683818817,-0.00992746930569,,0.00500886837197,0.00280105790238,0.0630647087485,-0.997992992106
862340000000,,11145,,862,336058939,"""map""",,,10.0102396011,0.915105760098,-0.00956766493618,,0.00502998229672,0.00287002693943,0.0630501259389,-0.997993582162
862372000000,,11146,,862,368058611,"""map""",,,10.0103750229,0.915629804134,-0.00921317003667,,0.00503600295756,0.00283763157104,0.0630231941027,-0.997995394477
862408000000,,11147,,862,400058611,"""map""",,,10.0105638504,0.916258454323,-0.00887804105878,,0.00500616726936,0.00291578401125,0.0630652145107,-0.997992570638
862440000000,,11148,,862,432058611,"""map""",,,10.0107936859,0.91699552536,-0.00867503974587,,0.00523560730402,0.00285953327965,0.0630872151656,-0.997990210414
862472000000,,11149,,862,464058283,"""map""",,,10.0110359192,0.917817413807,-0.00849257502705,,0.00529359297113,0.00288091210392,0.0631180245119,-0.997987892338
862508000000,,11150,,862,504058283,"""map""",,,10.0110273361,0.917952001095,-0.00802841410041,,0.00522029754362,0.00292120918323,0.0631381285586,-0.997986838667
862540000000,,11151,,862,536058283,"""map""",,,10.0110244751,0.918041646481,-0.00769439805299,,0.00523050737072,0.00289681364888,0.063131047888,-0.997987344429
862572000000,,11152,,862,568057955,"""map""",,,10.0110883713,0.91825646162,-0.00744457030669,,0.00523006754531,0.00288703747335,0.063177240834,-0.997984478443
862608000000,,11153,,862,600057955,"""map""",,,10.0112075806,0.918569862843,-0.00723016494885,,0.0053108097118,0.00285988436619,0.0632085559425,-0.997982160366
862640000000,,11154,,862,632057955,"""map""",,,10.0113649368,0.919012069702,-0.00711110467091,,0.00529196011003,0.00291349128855,0.0632359092471,-0.997980348052
862672000000,,11155,,862,664057628,"""map""",,,10.0115270615,0.919542789459,-0.00706200813875,,0.00530903575753,0.00289771758354,0.0632627989365,-0.997978577884
862708000000,,11156,,862,704057628,"""map""",,,10.0114326477,0.919633448124,-0.00689050927758,,0.00524802457231,0.0028727478807,0.0633271571742,-0.997974911108
862740000000,,11157,,862,736057628,"""map""",,,10.0113162994,0.919725298882,-0.00681780697778,,0.00525307075192,0.00293301285267,0.0633866685243,-0.997970949305
862772000000,,11158,,862,768057302,"""map""",,,10.01121521,0.919959425926,-0.00677514541894,,0.00528808037737,0.00290588798061,0.0634026843267,-0.997969853487
862808000000,,11159,,862,800057302,"""map""",,,10.0111322403,0.920331835747,-0.00676147732884,,0.00526048950276,0.00309914955565,0.0633655108063,-0.997971792242
862840000000,,11160,,862,832057302,"""map""",,,10.0111341476,0.920820653439,-0.00657510198653,,0.00521144612921,0.00307320578316,0.0633310768311,-0.997974278906
862872000000,,11161,,862,864056976,"""map""",,,10.0111446381,0.921402573586,-0.00637335749343,,0.00522560903435,0.0030627504836,0.0633941285164,-0.997970232808
862908000000,,11162,,862,904056976,"""map""",,,10.0110044479,0.921328365803,-0.00599206984043,,0.00522553593591,0.00299915352338,0.0633987225229,-0.997970106368
862940000000,,11163,,862,936056976,"""map""",,,10.0109167099,0.921225547791,-0.00581846898422,,0.00523740389576,0.00301855984221,0.063471889452,-0.997965301627
862972000000,,11164,,862,968056650,"""map""",,,10.0108633041,0.921289920807,-0.00561187043786,,0.00526344644992,0.00298491505025,0.0634579388451,-0.997966186711
863008000000,,11165,,863,56650,"""map""",,,10.0108289719,0.921470046043,-0.00530309183523,,0.0052370832669,0.00293555615156,0.0635251209216,-0.997962224907
863040000000,,11166,,863,32056650,"""map""",,,10.01080513,0.921796917915,-0.00485088909045,,0.00524338496162,0.00291705228566,0.0636077287447,-0.997956914404
863072000000,,11167,,863,64056325,"""map""",,,10.0108175278,0.922262430191,-0.00438402500004,,0.00521631713598,0.00291177635633,0.063671075458,-0.997953079041
863108000000,,11168,,863,104056325,"""map""",,,10.0106153488,0.922271132469,-0.00391851086169,,0.00523620542707,0.00289799672409,0.0636839723937,-0.997952236104
863140000000,,11169,,863,136056325,"""map""",,,10.0104570389,0.922313094139,-0.00355675979517,,0.00519911652966,0.00291539316509,0.0637331577659,-0.997949159384
863172000000,,11170,,863,168056001,"""map""",,,10.0103359222,0.922500967979,-0.00314008025452,,0.00520356549172,0.00288739991978,0.0637232532565,-0.99794987588
863208000000,,11171,,863,200056001,"""map""",,,10.0102453232,0.922802567482,-0.00273862085305,,0.00521102630708,0.00292239546884,0.0636916009732,-0.997951688195
863240000000,,11172,,863,232056001,"""map""",,,10.0101995468,0.923239767551,-0.00232795486227,,0.00514305084906,0.00292464950206,0.0636693052904,-0.997953584803
863272000000,,11173,,863,272055677,"""map""",,,10.0101690292,0.923936128616,-0.00194349547382,,0.00517573284895,0.0031075723399,0.0637063523702,-0.997950508083
863308000000,,11174,,863,304055677,"""map""",,,10.0099592209,0.923664569855,-0.00141335371882,,0.00523081877995,0.00313379558221,0.063728395172,-0.997948611475
863340000000,,11175,,863,336055677,"""map""",,,10.0097837448,0.923591434956,-0.000850417593028,,0.0052478855371,0.0030889290272,0.0637516180855,-0.997947220629
863372000000,,11176,,863,368055353,"""map""",,,10.0096406937,0.923701286316,-0.000383995880838,,0.00523400983968,0.00303097134823,0.0637834389561,-0.997945408315
863408000000,,11177,,863,400055353,"""map""",,,10.0095062256,0.923988938332,4.75648776046e-05,,0.00514687016025,0.00302272085568,0.0637641778464,-0.997947136335
863440000000,,11178,,863,432055353,"""map""",,,10.0093889236,0.924437642097,0.000478582922369,,0.00522671769403,0.00296870999859,0.063801014192,-0.997944523231
863472000000,,11179,,863,472055030,"""map""",,,10.0093002319,0.925164043903,0.00131229136605,,0.00523184899052,0.00295265344871,0.0637831860751,-0.997945745489
863508000000,,11180,,863,504055030,"""map""",,,10.009016037,0.925136387348,0.00189404189587,,0.00527497723498,0.00290728681147,0.0638471228442,-0.997941572951
863540000000,,11181,,863,536055030,"""map""",,,10.0087356567,0.925300717354,0.00251752510667,,0.00520775992632,0.00290083867292,0.0638598511925,-0.997941151483
863572000000,,11182,,863,568054707,"""map""",,,10.0084848404,0.925639688969,0.00315217557363,,0.00525712359946,0.0029042145367,0.0638410115512,-0.997942036567
863608000000,,11183,,863,600054707,"""map""",,,10.0082654953,0.926134169102,0.00389236910269,,0.00518519399326,0.00294737167481,0.0638659203387,-0.997940645721
863640000000,,11184,,863,632054707,"""map""",,,10.0080804825,0.926757752895,0.00473726773635,,0.00516636208987,0.00297207977084,0.0638702614641,-0.99794051928
863672000000,,11185,,863,664054385,"""map""",,,10.0079345703,0.927513957024,0.00566695490852,,0.00516863571479,0.00299206165757,0.0639083200683,-0.997937948322
863708000000,,11186,,863,704054385,"""map""",,,10.0075721741,0.927823185921,0.00691687129438,,0.00523264953368,0.00299246666244,0.0638673111847,-0.997940266399
863740000000,,11187,,863,736054385,"""map""",,,10.007276535,0.928097426891,0.00793521199375,,0.0052355520686,0.00299559837085,0.0638205281828,-0.997943132385
863772000000,,11188,,863,768054063,"""map""",,,10.0069856644,0.928485631943,0.00891292188317,,0.00530312713157,0.00304123566989,0.0638362489573,-0.997941741539
863808000000,,11189,,863,800054063,"""map""",,,10.0067577362,0.929039239883,0.00978190544993,,0.00528387911037,0.00305070562223,0.0638155548547,-0.997943048091
863840000000,,11190,,863,832054063,"""map""",,,10.0065345764,0.929761052132,0.0104655632749,,0.00528773744032,0.00332053773125,0.0638064932823,-0.997942753063
863872000000,,11191,,863,872053742,"""map""",,,10.006278038,0.930856406689,0.0113556617871,,0.005286060786,0.00328068854453,0.0638057767859,-0.997942963797
863908000000,,11192,,863,904053742,"""map""",,,10.0059900284,0.930760741234,0.0118891801685,,0.00529673538089,0.00325986709587,0.0638214975603,-0.99794199442
863940000000,,11193,,863,936053742,"""map""",,,10.0057277679,0.930869400501,0.0124987829477,,0.00528036503456,0.00318335171498,0.0638214554135,-0.997942289448
863972000000,,11194,,863,968053421,"""map""",,,10.0054960251,0.931183636189,0.0131426295266,,0.00521459454818,0.00317988085615,0.0637887073122,-0.997944691818
864008000000,,11195,,864,53421,"""map""",,,10.0052671432,0.93165487051,0.0137498816475,,0.00522249708228,0.00312684168148,0.063865288136,-0.997940013518
864040000000,,11196,,864,32053421,"""map""",,,10.0050649643,0.932239830494,0.0143785430118,,0.00525094406475,0.00316293732914,0.0638600197799,-0.997940055665
864072000000,,11197,,864,64053101,"""map""",,,10.0048646927,0.932945549488,0.0150843691081,,0.005252225757,0.00317107216481,0.063856100123,-0.997940350693
864108000000,,11198,,864,104053101,"""map""",,,10.004527092,0.932972371578,0.0159310828894,,0.00519757479465,0.00315263258932,0.0638575752627,-0.997940561427
864140000000,,11199,,864,136053101,"""map""",,,10.0042619705,0.933041870594,0.0166303664446,,0.00516680751291,0.0030804094369,0.0638540349274,-0.997941151483
864172000000,,11200,,864,168052781,"""map""",,,10.0040044785,0.933301568031,0.0172982122749,,0.00513473211484,0.00309090630709,0.0638681962685,-0.99794039284
864208000000,,11201,,864,200052781,"""map""",,,10.0037612915,0.933733463287,0.0179910548031,,0.0050750045975,0.00300412676918,0.0638991320553,-0.997938959847
864240000000,,11202,,864,232052781,"""map""",,,10.0035018921,0.934285521507,0.0186724103987,,0.00511674100815,0.00306413548502,0.0638754876733,-0.997940097812
864272000000,,11203,,864,272052461,"""map""",,,10.0031480789,0.935179054737,0.0193307138979,,0.00517918263435,0.00303475213457,0.0638761620229,-0.997939844931
864308000000,,11204,,864,304052461,"""map""",,,10.0028467178,0.936051368713,0.0196238663048,,0.00515750441929,0.00304594500398,0.0639086993899,-0.997937737588
864340000000,,11205,,864,336052461,"""map""",,,10.0025339127,0.937053203583,0.0200115833431,,0.00512317342395,0.00303662240098,0.0638971090066,-0.997938706966
864372000000,,11206,,864,368052143,"""map""",,,10.0022287369,0.938162207603,0.020352659747,,0.00511502475884,0.00311974833395,0.0639111017603,-0.997937611148
864408000000,,11207,,864,400052143,"""map""",,,10.0019721985,0.937752783298,0.021101878956,,0.00518787682127,0.00310314848485,0.0639567046504,-0.997934407987
864440000000,,11208,,864,432052143,"""map""",,,10.001709938,0.937574982643,0.0217964425683,,0.00521220493712,0.00304436400326,0.0639630266776,-0.997934070812
864472000000,,11209,,864,464051824,"""map""",,,10.0014429092,0.937638938427,0.0224687047303,,0.0052125165933,0.00300991998522,0.0640086717146,-0.997931246973
864508000000,,11210,,864,504051824,"""map""",,,10.0011367798,0.937982559204,0.0232800301164,,0.00518396160953,0.00305495306967,0.0640444965358,-0.99792888675
864540000000,,11211,,864,536051824,"""map""",,,10.0009431839,0.938458204269,0.0239969715476,,0.00517205899377,0.00306275888004,0.0640677194493,-0.99792741161
864572000000,,11212,,864,568063506,"""map""",,,10.0007591248,0.939099431038,0.0244947634637,,0.00516830882976,0.00308255052973,0.0640711754909,-0.997927158729
864608000000,,11213,,864,600063506,"""map""",,,10.0005645752,0.938602745533,0.024614688009,,0.00514224923576,0.00311703224944,0.0640733671271,-0.997927158729
864640000000,,11214,,864,632063506,"""map""",,,10.0003986359,0.938362360001,0.0249460749328,,0.0051984709914,0.00328506267947,0.0640631675897,-0.997926905848
864672000000,,11215,,864,664063189,"""map""",,,10.0002117157,0.938326954842,0.0254955142736,,0.00521340538144,0.00326180692103,0.0640595008139,-0.997927116582
864708000000,,11216,,864,704063189,"""map""",,,9.99998569489,0.938566625118,0.0262740217149,,0.00520593164213,0.00326698958399,0.0639837207803,-0.997932005617
864740000000,,11217,,864,736063189,"""map""",,,9.99979782104,0.938938736916,0.0268869437277,,0.00511918494914,0.00323233096276,0.0640170589374,-0.997930530477
864772000000,,11218,,864,768062872,"""map""",,,9.99956703186,0.939456343651,0.0274509433657,,0.00514525812562,0.00319429334966,0.064005215673,-0.997931246973
864808000000,,11219,,864,800062872,"""map""",,,9.99923229218,0.938807368279,0.0281386002898,,0.00517047832232,0.00314082225211,0.064009388211,-0.997930951945
864840000000,,11220,,864,832062872,"""map""",,,9.9989118576,0.938429951668,0.0286700483412,,0.00513771458059,0.00314818659071,0.0639790003332,-0.997933101435
864872000000,,11221,,864,864062555,"""map""",,,9.99859237671,0.938276171684,0.0291702840477,,0.00512061678953,0.00315751289803,0.0639873454092,-0.997932595673
864908000000,,11222,,864,904062555,"""map""",,,9.99818897247,0.938371777534,0.0299085285515,,0.00507506345492,0.00320268295974,0.0639639117615,-0.997934197253
864940000000,,11223,,864,936062555,"""map""",,,9.99785804749,0.938671350479,0.0306013915688,,0.00498585742746,0.00315779220322,0.0640431478367,-0.997929645393
864972000000,,11224,,864,968062239,"""map""",,,9.99749851227,0.939160645008,0.0313883908093,,0.00501786845281,0.00310591420715,0.0640577306463,-0.997928802456
865008000000,,11225,,865,62239,"""map""",,,9.99716758728,0.938523352146,0.0321574173868,,0.00497025650806,0.00314268782639,0.0640498913324,-0.997929392512
865040000000,,11226,,865,32062239,"""map""",,,9.9968290329,0.938167512417,0.0328932926059,,0.0049751893357,0.00312247083926,0.064037205131,-0.997930277596
865072000000,,11227,,865,72061923,"""map""",,,9.99634933472,0.938052296638,0.0338005907834,,0.00497706223628,0.00317985904187,0.064013560749,-0.997931584148
865108000000,,11228,,865,104061923,"""map""",,,9.99595928192,0.938208401203,0.0344817228615,,0.00497115418655,0.0031678592908,0.0640315574533,-0.997930530477
865140000000,,11229,,865,136061923,"""map""",,,9.99556255341,0.938531637192,0.0352502390742,,0.00498138986152,0.00323763348082,0.0640671293935,-0.997928001666
865172000000,,11230,,865,168061607,"""map""",,,9.99516677856,0.939033687115,0.0359400622547,,0.00499002255684,0.00323675448854,0.0640760223785,-0.99792728517
865208000000,,11231,,865,200061607,"""map""",,,9.99486637115,0.9384085536,0.035913284868,,0.00498573699613,0.00328099723727,0.0640558340381,-0.997928423135
865240000000,,11232,,865,232061607,"""map""",,,9.99457454681,0.93803524971,0.0358938165009,,0.00498305729621,0.00325913693464,0.0640295344046,-0.997930193302
865272000000,,11233,,865,264061292,"""map""",,,9.99423217773,0.937889814377,0.0359912142158,,0.00495500190076,0.00331335696194,0.0640150358887,-0.997931204827
865308000000,,11234,,865,304061292,"""map""",,,9.99378585815,0.93798148632,0.0361965298653,,0.00504556782263,0.00319331590498,0.0640772024903,-0.997927116582
865340000000,,11235,,865,336061292,"""map""",,,9.99339771271,0.93823993206,0.0363842509687,,0.00504396089172,0.00321743847262,0.0640637154987,-0.997927959519
865372000000,,11236,,865,368060977,"""map""",,,9.99300956726,0.93865609169,0.0366130545735,,0.00502867212242,0.00316292152407,0.064097306537,-0.997926062911
865408000000,,11237,,865,400060977,"""map""",,,9.99265098572,0.937928795815,0.0365078672767,,0.00505195521045,0.00323533022141,0.0641585880547,-0.997921763933
865440000000,,11238,,865,432060977,"""map""",,,9.9922914505,0.937460780144,0.0365098826587,,0.00501280210527,0.00322863875066,0.0641606532503,-0.997921721786
865472000000,,11239,,865,472060663,"""map""",,,9.99181175232,0.937215983868,0.0367064066231,,0.00501235026142,0.00325968920653,0.06417603685,-0.997920668114
865508000000,,11240,,865,504060663,"""map""",,,9.99139881134,0.937237620354,0.0369026400149,,0.00496759549434,0.0032078104696,0.0641978267707,-0.997919698737
865540000000,,11241,,865,536060663,"""map""",,,9.99096012115,0.937429845333,0.0371185578406,,0.00498548930108,0.0032076045098,0.0641758261158,-0.997921047436
865572000000,,11242,,865,568060349,"""map""",,,9.99050712585,0.937805831432,0.0373028628528,,0.00502485536309,0.00317870996402,0.0641856041846,-0.997920288793
865608000000,,11243,,865,600060349,"""map""",,,9.99035549164,0.937090218067,0.0374302044511,,0.00503442385015,0.00343069033083,0.0641651629631,-0.997920752408
865640000000,,11244,,865,632060349,"""map""",,,9.99016571045,0.936567127705,0.0377111360431,,0.00503037223738,0.00340977520421,0.0641725386616,-0.997920373087
865672000000,,11245,,865,664060035,"""map""",,,9.98996162415,0.936245203018,0.0381939932704,,0.00502137067482,0.00338745046307,0.0641124372556,-0.997924250597
865704000000,,11246,,865,704060035,"""map""",,,9.98973083496,0.936138093472,0.0387688204646,,0.00496746864221,0.00334915560603,0.0641201922757,-0.997924250597
865740000000,,11247,,865,736060035,"""map""",,,9.98950958252,0.936204731464,0.0394408740103,,0.00499380449563,0.00337775224274,0.0641505801535,-0.997922101107
865772000000,,11248,,865,768059722,"""map""",,,9.9892988205,0.936500191689,0.040171764791,,0.00498260545236,0.00335010572112,0.0641168205279,-0.99792433489
865808000000,,11249,,865,800059722,"""map""",,,9.98925495148,0.936050355434,0.0405722819269,,0.00494881849711,0.003255124176,0.0641051879977,-0.997925599296
865840000000,,11250,,865,832059722,"""map""",,,9.98925685883,0.935553967953,0.0409269370139,,0.00494944444366,0.00317592399148,0.0640870648528,-0.997927032289
865872000000,,11251,,865,864059409,"""map""",,,9.98920345306,0.935314774513,0.04132091254,,0.00492361451706,0.00319506574005,0.0640937662017,-0.997926652967
865908000000,,11252,,865,904059409,"""map""",,,9.98907661438,0.935310304165,0.0416435860097,,0.00495616571354,0.00314830051891,0.0641364188124,-0.997923955569
865940000000,,11253,,865,936059409,"""map""",,,9.98894500732,0.935492873192,0.041920889169,,0.00497136549702,0.00314664436179,0.0641388211828,-0.997923660541
865972000000,,11254,,865,968059097,"""map""",,,9.98878955841,0.935842037201,0.0422817394137,,0.00494028787619,0.0031173979886,0.0641529825239,-0.997923070485
866008000000,,11255,,866,59097,"""map""",,,9.98881626129,0.935150563717,0.0420193709433,,0.00492929643907,0.00313389617489,0.0641220045902,-0.997924967093
866040000000,,11256,,866,32059097,"""map""",,,9.98878574371,0.934697628021,0.0418148972094,,0.00490419889629,0.00305481987905,0.0641843397792,-0.997921384611
866072000000,,11257,,866,64058785,"""map""",,,9.98867034912,0.934434831142,0.0417494997382,,0.00491624202897,0.00310530291321,0.0642193216634,-0.9979188558
866108000000,,11258,,866,104058785,"""map""",,,9.98845291138,0.93435895443,0.0418468751013,,0.00484736098994,0.00306424126373,0.0642323028928,-0.997918518625
866140000000,,11259,,866,136058785,"""map""",,,9.98820400238,0.934514522552,0.0420101545751,,0.00487431776851,0.00309293676444,0.0642837641948,-0.997915020437
866172000000,,11260,,866,168058473,"""map""",,,9.9878988266,0.934825241566,0.0421496070921,,0.0048644451162,0.00302665335421,0.0642680012735,-0.997916284842
866208000000,,11261,,866,200058473,"""map""",,,9.98778343201,0.934112906456,0.0425006709993,,0.00487352339919,0.00301117533569,0.0642612156309,-0.997916748458
866240000000,,11262,,866,232058473,"""map""",,,9.98760604858,0.933670639992,0.0429405495524,,0.00483973290426,0.00304322727312,0.0642886532292,-0.997915020437
866272000000,,11263,,866,264058162,"""map""",,,9.98742008209,0.933490216732,0.0433627404273,,0.00487434847315,0.0030602554231,0.0642998642909,-0.997914008912
866308000000,,11264,,866,304058162,"""map""",,,9.98711299896,0.933530390263,0.0438996292651,,0.00486279216948,0.0030764952953,0.0643216542116,-0.997912618066
866340000000,,11265,,866,336058162,"""map""",,,9.98680114746,0.933769881725,0.0443099923432,,0.00491798108038,0.00309009004117,0.0643553295436,-0.997910131402
866372000000,,11266,,866,368057851,"""map""",,,9.98642539978,0.934175372124,0.0447157993913,,0.00490413773396,0.00307574241429,0.0643342139725,-0.997911606542
866408000000,,11267,,866,400057851,"""map""",,,9.98631572723,0.933814227581,0.0448482334614,,0.00491601680675,0.00312857916885,0.0643842844285,-0.9979081505
866440000000,,11268,,866,432057851,"""map""",,,9.98620033264,0.933632254601,0.0451270453632,,0.00488352537318,0.00315648713264,0.0643893420503,-0.997907981913
866472000000,,11269,,866,464057541,"""map""",,,9.9860496521,0.933634757996,0.0454347096384,,0.00483123858561,0.00310325401661,0.064371640374,-0.9979094992
866508000000,,11270,,866,504057541,"""map""",,,9.98579883575,0.933908522129,0.0459826439619,,0.00480401196843,0.00315526627344,0.0643462258243,-0.997911142927
866540000000,,11271,,866,536057541,"""map""",,,9.98556613922,0.934296905994,0.0464704409242,,0.00480551287368,0.00311654377405,0.0643305050498,-0.997912196598
866572000000,,11272,,866,568057231,"""map""",,,9.98530387878,0.934836149216,0.0470023751259,,0.00483655139343,0.00309891717175,0.0643036996542,-0.997913882472
866608000000,,11273,,866,600057231,"""map""",,,9.98527240753,0.934441685677,0.0471649840474,,0.00483955048744,0.00319169020554,0.0643570575644,-0.997910089255
866640000000,,11274,,866,632057231,"""map""",,,9.98515892029,0.934264183044,0.0474871173501,,0.00479984305242,0.00321438809446,0.0643660348431,-0.997909709934
866672000000,,11275,,866,664056921,"""map""",,,9.98499202728,0.934272110462,0.0479133352637,,0.00478574707186,0.00320709784212,0.0643654026404,-0.997909836374
866708000000,,11276,,866,704056921,"""map""",,,9.98469924927,0.934527993202,0.0483631901443,,0.00473145633335,0.00314385484957,0.0643104852968,-0.997913840325
866740000000,,11277,,866,736056921,"""map""",,,9.98441028595,0.934885621071,0.0488783791661,,0.00491916851845,0.00311783970733,0.0643080829264,-0.997913123829
866772000000,,11278,,866,768056612,"""map""",,,9.98405647278,0.935375273228,0.0494833774865,,0.00492968333397,0.00308035090876,0.0642939215853,-0.997914135353
866808000000,,11279,,866,800056612,"""map""",,,9.98396587372,0.934819579124,0.050187535584,,0.00489482805489,0.00309361909887,0.0643503140686,-0.997910595018
866840000000,,11280,,866,832056612,"""map""",,,9.98379993439,0.934463977814,0.0509233027697,,0.00482081464923,0.00312758443737,0.0643391873006,-0.997911522248
866872000000,,11281,,866,864056304,"""map""",,,9.98359584808,0.934309601784,0.0517385415733,,0.00485593293452,0.00310441675926,0.0643328652733,-0.997911859423
866908000000,,11282,,866,904056304,"""map""",,,9.98329639435,0.934343576431,0.0527023561299,,0.0048555012586,0.00302140426058,0.064311538968,-0.997913461003
866940000000,,11283,,866,936056304,"""map""",,,9.98299980164,0.934542953968,0.0535063706338,,0.00487890033278,0.00301981947322,0.0643324859517,-0.997911985864
866972000000,,11284,,866,968055995,"""map""",,,9.98268795013,0.934874892235,0.0543228425086,,0.00488497392415,0.0029951907318,0.0643225814423,-0.997912786654
867008000000,,11285,,867,55995,"""map""",,,9.98268222809,0.934211015701,0.0547207705677,,0.00482447533351,0.00296648683465,0.0643514941804,-0.997911185074
867040000000,,11286,,867,32055995,"""map""",,,9.98259735107,0.933776140213,0.0551655106246,,0.00485846890711,0.00303105103212,0.0643368692239,-0.997911817276
867072000000,,11287,,867,64055687,"""map""",,,9.98248672485,0.933544933796,0.0556423179805,,0.00489388831188,0.00299346896718,0.0643389344195,-0.997911690836
867108000000,,11288,,867,104055687,"""map""",,,9.98225307465,0.933510184288,0.056277487427,,0.00482101665776,0.00300727576438,0.0643188303728,-0.997913250269
867140000000,,11289,,867,136055687,"""map""",,,9.98202323914,0.933664381504,0.056806717068,,0.00486908604398,0.00298232129039,0.0643933038541,-0.997908234794
867172000000,,11290,,867,168055380,"""map""",,,9.98177623749,0.933964431286,0.0573661960661,,0.00487135119014,0.00293551877916,0.0643635903259,-0.997910384283
867208000000,,11291,,867,200055380,"""map""",,,9.98170089722,0.93327832222,0.0572814457119,,0.00489204216467,0.00297504972425,0.0643522528236,-0.997910847899
867240000000,,11292,,867,232055380,"""map""",,,9.981549263,0.932796597481,0.0572165474296,,0.00486183950253,0.00315968041496,0.0643488389289,-0.997910637164
867272000000,,11293,,867,264055073,"""map""",,,9.98135375977,0.932514250278,0.0573627762496,,0.00482500653198,0.00310598393055,0.064336026287,-0.997911817276
867308000000,,11294,,867,304055073,"""map""",,,9.98102283478,0.932374358177,0.0576437190175,,0.00481691301997,0.00306556839555,0.0643558353058,-0.997910721458
867340000000,,11295,,867,336055073,"""map""",,,9.98068141937,0.932417094707,0.0580406039953,,0.00480687614313,0.00301663063607,0.0643658662557,-0.997910215696
867372000000,,11296,,867,368054766,"""map""",,,9.98028755188,0.932630240917,0.0585174672306,,0.0047894403541,0.00298349284107,0.0643676785702,-0.997910342137
867408000000,,11297,,867,400054766,"""map""",,,9.98007583618,0.931761562824,0.0585484690964,,0.00477974435635,0.0029773686241,0.0643995415877,-0.997908319088
867440000000,,11298,,867,432054766,"""map""",,,9.97983360291,0.931127905846,0.0587378777564,,0.0047479958433,0.00300381914658,0.0644085610133,-0.997907813326
867472000000,,11299,,867,464054460,"""map""",,,9.97956752777,0.930710017681,0.0589853413403,,0.00479165800273,0.00300178424405,0.0644021546923,-0.997908066207
867508000000,,11300,,867,504054460,"""map""",,,9.97918701172,0.930466651917,0.0594166219234,,0.00481234469672,0.00299335306335,0.0643960855461,-0.997908319088
867540000000,,11301,,867,536054460,"""map""",,,9.97887039185,0.930468857288,0.0598914287984,,0.00477340446606,0.00296779742054,0.0643321066301,-0.99791270236
867572000000,,11302,,867,568054155,"""map""",,,9.97853660583,0.930611491203,0.0604600906372,,0.00469179557268,0.00297449094923,0.0643415475241,-0.997912449479
867608000000,,11303,,867,600054155,"""map""",,,9.97850036621,0.929756760597,0.0603388436139,,0.00468359949237,0.00296919213549,0.0643165122961,-0.997914135353
867640000000,,11304,,867,632054155,"""map""",,,9.97839069366,0.929100632668,0.0603969059885,,0.00463020890188,0.00303765417558,0.0643120447302,-0.997914472528
867672000000,,11305,,867,664053849,"""map""",,,9.97825622559,0.928633987904,0.0606118477881,,0.00461917079043,0.00301572686605,0.0643187039322,-0.997914219647
867708000000,,11306,,867,704053849,"""map""",,,9.97801208496,0.92826539278,0.0607654489577,,0.00465287567457,0.00325949114927,0.0642940901727,-0.997914893996
867740000000,,11307,,867,736053849,"""map""",,,9.97779273987,0.928128182888,0.0611045733094,,0.00463519227281,0.00320067999662,0.0643705867027,-0.997910215696
867772000000,,11308,,867,768053544,"""map""",,,9.97755336761,0.92811447382,0.0614642575383,,0.00458150443179,0.00315254829562,0.0643710081712,-0.997910637164
867808000000,,11309,,867,800053544,"""map""",,,9.97772789001,0.927224516869,0.061395060271,,0.00459529130802,0.0031450854223,0.0643952426091,-0.997908993437
867840000000,,11310,,867,832053544,"""map""",,,9.97785282135,0.926585137844,0.0615340098739,,0.00461387773894,0.00307749208473,0.0644110476773,-0.99790802406
867872000000,,11311,,867,872053240,"""map""",,,9.97793674469,0.926090419292,0.06175006181,,0.00464192103364,0.00305554427801,0.0644376844856,-0.997906338186
867908000000,,11312,,867,904053240,"""map""",,,9.97798347473,0.9259339571,0.0619409941137,,0.00457569269419,0.0030030805066,0.0644203621308,-0.997907813326
867940000000,,11313,,867,936053240,"""map""",,,9.97800731659,0.925957560539,0.0622680522501,,0.00456499941311,0.00295967106363,0.0644219215642,-0.99790802406
867972000000,,11314,,867,968052936,"""map""",,,9.97798538208,0.926173686981,0.0627071410418,,0.00451600748835,0.00298779371293,0.0644032083635,-0.997909288465
868008000000,,11315,,868,52936,"""map""",,,9.97825908661,0.925777077675,0.0631133317947,,0.00448598148078,0.00292895177333,0.0644009745805,-0.997909752081
868040000000,,11316,,868,32052936,"""map""",,,9.97848510742,0.925578296185,0.0636455118656,,0.00442518629816,0.00290967255358,0.0644472096733,-0.997907012536
868072000000,,11317,,868,72052632,"""map""",,,9.97871685028,0.925597071648,0.0643903315067,,0.00441188271128,0.0028967417029,0.0644483476383,-0.997907138976
868108000000,,11318,,868,104052632,"""map""",,,9.97884273529,0.925762832165,0.0651886388659,,0.00429034004937,0.00294071769994,0.0644590529378,-0.997906801801
868140000000,,11319,,868,136052632,"""map""",,,9.97892189026,0.926109433174,0.0659111067653,,0.00422344937879,0.00286860674704,0.0644689153003,-0.997906717508
868172000000,,11320,,868,168052329,"""map""",,,9.97891807556,0.926618158817,0.0667870119214,,0.0042197700083,0.00289869177666,0.0644704325869,-0.99790654892
868208000000,,11321,,868,200052329,"""map""",,,9.97906303406,0.926466464996,0.0669869929552,,0.00422981071294,0.0029125285788,0.0644362514927,-0.997908698409
868240000000,,11322,,868,232052329,"""map""",,,9.97913265228,0.926514625549,0.0673101469874,,0.00420459212144,0.00293372478044,0.0644849311028,-0.997905537396
868272000000,,11323,,868,264052027,"""map""",,,9.9791765213,0.926718354225,0.0677605867386,,0.00425643558508,0.00288832319918,0.0645121579669,-0.997903682934
868308000000,,11324,,868,304052027,"""map""",,,9.97912502289,0.927202999592,0.068515829742,,0.00427717994288,0.00295694596529,0.0645717114638,-0.997899510396
868340000000,,11325,,868,336052027,"""map""",,,9.97905063629,0.927748560905,0.0693295672536,,0.00432016046757,0.00291564472909,0.0645951451116,-0.997897908816
868372000000,,11326,,868,368051724,"""map""",,,9.97893619537,0.928424417973,0.0702553838491,,0.00429279497982,0.00295765229544,0.0646257437236,-0.997895970061
868408000000,,11327,,868,400051724,"""map""",,,9.97903347015,0.927887797356,0.070740506053,,0.00429802382321,0.00292880277763,0.0646076627256,-0.99789719232
868440000000,,11328,,868,432051724,"""map""",,,9.97906303406,0.927630066872,0.07129137218,,0.00427704502357,0.00292482603314,0.0645976739225,-0.99789799311
868472000000,,11329,,868,472051423,"""map""",,,9.97902297974,0.927588105202,0.0720424130559,,0.00425603025093,0.00286346874163,0.0645902139303,-0.9978987939
868508000000,,11330,,868,504051423,"""map""",,,9.97892951965,0.927778422832,0.0727045312524,,0.00422730548615,0.00287459456298,0.0645745353027,-0.997899889718
868540000000,,11331,,868,536051423,"""map""",,,9.97876548767,0.928123176098,0.0734467953444,,0.00421287640555,0.00277862590081,0.064593374944,-0.997898920341
868572000000,,11332,,868,568051121,"""map""",,,9.978556633,0.928622305393,0.074326403439,,0.00419709607394,0.00283846220146,0.0645923212728,-0.997898878194
868608000000,,11333,,868,600051121,"""map""",,,9.97851276398,0.928323328495,0.0747532099485,,0.00417774140969,0.0027634678526,0.0646221612415,-0.997897276614
868640000000,,11334,,868,632051121,"""map""",,,9.97842884064,0.928209900856,0.0752442106605,,0.0042432322616,0.00285274483823,0.0646472807632,-0.997895084977
868672000000,,11335,,868,672050820,"""map""",,,9.97828865051,0.928363025188,0.0759208872914,,0.00422939928726,0.00284970195101,0.0646571431258,-0.997894579215
868708000000,,11336,,868,704050820,"""map""",,,9.97811031342,0.928653120995,0.0766458287835,,0.00418142872387,0.00285928529649,0.0646412537639,-0.99789571718
868740000000,,11337,,868,736050820,"""map""",,,9.97786235809,0.929090440273,0.0773163065314,,0.00419712863073,0.00284144643706,0.064601172111,-0.997898288138
868772000000,,11338,,868,768050520,"""map""",,,9.97758102417,0.929657936096,0.07788348943,,0.00417599803658,0.00310359378442,0.0646112030609,-0.997896939439
868808000000,,11339,,868,800050520,"""map""",,,9.97795772552,0.929213702679,0.0778431519866,,0.00418628693018,0.0030368485287,0.0645958194612,-0.997898161697
868840000000,,11340,,868,832050520,"""map""",,,9.97823143005,0.928959071636,0.0780439674854,,0.00411103583127,0.00292525276998,0.064624521465,-0.997896939439
868872000000,,11341,,868,872050220,"""map""",,,9.97850227356,0.928913772106,0.0784172639251,,0.00407522874958,0.00293621889429,0.0646144483682,-0.997897655935
868908000000,,11342,,868,904050220,"""map""",,,9.97865009308,0.929056763649,0.0788065940142,,0.00404864956397,0.00293285340258,0.0646735803967,-0.997893904866
868940000000,,11343,,868,936050220,"""map""",,,9.97873687744,0.929334700108,0.0792269185185,,0.00406388108105,0.00286767589438,0.064641211617,-0.997896180795
868972000000,,11344,,868,968049920,"""map""",,,9.97880840302,0.929769992828,0.0797778442502,,0.00408602760358,0.00284584481467,0.064649008784,-0.99789571718
869008000000,,11345,,869,49920,"""map""",,,9.97919845581,0.929260313511,0.0796575918794,,0.00411075652609,0.00282109613583,0.0646763199418,-0.997893862719
869040000000,,11346,,869,32049920,"""map""",,,9.97950839996,0.928977131844,0.0796144977212,,0.00416210320021,0.00286997269183,0.0646946116741,-0.997892261139
869072000000,,11347,,869,64049621,"""map""",,,9.9797668457,0.928881525993,0.0798017457128,,0.00415245572897,0.00284308674795,0.0646697450335,-0.997894031306
869108000000,,11348,,869,104049621,"""map""",,,9.98001194,0.9289894104,0.0802362337708,,0.00410423726473,0.0028758050501,0.0646683120406,-0.997894284187
869140000000,,11349,,869,136049621,"""map""",,,9.98013877869,0.92924284935,0.0806788131595,,0.00410386045379,0.00282897146381,0.0646966768697,-0.99789264046
869172000000,,11350,,869,168049323,"""map""",,,9.9802236557,0.929662942886,0.081252194941,,0.00408018429701,0.00285644676386,0.0647157272452,-0.997891376055
869208000000,,11351,,869,200049323,"""map""",,,9.98078918457,0.929025888443,0.0817277058959,,0.00406256913692,0.00281312680063,0.0647478852906,-0.997889479447
869240000000,,11352,,869,232049323,"""map""",,,9.98128795624,0.928646326065,0.0822376683354,,0.00404424011458,0.00279589112681,0.0647764187071,-0.997887751426
869272000000,,11353,,869,272049024,"""map""",,,9.98181247711,0.928467333317,0.0829630792141,,0.00403759544165,0.00276995628584,0.0647983350683,-0.997886402727
869308000000,,11354,,869,304049024,"""map""",,,9.98218822479,0.928582251072,0.0836294293404,,0.00402677757218,0.00284188576856,0.0648878971214,-0.997880460021
869340000000,,11355,,869,336049024,"""map""",,,9.98252105713,0.928855776787,0.0843364745378,,0.00396750552069,0.0028421384027,0.0648803106886,-0.997881134371
869372000000,,11356,,869,368048727,"""map""",,,9.98281764984,0.929294407368,0.0851486846805,,0.0039823083253,0.00284725327673,0.0649109093007,-0.997879027028
869408000000,,11357,,869,400048727,"""map""",,,9.98308372498,0.929871499538,0.0859722271562,,0.00391722437158,0.00287740341994,0.0648523251812,-0.997883073126
869440000000,,11358,,869,432048727,"""map""",,,9.98330402374,0.930574059486,0.0868198871613,,0.0040074011348,0.00285919701036,0.0648345392112,-0.997883916063
869472000000,,11359,,869,464048429,"""map""",,,9.98346996307,0.931383669376,0.0876688808203,,0.00399033186695,0.00287447437861,0.0647961012853,-0.99788636058
869508000000,,11360,,869,504048429,"""map""",,,9.98400878906,0.931324958801,0.0879847258329,,0.00402620179848,0.00282900352669,0.0648234967368,-0.997884590412
869540000000,,11361,,869,536048429,"""map""",,,9.98445892334,0.931244730949,0.0880735963583,,0.00419542509957,0.00281844203683,0.0647562303666,-0.997888383628
869572000000,,11362,,869,568048132,"""map""",,,9.98484516144,0.931352257729,0.0884346216917,,0.00418284550006,0.00281546220525,0.0647489811087,-0.997888889391
869608000000,,11363,,869,600048132,"""map""",,,9.98518657684,0.931591868401,0.0888840854168,,0.00410497685137,0.00281033383105,0.0647679050437,-0.997887920013
869640000000,,11364,,869,632048132,"""map""",,,9.98549461365,0.931995987892,0.0894560664892,,0.00414465465188,0.00276688915595,0.0647640275336,-0.997888257188
869672000000,,11365,,869,672047836,"""map""",,,9.98585319519,0.932708799839,0.0903674140573,,0.00413235448104,0.00276994665462,0.0648122013814,-0.997885180468
869708000000,,11366,,869,704047836,"""map""",,,9.98633861542,0.932318270206,0.0905869230628,,0.00411101216483,0.00270536274198,0.0647777252594,-0.997887624985
869740000000,,11367,,869,736047836,"""map""",,,9.98675918579,0.932134687901,0.0909615457058,,0.00403934408312,0.00274005750084,0.0648259412541,-0.997884674706
869772000000,,11368,,869,768047540,"""map""",,,9.98715591431,0.932171344757,0.0915713906288,,0.00404937988983,0.00276523999587,0.0648085767525,-0.99788568623
869808000000,,11369,,869,800047540,"""map""",,,9.98752689362,0.93236464262,0.0923698991537,,0.00402072114413,0.00274888524881,0.0648523673281,-0.997883030979
869840000000,,11370,,869,832047540,"""map""",,,9.98789405823,0.932682096958,0.0933402329683,,0.00399401189598,0.00272754643111,0.0648613867537,-0.99788260951
869872000000,,11371,,869,864047245,"""map""",,,9.98823738098,0.933152198792,0.0944940522313,,0.00402779452954,0.00274767751934,0.0648167532411,-0.997885349055
869908000000,,11372,,869,904047245,"""map""",,,9.98877429962,0.932774603367,0.0952459722757,,0.00398871802132,0.0027635159675,0.0648018332567,-0.997886444873
869940000000,,11373,,869,936047245,"""map""",,,9.98920345306,0.93247449398,0.0956737175584,,0.00397015830261,0.00278045303255,0.0648161210384,-0.99788555979
869972000000,,11374,,869,968046950,"""map""",,,9.98963069916,0.932391405106,0.0961394011974,,0.00395845967101,0.00273374140046,0.0647974921313,-0.997886908489
870008000000,,11375,,870,46950,"""map""",,,9.99004650116,0.932476520538,0.0968402996659,,0.00397464241448,0.00270496662746,0.0647866603912,-0.997887540692
870040000000,,11376,,870,32046950,"""map""",,,9.99044036865,0.93270689249,0.097780123353,,0.00401727864388,0.00264381015086,0.0648024233126,-0.997886529167
870072000000,,11377,,870,64046655,"""map""",,,9.99079322815,0.933085441589,0.0988654866815,,0.00406670372629,0.00265470774538,0.0647793268396,-0.997887877866
870108000000,,11378,,870,104046655,"""map""",,,9.9910697937,0.932660996914,0.100083179772,,0.0039703984244,0.00261156295498,0.0647812655946,-0.997888215041
870140000000,,11379,,870,136046655,"""map""",,,9.99126148224,0.932362616062,0.100996688008,,0.00409743133072,0.0025759985881,0.0647694223302,-0.997888510069
870172000000,,11380,,870,168046361,"""map""",,,9.99143123627,0.932245075703,0.102122604847,,0.00409288037657,0.00260152945318,0.064799262299,-0.997886655608
870208000000,,11381,,870,208046361,"""map""",,,9.99161624908,0.93238645792,0.10375045985,,0.00407434547676,0.00255168504255,0.06483736305,-0.997884295384
870240000000,,11382,,870,232046361,"""map""",,,9.9917383194,0.932605743408,0.104563206434,,0.00408439544218,0.00252182210706,0.0648055000325,-0.997886402727
870272000000,,11383,,870,272046067,"""map""",,,9.99195766449,0.933159947395,0.106157042086,,0.00407243298119,0.00248379840572,0.0648028869279,-0.997886739901
870308000000,,11384,,870,304046067,"""map""",,,9.99216842651,0.932329297066,0.106559939682,,0.00402528802682,0.00248793711099,0.0648252247576,-0.997885475496
870340000000,,11385,,870,336046067,"""map""",,,9.99240589142,0.931760847569,0.106973677874,,0.00392866826992,0.00243553944099,0.0647834993776,-0.997888678656
870372000000,,11386,,870,368045774,"""map""",,,9.99266052246,0.93142002821,0.107496067882,,0.00388423273229,0.00243222655053,0.0647900321391,-0.997888383628
870408000000,,11387,,870,400045774,"""map""",,,9.99293994904,0.931249678135,0.108194321394,,0.00390239860023,0.0023901976638,0.0648102626264,-0.997887119223
870440000000,,11388,,870,432045774,"""map""",,,9.9932384491,0.931268453598,0.109052456915,,0.00384130238045,0.00242231002269,0.0648128335842,-0.99788716137
870472000000,,11389,,870,464045481,"""map""",,,9.9935464859,0.931457340717,0.110158085823,,0.0038414338424,0.00238814366348,0.0648401868889,-0.997885433349
870508000000,,11390,,870,504045481,"""map""",,,9.99398994446,0.930781900883,0.110540322959,,0.00381895874732,0.00245800103591,0.0648205886043,-0.997886655608
870540000000,,11391,,870,536045481,"""map""",,,9.99435997009,0.930277228355,0.110738553107,,0.00384741223292,0.00248317612232,0.0648130864653,-0.997886992782
870572000000,,11392,,870,568045189,"""map""",,,9.99474906921,0.929950654507,0.111056730151,,0.0038196321914,0.00251844579053,0.0648191134646,-0.997886613461
870608000000,,11393,,870,600045189,"""map""",,,9.99513435364,0.929794609547,0.11157091707,,0.00381193952721,0.00249885956557,0.0647875876219,-0.997888720803
870640000000,,11394,,870,632045189,"""map""",,,9.99550914764,0.92981159687,0.112115345895,,0.00382682061629,0.00252657906216,0.0648292287082,-0.997885854818
870672000000,,11395,,870,664044897,"""map""",,,9.99589824677,0.930010259151,0.112826772034,,0.00378933939098,0.00252674452146,0.0648438958115,-0.997885011881
870708000000,,11396,,870,704044897,"""map""",,,9.99614334106,0.9291883111,0.112667478621,,0.00374279132489,0.00254334066625,0.0648623139843,-0.997884042503
870740000000,,11397,,870,736044897,"""map""",,,9.99632167816,0.928512632847,0.112546339631,,0.00376035717646,0.0025040619437,0.0648732721649,-0.99788328386
870772000000,,11398,,870,768044606,"""map""",,,9.99652290344,0.928036391735,0.112474054098,,0.00355870710264,0.00255388260557,0.0648653907043,-0.997884506118
870808000000,,11399,,870,800044606,"""map""",,,9.99673461914,0.927745103836,0.112608723342,,0.00356897381152,0.00251987734281,0.0648555283417,-0.997885180468
870840000000,,11400,,870,832044606,"""map""",,,9.99695014954,0.927615106106,0.113039627671,,0.00354266952708,0.00250786223942,0.0648892879674,-0.997883030979
870872000000,,11401,,870,864044315,"""map""",,,9.99718666077,0.927644252777,0.11377042532,,0.00355919158561,0.00251465726629,0.0649296646482,-0.99788033358
870908000000,,11402,,870,904044315,"""map""",,,9.99739646912,0.926852047443,0.113897718489,,0.00358622166841,0.00250474868215,0.064918327146,-0.997881050077
870940000000,,11403,,870,936044315,"""map""",,,9.99752044678,0.926259219646,0.11386063695,,0.00359038967892,0.00252631988373,0.0649283580959,-0.997880291434
870972000000,,11404,,870,968044025,"""map""",,,9.99766349792,0.925868570805,0.113834962249,,0.00359621681,0.00249061327124,0.0649291167392,-0.997880375727
871008000000,,11405,,871,44025,"""map""",,,9.99782276154,0.925674319267,0.114008791745,,0.00353634412477,0.0025405122999,0.0648863798348,-0.997883157419
871040000000,,11406,,871,32044025,"""map""",,,9.99804496765,0.925643920898,0.114319339395,,0.00349736487534,0.00248960154108,0.0648768967939,-0.997884042503
871072000000,,11407,,871,64043735,"""map""",,,9.9983253479,0.925740540028,0.114706270397,,0.00345478252311,0.00250626094729,0.0648965793722,-0.997882904538
871108000000,,11408,,871,104043735,"""map""",,,9.99860286713,0.925326704979,0.114089392126,,0.00345682491659,0.00252930514831,0.0648575092436,-0.997885391202
871140000000,,11409,,871,136043735,"""map""",,,9.99883270264,0.925084292889,0.113684125245,,0.00337880258007,0.00256583259537,0.0648407769447,-0.997886613461
871172000000,,11410,,871,168043446,"""map""",,,9.99910736084,0.925004541874,0.113525375724,,0.00337022083963,0.00256136264221,0.0648445280143,-0.997886402727
871208000000,,11411,,871,200043446,"""map""",,,9.99938488007,0.925056755543,0.113697119057,,0.00337779681797,0.00258650776484,0.0648013274945,-0.997889142272
871240000000,,11412,,871,232043446,"""map""",,,9.99967670441,0.925231397152,0.114140130579,,0.0033622331475,0.00254578629475,0.0647958484042,-0.997889648034
871272000000,,11413,,871,272043157,"""map""",,,10.000084877,0.925614535809,0.114939004183,,0.00332308650429,0.00258409658644,0.0648277535685,-0.997887667132
871308000000,,11414,,871,304043157,"""map""",,,10.0001096725,0.925025045872,0.115029446781,,0.00332957839489,0.00254381543568,0.064863241215,-0.997885391202
871340000000,,11415,,871,336043157,"""map""",,,10.0001726151,0.924611449242,0.115171536803,,0.00326910063073,0.00264695503016,0.0649088441051,-0.997882440923
871372000000,,11416,,871,368042868,"""map""",,,10.0002727509,0.924379050732,0.115452378988,,0.00323118299621,0.00267069156724,0.0648991503299,-0.997883115272
871408000000,,11417,,871,400042868,"""map""",,,10.0004320145,0.92434835434,0.115691319108,,0.00342819494106,0.00266518963367,0.0648981809524,-0.997882398776
871440000000,,11418,,871,432042868,"""map""",,,10.0006132126,0.924435973167,0.116079740226,,0.00346458421725,0.00265222807835,0.0648325583093,-0.997886655608
871472000000,,11419,,871,464042580,"""map""",,,10.0008115768,0.924614071846,0.116564847529,,0.00345419394896,0.00263395256276,0.0648355085887,-0.997886571314
871508000000,,11420,,871,504042580,"""map""",,,10.0010471344,0.92391204834,0.115713819861,,0.00336133773277,0.00264085225704,0.0648446544548,-0.997886276286
871540000000,,11421,,871,536042580,"""map""",,,10.0012378693,0.92332047224,0.115253314376,,0.00330419189512,0.0026427244785,0.0648308724353,-0.997887329957
871572000000,,11422,,871,568042293,"""map""",,,10.0014686584,0.922880113125,0.114976257086,,0.00326991520913,0.00258161757796,0.0648440643989,-0.997886697755
871608000000,,11423,,871,600042293,"""map""",,,10.0016937256,0.922590494156,0.11487531662,,0.00318500338577,0.00258094100579,0.0648474782936,-0.997886739901
871640000000,,11424,,871,632042293,"""map""",,,10.0019369125,0.922454118729,0.115068480372,,0.00313679263885,0.00255396836041,0.0648444858674,-0.997887203517
871672000000,,11425,,871,672042006,"""map""",,,10.0022554398,0.922473669052,0.115716010332,,0.00313861304108,0.00253741236627,0.0648558233697,-0.99788648702
871708000000,,11426,,871,704042006,"""map""",,,10.0021915436,0.921766221523,0.115321174264,,0.00308618767105,0.00253091249081,0.0648827552059,-0.997884927587
871740000000,,11427,,871,736042006,"""map""",,,10.0022087097,0.921226084232,0.115105271339,,0.00313677020717,0.0025177938932,0.0648741572488,-0.997885349055
871772000000,,11428,,871,768041719,"""map""",,,10.0022726059,0.920860648155,0.114901743829,,0.0030837260111,0.00252287760985,0.0648520723001,-0.997886950636
871808000000,,11429,,871,800041719,"""map""",,,10.0023670197,0.920653820038,0.114855110645,,0.00310571328934,0.00249368914742,0.0649317719907,-0.997881766573
871840000000,,11430,,871,832041719,"""map""",,,10.0025100708,0.920531630516,0.115025095642,,0.00306563647259,0.00249624143956,0.064936408144,-0.997881597986
871872000000,,11431,,871,864041433,"""map""",,,10.0026931763,0.920521080494,0.115462578833,,0.0030590004019,0.00249862726399,0.0649513281284,-0.997880586462
871908000000,,11432,,871,904041433,"""map""",,,10.0027770996,0.919835031033,0.115539364517,,0.00305464764908,0.00246260827503,0.0649534354708,-0.997880586462
871940000000,,11433,,871,936041433,"""map""",,,10.0028648376,0.919268488884,0.115656755865,,0.00312161596617,0.0024264456822,0.0649861835721,-0.997878352679
871972000000,,11434,,871,968041148,"""map""",,,10.0030164719,0.918889641762,0.115780517459,,0.00305725896327,0.00244293341409,0.0649671331966,-0.997879785671
872008000000,,11435,,872,41148,"""map""",,,10.0032291412,0.918650209904,0.116125814617,,0.00323747724114,0.00238032295354,0.0649744246014,-0.997878900588
872040000000,,11436,,872,32041148,"""map""",,,10.0034885406,0.918518602848,0.116543658078,,0.00323473452674,0.00239591321274,0.0649618226937,-0.997879701378
872072000000,,11437,,872,64040863,"""map""",,,10.0038022995,0.91845291853,0.117163956165,,0.0032490597631,0.00236183888513,0.0649229632993,-0.997882230189
872108000000,,11438,,872,104040863,"""map""",,,10.0039167404,0.91771876812,0.116645231843,,0.00320149111766,0.00237985929705,0.0648988131551,-0.997883958209
872140000000,,11439,,872,136040863,"""map""",,,10.0040235519,0.917123019695,0.116203673184,,0.00321928260304,0.00236663679346,0.0648449073359,-0.997887372104
872172000000,,11440,,872,168040578,"""map""",,,10.0042247772,0.916659712791,0.115964107215,,0.00317050104209,0.00234258892946,0.0648215579818,-0.997889057978
872208000000,,11441,,872,200040578,"""map""",,,10.0044946671,0.916317343712,0.115890391171,,0.00310657419223,0.00236245849319,0.0647888941742,-0.997891376055
872240000000,,11442,,872,232040578,"""map""",,,10.0048284531,0.916056454182,0.11598931253,,0.00303290491723,0.00240208694403,0.0647864075102,-0.997891671083
872272000000,,11443,,872,264040294,"""map""",,,10.0052261353,0.91590231657,0.116082847118,,0.00302109587653,0.00240209190369,0.0647742270709,-0.997892471873
872308000000,,11444,,872,304040294,"""map""",,,10.005654335,0.915104627609,0.115530624986,,0.00303824511638,0.00239362919517,0.0647754493295,-0.997892429726
872340000000,,11445,,872,336040294,"""map""",,,10.006026268,0.914477705956,0.115227274597,,0.00303659198445,0.00248221217779,0.0647705602951,-0.997892429726
872372000000,,11446,,872,368052011,"""map""",,,10.006483078,0.913993537426,0.115003027022,,0.00303073449859,0.00248595145525,0.0647405938858,-0.997894494922
872408000000,,11447,,872,400052011,"""map""",,,10.0070161819,0.913614571095,0.114921234548,,0.00301977183164,0.00252879426183,0.0647264325447,-0.997895337858
872440000000,,11448,,872,432052011,"""map""",,,10.0076036453,0.913322865963,0.114920116961,,0.00306323978217,0.00254258807335,0.0647413946759,-0.9978941156
872472000000,,11449,,872,472051727,"""map""",,,10.0084323883,0.913036465645,0.115151792765,,0.00304192959059,0.00254275832769,0.0648052471514,-0.997890111649
872508000000,,11450,,872,504051727,"""map""",,,10.0087623596,0.912481606007,0.114154927433,,0.00303770936984,0.00249822386432,0.0648019596973,-0.99789036453
872540000000,,11451,,872,536051727,"""map""",,,10.0091705322,0.912022233009,0.113332808018,,0.00300672552987,0.00256146979975,0.0647947525862,-0.997890828146
872572000000,,11452,,872,568051445,"""map""",,,10.00963974,0.911653518677,0.112739548087,,0.00299360193144,0.00257352721462,0.0647441763679,-0.9978941156
872608000000,,11453,,872,600051445,"""map""",,,10.0101661682,0.911390900612,0.112267054617,,0.00316611375684,0.00263508252223,0.0648245082612,-0.997888130747
872640000000,,11454,,872,632051445,"""map""",,,10.0107297897,0.911201953888,0.1121327281,,0.00311876697915,0.00259109773774,0.0649033650148,-0.99788328386
872672000000,,11455,,872,664051162,"""map""",,,10.0113420486,0.911069273949,0.11215697974,,0.00312876839749,0.00257715822324,0.0649477034994,-0.997880502168
872708000000,,11456,,872,704051162,"""map""",,,10.011680603,0.910226821899,0.112121969461,,0.00309781120799,0.00265485297502,0.0649326992213,-0.997881345105
872740000000,,11457,,872,736051162,"""map""",,,10.0119409561,0.9095261693,0.112236499786,,0.00306323397875,0.00266013024201,0.0649731601959,-0.997878816294
872772000000,,11458,,872,768050880,"""map""",,,10.0122728348,0.908956825733,0.112474657595,,0.00307843717842,0.00263541239129,0.0649769112654,-0.997878521266
872808000000,,11459,,872,800050880,"""map""",,,10.0126848221,0.908468067646,0.112806506455,,0.00309523450855,0.00261558575643,0.0649641407703,-0.997879490643
872840000000,,11460,,872,832050880,"""map""",,,10.0131874084,0.90804028511,0.113192290068,,0.00307483244984,0.0026485166244,0.064971179294,-0.997878942734
872872000000,,11461,,872,864050598,"""map""",,,10.0137805939,0.907683551311,0.113705210388,,0.00307647181407,0.00262144822254,0.0649884595019,-0.997877846916
872908000000,,11462,,872,904050598,"""map""",,,10.0140428543,0.906917572021,0.113609358668,,0.00305840417217,0.00263395248044,0.0649787235799,-0.997878479119
872940000000,,11463,,872,936050598,"""map""",,,10.0142412186,0.906334280968,0.113518990576,,0.00308999115659,0.0026338366795,0.065004306717,-0.997876751098
872972000000,,11464,,872,968050317,"""map""",,,10.014550209,0.905816853046,0.113614596426,,0.00305848494677,0.0026502740739,0.0649854670757,-0.997878057651
873008000000,,11465,,873,8050317,"""map""",,,10.0150604248,0.905266523361,0.113879643381,,0.00309534862196,0.0027405990508,0.065000682088,-0.997876751098
873040000000,,11466,,873,32050317,"""map""",,,10.0154361725,0.904964506626,0.114099740982,,0.00309960473338,0.00273587076297,0.0650087321361,-0.997876203189
873072000000,,11467,,873,64050036,"""map""",,,10.0160160065,0.904606282711,0.11449637264,,0.00310157079743,0.00274175191527,0.0650079313459,-0.997876245336
873108000000,,11468,,873,104050036,"""map""",,,10.0162286758,0.903781056404,0.114403888583,,0.00308858260192,0.00277534333426,0.0649995441231,-0.997876708951
873140000000,,11469,,873,136050036,"""map""",,,10.0164203644,0.90312063694,0.114334411919,,0.00309515768521,0.00278651273273,0.0650250429664,-0.997874980931
873172000000,,11470,,873,168049756,"""map""",,,10.0167102814,0.902522265911,0.114335559309,,0.0030527436014,0.00277083594695,0.0650239471484,-0.997875233812
873208000000,,11471,,873,200049756,"""map""",,,10.0170936584,0.901965260506,0.114354304969,,0.00310368900584,0.00272561658701,0.0650642816824,-0.99787257856
873240000000,,11472,,873,232049756,"""map""",,,10.017583847,0.901473104954,0.114356726408,,0.00317826711342,0.00277543753699,0.065077178618,-0.997871314155
873272000000,,11473,,873,272049476,"""map""",,,10.0183200836,0.900930523872,0.114454217255,,0.0033195316193,0.00278696391804,0.0650880525049,-0.997870049749
873308000000,,11474,,873,304049476,"""map""",,,10.0182905197,0.900463402271,0.113991476595,,0.00325086363999,0.00282800463815,0.0650917192808,-0.997870007603
873340000000,,11475,,873,336049476,"""map""",,,10.0184116364,0.900054693222,0.113567732275,,0.00329886122428,0.0027829757725,0.0651190304386,-0.997868153141
873372000000,,11476,,873,368049196,"""map""",,,10.0186738968,0.899660646915,0.113236486912,,0.00327556523289,0.00280229810633,0.065137280024,-0.997867015176
873408000000,,11477,,873,400049196,"""map""",,,10.0190734863,0.899294495583,0.113073036075,,0.00320044995879,0.0028317788802,0.0651423376458,-0.997866930883
873440000000,,11478,,873,432049196,"""map""",,,10.0195980072,0.898957908154,0.113146431744,,0.00320479314214,0.0028102108067,0.0651860017809,-0.997864064897
873472000000,,11479,,873,464048917,"""map""",,,10.0202264786,0.898626685143,0.113253049552,,0.00314452579324,0.00285351931744,0.0651839787322,-0.997864233484
873508000000,,11480,,873,504048917,"""map""",,,10.0205135345,0.897936284542,0.11272585392,,0.00315128771796,0.00282975509061,0.0652243975599,-0.99786174682
873540000000,,11481,,873,536048917,"""map""",,,10.020772934,0.897367596626,0.112382635474,,0.00315181473878,0.00282621917993,0.0652318154052,-0.997861156764
873572000000,,11482,,873,568048638,"""map""",,,10.0211315155,0.89684933424,0.11213093251,,0.0031142640576,0.00281076624784,0.0652637205695,-0.997859175862
873608000000,,11483,,873,600048638,"""map""",,,10.0215959549,0.896370053291,0.111934266984,,0.00310638714501,0.00284801161131,0.0652941505942,-0.997857152814
873640000000,,11484,,873,632048638,"""map""",,,10.0221500397,0.895886659622,0.111903958023,,0.00309498343845,0.00284007913402,0.0653327992543,-0.99785466615
873672000000,,11485,,873,672060359,"""map""",,,10.0229663849,0.895312905312,0.111978508532,,0.00308645651156,0.00283104794725,0.0653380254635,-0.997854413269
873708000000,,11486,,873,704060359,"""map""",,,10.0227231979,0.895078837872,0.111351452768,,0.00304405163193,0.00293414363019,0.0653840076752,-0.997851167961
873740000000,,11487,,873,736060359,"""map""",,,10.0226669312,0.894883990288,0.110884703696,,0.00309991227366,0.00291338275218,0.0653913412268,-0.997850662199
873772000000,,11488,,873,768060081,"""map""",,,10.0227499008,0.894680976868,0.110561348498,,0.00312789257446,0.00291516932169,0.0653887281222,-0.997850746493
873808000000,,11489,,873,800060081,"""map""",,,10.0229530334,0.894492685795,0.110394082963,,0.00314826661416,0.00285953351632,0.0653830804445,-0.997851167961
873840000000,,11490,,873,832060081,"""map""",,,10.0233020782,0.894343852997,0.110408850014,,0.00313155628393,0.00277356161122,0.0654106023366,-0.997849692822
873872000000,,11491,,873,864059803,"""map""",,,10.0237865448,0.894215583801,0.110615380108,,0.00313743871217,0.00271020273542,0.0654419595919,-0.997847754067
873908000000,,11492,,873,904059803,"""map""",,,10.0239601135,0.893865525723,0.110110543668,,0.00318089851321,0.00268611402108,0.0654356375646,-0.997848175535
873940000000,,11493,,873,936059803,"""map""",,,10.0241346359,0.89358407259,0.109598241746,,0.00316951135259,0.00267508827791,0.0654839799999,-0.997845014521
873972000000,,11494,,873,968059526,"""map""",,,10.0244255066,0.893300592899,0.109250351787,,0.00315132778627,0.00267113948041,0.0654646767432,-0.997846447514
874008000000,,11495,,874,59526,"""map""",,,10.0248327255,0.893028318882,0.109057143331,,0.00316765345448,0.00263235349321,0.0655508249016,-0.997840715543
874040000000,,11496,,874,32059526,"""map""",,,10.0253410339,0.892804205418,0.108970522881,,0.00318421545784,0.00267106510604,0.0655401617489,-0.997841263452
874072000000,,11497,,874,72059248,"""map""",,,10.0260038376,0.892577946186,0.109515078366,,0.00320397946924,0.00272997608992,0.0656026655253,-0.99783700662
874108000000,,11498,,874,104059248,"""map""",,,10.0254945755,0.892555236816,0.11152920872,,0.00328580864576,0.00546145892967,0.0655850481426,-0.997826638495
874140000000,,11499,,874,136059248,"""map""",,,10.0247526169,0.892579972744,0.11516584456,,0.00380451205065,0.013239878953,0.0655781360594,-0.997752375748
874172000000,,11500,,874,168058971,"""map""",,,10.0237941742,0.892675042152,0.119974888861,,0.0042716884637,0.0199227468025,0.0655617409354,-0.997640475866
874208000000,,11501,,874,200058971,"""map""",,,10.0226678848,0.892843008041,0.125490427017,,0.00469330051151,0.0325464931602,0.0653208295493,-0.997322351453
874240000000,,11502,,874,232058971,"""map""",,,10.0213727951,0.893113851547,0.1314625144,,0.00330531259382,0.0436387534349,0.0644013117553,-0.996964061094
