rosbagTimestamp,header,seq,stamp,secs,nsecs,frame_id,pose,position,x,y,z,orientation,x,y,z,w
418072000000,,7059,,418,68155008,"""map""",,,-0.00973162893206,-0.117502719164,-0.0203468501568,,4.06134276241e-05,-0.00929142784146,0.0390339244267,-0.999194683051
418104000000,,7060,,418,100155008,"""map""",,,-0.00966748408973,-0.117440797389,-0.020624037832,,-2.45505392575e-05,-0.00928971793064,0.0390348095105,-0.999194725198
418136000000,,7061,,418,132155008,"""map""",,,-0.00950301717967,-0.117424070835,-0.021055502817,,-2.06845537234e-05,-0.00929279629695,0.0390140311142,-0.999195525988
418172000000,,7062,,418,164154562,"""map""",,,-0.00984262023121,-0.117074295878,-0.0209220964462,,3.80536651216e-05,-0.00931653089956,0.0389867199564,-0.999196368925
418204000000,,7063,,418,196154562,"""map""",,,-0.010034092702,-0.11680676043,-0.0209085401148,,7.87586304328e-06,-0.00936289704273,0.038994348536,-0.999195568135
418236000000,,7064,,418,228154562,"""map""",,,-0.0100871045142,-0.11658474803,-0.0209250655025,,1.76124435938e-05,-0.0093883517636,0.0389805243697,-0.99919590531
418272000000,,7065,,418,268154116,"""map""",,,-0.00995085388422,-0.116359256208,-0.0210351236165,,4.34053270657e-05,-0.00937518383689,0.0390284031896,-0.999194135142
418304000000,,7066,,418,300154116,"""map""",,,-0.00971167068928,-0.116227656603,-0.0212338939309,,0.000108622636053,-0.00943543506174,0.0390043373391,-0.999194514464
418336000000,,7067,,418,332154116,"""map""",,,-0.00937102176249,-0.116126455367,-0.0214506946504,,0.00015182513141,-0.0094498354545,0.0390283610427,-0.999193418646
418372000000,,7068,,418,364153670,"""map""",,,-0.00949073303491,-0.116007298231,-0.0209201667458,,0.000153130037352,-0.00943634418243,0.0390045902202,-0.999194514464
418404000000,,7069,,418,396153670,"""map""",,,-0.0094941528514,-0.115888029337,-0.0205140262842,,0.000138665107234,-0.00944996683413,0.0390084677302,-0.999194177289
418436000000,,7070,,418,428153670,"""map""",,,-0.00940072722733,-0.115813829005,-0.0202393885702,,0.000127385556902,-0.00946121938413,0.0390191308829,-0.999193713674
418472000000,,7071,,418,468153224,"""map""",,,-0.00919523183256,-0.115784116089,-0.020272905007,,9.77332733408e-05,-0.00947457927657,0.0389553627011,-0.99919603175
418504000000,,7072,,418,500153224,"""map""",,,-0.00896005984396,-0.115797869861,-0.0203268751502,,0.000135271956657,-0.00949923090241,0.0389790913768,-0.999194893785
418536000000,,7073,,418,532153224,"""map""",,,-0.00862367916852,-0.115844860673,-0.0203269347548,,0.000114327277853,-0.0095217541124,0.0389920726062,-0.999194135142
418572000000,,7074,,418,564152777,"""map""",,,-0.00910311192274,-0.115766271949,-0.0196881704032,,7.01145752205e-05,-0.00948453054263,0.0390065289752,-0.999194008702
418604000000,,7075,,418,596152777,"""map""",,,-0.00944095477462,-0.115716189146,-0.0192959755659,,6.23203716962e-05,-0.00946417987097,0.0389758882163,-0.999195315254
418636000000,,7076,,418,628152777,"""map""",,,-0.00968247186393,-0.115677312016,-0.0189240463078,,5.08778315978e-05,-0.00944735702224,0.0389853712572,-0.99919510452
418672000000,,7077,,418,668152331,"""map""",,,-0.00983091071248,-0.115681536496,-0.0185436941683,,2.6828773983e-05,-0.00943820489994,0.0389931262774,-0.999194935932
418704000000,,7078,,418,700152331,"""map""",,,-0.00984408613294,-0.115757800639,-0.018335884437,,-2.71587047814e-05,-0.0094532460565,0.039054449942,-0.999192364975
418736000000,,7079,,418,732152331,"""map""",,,-0.00976187456399,-0.115875318646,-0.0182052701712,,-2.59463243422e-05,-0.00945236887522,0.0390700021291,-0.999191817066
418772000000,,7080,,418,764151885,"""map""",,,-0.0102044381201,-0.115967355669,-0.0178242791444,,-5.92090781682e-05,-0.00941073865488,0.0390751018977,-0.9991920278
418804000000,,7081,,418,796151885,"""map""",,,-0.0105385323986,-0.116077564657,-0.0176185742021,,-0.000120677951816,-0.0094298222869,0.039038012671,-0.999193292205
418836000000,,7082,,418,828151885,"""map""",,,-0.0107877869159,-0.116239622235,-0.0176322981715,,-0.000149695398471,-0.00943160299125,0.0390618256404,-0.999192322828
418872000000,,7083,,418,868151438,"""map""",,,-0.0109488312155,-0.116457730532,-0.0178047195077,,-0.000134006563385,-0.00923002152954,0.0390278552805,-0.999195525988
418904000000,,7084,,418,900151438,"""map""",,,-0.0109041258693,-0.116651043296,-0.0180155355483,,-0.000139281175622,-0.0092867218824,0.0390396142513,-0.999194556611
418936000000,,7085,,418,932151438,"""map""",,,-0.0107766063884,-0.11685359478,-0.0182709805667,,-0.000147031256664,-0.00929826254563,0.0390350623916,-0.999194556611
418972000000,,7086,,418,964150992,"""map""",,,-0.010566867888,-0.117096170783,-0.0185152087361,,-0.000180265693076,-0.00929197245777,0.0390375912025,-0.999194556611
419004000000,,7087,,418,996150992,"""map""",,,-0.0102850710973,-0.117350764573,-0.0187695845962,,-0.000163922264749,-0.00935359082102,0.0389934213053,-0.999195736722
419036000000,,7088,,419,28150992,"""map""",,,-0.00991937145591,-0.117633350194,-0.0191861521453,,-0.000181859700057,-0.00935084864169,0.0390113758628,-0.999195062373
419072000000,,7089,,419,68150546,"""map""",,,-0.0103651843965,-0.117879912257,-0.0192588381469,,-0.000219499469956,-0.00935403072875,0.0389361437382,-0.999197886212
419104000000,,7090,,419,100150546,"""map""",,,-0.0106296567246,-0.118102021515,-0.0194452311844,,-0.000122606499407,-0.00938422565298,0.0390055595977,-0.999194978079
419136000000,,7091,,419,132150546,"""map""",,,-0.0108050256968,-0.118350416422,-0.0197445712984,,-7.52380514925e-05,-0.00942214925556,0.0389834746491,-0.999195399548
419172000000,,7092,,419,164150099,"""map""",,,-0.0108735868707,-0.118623025715,-0.0201948545873,,-2.74520863597e-05,-0.00945727601962,0.038942592206,-0.999196748247
419204000000,,7093,,419,196150099,"""map""",,,-0.0108364857733,-0.118909493089,-0.0206438545138,,-6.30013067174e-05,-0.00948772349568,0.0389229939214,-0.999197211862
419236000000,,7094,,419,228150099,"""map""",,,-0.0107263522223,-0.119200088084,-0.0211248621345,,-9.53134515461e-05,-0.00947616801519,0.0389265342567,-0.999197127568
419272000000,,7095,,419,268149653,"""map""",,,-0.0115868728608,-0.118961811066,-0.0210726391524,,-0.000133902513353,-0.00946351770447,0.0388553482296,-0.999200035701
419304000000,,7096,,419,300149653,"""map""",,,-0.0121356323361,-0.118823811412,-0.0210080202669,,-9.2073741839e-05,-0.00947934779735,0.0388114733603,-0.999201595134
419336000000,,7097,,419,332149653,"""map""",,,-0.0125538017601,-0.118728533387,-0.0210125204176,,-0.000115073738053,-0.00947112422281,0.0387844572304,-0.999202733099
419372000000,,7098,,419,364149206,"""map""",,,-0.0128643773496,-0.118630982935,-0.0211190357804,,-9.04533930771e-05,-0.00928495698312,0.0387932659217,-0.999204123945
419404000000,,7099,,419,396149206,"""map""",,,-0.0130338380113,-0.118576705456,-0.0210653971881,,-8.60734135546e-05,-0.00932408242943,0.038815182283,-0.99920285954
419436000000,,7100,,419,428149206,"""map""",,,-0.0131094781682,-0.118565708399,-0.0209240671247,,-0.000103807029338,-0.00936074722419,0.0388145922271,-0.999202606659
419472000000,,7101,,419,468148760,"""map""",,,-0.0137368962169,-0.118206068873,-0.0207246355712,,-0.000126112261095,-0.00938741333767,0.0387386436061,-0.999205304057
419504000000,,7102,,419,500148760,"""map""",,,-0.0141278514639,-0.117991343141,-0.0204742252827,,-8.35669931572e-05,-0.00942511369367,0.0387261681389,-0.999205472644
419536000000,,7103,,419,532148760,"""map""",,,-0.0144230006263,-0.117797970772,-0.0202703513205,,-9.07938605878e-05,-0.00941639390584,0.0387298770616,-0.999205388351
419572000000,,7104,,419,572148314,"""map""",,,-0.0147241316736,-0.117558658123,-0.020036265254,,-0.00010560716075,-0.00945620028717,0.0387618665196,-0.999203744624
419604000000,,7105,,419,596148314,"""map""",,,-0.0148465549573,-0.117428451777,-0.0198380090296,,-6.78916582337e-05,-0.00945108998179,0.0387657440297,-0.99920366033
419636000000,,7106,,419,628148314,"""map""",,,-0.0149313211441,-0.117296166718,-0.0197358410805,,-4.74119118522e-05,-0.00947926679638,0.038796258348,-0.999202227337
419672000000,,7107,,419,668147867,"""map""",,,-0.0155685981736,-0.116843678057,-0.0194748323411,,-1.2502467484e-05,-0.00949708766931,0.0387626673097,-0.999203365302
419704000000,,7108,,419,700147867,"""map""",,,-0.0159895215183,-0.116529032588,-0.0195602923632,,-3.56292335153e-05,-0.00951796879857,0.0388156458983,-0.999201047225
419736000000,,7109,,419,732147867,"""map""",,,-0.0163218453526,-0.116285338998,-0.0197934601456,,9.50608997279e-06,-0.00951740640156,0.0388014002635,-0.999201637281
419772000000,,7110,,419,764147421,"""map""",,,-0.0165696963668,-0.116057686508,-0.0199371315539,,4.73723991823e-06,-0.00952713672593,0.0388124427378,-0.999201131519
419804000000,,7111,,419,804147421,"""map""",,,-0.0167794935405,-0.115771129727,-0.0201084744185,,-4.08379913012e-05,-0.00958507086193,0.0388321253161,-0.999199824967
419836000000,,7112,,419,828147421,"""map""",,,-0.0168506894261,-0.115609690547,-0.0202187318355,,-4.86641342341e-05,-0.00958131452406,0.038814339346,-0.999200499316
419872000000,,7113,,419,868146974,"""map""",,,-0.0174481421709,-0.115215703845,-0.0197446513921,,-3.53299250365e-05,-0.00958927501007,0.0388215043102,-0.999200162142
419904000000,,7114,,419,900146974,"""map""",,,-0.0178465228528,-0.114925511181,-0.0194056779146,,-8.54481255442e-05,-0.00968839550742,0.0388158566325,-0.999199403498
419936000000,,7115,,419,932146974,"""map""",,,-0.0181856956333,-0.114658914506,-0.0189889762551,,-0.000114987468722,-0.00965789929907,0.038831872435,-0.999199066323
419972000000,,7116,,419,964146528,"""map""",,,-0.0184789299965,-0.114410765469,-0.0186224095523,,-0.000136772121046,-0.0094646494132,0.0388419033849,-0.99920058361
420004000000,,7117,,419,996146528,"""map""",,,-0.0187070071697,-0.114189460874,-0.0182319004089,,-0.00010276718756,-0.00955345578647,0.0387937716839,-0.999201595134
420036000000,,7118,,420,28146528,"""map""",,,-0.0188587978482,-0.11399064213,-0.0178555510938,,-7.79986700699e-05,-0.00952693093077,0.038774552721,-0.999202606659
420072000000,,7119,,420,68146081,"""map""",,,-0.0194506570697,-0.11389477551,-0.0169281549752,,-0.000111118519738,-0.00951489043226,0.0388167417164,-0.999201047225
420104000000,,7120,,420,100146081,"""map""",,,-0.0198421105742,-0.113831885159,-0.0162728596479,,-0.000120233763545,-0.00954984432839,0.0388480989716,-0.999199529939
420136000000,,7121,,420,132146081,"""map""",,,-0.0202002357692,-0.113805674016,-0.0157494358718,,-0.000134852463805,-0.00955231485811,0.0388157723388,-0.999200752197
420172000000,,7122,,420,164145635,"""map""",,,-0.0205061361194,-0.113802403212,-0.0153059046715,,-0.000154100073412,-0.00949806692499,0.0387721503506,-0.99920298598
420204000000,,7123,,420,196145635,"""map""",,,-0.020805105567,-0.113774158061,-0.0149905215949,,-0.000194295325274,-0.00952696945563,0.0387775030004,-0.999202438071
420236000000,,7124,,420,228145635,"""map""",,,-0.0210583843291,-0.113729454577,-0.0147285079584,,-0.000167762567047,-0.00956205670701,0.0387912850199,-0.999201552988
420272000000,,7125,,420,268145189,"""map""",,,-0.0216896869242,-0.113926902413,-0.0136023359373,,-0.000203360848971,-0.00954243866612,0.0388470031536,-0.999199614233
420304000000,,7126,,420,300145189,"""map""",,,-0.0221033524722,-0.114095441997,-0.0126165235415,,-0.000113403010636,-0.00955328028436,0.0388215464571,-0.999200541463
420336000000,,7127,,420,332145189,"""map""",,,-0.0224597845227,-0.114230528474,-0.0116832209751,,-0.000103132021217,-0.0095340688947,0.0388053199204,-0.999201342253
420372000000,,7128,,420,364144743,"""map""",,,-0.0227554049343,-0.114324219525,-0.0108540253714,,-0.000143672350401,-0.00956123747765,0.0387630044845,-0.999202690952
420404000000,,7129,,420,396144743,"""map""",,,-0.0230260174721,-0.114403657615,-0.01012723241,,-0.000152584103955,-0.0095471502228,0.0387438276684,-0.999203576036
420436000000,,7130,,420,428144743,"""map""",,,-0.0233043022454,-0.114472217858,-0.00958943460137,,-0.00015039938255,-0.00930581242915,0.0387430268783,-0.999205894113
420472000000,,7131,,420,468144296,"""map""",,,-0.02365327999,-0.114444099367,-0.00866243056953,,-0.000115670708649,-0.00930473735524,0.0387082557283,-0.999207284959
420504000000,,7132,,420,500144296,"""map""",,,-0.023916060105,-0.114434756339,-0.00806747563183,,-0.000153369418281,-0.00931181572088,0.0386754233333,-0.999208422924
420536000000,,7133,,420,532144296,"""map""",,,-0.0241545122117,-0.11441693455,-0.00765048339963,,-0.000168027960484,-0.00930705510263,0.038634878065,-0.999210024504
420572000000,,7134,,420,564143850,"""map""",,,-0.0243807639927,-0.114423617721,-0.00735601829365,,-0.000167109290895,-0.00927547723493,0.038671335089,-0.999208970833
420604000000,,7135,,420,596143850,"""map""",,,-0.0245940033346,-0.114429101348,-0.00706476345658,,-0.000189259764694,-0.00928161256484,0.0386672889915,-0.999209055127
420636000000,,7136,,420,628143850,"""map""",,,-0.0247742310166,-0.11440563947,-0.00683633470908,,-0.00017497659286,-0.00927772385952,0.0387007114424,-0.999207832868
420672000000,,7137,,420,668143404,"""map""",,,-0.0250793285668,-0.114121340215,-0.00604253122583,,-0.000125592998751,-0.00930692504009,0.0387204361675,-0.99920673705
420704000000,,7138,,420,700143404,"""map""",,,-0.0252989418805,-0.113895826042,-0.0054804473184,,-0.000153902180788,-0.00936983480912,0.0387835721466,-0.999203702477
420736000000,,7139,,420,732143404,"""map""",,,-0.0254921559244,-0.113671474159,-0.00501189846545,,-0.000138755327832,-0.00939792140312,0.0388097453395,-0.999202480218
420772000000,,7140,,420,764142958,"""map""",,,-0.0256827604026,-0.113460741937,-0.00470755621791,,-0.000146277881747,-0.00942591217888,0.0387899784675,-0.999202943834
420804000000,,7141,,420,796142958,"""map""",,,-0.0258716009557,-0.113267891109,-0.00447250017896,,-0.000202546229414,-0.00947722036932,0.0387718553227,-0.999203196715
420836000000,,7142,,420,828142958,"""map""",,,-0.0260345879942,-0.113083235919,-0.00428363634273,,-0.000192206092822,-0.0094834663347,0.0388083966403,-0.999201637281
420872000000,,7143,,420,868142512,"""map""",,,-0.0264271683991,-0.112661972642,-0.00381149654277,,-0.000176404975898,-0.00943717855833,0.0388195234084,-0.999201721575
420904000000,,7144,,420,900142512,"""map""",,,-0.0267493929714,-0.112355493009,-0.00355310039595,,-0.00020135064186,-0.00935612753446,0.0387465250667,-0.99920526191
420936000000,,7145,,420,932142512,"""map""",,,-0.0270638633519,-0.112064912915,-0.00327073736116,,-0.000214319029584,-0.00937801722463,0.0387341338933,-0.999205514791
420972000000,,7146,,420,964142066,"""map""",,,-0.0273534860462,-0.1117958799,-0.00293182535097,,-0.000219968682918,-0.00938470737829,0.0387785145248,-0.999203786771
421004000000,,7147,,420,996142066,"""map""",,,-0.0275917947292,-0.111559852958,-0.00248747016303,,-0.000268297947269,-0.00933473702103,0.0387874075098,-0.999203913211
421036000000,,7148,,421,28142066,"""map""",,,-0.0278547164053,-0.111346706748,-0.00198416947387,,-0.000305742129449,-0.00933244462759,0.0387796103428,-0.999204208239
421072000000,,7149,,421,68141620,"""map""",,,-0.0283129438758,-0.111145541072,-0.0013197499793,,-0.000298430639049,-0.00941946502815,0.0387392758088,-0.999204924735
421104000000,,7150,,421,100141620,"""map""",,,-0.0286536961794,-0.11097574234,-0.000811728648841,,-0.000339408571058,-0.00940561254443,0.038671882998,-0.999207664281
421136000000,,7151,,421,132141620,"""map""",,,-0.0289766453207,-0.110806286335,-0.000273152458249,,-0.000345824440927,-0.0094181186339,0.0386444875465,-0.999208591511
421172000000,,7152,,421,164141174,"""map""",,,-0.0292902104557,-0.110631331801,0.000375744391931,,-0.000300070414874,-0.00946750782564,0.0386729788161,-0.999207074225
421204000000,,7153,,421,196141174,"""map""",,,-0.0295927189291,-0.110450573266,0.000986306462437,,-0.000324110252865,-0.00945596584532,0.0386339086875,-0.999208633658
421236000000,,7154,,421,228141174,"""map""",,,-0.029907817021,-0.110288999975,0.00157284445595,,-0.000363228784456,-0.00944983512523,0.0385816044485,-0.999210698854
421272000000,,7155,,421,268140728,"""map""",,,-0.030362688005,-0.109940774739,0.002005496528,,-0.000289246577341,-0.0094625061801,0.0385842597,-0.999210572413
421304000000,,7156,,421,300140728,"""map""",,,-0.0307594072074,-0.109650805593,0.00232892110944,,-0.000303195208564,-0.00939958883781,0.0385221352453,-0.999213522693
421336000000,,7157,,421,332140728,"""map""",,,-0.0311313290149,-0.10937255621,0.00266288476996,,-0.000311939033269,-0.00938480023307,0.0385067094987,-0.999214197042
421372000000,,7158,,421,364140282,"""map""",,,-0.0314851589501,-0.10912951082,0.00298341014422,,-0.000372167867608,-0.00936747030507,0.0384718962018,-0.999215714329
421404000000,,7159,,421,396140282,"""map""",,,-0.0318620763719,-0.108892574906,0.00328731397167,,-0.000364161612752,-0.00931290363641,0.0384227951233,-0.999218116699
421436000000,,7160,,421,428140282,"""map""",,,-0.0322498120368,-0.108622990549,0.0035445492249,,-0.000348222530753,-0.00929752300015,0.0384297493533,-0.999218074552
421472000000,,7161,,421,468139837,"""map""",,,-0.0325614959002,-0.108412988484,0.0040548001416,,-0.000450111878484,-0.00927105741346,0.0384514549803,-0.999217358056
421504000000,,7162,,421,500139837,"""map""",,,-0.03283989802,-0.108205094934,0.00446874042973,,-0.000399369707055,-0.00924961191156,0.038446818827,-0.999217779524
421536000000,,7163,,421,532139837,"""map""",,,-0.0331319719553,-0.107963077724,0.00483483821154,,-0.000408384852097,-0.00925812853841,0.0384660799367,-0.999216978734
421572000000,,7164,,421,564139391,"""map""",,,-0.0334575027227,-0.107720807195,0.00521556613967,,-0.000436076648657,-0.00929761815983,0.038464351916,-0.999216683706
421604000000,,7165,,421,596139391,"""map""",,,-0.0337979011238,-0.107478044927,0.00557373091578,,-0.000416405265659,-0.00924402185651,0.0384867740394,-0.999216262238
421636000000,,7166,,421,628139391,"""map""",,,-0.0341443307698,-0.107202909887,0.00586109235883,,-0.000457904435647,-0.00921427243763,0.0384672179017,-0.999217358056
421672000000,,7167,,421,668132945,"""map""",,,-0.0344098210335,-0.107122637331,0.00642311898991,,-0.000484462218564,-0.00917582529217,0.0384471981486,-0.999218411727
421704000000,,7168,,421,700132945,"""map""",,,-0.0346901230514,-0.107065998018,0.00679930346087,,-0.000525082560906,-0.00915200573731,0.0384900614935,-0.999216936587
421736000000,,7169,,421,732132945,"""map""",,,-0.0349829271436,-0.107026740909,0.00710120704025,,-0.000507878744179,-0.00916378578147,0.0384597157626,-0.999218032405
421772000000,,7170,,421,764144500,"""map""",,,-0.0352759435773,-0.106987603009,0.00739763118327,,-0.00048520802022,-0.00918337320004,0.0384391902474,-0.999218664608
421804000000,,7171,,421,796144500,"""map""",,,-0.0356119833887,-0.10692768544,0.00758954044431,,-0.000487242264205,-0.00901558396194,0.0384399910375,-0.999220139748
421836000000,,7172,,421,828144500,"""map""",,,-0.0359627716243,-0.106846734881,0.00784346275032,,-0.000489581085025,-0.00902431988411,0.0384397381564,-0.999220055454
421872000000,,7173,,421,868144055,"""map""",,,-0.0366588830948,-0.107065632939,0.00803534779698,,-0.000551711137358,-0.00907071730815,0.0384399067438,-0.999219633986
421904000000,,7174,,421,900144055,"""map""",,,-0.0372320786119,-0.107257470489,0.00817629601806,,-0.000542258060219,-0.00904704296236,0.038457102658,-0.999219212517
421936000000,,7175,,421,932144055,"""map""",,,-0.0378313623369,-0.107426591218,0.00810146145523,,-0.000558060494232,-0.0090648091761,0.0384347648283,-0.999219886867
421972000000,,7176,,421,964143609,"""map""",,,-0.0384675264359,-0.107577905059,0.00792125519365,,-0.000563035468718,-0.0091192329406,0.0383988135665,-0.99922077195
422004000000,,7177,,421,996143609,"""map""",,,-0.039122723043,-0.107698313892,0.00761484354734,,-0.000565277154223,-0.0091534726452,0.0384241016756,-0.999219507545
422036000000,,7178,,422,28143609,"""map""",,,-0.0398169234395,-0.107792258263,0.00731135858223,,-0.00055988334543,-0.0091425582578,0.0384082544606,-0.999220181895
422072000000,,7179,,422,68143164,"""map""",,,-0.0404261872172,-0.107758060098,0.00745374988765,,-0.00062588992001,-0.00918490266966,0.0383796788973,-0.999220856244
422104000000,,7180,,422,100143164,"""map""",,,-0.04095191136,-0.107698924839,0.0076309684664,,-0.000634643952154,-0.00917695996435,0.0383874339174,-0.999220603363
422136000000,,7181,,422,132143164,"""map""",,,-0.0415443740785,-0.107662461698,0.00782971829176,,-0.000634442108263,-0.00918965834883,0.0384307608777,-0.999218833195
422172000000,,7182,,422,164142719,"""map""",,,-0.0422191508114,-0.107657566667,0.00802503153682,,-0.000668765448019,-0.00921736990172,0.0384189597601,-0.999219001783
422204000000,,7183,,422,196142719,"""map""",,,-0.042948987335,-0.107663065195,0.00824189186096,,-0.000667058829926,-0.00926618220847,0.0384030703982,-0.999219212517
422236000000,,7184,,422,228142719,"""map""",,,-0.0436891764402,-0.107694707811,0.00854689255357,,-0.000688167486313,-0.00924050852156,0.0384058942371,-0.999219254664
422272000000,,7185,,422,268142274,"""map""",,,-0.0443309359252,-0.107727706432,0.00919859111309,,-0.000702038738557,-0.00921192736064,0.0384541523786,-0.999217695231
422304000000,,7186,,422,300142274,"""map""",,,-0.0449074618518,-0.107746630907,0.00978216156363,,-0.000686177694082,-0.00921499354387,0.0384836130257,-0.999216557266
422336000000,,7187,,422,332142274,"""map""",,,-0.0455415397882,-0.107765212655,0.0103309284896,,-0.000729755230537,-0.00924329877464,0.0384688616287,-0.999216810147
422372000000,,7188,,422,364141829,"""map""",,,-0.0462557189167,-0.107790164649,0.0107580600306,,-0.000737592239454,-0.0092518792803,0.0384748043344,-0.999216515119
422404000000,,7189,,422,396141829,"""map""",,,-0.0470419563353,-0.10783611238,0.0111844902858,,-0.000715377557566,-0.00923561125532,0.0385046021563,-0.999215545741
422436000000,,7190,,422,432141829,"""map""",,,-0.04788601771,-0.107895791531,0.0114657375962,,-0.000734202381599,-0.00925153650789,0.0385175833856,-0.999214871392
422472000000,,7191,,422,464141384,"""map""",,,-0.0484403260052,-0.108019866049,0.011522279121,,-0.000737133892476,-0.00920135245293,0.0385383196351,-0.999214534217
422504000000,,7192,,422,504141384,"""map""",,,-0.0492470860481,-0.108182348311,0.0117013650015,,-0.000809115770649,-0.00917777293755,0.0385258863148,-0.99921516642
422536000000,,7193,,422,528141384,"""map""",,,-0.0497800670564,-0.108295358717,0.0118908323348,,-0.000855105555636,-0.00919444629667,0.0384997552687,-0.999216009357
422572000000,,7194,,422,568140939,"""map""",,,-0.0507590733469,-0.108508296311,0.0121975233778,,-0.000914510221523,-0.00921517530215,0.0384933068009,-0.99921596721
422604000000,,7195,,422,600140939,"""map""",,,-0.0516198277473,-0.108662709594,0.0125611787662,,-0.000902942228696,-0.00915516016551,0.0384632560979,-0.999217695231
422636000000,,7196,,422,632140939,"""map""",,,-0.052562199533,-0.108833506703,0.0128761790693,,-0.000939921807725,-0.00912158592013,0.038457945595,-0.999218200993
422672000000,,7197,,422,664140494,"""map""",,,-0.0532008707523,-0.109055332839,0.0132263163105,,-0.000965365662608,-0.00919310813423,0.0384240595288,-0.999218791049
422704000000,,7198,,422,696140494,"""map""",,,-0.0539435632527,-0.109322816133,0.01371515356,,-0.000905313647469,-0.00915136102224,0.0383677091923,-0.999221362006
422736000000,,7199,,422,728140494,"""map""",,,-0.0547880679369,-0.109627053142,0.0142512321472,,-0.000880940915229,-0.0091421986925,0.0383762650026,-0.999221151272
422772000000,,7200,,422,768140049,"""map""",,,-0.0559603087604,-0.11004717648,0.0149906072766,,-0.000894555335115,-0.00918016411266,0.0384151243969,-0.999219296811
422804000000,,7201,,422,800140049,"""map""",,,-0.0569674298167,-0.110429674387,0.0157065913081,,-0.000870790768727,-0.0091442006678,0.0384756894182,-0.999217315909
422836000000,,7202,,422,832140049,"""map""",,,-0.0580392964184,-0.110858775675,0.0164760928601,,-0.000911855299339,-0.00914258953866,0.0384775438795,-0.999217231615
422872000000,,7203,,422,864139604,"""map""",,,-0.058308519423,-0.111206889153,0.0174653083086,,-0.000953420982322,-0.00911135378483,0.0384588306788,-0.999218158846
422904000000,,7204,,422,896139604,"""map""",,,-0.0586805380881,-0.111579865217,0.0184556618333,,-0.0010462869532,-0.00912236530755,0.0384480832324,-0.999218453874
422936000000,,7205,,422,928139604,"""map""",,,-0.0591377913952,-0.111995920539,0.0193595420569,,-0.00107887733309,-0.00916342391126,0.0384716433207,-0.999217147321
422972000000,,7206,,422,968139159,"""map""",,,-0.0598883256316,-0.112545013428,0.0204187035561,,-0.00106209761902,-0.0091303063665,0.0383893726725,-0.999220603363
423004000000,,7207,,423,139159,"""map""",,,-0.0606100298464,-0.113005757332,0.0213082265109,,-0.00110612856337,-0.00912459349289,0.0383935873573,-0.999220434776
423040000000,,7208,,423,32139159,"""map""",,,-0.0614574514329,-0.113515496254,0.0221270509064,,-0.00118675811875,-0.00910166231458,0.0383807747154,-0.999221024832
423072000000,,7209,,423,64138715,"""map""",,,-0.0619959942997,-0.113909594715,0.0226203072816,,-0.00124758557005,-0.00912410518214,0.0383328116017,-0.999222626412
423104000000,,7210,,423,96138715,"""map""",,,-0.0626609995961,-0.114333331585,0.0231012646109,,-0.00123586775835,-0.00916662180339,0.0383432218733,-0.999221825622
423136000000,,7211,,423,128138715,"""map""",,,-0.0634182170033,-0.114799559116,0.023572428152,,-0.00119761784696,-0.00916813085813,0.0383506397187,-0.999221572741
423172000000,,7212,,423,168138270,"""map""",,,-0.0645223557949,-0.115457832813,0.0242012422532,,-0.00123554375445,-0.0092196570268,0.0383446127193,-0.999221277713
423204000000,,7213,,423,200138270,"""map""",,,-0.0655057653785,-0.116047009826,0.0247047673911,,-0.00122794415083,-0.009262968182,0.0383002742347,-0.999222626412
423236000000,,7214,,423,232138270,"""map""",,,-0.0665882900357,-0.116700269282,0.0253307428211,,-0.00123999979586,-0.00924900275789,0.0383216426869,-0.999221909915
423272000000,,7215,,423,264137826,"""map""",,,-0.0669524893165,-0.117230288684,0.0256695225835,,-0.00127345846668,-0.00914595239619,0.0382941629417,-0.99922384867
423304000000,,7216,,423,296137826,"""map""",,,-0.0674384385347,-0.117809489369,0.0262948479503,,-0.00128745912292,-0.00905075517775,0.0382582538267,-0.999226040307
423336000000,,7217,,423,328137826,"""map""",,,-0.0680573955178,-0.118421107531,0.0270835384727,,-0.00130134189969,-0.00908326159321,0.0382351573537,-0.999226714656
423372000000,,7218,,423,368137381,"""map""",,,-0.0690051019192,-0.119213335216,0.0281500853598,,-0.00135785522592,-0.00912111242663,0.0382056124129,-0.999227346859
423404000000,,7219,,423,400137381,"""map""",,,-0.0698810368776,-0.119887620211,0.0290192626417,,-0.0013807083667,-0.00918306533049,0.03813075961,-0.999229622789
423436000000,,7220,,423,432137381,"""map""",,,-0.0708447694778,-0.120632641017,0.029808934778,,-0.00136907945851,-0.00919327309963,0.0381352693228,-0.999229412054
423472000000,,7221,,423,464136937,"""map""",,,-0.0712640583515,-0.120923005044,0.0302302390337,,-0.00137359839092,-0.00926008968396,0.0381189584924,-0.999229369908
423504000000,,7222,,423,496136937,"""map""",,,-0.0717935413122,-0.121313162148,0.0306337401271,,-0.00138303237027,-0.00929387729776,0.0380986858583,-0.999229833523
423536000000,,7223,,423,528136937,"""map""",,,-0.0724476873875,-0.121834561229,0.0310423970222,,-0.00137683875917,-0.00933772187401,0.0381061037036,-0.999229159173
423572000000,,7224,,423,568136493,"""map""",,,-0.0734720304608,-0.122630514205,0.0315743349493,,-0.00133968400731,-0.00937672845303,0.0380624817154,-0.999230465726
423604000000,,7225,,423,600136493,"""map""",,,-0.0744550377131,-0.123334467411,0.0320914424956,,-0.00131640182477,-0.00939791712258,0.0381020576062,-0.999228821999
423636000000,,7226,,423,632136493,"""map""",,,-0.0755340829492,-0.124104529619,0.0326758809388,,-0.00126703634064,-0.00939000767376,0.0380935017959,-0.999229285614
423672000000,,7227,,423,664136049,"""map""",,,-0.0757274925709,-0.124540261924,0.0331192985177,,-0.0012873109504,-0.00943727602291,0.0381328248056,-0.999227304712
423704000000,,7228,,423,696136049,"""map""",,,-0.0760767161846,-0.125074803829,0.0335832722485,,-0.00129544397508,-0.009452835454,0.0380951033761,-0.999228611264
423736000000,,7229,,423,728136049,"""map""",,,-0.0765704810619,-0.125693619251,0.0340410284698,,-0.00128277950564,-0.0094406108923,0.0381189163456,-0.999227810474
423772000000,,7230,,423,768135605,"""map""",,,-0.0774046704173,-0.126550018787,0.0345803014934,,-0.00128078115233,-0.00928626551106,0.0381518330342,-0.999228021208
423804000000,,7231,,423,800135605,"""map""",,,-0.0781661197543,-0.127331912518,0.0351994596422,,-0.00122409660454,-0.0092552793456,0.0381422235528,-0.999228779852
423836000000,,7232,,423,832135605,"""map""",,,-0.0790895819664,-0.12818929553,0.0358159393072,,-0.00125685524254,-0.0092653155639,0.0381518751811,-0.999228231943
423872000000,,7233,,423,864135161,"""map""",,,-0.0788768753409,-0.128544285893,0.0361866317689,,-0.0012105361853,-0.00923924609173,0.0381317711344,-0.999229285614
423904000000,,7234,,423,896135161,"""map""",,,-0.078853815794,-0.129009649158,0.0365945920348,,-0.0012372437871,-0.00922608409193,0.0381395683013,-0.99922907488
423936000000,,7235,,423,928135161,"""map""",,,-0.0790056064725,-0.129605025053,0.0371331945062,,-0.00122365044063,-0.00927852168619,0.038104881445,-0.999229959963
423972000000,,7236,,423,968134717,"""map""",,,-0.0794541761279,-0.130478605628,0.0377712473273,,-0.00124123720099,-0.00931606036951,0.0381217401844,-0.999228948439
424004000000,,7237,,424,134717,"""map""",,,-0.079999089241,-0.131282359362,0.0383319146931,,-0.00129303929981,-0.00934722565908,0.0380570447719,-0.999231097928
424036000000,,7238,,424,32134717,"""map""",,,-0.0806725546718,-0.132181048393,0.0389691852033,,-0.0012311782629,-0.0093342306003,0.0380034761275,-0.999233331711
424072000000,,7239,,424,64134274,"""map""",,,-0.0804923325777,-0.132719650865,0.0393521599472,,-0.00124635771381,-0.0093616300031,0.0379511718885,-0.999234975438
424104000000,,7240,,424,96134274,"""map""",,,-0.0805337578058,-0.133410945535,0.03979466483,,-0.00127617792622,-0.00937593556545,0.0379321636598,-0.999235523347
424136000000,,7241,,424,136134274,"""map""",,,-0.0808590129018,-0.134441167116,0.0403833538294,,-0.0012346708537,-0.00942894938615,0.0379447234207,-0.999234596117
424172000000,,7242,,424,168133830,"""map""",,,-0.081323236227,-0.135370194912,0.0408696457744,,-0.00116544070376,-0.00946009722429,0.0379091936274,-0.999235734082
424208000000,,7243,,424,200133830,"""map""",,,-0.0819692239165,-0.136398479342,0.0414268672466,,-0.00115850162028,-0.00953272414681,0.0378297889648,-0.999238094305
424236000000,,7244,,424,232133830,"""map""",,,-0.0828024223447,-0.137529671192,0.0419479347765,,-0.00117952400733,-0.00953008898096,0.037775756705,-0.999240117354
424272000000,,7245,,424,264133387,"""map""",,,-0.083802267909,-0.138751089573,0.0424357801676,,-0.0011798032302,-0.00958885024887,0.0377249276057,-0.999241466053
424304000000,,7246,,424,296133387,"""map""",,,-0.0849499255419,-0.140041857958,0.0429524667561,,-0.0011310034358,-0.00958855818438,0.0377193642217,-0.999241803228
424336000000,,7247,,424,328133387,"""map""",,,-0.0862384736538,-0.141402706504,0.0435230322182,,-0.00114314995998,-0.00959225821669,0.0377757988518,-0.999239569445
424372000000,,7248,,424,368132944,"""map""",,,-0.0863428264856,-0.141841515899,0.0437100566924,,-0.0011429290183,-0.00963100664627,0.0377849025711,-0.999238810802
424404000000,,7249,,424,400132944,"""map""",,,-0.086697243154,-0.14232313633,0.0439483933151,,-0.00117245815403,-0.00965714625343,0.0377859140955,-0.999238557921
424436000000,,7250,,424,432132944,"""map""",,,-0.0872644335032,-0.14292742312,0.0442573875189,,-0.00118934521085,-0.00968743666662,0.0377596566088,-0.999239190123
424472000000,,7251,,424,464132501,"""map""",,,-0.0880073383451,-0.143687903881,0.0446630828083,,-0.00117845453105,-0.00969163258295,0.0377898758992,-0.999238052158
424504000000,,7252,,424,496132501,"""map""",,,-0.0888765379786,-0.144611150026,0.0450483411551,,-0.00113310320496,-0.00966897667624,0.0378340036496,-0.999236661312
424536000000,,7253,,424,528132501,"""map""",,,-0.0898914784193,-0.145654171705,0.0454106368124,,-0.00117870214379,-0.00965798886113,0.0378195894274,-0.999237251368
424572000000,,7254,,424,568132058,"""map""",,,-0.089925698936,-0.145961239934,0.0450844243169,,-0.00118830438126,-0.00968865398614,0.0378323177757,-0.999236492725
424604000000,,7255,,424,600132058,"""map""",,,-0.0902065113187,-0.146379187703,0.0450390167534,,-0.00118440151723,-0.00970111200187,0.0377934583814,-0.999237841424
424636000000,,7256,,424,632132058,"""map""",,,-0.0906911790371,-0.146992981434,0.0449694618583,,-0.00119876799494,-0.0096691077266,0.0377664843983,-0.99923910583
424672000000,,7257,,424,664131615,"""map""",,,-0.0913779065013,-0.14774876833,0.0449595861137,,-0.00123031458178,-0.00968755257045,0.0377476869039,-0.999239611592
424704000000,,7258,,424,696131615,"""map""",,,-0.0921998694539,-0.148655518889,0.0450801700354,,-0.00120463628505,-0.00966803232342,0.0377326826258,-0.999240370235
424736000000,,7259,,424,728131615,"""map""",,,-0.0931268706918,-0.149717763066,0.0452126376331,,-0.00117682364558,-0.00971575408046,0.0377508900644,-0.999239274417
424772000000,,7260,,424,768131172,"""map""",,,-0.0928526520729,-0.149802014232,0.0450490117073,,-0.00121306960602,-0.00972103132687,0.0377825844944,-0.999238010012
424804000000,,7261,,424,800131172,"""map""",,,-0.0928797274828,-0.150094419718,0.045039050281,,-0.00122733203371,-0.00967458319491,0.0377239582282,-0.999240665263
424836000000,,7262,,424,832131172,"""map""",,,-0.0931242108345,-0.150560006499,0.0451120957732,,-0.00123394019857,-0.00965612057036,0.0377019997201,-0.99924163464
424872000000,,7263,,424,864130730,"""map""",,,-0.093545563519,-0.151184022427,0.0451717376709,,-0.0012859652147,-0.00973547057376,0.0376628874447,-0.99924230899
424904000000,,7264,,424,896130730,"""map""",,,-0.0941319838166,-0.151950210333,0.0452053248882,,-0.00133198759764,-0.00971239385711,0.0376059049055,-0.99924458492
424936000000,,7265,,424,928130730,"""map""",,,-0.0948881134391,-0.152830675244,0.045270036906,,-0.0013470537789,-0.00972148967385,0.0375665818958,-0.999245975766
424972000000,,7266,,424,968130287,"""map""",,,-0.094424277544,-0.152598023415,0.0451279468834,,-0.00138867873088,-0.00970012023384,0.0376062420803,-0.99924458492
425004000000,,7267,,425,130287,"""map""",,,-0.0943333879113,-0.152672305703,0.0451252385974,,-0.00139015650476,-0.00973424337607,0.0376439213628,-0.999242814752
425036000000,,7268,,425,32130287,"""map""",,,-0.094456449151,-0.152945101261,0.0452220439911,,-0.00139229644514,-0.00971098654749,0.0375953681934,-0.999244922095
425072000000,,7269,,425,64129845,"""map""",,,-0.0948026105762,-0.153419315815,0.0454870685935,,-0.00138446733876,-0.00971154268833,0.0375786358945,-0.999245554297
425104000000,,7270,,425,96129845,"""map""",,,-0.0953349247575,-0.15409964323,0.0458522103727,,-0.00133919009893,-0.00971820682948,0.0376116368769,-0.999244332039
425136000000,,7271,,425,128129845,"""map""",,,-0.0960519164801,-0.154942512512,0.0461085028946,,-0.00133742585819,-0.00949058948137,0.0376191811628,-0.999246228647
425172000000,,7272,,425,168129403,"""map""",,,-0.0955429300666,-0.154414236546,0.0467196442187,,-0.00132220788243,-0.0095807432367,0.0376367142517,-0.99924471136
425204000000,,7273,,425,200129403,"""map""",,,-0.0954314693809,-0.154297798872,0.0473246909678,,-0.00132055658207,-0.00958106230151,0.0376538258722,-0.999244037011
425236000000,,7274,,425,232129403,"""map""",,,-0.0955589488149,-0.154430225492,0.0479469262064,,-0.00130328724017,-0.00959829937474,0.0376580405571,-0.99924378413
425272000000,,7275,,425,264128961,"""map""",,,-0.0958878695965,-0.154781490564,0.0485683493316,,-0.00125962211729,-0.00964570503042,0.0376562282426,-0.999243404808
425304000000,,7276,,425,296128961,"""map""",,,-0.0963666290045,-0.155328482389,0.0491970442235,,-0.00119665110362,-0.00969470238817,0.0376316144831,-0.99924391057
425336000000,,7277,,425,328128961,"""map""",,,-0.0969905853271,-0.156069040298,0.0498390346766,,-0.0011256583593,-0.00969830759008,0.0376651212276,-0.999242772605
425372000000,,7278,,425,368128520,"""map""",,,-0.0961961448193,-0.155695468187,0.049636669457,,-0.00103456288533,-0.00975460425516,0.0376173688483,-0.999244079158
425404000000,,7279,,425,400128520,"""map""",,,-0.0958463102579,-0.15569871664,0.049534343183,,-0.00105257605326,-0.00977679193673,0.0376261353928,-0.999243489102
425436000000,,7280,,425,432128520,"""map""",,,-0.0957604125142,-0.155939549208,0.0494993366301,,-0.0010598134574,-0.00978576328856,0.0376015216332,-0.999244416332
425472000000,,7281,,425,464128078,"""map""",,,-0.0959052816033,-0.156396761537,0.0495178848505,,-0.00106042162325,-0.00980534543878,0.0375159213839,-0.999247408759
425504000000,,7282,,425,496128078,"""map""",,,-0.0962511301041,-0.157069608569,0.049534458667,,-0.00106165836984,-0.00984421207709,0.0375267952708,-0.999246650115
425536000000,,7283,,425,528128078,"""map""",,,-0.0967866629362,-0.157904669642,0.0496471971273,,-0.0010275424716,-0.00989485744248,0.0375388071227,-0.999245680738
425572000000,,7284,,425,568127637,"""map""",,,-0.0961092188954,-0.157521784306,0.0490876659751,,-0.00105787272673,-0.0098898041012,0.0374738166822,-0.999248125255
425604000000,,7285,,425,600127637,"""map""",,,-0.0958377569914,-0.157513841987,0.048811044544,,-0.00104898369296,-0.00988584690725,0.0374682532982,-0.999248378136
425636000000,,7286,,425,632127637,"""map""",,,-0.0958008989692,-0.157739773393,0.0486522242427,,-0.00101838376386,-0.00985168886216,0.0374942579038,-0.999247830227
425672000000,,7287,,425,664127195,"""map""",,,-0.095964692533,-0.158182561398,0.0486217960715,,-0.00102921089411,-0.00981738132748,0.037501717896,-0.999247872374
425704000000,,7288,,425,696127195,"""map""",,,-0.0963100194931,-0.158808961511,0.0487491413951,,-0.00104602979157,-0.00984937506603,0.0374788321572,-0.999248335989
425736000000,,7289,,425,728127195,"""map""",,,-0.0968256741762,-0.159640595317,0.0488678701222,,-0.00103240417643,-0.00983777710943,0.0374725944236,-0.999248757458
425772000000,,7290,,425,768126754,"""map""",,,-0.0957605913281,-0.159250378609,0.0486087054014,,-0.00105719771861,-0.00983333654382,0.0374300682535,-0.999250316891
425804000000,,7291,,425,800126754,"""map""",,,-0.095210634172,-0.159233853221,0.0484720394015,,-0.00103940977291,-0.00981949657244,0.0374363059871,-0.999250232598
425836000000,,7292,,425,832126754,"""map""",,,-0.0949193537235,-0.159496232867,0.0484781526029,,-0.00106348846503,-0.00984053805728,0.0374138417168,-0.9992508648
425872000000,,7293,,425,864138314,"""map""",,,-0.0948172286153,-0.159974262118,0.0485081933439,,-0.00104463828703,-0.00989110439733,0.0374480649578,-0.999249094633
425904000000,,7294,,425,896138314,"""map""",,,-0.0948969051242,-0.160658329725,0.0485588870943,,-0.00106100542296,-0.00984603855029,0.0374359266654,-0.999250021863
425936000000,,7295,,425,928138314,"""map""",,,-0.0951531678438,-0.161572560668,0.0486621148884,,-0.00108142919306,-0.00982706094393,0.0373912931529,-0.999251834178
425972000000,,7296,,425,968137873,"""map""",,,-0.0941991433501,-0.16171772778,0.0485403090715,,-0.00114608706848,-0.00974723020304,0.0374019984524,-0.999252087059
426004000000,,7297,,426,137873,"""map""",,,-0.0937054827809,-0.162130132318,0.0485339872539,,-0.00113709530177,-0.00979277909247,0.0374130830735,-0.999251286269
426036000000,,7298,,426,32137873,"""map""",,,-0.0934076905251,-0.162748232484,0.0485382117331,,-0.00115601265131,-0.00980449525782,0.0374255163939,-0.999250654066
426072000000,,7299,,426,64149432,"""map""",,,-0.0933083221316,-0.163566187024,0.0485701225698,,-0.00127772649363,-0.00977797007285,0.0374210066811,-0.999250949094
426104000000,,7300,,426,96149432,"""map""",,,-0.0933952182531,-0.164617732167,0.0486503057182,,-0.00125017628414,-0.00974428420418,0.0373610317156,-0.999253604345
426136000000,,7301,,426,128149432,"""map""",,,-0.0936514139175,-0.165877386928,0.0487425848842,,-0.00130998332072,-0.00971064509217,0.0374015348371,-0.999252297793
426176000000,,7302,,426,168148991,"""map""",,,-0.0931978821754,-0.165629655123,0.0485799871385,,-0.00136482295608,-0.00971926214705,0.0374239991073,-0.999251328416
426204000000,,7303,,426,200148991,"""map""",,,-0.0930663943291,-0.165743857622,0.048490524292,,-0.00132497311081,-0.00973295328737,0.0374000175505,-0.999252129206
426236000000,,7304,,426,232148991,"""map""",,,-0.0931331515312,-0.166145607829,0.0483888275921,,-0.00135824607208,-0.00976495262356,0.0374007761938,-0.999251707737
426272000000,,7305,,426,264148551,"""map""",,,-0.0934000611305,-0.166802436113,0.0482864379883,,-0.00132424048005,-0.00979982749434,0.0374365167213,-0.999250106157
426304000000,,7306,,426,296148551,"""map""",,,-0.0938148275018,-0.167668938637,0.0482279285789,,-0.00129779991805,-0.00979002044953,0.0374708664029,-0.999248968192
426336000000,,7307,,426,328148551,"""map""",,,-0.0943792164326,-0.168751820922,0.0482520572841,,-0.00126734190529,-0.00979399707054,0.0374495400975,-0.999249726835
426372000000,,7308,,426,368148110,"""map""",,,-0.093778565526,-0.168463379145,0.0481298491359,,-0.00123825531146,-0.00978213602541,0.0374487814542,-0.999249895423
426404000000,,7309,,426,400148110,"""map""",,,-0.0935325175524,-0.168617010117,0.047983225435,,-0.00120256911384,-0.00982813963983,0.0374785371293,-0.999248378136
426436000000,,7310,,426,432148110,"""map""",,,-0.0934658050537,-0.169081062078,0.0479481816292,,-0.00115514106765,-0.00986736222145,0.0374747439129,-0.999248209549
426472000000,,7311,,426,464147669,"""map""",,,-0.0936111658812,-0.169811204076,0.0479596480727,,-0.00108704229717,-0.0098774109521,0.0374964073931,-0.999247366612
426504000000,,7312,,426,496147669,"""map""",,,-0.0939088463783,-0.170791894197,0.0480013862252,,-0.00107802089595,-0.0098764995265,0.0374533333139,-0.999249052486
426536000000,,7313,,426,528147669,"""map""",,,-0.0943540036678,-0.171971425414,0.0482222437859,,-0.00108363630497,-0.00987619198622,0.0374649658441,-0.999248546724
426572000000,,7314,,426,568147228,"""map""",,,-0.0935535430908,-0.171990543604,0.0480569154024,,-0.00103658000716,-0.00990720087146,0.0374781578076,-0.999247830227
426604000000,,7315,,426,600147228,"""map""",,,-0.0931926965714,-0.172338470817,0.0478529296815,,-0.00100131494875,-0.0098763263293,0.0374109757311,-0.999250696213
426636000000,,7316,,426,632147228,"""map""",,,-0.0930533483624,-0.172939509153,0.0477019287646,,-0.00100657507301,-0.00986192955854,0.0373907452438,-0.999251623444
426672000000,,7317,,426,664146788,"""map""",,,-0.0931045338511,-0.173798233271,0.0476161576807,,-0.000988830591244,-0.00986808826677,0.0373359543408,-0.999253562199
426704000000,,7318,,426,696146788,"""map""",,,-0.0933089256287,-0.174897566438,0.0474934503436,,-0.000869146053819,-0.00969786965798,0.0372890870452,-0.999257102534
426736000000,,7319,,426,728146788,"""map""",,,-0.0936585366726,-0.176227465272,0.0474142022431,,-0.000892780886938,-0.00971697502198,0.0372804469413,-0.999257228974
426772000000,,7320,,426,768146347,"""map""",,,-0.0926057547331,-0.17617584765,0.0470731556416,,-0.00081999327956,-0.00972439550149,0.0372291542266,-0.999259125583
426804000000,,7321,,426,800146347,"""map""",,,-0.0920181721449,-0.176488831639,0.04691978544,,-0.000773904712896,-0.00977753378711,0.0372306293663,-0.999258577674
426836000000,,7322,,426,832146347,"""map""",,,-0.0916071385145,-0.177076518536,0.0467623285949,,-0.000767669284222,-0.00976674123045,0.0372172266685,-0.999259167729
426872000000,,7323,,426,864145906,"""map""",,,-0.0913938060403,-0.177895620465,0.0466921068728,,-0.000703957737253,-0.00978716993963,0.0372472773715,-0.999257945471
426904000000,,7324,,426,896145906,"""map""",,,-0.0913682356477,-0.178944572806,0.0466123856604,,-0.000735088453235,-0.00982882024558,0.0372552852727,-0.999257186828
426936000000,,7325,,426,928145906,"""map""",,,-0.091495282948,-0.180198192596,0.0465449132025,,-0.000713637682976,-0.00983172837813,0.0372408710505,-0.99925769259
426972000000,,7326,,426,968145465,"""map""",,,-0.0905145332217,-0.179821550846,0.0463545843959,,-0.00069432454819,-0.00980890190839,0.0371958160695,-0.999259673492
427004000000,,7327,,427,145465,"""map""",,,-0.0899837315083,-0.179875388741,0.0463214740157,,-0.000682832617254,-0.00987255056436,0.037230165751,-0.999257776883
427036000000,,7328,,427,32145465,"""map""",,,-0.089653596282,-0.180223181844,0.0464625023305,,-0.000663916914079,-0.00986724368344,0.0372021380967,-0.999258830555
427072000000,,7329,,427,64145025,"""map""",,,-0.0895209982991,-0.180830448866,0.0467608273029,,-0.00067359224999,-0.00990848437471,0.0372209355912,-0.999257734737
427104000000,,7330,,427,96145025,"""map""",,,-0.0895905196667,-0.181698307395,0.0470591336489,,-0.000740526055237,-0.0098467978521,0.0372170580811,-0.99925849338
427136000000,,7331,,427,128145025,"""map""",,,-0.0897964835167,-0.182790115476,0.0472953356802,,-0.000730142454707,-0.00991927363866,0.0372472352247,-0.999256638919
427172000000,,7332,,427,168144584,"""map""",,,-0.088960416615,-0.182308107615,0.0472215674818,,-0.000715916246974,-0.00986883538552,0.0371920228531,-0.999259167729
427204000000,,7333,,427,200144584,"""map""",,,-0.0885509252548,-0.182275339961,0.0471742972732,,-0.000760985716011,-0.00973782519964,0.0371387492366,-0.999262455184
427236000000,,7334,,427,232144584,"""map""",,,-0.0883384495974,-0.182515501976,0.0471258796751,,-0.000734644594236,-0.00978420385516,0.0371189823646,-0.999262750212
427272000000,,7335,,427,264144143,"""map""",,,-0.0883259475231,-0.183011099696,0.0470606200397,,-0.000662985732144,-0.00977090520737,0.0371111430508,-0.99926317168
427304000000,,7336,,427,296144143,"""map""",,,-0.0884685814381,-0.183750480413,0.0470092520118,,-0.000662020635168,-0.00973883771183,0.0371779036589,-0.999260980044
427336000000,,7337,,427,328144143,"""map""",,,-0.088751129806,-0.184714183211,0.0470405258238,,-0.000642625840863,-0.00973159108806,0.0371684206179,-0.999261443659
427372000000,,7338,,427,368143703,"""map""",,,-0.0881564021111,-0.184125885367,0.0466577932239,,-0.000637313033045,-0.00967787460036,0.0372258246256,-0.999259842079
427404000000,,7339,,427,400143703,"""map""",,,-0.0879371240735,-0.184050321579,0.0464158728719,,-0.000633362753814,-0.00964053084622,0.037243231274,-0.999259547051
427436000000,,7340,,427,432143703,"""map""",,,-0.0878809094429,-0.184302300215,0.0462559610605,,-0.000591387456148,-0.00960099874868,0.0372366985125,-0.999260179254
427472000000,,7341,,427,464143262,"""map""",,,-0.0879751220345,-0.184819951653,0.0461352840066,,-0.000639351228298,-0.00962652129963,0.037187597434,-0.999261738687
427504000000,,7342,,427,496143262,"""map""",,,-0.0882193818688,-0.185556277633,0.0460249632597,,-0.000655808584824,-0.00957428456144,0.0370719464817,-0.999266543428
427536000000,,7343,,427,528143262,"""map""",,,-0.0887504592538,-0.186447381973,0.046317845583,,-0.000694565904753,-0.00923567480487,0.0368813162859,-0.999276785112
427572000000,,7344,,427,568142821,"""map""",,,-0.0885751023889,-0.185668841004,0.0483325496316,,-0.00192266942335,-0.00734254274906,0.0362427072372,-0.999314211514
427604000000,,7345,,427,600142821,"""map""",,,-0.0889528244734,-0.185461416841,0.0512894280255,,-0.00523793583509,-0.00334809106883,0.0352016379322,-0.999360952369
427636000000,,7346,,427,632142821,"""map""",,,-0.0897240936756,-0.185642912984,0.0554333887994,,-0.0074470155669,-0.000665607397831,0.0345923630901,-0.999373596423
427672000000,,7347,,427,664142381,"""map""",,,-0.0909015610814,-0.186154276133,0.0605300143361,,-0.0130424631146,0.00607604937837,0.0330817778926,-0.999349109104
427704000000,,7348,,427,696142381,"""map""",,,-0.0924867019057,-0.18696346879,0.0663479417562,,-0.0198260021691,0.0143506270415,0.0313612592427,-0.999208422924
427736000000,,7349,,427,728142381,"""map""",,,-0.0944433137774,-0.188066005707,0.0727959722281,,-0.0235779026051,0.0189692355996,0.0304309097087,-0.999078779218
427772000000,,7350,,427,768141940,"""map""",,,-0.0963581651449,-0.18785354495,0.0804867222905,,-0.0317016813961,0.0291322684177,0.0284047842602,-0.998668901116
427804000000,,7351,,427,800141940,"""map""",,,-0.0984777808189,-0.188360691071,0.0866626799107,,-0.0393358616712,0.0391707253385,0.0261085396596,-0.998116608813
427836000000,,7352,,427,832141940,"""map""",,,-0.101364634931,-0.189648658037,0.0899883955717,,-0.0385169288747,0.0398126571764,0.0245395389301,-0.9981629282
427872000000,,7353,,427,864141500,"""map""",,,-0.104909449816,-0.191563785076,0.0894028097391,,-0.0248416231741,0.0300586404252,0.0205344082098,-0.999028371587
427904000000,,7354,,427,896141500,"""map""",,,-0.108976490796,-0.193928048015,0.085597962141,,-0.00270021687519,0.0114552934714,0.0160054764563,-0.999802609194
427936000000,,7355,,427,928141500,"""map""",,,-0.113334819674,-0.196554690599,0.0797860622406,,0.00426242932792,0.00489156257963,0.0146131131688,-0.999872235788
427972000000,,7356,,427,968153059,"""map""",,,-0.117237761617,-0.197454854846,0.0717193931341,,0.0168330370708,-0.00929830666812,0.0116438676913,-0.999747312529
428004000000,,7357,,428,153059,"""map""",,,-0.120172031224,-0.198101937771,0.0662965998054,,0.0210988802934,-0.0162884879342,0.00975960853488,-0.999597059014
428036000000,,7358,,428,32153059,"""map""",,,-0.122736670077,-0.198523402214,0.0639021620154,,0.0181900971042,-0.0144769953118,0.00907282563839,-0.999688559822
428072000000,,7359,,428,64152619,"""map""",,,-0.124995693564,-0.19882504642,0.070286527276,,-0.00980127291722,0.010930091467,0.00734990461812,-0.999865281558
428104000000,,7360,,428,96152619,"""map""",,,-0.12776465714,-0.199798762798,0.0891728252172,,-0.0319349876632,0.0352629571516,0.00672587837907,-0.998845074943
428136000000,,7361,,428,128152619,"""map""",,,-0.131814271212,-0.202009677887,0.116743512452,,-0.0376090841937,0.0423437877277,0.00677295640885,-0.998372060862
428172000000,,7362,,428,168152178,"""map""",,,-0.137478142977,-0.204065963626,0.153806641698,,-0.0492269306512,0.055983572937,0.00721440250016,-0.997191359048
428204000000,,7363,,428,200152178,"""map""",,,-0.143215551972,-0.206891968846,0.181086987257,,-0.0589045823343,0.0663247470659,0.00753973402381,-0.996029328288
428236000000,,7364,,428,232152178,"""map""",,,-0.150032252073,-0.210754811764,0.205467388034,,-0.0629306422576,0.0704843637667,0.00770718345294,-0.995496044213
428272000000,,7365,,428,264151738,"""map""",,,-0.158094599843,-0.215856567025,0.228372737765,,-0.0686763818451,0.076166225854,0.00801746855168,-0.994694916917
428304000000,,7366,,428,296151738,"""map""",,,-0.167624652386,-0.222408026457,0.251714289188,,-0.0714598957102,0.0782313381252,0.00855690606577,-0.994334013453
428336000000,,7367,,428,328151738,"""map""",,,-0.178749501705,-0.230626285076,0.277155011892,,-0.0723142255004,0.0783665636545,0.00898048189331,-0.994257896245
428372000000,,7368,,428,368151297,"""map""",,,-0.194033846259,-0.240383893251,0.312418729067,,-0.0739689400781,0.077785961511,0.0101670421194,-0.99417035724
428404000000,,7369,,428,400151297,"""map""",,,-0.207939401269,-0.250067800283,0.342807263136,,-0.0751554492671,0.0773963965438,0.0115982226543,-0.994096052346
428436000000,,7370,,428,432151297,"""map""",,,-0.223167181015,-0.261235326529,0.374731272459,,-0.0757538546674,0.0775817539384,0.0122341343047,-0.994028533095
428472000000,,7371,,428,464150856,"""map""",,,-0.239630922675,-0.273811876774,0.407726734877,,-0.0773390340656,0.0783755639411,0.0135991021405,-0.993826481103
428504000000,,7372,,428,496150856,"""map""",,,-0.257270395756,-0.287775456905,0.441623926163,,-0.0791500360312,0.0786638648897,0.0151480409701,-0.993638716893
428536000000,,7373,,428,528150856,"""map""",,,-0.276060819626,-0.30311653018,0.476597726345,,-0.0799246921434,0.0787006409785,0.0159655212439,-0.993560998104
428572000000,,7374,,428,568150416,"""map""",,,-0.300676316023,-0.321906775236,0.521948993206,,-0.0806402835633,0.0783517692875,0.0175717797875,-0.993503636244
428604000000,,7375,,428,600150416,"""map""",,,-0.321569770575,-0.338541537523,0.559765338898,,-0.0809536501564,0.0776743171435,0.0190193975933,-0.993504689915
428636000000,,7376,,428,632150416,"""map""",,,-0.34347486496,-0.356546014547,0.59907078743,,-0.0809890788632,0.0773405308961,0.0196912605054,-0.993514763012
428672000000,,7377,,428,664149975,"""map""",,,-0.366323769093,-0.375805854797,0.63979279995,,-0.0809467023472,0.0769399756443,0.0208739853683,-0.993525131136
428704000000,,7378,,428,696149975,"""map""",,,-0.39004522562,-0.396232366562,0.681921482086,,-0.0808956281047,0.0764136380622,0.0220324757933,-0.993544898008
428736000000,,7379,,428,728149975,"""map""",,,-0.414571940899,-0.417763471603,0.725515604019,,-0.0808772902744,0.0761573997113,0.0224099851154,-0.993557668503
428772000000,,7380,,428,768149534,"""map""",,,-0.447026193142,-0.443646758795,0.781988084316,,-0.0806987664315,0.0756691182638,0.0232425961078,-0.993590332311
428804000000,,7381,,428,800149534,"""map""",,,-0.473698526621,-0.465645700693,0.828614354134,,-0.0804624966318,0.0752611208005,0.0241099782501,-0.993619835105
428836000000,,7382,,428,832149534,"""map""",,,-0.500980019569,-0.488702893257,0.876583516598,,-0.080366427665,0.0750747005151,0.0243943008902,-0.993634755089
428872000000,,7383,,428,864149093,"""map""",,,-0.528835892677,-0.512729883194,0.925864577293,,-0.0801674619421,0.074661314676,0.0249962843274,-0.993666997428
428904000000,,7384,,428,896149093,"""map""",,,-0.557228088379,-0.537658214569,0.976480007172,,-0.0799818692825,0.0743058260945,0.0255904284509,-0.993693423502
428936000000,,7385,,428,928149093,"""map""",,,-0.586109757423,-0.563467025757,1.02835416794,,-0.0799340026457,0.0741304619482,0.025851654618,-0.993703707334
428972000000,,7386,,428,968160652,"""map""",,,-0.623635172844,-0.594591915607,1.09512984753,,-0.079793462333,0.0737569371496,0.0263189788743,-0.993730512729
429004000000,,7387,,429,160652,"""map""",,,-0.654092073441,-0.620510339737,1.14998435974,,-0.0795861268386,0.0734689418068,0.0267523327707,-0.993756896656
429036000000,,7388,,429,32160652,"""map""",,,-0.684860885143,-0.647233903408,1.20610272884,,-0.0794718463174,0.0733833619724,0.026886064721,-0.993768739921
429072000000,,7389,,429,64160211,"""map""",,,-0.71595877409,-0.674762666225,1.26352143288,,-0.0793780814333,0.0731107021555,0.0271921772817,-0.993788001031
429104000000,,7390,,429,96160211,"""map""",,,-0.747309446335,-0.703033745289,1.32232272625,,-0.0792974192799,0.0728094717145,0.0275004814786,-0.993808105077
429136000000,,7391,,429,128160211,"""map""",,,-0.778912961483,-0.731941223145,1.38260054588,,-0.0792470169175,0.0726642810898,0.0276475739799,-0.993818641789
429172000000,,7392,,429,168159770,"""map""",,,-0.819874584675,-0.767007410526,1.45966315269,,-0.0791285128211,0.0723193489766,0.0278624386136,-0.993847217353
429204000000,,7393,,429,200159770,"""map""",,,-0.852803647518,-0.795857012272,1.52286720276,,-0.0789421555913,0.0721375324112,0.0280861962323,-0.993869007273
429236000000,,7394,,429,232159770,"""map""",,,-0.885886490345,-0.825369417667,1.5873824358,,-0.0789279066638,0.0720346341733,0.028160290392,-0.993875497888
429272000000,,7395,,429,264159329,"""map""",,,-0.919089853764,-0.855487167835,1.65320193768,,-0.0788383907088,0.071843936806,0.0282859722943,-0.993892778096
429304000000,,7396,,429,296159329,"""map""",,,-0.952392160892,-0.886188089848,1.72031509876,,-0.0788110986488,0.0715149615556,0.0284339077325,-0.993914441576
429336000000,,7397,,429,328159329,"""map""",,,-0.985788464546,-0.917464196682,1.78873300552,,-0.0788011141262,0.0713828058315,0.0284784990983,-0.993923461002
429372000000,,7398,,429,368158888,"""map""",,,-1.02763104439,-0.957163333893,1.87552678585,,-0.0787707308583,0.0711390449233,0.0285099406473,-0.993942511377
429404000000,,7399,,429,400158888,"""map""",,,-1.06106066704,-0.989249110222,1.94445312023,,-0.0772284110595,0.0725749544663,0.0480996272477,-0.99320452006
429436000000,,7400,,429,432158888,"""map""",,,-1.09435176849,-1.02150964737,2.01152229309,,-0.077179525325,0.0725852020774,0.0479794665826,-0.993213328751
429472000000,,7401,,429,464158446,"""map""",,,-1.12762129307,-1.05080330372,2.0738530159,,-0.0772559755923,0.0722478522811,0.0473744907191,-0.993261038984
429504000000,,7402,,429,496158446,"""map""",,,-1.16072595119,-1.08042120934,2.13323807716,,-0.0775827093219,0.071533599353,0.0462087510361,-0.993342171667
429536000000,,7403,,429,528158446,"""map""",,,-1.19368982315,-1.11034214497,2.18997693062,,-0.0777935324679,0.0711699095873,0.0454699589286,-0.993385877949
429572000000,,7404,,429,568158005,"""map""",,,-1.23471939564,-1.14821898937,2.2578368187,,-0.0779123190799,0.0700742011737,0.0437154699188,-0.993533223331
429604000000,,7405,,429,600158005,"""map""",,,-1.26741945744,-1.17888128757,2.31021761894,,-0.0765248537173,0.067713262807,0.0417371811434,-0.99388978567
429636000000,,7406,,429,632158005,"""map""",,,-1.29998207092,-1.20983362198,2.36115050316,,-0.0752315467191,0.0660904609669,0.040722917234,-0.994139842922
429672000000,,7407,,429,664157563,"""map""",,,-1.33322036266,-1.23837900162,2.41316556931,,-0.0716424402965,0.0623062818072,0.0387192560557,-0.994729224452
429704000000,,7408,,429,696157563,"""map""",,,-1.36617815495,-1.26732134819,2.46357917786,,-0.0673027992592,0.0578181284466,0.0367968118546,-0.995376052136
429736000000,,7409,,429,728157563,"""map""",,,-1.39880251884,-1.29654359818,2.51244091988,,-0.0649677525577,0.0555500122576,0.035893056982,-0.995693291464
429772000000,,7410,,429,768157122,"""map""",,,-1.43894267082,-1.33336818218,2.57112383842,,-0.0604963232642,0.0510604841854,0.0342389196185,-0.996273442834
429800000000,,7411,,429,800157122,"""map""",,,-1.47051346302,-1.3629462719,2.61622214317,,-0.056444638057,0.0471022240533,0.0328097199855,-0.996754169788
429836000000,,7412,,429,832157122,"""map""",,,-1.50157737732,-1.39255988598,2.65976333618,,-0.054593535958,0.0453706016845,0.032201119493,-0.996957486185
429872000000,,7413,,429,864156680,"""map""",,,-1.53334927559,-1.41979813576,2.70350885391,,-0.0509816949326,0.0424129291388,0.0311531381048,-0.997312151916
429904000000,,7414,,429,896156680,"""map""",,,-1.56447684765,-1.44715797901,2.74564480782,,-0.0474448012113,0.0396466562982,0.0302514484277,-0.997628168986
429936000000,,7415,,429,928156680,"""map""",,,-1.59497606754,-1.47456538677,2.78622031212,,-0.0462638669309,0.0387688803479,0.0299511942789,-0.99772721408
429972000000,,7416,,429,968156238,"""map""",,,-1.63218784332,-1.50877726078,2.83484840393,,-0.0436029760288,0.0367678451159,0.0294018101086,-0.997939086287
430004000000,,7417,,430,156238,"""map""",,,-1.66126549244,-1.53603982925,2.87142777443,,-0.0411423063648,0.0336460224491,0.028987422294,-0.998165836332
430036000000,,7418,,430,32156238,"""map""",,,-1.68985629082,-1.56318175793,2.90202593803,,-0.0402602011429,0.0303300592149,0.0288949099616,-0.998310779344
430072000000,,7419,,430,64155796,"""map""",,,-1.71938717365,-1.58801794052,2.92625570297,,-0.0381340865768,0.0150005349029,0.0288962165139,-0.998742152339
430104000000,,7420,,430,96155796,"""map""",,,-1.74846601486,-1.61296820641,2.94242334366,,-0.03575768789,-0.0106974009389,0.0293072325805,-0.998873397625
430136000000,,7421,,430,128155796,"""map""",,,-1.77684783936,-1.63797926903,2.95172905922,,-0.0336053477768,-0.0290801552389,0.0294338838603,-0.998578327539
430172000000,,7422,,430,168155354,"""map""",,,-1.8102786541,-1.66920602322,2.95819544792,,-0.00680928699227,-0.0787391533198,0.026172434282,-0.996528431268
430204000000,,7423,,430,200155354,"""map""",,,-1.83412671089,-1.69349980354,2.96192955971,,0.0483397641855,-0.118013752057,0.0186504440814,-0.9916593323
