rosbagTimestamp,header,seq,stamp,secs,nsecs,frame_id,pose,position,x,y,z,orientation,x,y,z,w
1285060000000,,32151,,1285,56121644,"""map""",,,0.238329783082,-0.198901697993,0.0116825811565,,0.00332079826792,-0.00714755101297,0.0629632191373,-0.997984731324
1285096000000,,32152,,1285,88121279,"""map""",,,0.238543868065,-0.198786124587,0.0117066362873,,0.00328071957844,-0.0071237126896,0.062982480247,-0.99798384624
1285128000000,,32153,,1285,120121279,"""map""",,,0.239623129368,-0.198717907071,0.011609970592,,0.00333824228876,-0.00709198714329,0.0629634298715,-0.997985110646
1285160000000,,32154,,1285,152121279,"""map""",,,0.24146617949,-0.198677703738,0.0114226732403,,0.00332952200702,-0.00701623065264,0.0629628398156,-0.997985700702
1285196000000,,32155,,1285,192120914,"""map""",,,0.237495109439,-0.198073074222,0.0105868214741,,0.00335603089301,-0.00702610964344,0.0629362873011,-0.997987217988
1285228000000,,32156,,1285,224120914,"""map""",,,0.23557959497,-0.197643458843,0.00998510420322,,0.00333828772833,-0.00695863188042,0.0629924690501,-0.997984225562
1285260000000,,32157,,1285,256120914,"""map""",,,0.234661921859,-0.197277784348,0.00939569529146,,0.00326803436485,-0.00691778022433,0.0629970630566,-0.997984436296
1285296000000,,32158,,1285,288120549,"""map""",,,0.234654217958,-0.196967378259,0.00880752503872,,0.00327729103109,-0.00692411657494,0.0630177993061,-0.997983003303
1285328000000,,32159,,1285,320120549,"""map""",,,0.235463231802,-0.196710199118,0.00842622946948,,0.00329232642539,-0.00687412629671,0.0630483136244,-0.997981401723
1285360000000,,32160,,1285,352120549,"""map""",,,0.237027585506,-0.196512177587,0.00822721421719,,0.00328442422057,-0.00684000809357,0.0630415279818,-0.997982033926
1285396000000,,32161,,1285,392120184,"""map""",,,0.233196631074,-0.195848360658,0.00806525815278,,0.00325749831127,-0.00701142788754,0.0630545935048,-0.997980179465
1285428000000,,32162,,1285,424120184,"""map""",,,0.231400847435,-0.195391520858,0.00803514942527,,0.00326263215962,-0.0070207602864,0.0630280409903,-0.997981781045
1285460000000,,32163,,1285,456120184,"""map""",,,0.230612382293,-0.194981902838,0.00799130741507,,0.00329628872306,-0.00701015146365,0.0630584710149,-0.997979757996
1285496000000,,32164,,1285,488119819,"""map""",,,0.230707272887,-0.194650709629,0.00791674200445,,0.00327078362354,-0.00699942410288,0.0630800080545,-0.997978535737
1285528000000,,32165,,1285,520119819,"""map""",,,0.231619745493,-0.194351166487,0.00781841389835,,0.00334287580792,-0.00692014061248,0.0630351638077,-0.997981738898
1285560000000,,32166,,1285,552119819,"""map""",,,0.233294293284,-0.194104939699,0.00778313539922,,0.0033390755122,-0.00687899129426,0.063053160512,-0.997980938108
1285596000000,,32167,,1285,592119453,"""map""",,,0.22951644659,-0.193673223257,0.00791670382023,,0.00334703682139,-0.00685119067322,0.0630327192905,-0.997982328954
1285628000000,,32168,,1285,624119453,"""map""",,,0.227683827281,-0.193404406309,0.00818458106369,,0.00334056695087,-0.00684401484299,0.0630438039116,-0.997981696751
1285660000000,,32169,,1285,656119453,"""map""",,,0.226825505495,-0.19315725565,0.00839752610773,,0.00334215848831,-0.00682124451417,0.0630448575828,-0.997981738898
1285696000000,,32170,,1285,688131088,"""map""",,,0.22685906291,-0.192916423082,0.0085830707103,,0.00336238008525,-0.00681844141947,0.0630511796101,-0.997981401723
1285728000000,,32171,,1285,720131088,"""map""",,,0.227693900466,-0.192676439881,0.00870833359659,,0.00339409147285,-0.00680049953899,0.0630267765848,-0.997982876863
1285760000000,,32172,,1285,752131088,"""map""",,,0.22924181819,-0.19244286418,0.00886583328247,,0.00337755772516,-0.00673769645417,0.0630913455567,-0.997979252234
1285796000000,,32173,,1285,792130723,"""map""",,,0.225779205561,-0.19150172174,0.00889275968075,,0.00332382477385,-0.00669378174293,0.0631194996516,-0.997977987828
1285828000000,,32174,,1285,824130723,"""map""",,,0.224160388112,-0.190835878253,0.00903209298849,,0.00339239012311,-0.00667180512488,0.0631618572343,-0.997975332577
1285860000000,,32175,,1285,856130723,"""map""",,,0.223476797342,-0.190205410123,0.00930744502693,,0.00334673010429,-0.00667699955932,0.0630876787809,-0.997980137318
1285896000000,,32176,,1285,888130358,"""map""",,,0.223600953817,-0.189648613334,0.00965715851635,,0.00335061601079,-0.00645454931606,0.0630679540558,-0.997982750422
1285928000000,,32177,,1285,920130358,"""map""",,,0.224519908428,-0.189130365849,0.0098757520318,,0.00331477258567,-0.00637207468361,0.0631098901701,-0.997980685227
1285960000000,,32178,,1285,952130358,"""map""",,,0.226120889187,-0.188684076071,0.010009419173,,0.00328561404586,-0.00636302381253,0.0630760041039,-0.997983129744
1285996000000,,32179,,1285,992129993,"""map""",,,0.222209602594,-0.187884494662,0.00968008954078,,0.0032751797374,-0.00634481933742,0.063114357736,-0.997980853814
1286028000000,,32180,,1286,24129993,"""map""",,,0.220226913691,-0.187317222357,0.00930766016245,,0.00325288487772,-0.00635397359999,0.0630969510876,-0.997981907485
1286060000000,,32181,,1286,56129993,"""map""",,,0.219197541475,-0.186819925904,0.00914026703686,,0.00328742833598,-0.00634191219269,0.063028125284,-0.997986164317
1286096000000,,32182,,1286,88129627,"""map""",,,0.21903373301,-0.186383515596,0.00890947505832,,0.00327893788627,-0.00634962160861,0.0630471756595,-0.997985068499
1286128000000,,32183,,1286,120129627,"""map""",,,0.219640105963,-0.186000645161,0.00870819855481,,0.00331196669216,-0.00635304916814,0.0630462905757,-0.997984942058
1286160000000,,32184,,1286,152129627,"""map""",,,0.220934063196,-0.185646027327,0.00844637304544,,0.00334211173165,-0.00630185770472,0.0629918789943,-0.997988608834
1286196000000,,32185,,1286,192129262,"""map""",,,0.217075243592,-0.18498647213,0.00832859519869,,0.0033382957955,-0.00629808325687,0.0629820587786,-0.997989241037
1286228000000,,32186,,1286,224129262,"""map""",,,0.215137094259,-0.184533193707,0.00818810705096,,0.0032812006452,-0.0062514523788,0.0629980324341,-0.997988693128
1286260000000,,32187,,1286,256129262,"""map""",,,0.214113876224,-0.184098944068,0.00809533894062,,0.00330501394388,-0.00624048662493,0.0630603254762,-0.997984815618
1286296000000,,32188,,1286,288140896,"""map""",,,0.213910922408,-0.183680832386,0.00800245814025,,0.00328235869572,-0.00619400984628,0.0630563636725,-0.997985405674
1286328000000,,32189,,1286,320140896,"""map""",,,0.214464917779,-0.183272346854,0.00792795326561,,0.00325029103554,-0.0061739293425,0.0630612948538,-0.997985279233
1286360000000,,32190,,1286,352140896,"""map""",,,0.215712040663,-0.1828430444,0.00793765392154,,0.00322308310456,-0.00612545799717,0.0630544249175,-0.997986080023
1286396000000,,32191,,1286,392140531,"""map""",,,0.212319433689,-0.18205422163,0.00823268294334,,0.0032425569242,-0.00609920643745,0.0630416122755,-0.997987007254
1286428000000,,32192,,1286,424140531,"""map""",,,0.210722327232,-0.181481420994,0.00845770351589,,0.00328614219855,-0.00611110485499,0.0630311177102,-0.997987470869
1286460000000,,32193,,1286,456140531,"""map""",,,0.210040181875,-0.180890768766,0.00860049203038,,0.00370812475997,-0.00629152785788,0.0630952230668,-0.99798076952
1286496000000,,32194,,1286,488140165,"""map""",,,0.210098490119,-0.18034479022,0.00888058077544,,0.00372124576538,-0.00626371735867,0.0630872994593,-0.997981528164
1286528000000,,32195,,1286,520140165,"""map""",,,0.210856467485,-0.17980889976,0.00917986035347,,0.00371582265136,-0.00629262680403,0.0630060824822,-0.997986375051
1286560000000,,32196,,1286,552140165,"""map""",,,0.212251335382,-0.179284214973,0.00952545553446,,0.00370685195807,-0.00629146579006,0.0630062089228,-0.997986501492
1286596000000,,32197,,1286,592139799,"""map""",,,0.208757042885,-0.178660348058,0.00973379146308,,0.00371253453863,-0.00629447402137,0.0630231941027,-0.997985279233
1286628000000,,32198,,1286,624139799,"""map""",,,0.207057029009,-0.178149178624,0.00982741918415,,0.00374571686771,-0.00620217415181,0.0630867094034,-0.997981781045
1286660000000,,32199,,1286,656139799,"""map""",,,0.206216305494,-0.177650272846,0.00990753993392,,0.00370305660144,-0.00620496218231,0.0630900390044,-0.997981738898
1286696000000,,32200,,1286,688139433,"""map""",,,0.206160187721,-0.177145659924,0.0098886070773,,0.0037094523857,-0.00619137575056,0.063083211215,-0.997982160366
1286728000000,,32201,,1286,720139433,"""map""",,,0.20681938529,-0.176587879658,0.00981854461133,,0.00373962738896,-0.00618612468129,0.063111871072,-0.997980305905
1286760000000,,32202,,1286,752139433,"""map""",,,0.208104714751,-0.175984680653,0.00989379920065,,0.0037995500001,-0.00616732290632,0.0631568417593,-0.997977313479
1286796000000,,32203,,1286,792139066,"""map""",,,0.204027712345,-0.174835041165,0.0101031782106,,0.003803099555,-0.00636572919568,0.0632028661179,-0.997973098794
1286824000000,,32204,,1286,824139066,"""map""",,,0.201879456639,-0.173909053206,0.0103308549151,,0.00380803509914,-0.00634276138583,0.0632019388872,-0.997973351675
1286860000000,,32205,,1286,856139066,"""map""",,,0.200617223978,-0.172992378473,0.0105594014749,,0.00378773348904,-0.00630412326246,0.0632316102686,-0.997971834389
1286896000000,,32206,,1286,888138700,"""map""",,,0.20011433959,-0.172061979771,0.0108015295118,,0.00377050308358,-0.00627773760661,0.0632523886649,-0.997970780717
1286928000000,,32207,,1286,920138700,"""map""",,,0.200314804912,-0.17110081017,0.0110688740388,,0.00370644818797,-0.00628265718104,0.0632001687196,-0.997974278906
1286960000000,,32208,,1286,952138700,"""map""",,,0.201168194413,-0.170140847564,0.0113361291587,,0.00365734554541,-0.00629996792893,0.0631733633239,-0.99797596478
1286996000000,,32209,,1286,992138333,"""map""",,,0.196920454502,-0.16926792264,0.0116060646251,,0.00366016691472,-0.00624410540932,0.0631885783363,-0.997975416871
1287028000000,,32210,,1287,24138333,"""map""",,,0.194573372602,-0.168552815914,0.0117343980819,,0.00367467654355,-0.00620161883416,0.0631678420868,-0.997976934157
1287060000000,,32211,,1287,56138333,"""map""",,,0.193072140217,-0.167821601033,0.0118556525558,,0.00365913752734,-0.0061915773475,0.0631576004026,-0.997977734947
1287096000000,,32212,,1287,88137966,"""map""",,,0.192360132933,-0.167067632079,0.0119526172057,,0.00366365967015,-0.00617129491752,0.0631601713604,-0.9979776928
1287128000000,,32213,,1287,120137966,"""map""",,,0.192352712154,-0.166258841753,0.012088782154,,0.00365870659227,-0.00616549989048,0.0631055490447,-0.997981148842
1287160000000,,32214,,1287,152137966,"""map""",,,0.193020194769,-0.165446177125,0.0122559247538,,0.00363528874957,-0.00618353544892,0.0630750768732,-0.997983129744
1287196000000,,32215,,1287,192137599,"""map""",,,0.18931825459,-0.164895638824,0.0122683942318,,0.00362761398956,-0.00614105875193,0.0630168720754,-0.997987049401
1287228000000,,32216,,1287,224137599,"""map""",,,0.187332853675,-0.164441138506,0.0122889885679,,0.00363942317431,-0.006137281176,0.0629952507421,-0.997988355953
1287260000000,,32217,,1287,256137599,"""map""",,,0.186134234071,-0.163942337036,0.0124811716378,,0.00366758517165,-0.00615917843943,0.0630346158987,-0.997985574261
1287296000000,,32218,,1287,288137232,"""map""",,,0.185648202896,-0.16338609159,0.0125656547025,,0.00368586784891,-0.00617809759997,0.0630098335517,-0.997987007254
1287328000000,,32219,,1287,320137232,"""map""",,,0.185858130455,-0.162775039673,0.0127425296232,,0.00367096918492,-0.00619188464083,0.0630327192905,-0.997985532114
1287360000000,,32220,,1287,352137232,"""map""",,,0.186706453562,-0.162119075656,0.0129935787991,,0.00367258657023,-0.00619985237083,0.063027282347,-0.997985827142
1287396000000,,32221,,1287,392136865,"""map""",,,0.188565194607,-0.161249905825,0.013268372044,,0.00370046778066,-0.00619125466069,0.0630796708797,-0.997982497541
1287428000000,,32222,,1287,424136865,"""map""",,,0.190633744001,-0.160492584109,0.0133841689676,,0.00367714065246,-0.00620148202154,0.0630488615334,-0.997984394149
1287460000000,,32223,,1287,456136865,"""map""",,,0.193148061633,-0.15969915688,0.0134271671996,,0.00367188892464,-0.00622868237926,0.0630515589318,-0.997984056975
1287496000000,,32224,,1287,488136498,"""map""",,,0.190983459353,-0.159245461226,0.0141130890697,,0.00369305660308,-0.00626662499731,0.0630612105601,-0.997983171891
1287528000000,,32225,,1287,520136498,"""map""",,,0.189613536,-0.158722862601,0.0147210136056,,0.00365732216708,-0.0061997661015,0.063028673193,-0.997985869289
1287560000000,,32226,,1287,552136498,"""map""",,,0.188975140452,-0.158146709204,0.0153663950041,,0.00359603159436,-0.0061434584058,0.0630496201767,-0.997985068499
1287596000000,,32227,,1287,592148130,"""map""",,,0.189121007919,-0.157298862934,0.0159283559769,,0.00381829258839,-0.0061741786016,0.0630702721325,-0.997982708275
1287628000000,,32228,,1287,624148130,"""map""",,,0.189940303564,-0.156575143337,0.0163551159203,,0.00378860350866,-0.00621275144675,0.0631116603377,-0.997980010877
1287660000000,,32229,,1287,656148130,"""map""",,,0.191287264228,-0.155806317925,0.0168152470142,,0.00377070657384,-0.00621199444984,0.0631067291565,-0.997980305905
1287696000000,,32230,,1287,688147763,"""map""",,,0.188439801335,-0.155407458544,0.0167622603476,,0.00381581160428,-0.00623014920483,0.0630743182299,-0.99798211822
1287728000000,,32231,,1287,720147763,"""map""",,,0.186447739601,-0.154958054423,0.0166560709476,,0.003790326755,-0.00614207068789,0.0631123346873,-0.997980348052
1287760000000,,32232,,1287,752147763,"""map""",,,0.185226783156,-0.154478698969,0.0164685100317,,0.00356685823729,-0.0060845362884,0.063118825302,-0.997981106695
1287796000000,,32233,,1287,792147395,"""map""",,,0.184634625912,-0.153749197721,0.0163007639349,,0.00361980924932,-0.00610341075023,0.0631478223338,-0.997978999353
1287828000000,,32234,,1287,824147395,"""map""",,,0.184775188565,-0.153096154332,0.0161164496094,,0.00363216831874,-0.00608548895535,0.0631395615514,-0.997979589409
1287860000000,,32235,,1287,856147395,"""map""",,,0.185477271676,-0.152385056019,0.0159832183272,,0.0036638184617,-0.0061236544084,0.0631208904976,-0.997980390199
1287896000000,,32236,,1287,888147027,"""map""",,,0.182298600674,-0.152087152004,0.0157525483519,,0.00364988151964,-0.00610503225144,0.0631027252058,-0.997981696751
1287928000000,,32237,,1287,920147027,"""map""",,,0.179977729917,-0.15169878304,0.0157150197774,,0.00362408188609,-0.00606183881107,0.0630615898817,-0.99798464703
1287960000000,,32238,,1287,952147027,"""map""",,,0.178421840072,-0.151263818145,0.0157342404127,,0.00360136292374,-0.00603562989211,0.06308514997,-0.997983424772
1287996000000,,32239,,1287,992146658,"""map""",,,0.177414998412,-0.15064664185,0.0157402567565,,0.00360291223202,-0.00602235519887,0.0630714943911,-0.997984352003
1288028000000,,32240,,1288,24146658,"""map""",,,0.177281334996,-0.150081604719,0.0158310160041,,0.00355366240476,-0.00593641637535,0.0631120396594,-0.997982497541
1288060000000,,32241,,1288,56146658,"""map""",,,0.177668869495,-0.149445712566,0.0159901753068,,0.00352876028505,-0.00595521905582,0.0631824670432,-0.997977987828
1288096000000,,32242,,1288,88146290,"""map""",,,0.174351111054,-0.149309888482,0.0165406651795,,0.00352212273264,-0.00597419707377,0.0631705394851,-0.997978704325
1288128000000,,32243,,1288,120146290,"""map""",,,0.171876102686,-0.149073272943,0.0170663930476,,0.0035436633119,-0.00598318464226,0.063165566157,-0.997978872912
1288160000000,,32244,,1288,152146290,"""map""",,,0.170182988048,-0.148736476898,0.0176231283695,,0.00355362280977,-0.00594331866265,0.0631904327976,-0.997977439919
1288196000000,,32245,,1288,192145921,"""map""",,,0.169052109122,-0.148182630539,0.0184064675122,,0.00358404188609,-0.00592632467467,0.0632186290392,-0.997975711899
1288228000000,,32246,,1288,224145921,"""map""",,,0.168833658099,-0.147671833634,0.0189818348736,,0.0036379042414,-0.00588766086806,0.0632602701256,-0.997973098794
1288260000000,,32247,,1288,256145921,"""map""",,,0.169144064188,-0.147049859166,0.0194542165846,,0.00367114979075,-0.00590172910743,0.0633376517394,-0.997968041172
1288296000000,,32248,,1288,288145552,"""map""",,,0.165782168508,-0.147033810616,0.0197268649936,,0.00368300334494,-0.00589562859807,0.0633417399837,-0.997967661851
1288328000000,,32249,,1288,320145552,"""map""",,,0.163220465183,-0.146907538176,0.0199013594538,,0.00371161570441,-0.00583130929683,0.0633056201346,-0.997970317102
1288360000000,,32250,,1288,352145552,"""map""",,,0.161384895444,-0.146659627557,0.0201207678765,,0.00365897955897,-0.00582649336085,0.0633413185153,-0.997968251906
1288396000000,,32251,,1288,392145183,"""map""",,,0.16001200676,-0.14618332684,0.0203862730414,,0.0036377028091,-0.00575460384354,0.0633570392898,-0.997967703997
1288428000000,,32252,,1288,424145183,"""map""",,,0.159593716264,-0.145655810833,0.0206155478954,,0.00380217726342,-0.00569871481751,0.0634034008231,-0.997964500837
1288460000000,,32253,,1288,456145183,"""map""",,,0.159684941173,-0.145025879145,0.0209875032306,,0.00385859773487,-0.00565150606664,0.0634665368022,-0.997960623327
1288496000000,,32254,,1288,488144813,"""map""",,,0.156436815858,-0.144850924611,0.0215270034969,,0.00386749779926,-0.00562139889346,0.063475766962,-0.997960075418
1288528000000,,32255,,1288,520144813,"""map""",,,0.154004499316,-0.144555047154,0.0220165606588,,0.00382420911689,-0.00556524603803,0.0634892961004,-0.997959696096
1288560000000,,32256,,1288,552144813,"""map""",,,0.15228509903,-0.144129753113,0.022433264181,,0.00381807856143,-0.00553930942722,0.06348997045,-0.99795978039
1288596000000,,32257,,1288,592144444,"""map""",,,0.151020914316,-0.143448233604,0.0228762533516,,0.00375295007363,-0.00555735527542,0.0634853764435,-0.997960244005
1288628000000,,32258,,1288,624144444,"""map""",,,0.150637999177,-0.142799258232,0.0232665352523,,0.00374361117164,-0.00549463953007,0.0634656938652,-0.997961887732
1288660000000,,32259,,1288,656144444,"""map""",,,0.15077598393,-0.142044395208,0.0235609821975,,0.00380172097439,-0.00547061533251,0.0633980481734,-0.99796606027
1288696000000,,32260,,1288,688144074,"""map""",,,0.147990360856,-0.142029091716,0.0245263632387,,0.00383469372168,-0.00547848814978,0.0633875114612,-0.997966650326
1288728000000,,32261,,1288,720144074,"""map""",,,0.145903155208,-0.14184089005,0.0254119969904,,0.00386484468807,-0.00547464801212,0.0633552691221,-0.997968631228
1288760000000,,32262,,1288,752144074,"""map""",,,0.144457966089,-0.141509234905,0.0260789636523,,0.00387978574587,-0.00547691340523,0.0633339428168,-0.99796981134
1288796000000,,32263,,1288,792143704,"""map""",,,0.143457368016,-0.140893176198,0.0266141239554,,0.00384019577873,-0.00551757021447,0.0633325519708,-0.99796993778
1288828000000,,32264,,1288,824143704,"""map""",,,0.143247321248,-0.140268832445,0.0270072352141,,0.00382502669989,-0.00545666423174,0.0633144288259,-0.997971370773
1288860000000,,32265,,1288,856143704,"""map""",,,0.143521472812,-0.139507606626,0.0273688957095,,0.00383972508404,-0.00544653153667,0.0633337320825,-0.997970274955
1288896000000,,32266,,1288,888155334,"""map""",,,0.140812635422,-0.139393389225,0.0285928901285,,0.00381336371202,-0.00541959031621,0.0633460389623,-0.997969684899
1288928000000,,32267,,1288,920155334,"""map""",,,0.138818323612,-0.139095231891,0.0294891949743,,0.00374802901748,-0.00549592006986,0.0633502536471,-0.997969263431
1288960000000,,32268,,1288,952155334,"""map""",,,0.137452676892,-0.138593226671,0.0302117355168,,0.00398424728613,-0.00551360034354,0.0633403491377,-0.997968799815
1288996000000,,32269,,1288,992154963,"""map""",,,0.136537060142,-0.137807354331,0.0312011055648,,0.00395861870951,-0.00549444657653,0.0632834087454,-0.997972635179
1289028000000,,32270,,1289,24154963,"""map""",,,0.136391669512,-0.137028232217,0.0320046320558,,0.00391077026497,-0.00547602897995,0.0632770867181,-0.997973393822
1289060000000,,32271,,1289,56154963,"""map""",,,0.136705607176,-0.13615553081,0.0324831791222,,0.00382094833376,-0.0056871054187,0.0632784775641,-0.997972508738
1289096000000,,32272,,1289,88154593,"""map""",,,0.13405713439,-0.136126473546,0.0330196395516,,0.00379284568774,-0.00566737007456,0.0632679829989,-0.997973309528
1289128000000,,32273,,1289,120154593,"""map""",,,0.132093831897,-0.135928973556,0.0334765277803,,0.00374458713461,-0.00564936983057,0.0632341812263,-0.997975754045
1289160000000,,32274,,1289,152154593,"""map""",,,0.130707502365,-0.135574042797,0.0338442251086,,0.00365536151545,-0.00562827541521,0.0632187554798,-0.997977187038
1289196000000,,32275,,1289,192154222,"""map""",,,0.129729539156,-0.13490845263,0.0344071090221,,0.00367144481869,-0.00562247396737,0.0632097782011,-0.997977734947
1289228000000,,32276,,1289,224154222,"""map""",,,0.129487261176,-0.134230390191,0.034926969558,,0.00363649067561,-0.00563983311828,0.063248469008,-0.99797529043
1289260000000,,32277,,1289,256154222,"""map""",,,0.129692554474,-0.133426740766,0.0354359000921,,0.0036518632447,-0.00563855406021,0.0631820034279,-0.997979462968
1289296000000,,32278,,1289,288153850,"""map""",,,0.127349287271,-0.133417993784,0.0359806008637,,0.00363285608616,-0.00565700869991,0.0631969655591,-0.997978493591
1289328000000,,32279,,1289,320153850,"""map""",,,0.125606656075,-0.133228674531,0.036507062614,,0.00360728513218,-0.00566475812241,0.0632443807637,-0.997975501164
1289360000000,,32280,,1289,352153850,"""map""",,,0.124449849129,-0.132875725627,0.0370246432722,,0.00358417219559,-0.00562283847175,0.0633000988974,-0.997972298004
1289396000000,,32281,,1289,392153479,"""map""",,,0.123726405203,-0.132238298655,0.0377102941275,,0.00361720585824,-0.00563303232915,0.0632690366701,-0.997974110318
1289428000000,,32282,,1289,424153479,"""map""",,,0.12367208302,-0.131586790085,0.0382057353854,,0.00363236514123,-0.00565726586154,0.0632670136213,-0.997974026025
1289460000000,,32283,,1289,456153479,"""map""",,,0.124013699591,-0.130829319358,0.0385621003807,,0.00361037625779,-0.00568666402924,0.0632656649222,-0.997974026025
1289496000000,,32284,,1289,488153107,"""map""",,,0.121676951647,-0.130916655064,0.0392094962299,,0.00361372363952,-0.00572031499505,0.0632463616656,-0.997975037549
1289528000000,,32285,,1289,520153107,"""map""",,,0.119979426265,-0.130848154426,0.0398015901446,,0.00365661365551,-0.00571401568756,0.063231230947,-0.997975838339
1289560000000,,32286,,1289,552153107,"""map""",,,0.118831992149,-0.13060221076,0.040299911052,,0.00363413481496,-0.00565475400815,0.0632491012107,-0.99797516399
1289596000000,,32287,,1289,592152735,"""map""",,,0.118127800524,-0.130060195923,0.0408398248255,,0.00363859406677,-0.00565195165432,0.0632813435498,-0.997973098794
1289628000000,,32288,,1289,624152735,"""map""",,,0.118063822389,-0.129418686032,0.0410642065108,,0.00384420936055,-0.00561468009312,0.0633038499669,-0.997971160039
1289660000000,,32289,,1289,656152735,"""map""",,,0.118394605815,-0.128662973642,0.0413824506104,,0.0038482326559,-0.0056309175781,0.0632858954095,-0.99797208727
1289696000000,,32290,,1289,688152363,"""map""",,,0.116107240319,-0.128973394632,0.0414125174284,,0.00383180205275,-0.00564391123746,0.0633317090338,-0.997969263431
1289728000000,,32291,,1289,720152363,"""map""",,,0.114423543215,-0.129064947367,0.0414340570569,,0.00382811436814,-0.00565778989833,0.0633679974704,-0.997966945354
1289760000000,,32292,,1289,752152363,"""map""",,,0.113292440772,-0.128968909383,0.0414978936315,,0.00385503871339,-0.00567092152278,0.0634010827465,-0.997964627277
1289796000000,,32293,,1289,792151990,"""map""",,,0.112582750618,-0.128587216139,0.0414870679379,,0.00385613403755,-0.00567029178959,0.0634163820525,-0.9979636579
1289828000000,,32294,,1289,824151990,"""map""",,,0.112522751093,-0.128101810813,0.041397087276,,0.00377228403489,-0.00570232685182,0.0633889444541,-0.997965470214
1289860000000,,32295,,1289,856151990,"""map""",,,0.112862288952,-0.127447754145,0.0414025038481,,0.00379390940176,-0.00571041172043,0.0634676747671,-0.997960328299
1289896000000,,32296,,1289,888151617,"""map""",,,0.11069599539,-0.12758859992,0.0417858958244,,0.00379206481859,-0.00574645715407,0.0634942694285,-0.997958515984
1289928000000,,32297,,1289,920151617,"""map""",,,0.109134271741,-0.127545833588,0.0421518944204,,0.00378068335849,-0.00574928873082,0.0635349411373,-0.997955860733
1289960000000,,32298,,1289,952151617,"""map""",,,0.10809110105,-0.127313748002,0.0424224212766,,0.00380461066769,-0.00573150234916,0.0635268910893,-0.997956408642
1289996000000,,32299,,1289,992151244,"""map""",,,0.107443399727,-0.126752734184,0.0426927581429,,0.00383108580328,-0.00577492644474,0.0635010550711,-0.997957799488
1290028000000,,32300,,1290,24151244,"""map""",,,0.107418134809,-0.126129642129,0.0428021922708,,0.00383331349471,-0.00575464343853,0.0634858822057,-0.997958895306
1290060000000,,32301,,1290,56151244,"""map""",,,0.107778549194,-0.125371858478,0.0428381673992,,0.00381458580599,-0.00577525522309,0.0634607626839,-0.997960412593
1290096000000,,32302,,1290,88150871,"""map""",,,0.105721272528,-0.125499665737,0.0422704070807,,0.00382246282149,-0.00575047797988,0.0634301640719,-0.997962435641
1290128000000,,32303,,1290,120150871,"""map""",,,0.104220323265,-0.125399902463,0.0417701788247,,0.00379703361922,-0.00576973069321,0.0634207231779,-0.997963025697
1290160000000,,32304,,1290,152150871,"""map""",,,0.103235431015,-0.125101998448,0.0412085279822,,0.00382110844239,-0.00575319291193,0.0634286889322,-0.997962477788
1290196000000,,32305,,1290,192150497,"""map""",,,0.102631472051,-0.124472022057,0.0405702143908,,0.00381724846607,-0.00574411907411,0.0634275931142,-0.997962646376
1290228000000,,32306,,1290,224150497,"""map""",,,0.102623797953,-0.12375793606,0.0401575006545,,0.00383627957917,-0.0056793619231,0.0633750359941,-0.997966228858
1290260000000,,32307,,1290,256150497,"""map""",,,0.103026643395,-0.122881345451,0.039783578366,,0.00383227620479,-0.00570434191569,0.0634267501772,-0.997962899257
1290296000000,,32308,,1290,288150123,"""map""",,,0.101093068719,-0.123068213463,0.0390865169466,,0.00384056028311,-0.00577647995123,0.0634256122123,-0.997962435641
1290328000000,,32309,,1290,320150123,"""map""",,,0.0997072085738,-0.123020336032,0.0383995138109,,0.00380248134635,-0.00572347691419,0.0634177307516,-0.997963489313
1290360000000,,32310,,1290,352150123,"""map""",,,0.0988186001778,-0.122728094459,0.0376798026264,,0.00379038248433,-0.00570131038837,0.0634542299224,-0.997961297676
1290396000000,,32311,,1290,392149749,"""map""",,,0.098329462111,-0.122057259083,0.0367922671139,,0.0037880864689,-0.00570608253115,0.0634503102655,-0.997961508411
1290428000000,,32312,,1290,424149749,"""map""",,,0.0983788073063,-0.12133153528,0.0361161008477,,0.00376535071367,-0.0057465146944,0.0634283517574,-0.997962730669
1290460000000,,32313,,1290,456149749,"""map""",,,0.0987708568573,-0.120436944067,0.0354306437075,,0.0037705159252,-0.00573305116352,0.0634168878146,-0.997963573606
1290496000000,,32314,,1290,488149375,"""map""",,,0.0966979861259,-0.120499797165,0.0352439619601,,0.00374603189894,-0.00572096753034,0.0634180679264,-0.9979636579
1290528000000,,32315,,1290,520149375,"""map""",,,0.0951606705785,-0.120302967727,0.0349188782275,,0.00393056808851,-0.00566976553021,0.0633485256264,-0.997967619704
1290560000000,,32316,,1290,552149375,"""map""",,,0.0940895602107,-0.119887173176,0.034691080451,,0.00391470737331,-0.00569555051115,0.0633703576939,-0.997966271005
1290596000000,,32317,,1290,592149001,"""map""",,,0.0933997035027,-0.119044259191,0.0344162769616,,0.00390508883686,-0.00568624577116,0.0634007877185,-0.997964416543
1290628000000,,32318,,1290,624149001,"""map""",,,0.0933082997799,-0.118162669241,0.0341766141355,,0.00387274244772,-0.00569107948785,0.0634707093402,-0.997959991124
1290660000000,,32319,,1290,656149001,"""map""",,,0.0935993790627,-0.117099396884,0.0339000150561,,0.00389409772902,-0.00567207521044,0.0634492565943,-0.99796138197
1290696000000,,32320,,1290,688148626,"""map""",,,0.0918433517218,-0.11711487174,0.0341162607074,,0.00389565098856,-0.00566806031153,0.0634703721654,-0.997960075418
1290728000000,,32321,,1290,720148626,"""map""",,,0.0905605107546,-0.116877444088,0.0343081094325,,0.00383973669089,-0.00563987386572,0.0634798973532,-0.997959738243
1290760000000,,32322,,1290,752148626,"""map""",,,0.0897344872355,-0.116408407688,0.0344344750047,,0.00385991383607,-0.00561966972022,0.0634278459953,-0.997963236431
1290796000000,,32323,,1290,792148251,"""map""",,,0.0893038287759,-0.115541897714,0.0346016660333,,0.00386248018401,-0.00560188177451,0.0633958565372,-0.997965217333
1290828000000,,32324,,1290,824148251,"""map""",,,0.0893894061446,-0.114606320858,0.0346685275435,,0.00384998372575,-0.00564593634414,0.0633360080124,-0.997968926256
1290860000000,,32325,,1290,856148251,"""map""",,,0.0898598060012,-0.113469682634,0.0346494950354,,0.00386561946568,-0.00561329369229,0.0633468397524,-0.997968294053
1290896000000,,32326,,1290,888147876,"""map""",,,0.0885991379619,-0.113604836166,0.0346152074635,,0.00385075982045,-0.00561882044476,0.0633314140059,-0.997969389871
1290928000000,,32327,,1290,920147876,"""map""",,,0.0878189578652,-0.113466233015,0.0345779694617,,0.00382025891997,-0.00563608394208,0.0633389582917,-0.997968841962
1290960000000,,32328,,1290,952147876,"""map""",,,0.087441906333,-0.113093316555,0.0346168093383,,0.00382176188318,-0.00559046113102,0.0633463761371,-0.997968673375
1290996000000,,32329,,1290,992147501,"""map""",,,0.087483227253,-0.112260721624,0.0346139781177,,0.00383573924341,-0.0055620221334,0.0633581351078,-0.997968041172
1291028000000,,32330,,1291,24147501,"""map""",,,0.0878840833902,-0.111342042685,0.0345548652112,,0.00382297944965,-0.00556350764517,0.0634143590037,-0.997964500837
1291060000000,,32331,,1291,56147501,"""map""",,,0.0885807275772,-0.110259056091,0.034494202584,,0.00380734650853,-0.00557012511198,0.0634722687736,-0.997960876208
1291096000000,,32332,,1291,88147125,"""map""",,,0.0871035829186,-0.110493846238,0.0341046117246,,0.00379482461399,-0.00567185344557,0.0634403636093,-0.997962267054
1291128000000,,32333,,1291,120147125,"""map""",,,0.0860709398985,-0.110419526696,0.0338454730809,,0.00376015537373,-0.00577309692578,0.063450183825,-0.997961297676
1291160000000,,32334,,1291,152147125,"""map""",,,0.0854713991284,-0.110081285238,0.0334888957441,,0.00377727226258,-0.00577419274384,0.0634015042149,-0.997964290103
1291196000000,,32335,,1291,192146749,"""map""",,,0.0852501094341,-0.109314292669,0.033014908433,,0.00377160301755,-0.00578150044761,0.0633878064892,-0.997965090893
1291228000000,,32336,,1291,224146749,"""map""",,,0.0854688510299,-0.108405128121,0.0326057076454,,0.00377692899625,-0.00576598810245,0.0633700205191,-0.997966271005
1291260000000,,32337,,1291,256146749,"""map""",,,0.0859876722097,-0.107269212604,0.0322317257524,,0.00375897501502,-0.00576690224455,0.0634019678303,-0.997964416543
1291296000000,,32338,,1291,288146374,"""map""",,,0.0842941477895,-0.107480250299,0.0316124297678,,0.0037388451204,-0.00573702029359,0.0634533448386,-0.997961339823
1291328000000,,32339,,1291,320146374,"""map""",,,0.0830478668213,-0.107363954186,0.0310013722628,,0.00372946851675,-0.00573264451229,0.0634780428918,-0.997959822537
1291360000000,,32340,,1291,352146374,"""map""",,,0.0821998119354,-0.106945693493,0.0303894430399,,0.00367447502893,-0.00568656788174,0.0634694449347,-0.997960834061
1291396000000,,32341,,1291,392145997,"""map""",,,0.0816652178764,-0.10607277602,0.0296731274575,,0.00362844079219,-0.00567095445,0.0634694027879,-0.997961129089
1291428000000,,32342,,1291,424145997,"""map""",,,0.0816072225571,-0.105092585087,0.0290314592421,,0.00363081813786,-0.00565677401111,0.0634243899537,-0.997963995075
1291460000000,,32343,,1291,456145997,"""map""",,,0.0818741843104,-0.103903718293,0.0284236911684,,0.00355284152903,-0.00561225870728,0.0634258650934,-0.997964542984
1291496000000,,32344,,1291,488157621,"""map""",,,0.0802036896348,-0.104207217693,0.0280413590372,,0.0035429291171,-0.00561464066276,0.0633934541669,-0.997966523886
1291528000000,,32345,,1291,520157621,"""map""",,,0.0789744853973,-0.104199029505,0.0277077630162,,0.00351428547677,-0.00559695701405,0.063357250024,-0.99796901055
1291560000000,,32346,,1291,552157621,"""map""",,,0.0781476795673,-0.10390765965,0.0274091847241,,0.00352672752279,-0.00557396574355,0.0632989609325,-0.997972845913
1291596000000,,32347,,1291,592157245,"""map""",,,0.0776850804687,-0.103181794286,0.0269487891346,,0.00355579584201,-0.00557438902303,0.0632639369014,-0.997974995402
1291628000000,,32348,,1291,624157245,"""map""",,,0.0777276232839,-0.102324590087,0.0266322717071,,0.0034815005793,-0.00580947912262,0.0632001265728,-0.997977945682
1291660000000,,32349,,1291,656157245,"""map""",,,0.0781088173389,-0.101246766746,0.0264678876847,,0.00346732812526,-0.00578665388766,0.0631814555189,-0.997979252234
1291696000000,,32350,,1291,688156868,"""map""",,,0.0765677616,-0.101566083729,0.0264460705221,,0.00339406109748,-0.00578723933372,0.0631482859491,-0.997981654604
1291728000000,,32351,,1291,720156868,"""map""",,,0.0754477083683,-0.101555071771,0.0264402832836,,0.00329379423878,-0.00575957931194,0.0632081766208,-0.997978325003
1291760000000,,32352,,1291,752156868,"""map""",,,0.0746804699302,-0.101236082613,0.0263605304062,,0.00338127636136,-0.00575760194973,0.0632483847143,-0.997975543311
1291792000000,,32353,,1291,792156491,"""map""",,,0.0742212608457,-0.100444503129,0.0262714736164,,0.00338894675851,-0.00579234116035,0.0632308094785,-0.997976428395
1291828000000,,32354,,1291,824156491,"""map""",,,0.0741942748427,-0.0995278805494,0.0262574180961,,0.00338077817244,-0.00578484099694,0.0632426527429,-0.997975711899
1291860000000,,32355,,1291,856156491,"""map""",,,0.0744585469365,-0.098360016942,0.0262910351157,,0.00342954685061,-0.00576391821474,0.0632740099982,-0.997973773144
1291896000000,,32356,,1291,888156113,"""map""",,,0.0728873312473,-0.0986163690686,0.0267600659281,,0.00341669486063,-0.00573816369149,0.0632636418735,-0.997974531787
1291928000000,,32357,,1291,920156113,"""map""",,,0.0717434883118,-0.0985365882516,0.027055170387,,0.00346273625904,-0.00571736759679,0.0632343919606,-0.997976301954
1291960000000,,32358,,1291,952156113,"""map""",,,0.0709773004055,-0.0981635674834,0.0272947214544,,0.00340853261304,-0.00565604146267,0.0632450972601,-0.997976133367
1291996000000,,32359,,1291,992155735,"""map""",,,0.070512495935,-0.0973593071103,0.0275135915726,,0.00339379430464,-0.0056459671311,0.063247626071,-0.997976217661
1292028000000,,32360,,1292,24155735,"""map""",,,0.0705049410462,-0.0964613556862,0.0276377908885,,0.00342712818127,-0.00557067079842,0.0632350663102,-0.997977229185
1292060000000,,32361,,1292,56155735,"""map""",,,0.0707905292511,-0.0953424349427,0.0278826095164,,0.0034143012983,-0.00554627411162,0.0632217900529,-0.997978282856
1292096000000,,32362,,1292,88155357,"""map""",,,0.0692965239286,-0.0958630666137,0.0281598754227,,0.00341632780439,-0.00556705497748,0.0632209892628,-0.99797824071
1292128000000,,32363,,1292,120155357,"""map""",,,0.0682408437133,-0.096001945436,0.0281898248941,,0.00349825921994,-0.00555573533825,0.0632237709548,-0.997977819241
1292160000000,,32364,,1292,152155357,"""map""",,,0.0675608664751,-0.0958383604884,0.0281615015119,,0.00352003671059,-0.00557555283581,0.0632755272847,-0.997974363199
1292196000000,,32365,,1292,192154979,"""map""",,,0.0671999454498,-0.0952253863215,0.0281286407262,,0.00347267163772,-0.00561852805099,0.0633053251066,-0.997972382298
1292228000000,,32366,,1292,224154979,"""map""",,,0.0672818943858,-0.0944482535124,0.0283098388463,,0.00345194370237,-0.00561994482719,0.0632904051223,-0.997973393822
1292260000000,,32367,,1292,256154979,"""map""",,,0.0676612481475,-0.0934571698308,0.0285747274756,,0.00339578681336,-0.00561263909905,0.0633346593132,-0.997970865011
1292296000000,,32368,,1292,288154601,"""map""",,,0.0683018788695,-0.0922628343105,0.0288822967559,,0.00341200577678,-0.0056001777906,0.0633356708376,-0.997970780717
1292328000000,,32369,,1292,320154601,"""map""",,,0.0691843703389,-0.0908467546105,0.0290889628232,,0.00339958052364,-0.00559613350414,0.0632991295199,-0.997973098794
1292360000000,,32370,,1292,352154601,"""map""",,,0.0702868029475,-0.0892157331109,0.0292262509465,,0.00338913411443,-0.00556975871428,0.0632755272847,-0.997974784668
1292396000000,,32371,,1292,392154222,"""map""",,,0.069213911891,-0.0893390625715,0.0292035806924,,0.00314469696336,-0.00555598451503,0.0632883820735,-0.997974826815
1292428000000,,32372,,1292,424154222,"""map""",,,0.0687464252114,-0.089050590992,0.0292709898204,,0.00318692020303,-0.00549079387709,0.0632349820165,-0.997978493591
1292460000000,,32373,,1292,456154222,"""map""",,,0.0685775503516,-0.0885067209601,0.0291708186269,,0.0031283173974,-0.00551247604343,0.0632515878748,-0.99797756636
1292496000000,,32374,,1292,488153843,"""map""",,,0.0687007158995,-0.0876889005303,0.0289999395609,,0.00312369877782,-0.00553883848558,0.0632507449378,-0.997977482066
1292528000000,,32375,,1292,520153843,"""map""",,,0.0690915584564,-0.0866261124611,0.0287586338818,,0.00311169639257,-0.00554700880034,0.063259047867,-0.997976934157
1292560000000,,32376,,1292,552153843,"""map""",,,0.0697540789843,-0.0853726640344,0.0285260155797,,0.0031055534894,-0.00553363310284,0.063261829559,-0.997976849864
1292596000000,,32377,,1292,592153464,"""map""",,,0.0681467354298,-0.0861500650644,0.0281805191189,,0.00306370240969,-0.00555545586842,0.0632393652887,-0.997978325003
1292628000000,,32378,,1292,624153464,"""map""",,,0.0673526376486,-0.0863639712334,0.0281140822917,,0.00294868802296,-0.00553367673141,0.0631723096527,-0.99798291901
1292660000000,,32379,,1292,656153464,"""map""",,,0.0669289007783,-0.0862453207374,0.0280897859484,,0.00295949399747,-0.00553074365649,0.0631360212162,-0.99798532138
1292696000000,,32380,,1292,688153084,"""map""",,,0.066829264164,-0.0858423486352,0.0280354507267,,0.00296998173035,-0.00553943471532,0.0631196260921,-0.99798612217
1292728000000,,32381,,1292,720153084,"""map""",,,0.0670438408852,-0.0851947143674,0.0281578749418,,0.00294798033457,-0.00552641603126,0.0630545935048,-0.997990379002
1292760000000,,32382,,1292,752153084,"""map""",,,0.0675477683544,-0.0843091830611,0.0281268041581,,0.00292190954531,-0.0055926817431,0.0630258072073,-0.997991938435
1292796000000,,32383,,1292,792164705,"""map""",,,0.066257186234,-0.0849444046617,0.0278974287212,,0.00289730895667,-0.00556407720385,0.0630144275582,-0.99799294996
1292828000000,,32384,,1292,824164705,"""map""",,,0.0656259804964,-0.0850726887584,0.0276742242277,,0.00290642872797,-0.00558367853418,0.063016703488,-0.997992612785
1292860000000,,32385,,1292,856164705,"""map""",,,0.0653312876821,-0.0849171876907,0.0276115685701,,0.00286221561375,-0.00557473854553,0.0629736294089,-0.997995563064
1292896000000,,32386,,1292,888164324,"""map""",,,0.0653546303511,-0.084498308599,0.0275506768376,,0.00288147598266,-0.00556772117757,0.062953567509,-0.99799682747
1292928000000,,32387,,1292,920164324,"""map""",,,0.0656573697925,-0.0838138982654,0.0274234749377,,0.00287761789966,-0.00557139684374,0.0629293752179,-0.997998344756
1292960000000,,32388,,1292,952164324,"""map""",,,0.0661942139268,-0.0828616768122,0.0273115895689,,0.00284565157301,-0.00557008625785,0.0629151295831,-0.997999271987
1292996000000,,32389,,1292,992163944,"""map""",,,0.0648534074426,-0.0838534533978,0.0273442808539,,0.00281574558518,-0.00551792903891,0.0628951098301,-0.998000915714
1293028000000,,32390,,1293,24163944,"""map""",,,0.0641871839762,-0.0842074155807,0.0274198241532,,0.00283171841759,-0.00556443232398,0.0628595378899,-0.998002938763
1293060000000,,32391,,1293,56163944,"""map""",,,0.063814394176,-0.0842291712761,0.0274654366076,,0.00288693762153,-0.00555094640259,0.0628098467555,-0.998005931189
1293096000000,,32392,,1293,88163563,"""map""",,,0.0637284070253,-0.0839518383145,0.0275188144296,,0.0028908420496,-0.00554539429616,0.0627918079044,-0.998007027007
1293128000000,,32393,,1293,120163563,"""map""",,,0.0639370158315,-0.0833964124322,0.0276204682887,,0.00284794783539,-0.00551886935815,0.0627586804814,-0.998009471524
1293160000000,,32394,,1293,152163563,"""map""",,,0.0644156336784,-0.0825967565179,0.027726886794,,0.00310915613945,-0.00549960042816,0.0627247522684,-0.99801086237
1293196000000,,32395,,1293,192163182,"""map""",,,0.0630371496081,-0.0837516486645,0.028122395277,,0.00311018091702,-0.00549480482474,0.0627208747583,-0.998011199545
1293228000000,,32396,,1293,224163182,"""map""",,,0.0623500198126,-0.0842646807432,0.028512885794,,0.00309421401151,-0.0054749897144,0.0627104644868,-0.998012000335
1293260000000,,32397,,1293,256163182,"""map""",,,0.0620066300035,-0.0844437107444,0.0289011467248,,0.00304969409787,-0.00547998444522,0.0626744289313,-0.998014318412
1293296000000,,32398,,1293,288162801,"""map""",,,0.0619683638215,-0.0843321681023,0.0292948894203,,0.00300333635114,-0.00551338071895,0.0626565165207,-0.998015456377
1293328000000,,32399,,1293,320162801,"""map""",,,0.0621691457927,-0.0839603766799,0.0296445209533,,0.00292736435179,-0.00541184599743,0.0626384355226,-0.998017352985
1293360000000,,32400,,1293,352162801,"""map""",,,0.0626139491796,-0.0833482816815,0.0299437753856,,0.00294111904166,-0.00538149137616,0.0626262550834,-0.998018238069
1293396000000,,32401,,1293,392162419,"""map""",,,0.0609052479267,-0.0844037011266,0.030020499602,,0.0029924532446,-0.00535664910168,0.0626170670705,-0.998018743831
1293428000000,,32402,,1293,424162419,"""map""",,,0.0599267408252,-0.0848684757948,0.0301030538976,,0.00295360743275,-0.00539972342781,0.0626071625611,-0.99801929174
1293460000000,,32403,,1293,456162419,"""map""",,,0.0593171939254,-0.0849963799119,0.0301355160773,,0.00289784138991,-0.00534251681886,0.0626469913329,-0.998017226544
1293496000000,,32404,,1293,488162037,"""map""",,,0.0589948967099,-0.0848135724664,0.0301404707134,,0.00289187217785,-0.00531144421943,0.0626704249807,-0.998015962139
1293528000000,,32405,,1293,520162037,"""map""",,,0.0589318089187,-0.0843398049474,0.0301325321198,,0.0028486182337,-0.00530868829298,0.0626804980775,-0.998015498524
1293560000000,,32406,,1293,552162037,"""map""",,,0.0591046474874,-0.0836245641112,0.0302009452134,,0.00286216078992,-0.00529271109772,0.0626268872862,-0.998018870271
1293596000000,,32407,,1293,592161655,"""map""",,,0.0568382814527,-0.0848233923316,0.0299815740436,,0.00287409057064,-0.0052834978131,0.0626183314759,-0.998019418181
1293628000000,,32408,,1293,624161655,"""map""",,,0.0554155893624,-0.085400775075,0.0296561196446,,0.00287273610922,-0.00528514927809,0.0626351902153,-0.998018406656
1293660000000,,32409,,1293,656161655,"""map""",,,0.054349232465,-0.0856638029218,0.0293840635568,,0.00280146521216,-0.00530125719443,0.0626805402243,-0.998015709258
1293696000000,,32410,,1293,688161272,"""map""",,,0.053624343127,-0.0855993926525,0.029022116214,,0.00279393862466,-0.00530874558635,0.0626713943582,-0.998016257167
1293728000000,,32411,,1293,720161272,"""map""",,,0.0531829744577,-0.0852364897728,0.0287156105042,,0.00278160276894,-0.00530897475984,0.0626501101997,-0.998017563719
1293760000000,,32412,,1293,752161272,"""map""",,,0.0529531352222,-0.0846391916275,0.0284887999296,,0.0027379733721,-0.00533431966841,0.062682858301,-0.998015582817
1293796000000,,32413,,1293,792160889,"""map""",,,0.0509516224265,-0.0856057330966,0.0283805634826,,0.00274566311401,-0.0053399832335,0.0627108438084,-0.998013728356
1293828000000,,32414,,1293,824160889,"""map""",,,0.0497367829084,-0.085996799171,0.0284486338496,,0.00268022082975,-0.00531784897636,0.0627261852612,-0.998013054006
1293860000000,,32415,,1293,856160889,"""map""",,,0.0488039962947,-0.086075797677,0.0286359116435,,0.00263936406993,-0.00530532477691,0.0627445191404,-0.998012000335
1293896000000,,32416,,1293,888160506,"""map""",,,0.0481513738632,-0.0858892425895,0.0290101058781,,0.00264783015349,-0.00529808951303,0.0627849379681,-0.998009597965
1293928000000,,32417,,1293,920160506,"""map""",,,0.0477933399379,-0.0854433327913,0.0295210294425,,0.00262808501351,-0.00536730188228,0.0628223643695,-0.998006900566
1293960000000,,32418,,1293,952160506,"""map""",,,0.0476861521602,-0.084758810699,0.0301411300898,,0.00266816888903,-0.0054298976079,0.0628733199094,-0.998003233791
1293996000000,,32419,,1293,992160122,"""map""",,,0.0457412488759,-0.0857534706593,0.0306141786277,,0.00265244235227,-0.00537094783163,0.0628672929101,-0.998003950287
1294028000000,,32420,,1294,24160122,"""map""",,,0.044571377337,-0.0861734002829,0.0310438852757,,0.0028472861628,-0.0053466986588,0.0628440699965,-0.998005088252
1294060000000,,32421,,1294,56160122,"""map""",,,0.0436962321401,-0.0862790942192,0.0314054042101,,0.00288957822038,-0.00540631768093,0.0628541852402,-0.998003992434
1294096000000,,32422,,1294,88171738,"""map""",,,0.0431095249951,-0.0860947370529,0.031735625118,,0.00289523915128,-0.00543015229998,0.0628192455028,-0.998005889042
1294128000000,,32423,,1294,120171738,"""map""",,,0.0427582412958,-0.0856412425637,0.0320555306971,,0.00289163559574,-0.00543855005955,0.0628268319355,-0.99800538328
1294160000000,,32424,,1294,152171738,"""map""",,,0.0425975620747,-0.0849664956331,0.0323275141418,,0.00288234040464,-0.00544472440822,0.06281473579,-0.99800618407
1294196000000,,32425,,1294,192171354,"""map""",,,0.0409022793174,-0.0862009674311,0.0327469296753,,0.00286513905746,-0.00542963600109,0.062784685087,-0.998008333559
1294228000000,,32426,,1294,224171354,"""map""",,,0.0398973450065,-0.0867931321263,0.0330351814628,,0.00278047303583,-0.00541906068179,0.062763527369,-0.998009850846
1294260000000,,32427,,1294,256171354,"""map""",,,0.0391617268324,-0.0870826616883,0.033302243799,,0.00273210022523,-0.00548070843259,0.0627315800579,-0.998011621014
1294296000000,,32428,,1294,288170970,"""map""",,,0.0387048572302,-0.0871153771877,0.0336261577904,,0.00272998209914,-0.00549587956937,0.0627356683022,-0.998011325986
1294328000000,,32429,,1294,320170970,"""map""",,,0.0384946577251,-0.0868843570352,0.033925421536,,0.00271964871262,-0.00556986259967,0.0627757499551,-0.998008502147
1294360000000,,32430,,1294,352170970,"""map""",,,0.0384978763759,-0.0864287614822,0.0342066138983,,0.00274763471394,-0.00556395035171,0.0627859494924,-0.998007743503
1294396000000,,32431,,1294,392170585,"""map""",,,0.0370550937951,-0.0880186930299,0.0344361923635,,0.00273186290225,-0.00554847159233,0.0627953903865,-0.998007237741
1294428000000,,32432,,1294,424170585,"""map""",,,0.0362614914775,-0.0888652950525,0.0346615314484,,0.00272820814487,-0.00563348293823,0.0627809761643,-0.99800765921
1294460000000,,32433,,1294,456170585,"""map""",,,0.0357271060348,-0.0893974676728,0.0348345004022,,0.00251981914394,-0.00564049824823,0.0627527799227,-0.99801006158
1294496000000,,32434,,1294,488170199,"""map""",,,0.0354317203164,-0.0895946100354,0.0351052954793,,0.00251555259871,-0.00564437822784,0.0627137519409,-0.998012506097
1294528000000,,32435,,1294,520170199,"""map""",,,0.0353562571108,-0.0895019546151,0.0353649668396,,0.00247649992157,-0.00562013226542,0.0627210011989,-0.998012253216
1294560000000,,32436,,1294,552170199,"""map""",,,0.0354742221534,-0.0891713276505,0.0356308780611,,0.0024928629416,-0.00564626117122,0.0627146370248,-0.998012463951
1294596000000,,32437,,1294,592169813,"""map""",,,0.0340612456203,-0.0907186195254,0.036061797291,,0.00244552956118,-0.00564489386819,0.0627287983659,-0.998011705307
1294628000000,,32438,,1294,624169813,"""map""",,,0.0333065465093,-0.0915606319904,0.0363624952734,,0.00240072532094,-0.00564860558967,0.0626915405518,-0.998014065531
1294660000000,,32439,,1294,656169813,"""map""",,,0.0328502468765,-0.0921068638563,0.0366219952703,,0.00230641055214,-0.00564503166863,0.0626732909664,-0.998015456377
1294696000000,,32440,,1294,688169427,"""map""",,,0.0326300486922,-0.0923520550132,0.0369559675455,,0.00229570936852,-0.00563103282338,0.0626721108546,-0.998015709258
1294728000000,,32441,,1294,720169427,"""map""",,,0.0326207391918,-0.092322267592,0.0373200848699,,0.00225703947038,-0.00556922924449,0.0626928049572,-0.998014824174
1294764000000,,32442,,1294,752169427,"""map""",,,0.0327823869884,-0.0920427590609,0.0376322604716,,0.00250848378196,-0.00553511844997,0.0626871151327,-0.998014782027
1294796000000,,32443,,1294,792169041,"""map""",,,0.0315906889737,-0.0933449119329,0.037586402148,,0.00250459178392,-0.00554365516243,0.0626909504959,-0.998014486999
1294828000000,,32444,,1294,824169041,"""map""",,,0.0309758409858,-0.0940097048879,0.037622038275,,0.00246216307836,-0.0055468550302,0.062670045659,-0.998015835698
1294860000000,,32445,,1294,856169041,"""map""",,,0.0306351277977,-0.094345100224,0.0375912263989,,0.00242106265707,-0.00555761696455,0.0626421022985,-0.998017648013
1294896000000,,32446,,1294,888168654,"""map""",,,0.0305075906217,-0.0944118648767,0.0374590270221,,0.00241747490659,-0.00556631106914,0.0626284045727,-0.998018533097
1294928000000,,32447,,1294,920168654,"""map""",,,0.030590005219,-0.0942189395428,0.037263892591,,0.00243363690591,-0.00559971376367,0.0626125995045,-0.998019249593
1294960000000,,32448,,1294,952168654,"""map""",,,0.0308706928045,-0.0937606915832,0.0371418893337,,0.00241972679954,-0.00556367985456,0.0626444203751,-0.998017521572
1294996000000,,32449,,1294,992168267,"""map""",,,0.0298769567162,-0.0947643965483,0.0370510295033,,0.00243576219367,-0.00556957465109,0.0626440410535,-0.998017395132
1295028000000,,32450,,1295,24168267,"""map""",,,0.0293979551643,-0.0952044576406,0.0371397435665,,0.00238263115204,-0.00554043241025,0.0626546620593,-0.998017142251
1295060000000,,32451,,1295,56168267,"""map""",,,0.0291802249849,-0.0953362137079,0.0373764559627,,0.00235814136351,-0.00554611153345,0.0627044796343,-0.998014023384
1295096000000,,32452,,1295,88167879,"""map""",,,0.0292240828276,-0.0951647534966,0.0376547463238,,0.00232918582004,-0.00554367162604,0.0626708043023,-0.998016088579
1295128000000,,32453,,1295,120167879,"""map""",,,0.0295713786036,-0.0946931540966,0.0378397814929,,0.00284894355469,-0.00595908331268,0.0626741760502,-0.998012211069
1295160000000,,32454,,1295,152167879,"""map""",,,0.0300697311759,-0.0940479338169,0.0381300635636,,0.00286904727216,-0.00599642706682,0.0626195115877,-0.998015372083
1295196000000,,32455,,1295,192167491,"""map""",,,0.0294600930065,-0.0944354757667,0.0375645309687,,0.00288431924857,-0.00597824103096,0.062610239281,-0.998016046433
1295228000000,,32456,,1295,224167491,"""map""",,,0.029277978465,-0.0943979918957,0.0371926985681,,0.00291499359321,-0.00600781428918,0.0625904302622,-0.998016973663
1295260000000,,32457,,1295,256167491,"""map""",,,0.0293448790908,-0.0940714031458,0.0367741659284,,0.00291211229635,-0.00602817006456,0.062645305459,-0.998013433328
1295296000000,,32458,,1295,288167103,"""map""",,,0.0296310596168,-0.0935008600354,0.0363431200385,,0.00288682830315,-0.00600553770081,0.0626259179086,-0.998014866321
1295328000000,,32459,,1295,320167103,"""map""",,,0.0301282294095,-0.0926956981421,0.0358518324792,,0.00285061411747,-0.00599637816989,0.0626061510367,-0.998016257167
1295360000000,,32460,,1295,352167103,"""map""",,,0.0308143123984,-0.0916778892279,0.0355213545263,,0.00285619166018,-0.00591432385347,0.0625868056332,-0.998017900894
1295396000000,,32461,,1295,392166714,"""map""",,,0.0301940739155,-0.0921522006392,0.035161010921,,0.00284914852667,-0.00585700677367,0.0625816215709,-0.99801861739
1295428000000,,32462,,1295,424166714,"""map""",,,0.0300242677331,-0.0921751186252,0.0350081920624,,0.00283516861458,-0.00579285301406,0.0626436617319,-0.998015161349
1295460000000,,32463,,1295,456166714,"""map""",,,0.0301472526044,-0.0918716341257,0.0347456037998,,0.00337475998113,-0.00609734053391,0.0626517960736,-0.998011157398
1295496000000,,32464,,1295,488166325,"""map""",,,0.0304867681116,-0.0913388282061,0.0344698764384,,0.0034313240976,-0.00636875529001,0.0625993653941,-0.998012506097
1295528000000,,32465,,1295,520166325,"""map""",,,0.0310204457492,-0.0905538797379,0.0342193543911,,0.00345166439718,-0.00640503993995,0.0625479462389,-0.998015456377
1295560000000,,32466,,1295,552166325,"""map""",,,0.0317695960402,-0.089538320899,0.0339486338198,,0.00348072300287,-0.00636478673617,0.0625830967106,-0.998013433328
1295596000000,,32467,,1295,592165936,"""map""",,,0.0315107628703,-0.0904151499271,0.0336491465569,,0.00349674818957,-0.00639451524626,0.0625837289133,-0.9980131383
1295628000000,,32468,,1295,624165936,"""map""",,,0.0316200777888,-0.09068608284,0.0332777872682,,0.00347191085417,-0.00644144279863,0.0625434365261,-0.99801541423
1295660000000,,32469,,1295,656165936,"""map""",,,0.0319823734462,-0.0906348004937,0.0328398160636,,0.00340509163567,-0.00649786096517,0.0625428464702,-0.998015329936
1295696000000,,32470,,1295,688165547,"""map""",,,0.0325989536941,-0.090295240283,0.0325941853225,,0.00336061765551,-0.00648623485579,0.0625327312266,-0.998016172873
1295728000000,,32471,,1295,720165547,"""map""",,,0.033428337425,-0.0897244662046,0.032483510673,,0.00339995169579,-0.00649373452528,0.0625194128225,-0.998016847223
1295760000000,,32472,,1295,752165547,"""map""",,,0.034442782402,-0.0889125689864,0.0322863422334,,0.0034043525841,-0.00647290690277,0.0625365244429,-0.998015919992
1295796000000,,32473,,1295,792165157,"""map""",,,0.033991985023,-0.0899786800146,0.032557554543,,0.00338346931457,-0.00643278787743,0.0625486205885,-0.998015456377
1295828000000,,32474,,1295,824165157,"""map""",,,0.0339663885534,-0.0904194489121,0.0327764563262,,0.00332453386164,-0.00643362324114,0.0625771961518,-0.998013854797
1295860000000,,32475,,1295,856165157,"""map""",,,0.0342054478824,-0.0905238464475,0.0329676307738,,0.00332167034549,-0.00637908867653,0.0625735293759,-0.998014486999
1295896000000,,32476,,1295,888164766,"""map""",,,0.0346875414252,-0.0903228893876,0.0330872684717,,0.00326674740425,-0.00642082623962,0.0625135965574,-0.998018111628
1295928000000,,32477,,1295,920164766,"""map""",,,0.0353930480778,-0.0898477435112,0.03325593099,,0.00328197937408,-0.00643898050071,0.0625488313227,-0.998015751405
1295960000000,,32478,,1295,952164766,"""map""",,,0.0363299623132,-0.0891320705414,0.0334447547793,,0.00330515190896,-0.00638977701853,0.0625409077152,-0.998016510048
1295996000000,,32479,,1295,992164376,"""map""",,,0.0357237458229,-0.0903963521123,0.0327176228166,,0.00326578856345,-0.00634455229762,0.0625351335969,-0.998017310838
1296028000000,,32480,,1296,24164376,"""map""",,,0.0355970188975,-0.0909496918321,0.0321106314659,,0.00330519076308,-0.00636079645036,0.0625582722168,-0.998015582817
1296060000000,,32481,,1296,56164376,"""map""",,,0.0357394255698,-0.0911957249045,0.0316674597561,,0.00345745909495,-0.00649600255257,0.0625889129756,-0.998012253216
1296096000000,,32482,,1296,88163985,"""map""",,,0.0361536033452,-0.0911295562983,0.0313953831792,,0.00344010513007,-0.00652422118474,0.0626284888664,-0.998009682258
1296128000000,,32483,,1296,120163985,"""map""",,,0.036829803139,-0.0907626524568,0.0312375314534,,0.00344713278779,-0.00654245266017,0.0625964151147,-0.998011578867
1296160000000,,32484,,1296,152163985,"""map""",,,0.0377294868231,-0.0900905057788,0.0311768781394,,0.00334196257132,-0.00651433544386,0.0625653950342,-0.998014023384
1296196000000,,32485,,1296,192163594,"""map""",,,0.0372377708554,-0.090975433588,0.0309169739485,,0.00334153155394,-0.00651843257851,0.0625586093916,-0.998014402706
1296228000000,,32486,,1296,224163594,"""map""",,,0.0372028127313,-0.0912854522467,0.0308430548757,,0.00325300094619,-0.00654133527477,0.0625365665898,-0.998015962139
1296260000000,,32487,,1296,256163594,"""map""",,,0.0374942049384,-0.0912840366364,0.0308526325971,,0.00319928297677,-0.00650400617325,0.0625496742597,-0.998015582817
1296296000000,,32488,,1296,288163202,"""map""",,,0.038083396852,-0.0910045430064,0.030893901363,,0.00317728660238,-0.00647451292819,0.0625243440037,-0.998017395132
1296328000000,,32489,,1296,320163202,"""map""",,,0.0389917716384,-0.0904185026884,0.0309128705412,,0.00316239526469,-0.00643785406033,0.0625281372201,-0.998017479425
1296360000000,,32490,,1296,352163202,"""map""",,,0.0401904396713,-0.0895907133818,0.0307458341122,,0.00319217481198,-0.0064993790749,0.0625793877879,-0.998013770503
1296396000000,,32491,,1296,392162811,"""map""",,,0.0398576892912,-0.0902253091335,0.0310219209641,,0.00315764567707,-0.00649934713549,0.0625745830472,-0.998014191971
1296428000000,,32492,,1296,424162811,"""map""",,,0.0400074869394,-0.0903155878186,0.0313804037869,,0.00310844927423,-0.00648171773437,0.0626360331523,-0.998010567342
1296460000000,,32493,,1296,456162811,"""map""",,,0.0404510349035,-0.0900493860245,0.0317422822118,,0.00307672685601,-0.00644764892207,0.0626592560658,-0.998009429377
1296492000000,,32494,,1296,488162419,"""map""",,,0.0411536134779,-0.0894822850823,0.0321464277804,,0.00307539873638,-0.00642869387086,0.0626443360814,-0.998010525195
1296528000000,,32495,,1296,520162419,"""map""",,,0.0421038381755,-0.0886277258396,0.0325082503259,,0.00302595933062,-0.00639653895353,0.062565732209,-0.998015793552
1296560000000,,32496,,1296,552162419,"""map""",,,0.0432806462049,-0.0874821767211,0.0327572003007,,0.00337728228892,-0.00647168217462,0.0625604638529,-0.998014486999
1296596000000,,32497,,1296,592162026,"""map""",,,0.0431973226368,-0.0881381481886,0.0331818088889,,0.00332125908444,-0.00650403004549,0.0625441951694,-0.998015498524
1296628000000,,32498,,1296,624162026,"""map""",,,0.0435170531273,-0.0882031321526,0.0334542579949,,0.00333819454428,-0.00649748839362,0.062541792799,-0.998015624964
1296660000000,,32499,,1296,656162026,"""map""",,,0.0441356450319,-0.0879168361425,0.0336606316268,,0.00327329350129,-0.0064458553761,0.0625691882505,-0.998014444852
1296696000000,,32500,,1296,688161634,"""map""",,,0.0450367256999,-0.0873161479831,0.0338824689388,,0.0032395100034,-0.006433023801,0.0625536360634,-0.998015582817
1296728000000,,32501,,1296,720161634,"""map""",,,0.0462468974292,-0.0864092558622,0.0342345237732,,0.00322546571859,-0.00639547178216,0.0625962886741,-0.998013222594
1296760000000,,32502,,1296,752161634,"""map""",,,0.0477334298193,-0.0852091610432,0.0345637686551,,0.00321462311253,-0.00640229002272,0.0625870163675,-0.99801381265
1296796000000,,32503,,1296,792161241,"""map""",,,0.0474352836609,-0.0856778547168,0.0354896262288,,0.00318685426627,-0.00642007928552,0.0626032007573,-0.998012801125
1296828000000,,32504,,1296,824161241,"""map""",,,0.0476040057838,-0.0856042951345,0.0362627953291,,0.00317100655732,-0.00630956810845,0.0625974687859,-0.998013896943
1296860000000,,32505,,1296,856161241,"""map""",,,0.0481119602919,-0.0851539522409,0.0369897522032,,0.0031645467296,-0.00625977572284,0.06269731467,-0.998007954238
1296896000000,,32506,,1296,888160848,"""map""",,,0.0489387921989,-0.0843216255307,0.0373729430139,,0.00313791090916,-0.00629674739933,0.062704563928,-0.998007364182
1296928000000,,32507,,1296,920160848,"""map""",,,0.0500579215586,-0.0831803455949,0.0378503575921,,0.00366898968245,-0.00669971325331,0.0626893910625,-0.99800390814
1296960000000,,32508,,1296,952160848,"""map""",,,0.0514019876719,-0.0817595794797,0.0383029133081,,0.00364605076624,-0.00670374601524,0.062690655468,-0.998003823847
1296996000000,,32509,,1296,992160454,"""map""",,,0.0509608201683,-0.0822101086378,0.0385585911572,,0.00360947191154,-0.00668225770795,0.0626590031847,-0.998006141923
1297028000000,,32510,,1297,24160454,"""map""",,,0.0510152690113,-0.0821403637528,0.0387884490192,,0.00352588680841,-0.00661885435981,0.0626594246532,-0.998006731979
1297060000000,,32511,,1297,56160454,"""map""",,,0.0514118634164,-0.0817132368684,0.0389530323446,,0.0034790570499,-0.00660947141766,0.0626744710781,-0.998006099776
1297096000000,,32512,,1297,88160060,"""map""",,,0.0521201267838,-0.0809690803289,0.0390547625721,,0.00349103383423,-0.00657442647776,0.0626720687078,-0.998006394804
