rosbagTimestamp,header,seq,stamp,secs,nsecs,frame_id,pose,position,x,y,z,orientation,x,y,z,w
665300000000,,14139,,665,296183543,"""map""",,,0.521930396557,-0.316283762455,0.0359654612839,,-0.00182811980111,0.000249030828281,0.0298467122415,-0.999552804823
665336000000,,14140,,665,328183543,"""map""",,,0.521706163883,-0.318275302649,0.0361046753824,,-0.00176636742406,0.000211166988614,0.0298484402623,-0.99955284697
665368000000,,14141,,665,360183099,"""map""",,,0.521628677845,-0.321078419685,0.0363705307245,,-0.00174842274476,0.000173080066995,0.0298733911966,-0.99955217262
665400000000,,14142,,665,392183099,"""map""",,,0.520889937878,-0.320116370916,0.036642998457,,-0.00172448160612,0.000156797142445,0.0298565324572,-0.999552762676
665436000000,,14143,,665,432183099,"""map""",,,0.519944906235,-0.318607836962,0.0370439253747,,-0.00169643617116,0.000136577521144,0.0298617586664,-0.999552594089
665468000000,,14144,,665,464182655,"""map""",,,0.519402503967,-0.318584173918,0.037319637835,,-0.00164172626907,0.00016304656519,0.0298494517866,-0.999553099851
665500000000,,14145,,665,496182655,"""map""",,,0.519024014473,-0.31950750947,0.0374855361879,,-0.00157894598636,0.000133803649358,0.0298188110278,-0.999554069228
665536000000,,14146,,665,528182655,"""map""",,,0.518816947937,-0.321266233921,0.0375725403428,,-0.0015846234632,0.000143903581841,0.0297793194307,-0.999555291487
665568000000,,14147,,665,560182211,"""map""",,,0.518771409988,-0.32382941246,0.0376070067286,,-0.001547096716,0.000118055627585,0.0298052818894,-0.999554532844
665600000000,,14148,,665,592182211,"""map""",,,0.51803034544,-0.322911173105,0.0374622531235,,-0.00151809005301,9.84384921907e-05,0.0298461643324,-0.999553352732
665636000000,,14149,,665,632182211,"""map""",,,0.517007887363,-0.321526378393,0.0372069664299,,-0.00146187574715,0.000101529494316,0.0298534135904,-0.999553268438
665668000000,,14150,,665,664181766,"""map""",,,0.51642203331,-0.3215739429,0.0370032861829,,-0.00146887936799,0.000155014997529,0.029856574604,-0.999553141998
665700000000,,14151,,665,696181766,"""map""",,,0.516048848629,-0.322554051876,0.0368763394654,,-0.00144343732411,0.000131546776171,0.0298577125689,-0.999553099851
665736000000,,14152,,665,728181766,"""map""",,,0.515820741653,-0.324385434389,0.0366099774837,,-0.00144553828688,0.000123758952296,0.0298613371979,-0.999553015557
665768000000,,14153,,665,760181321,"""map""",,,0.515737950802,-0.327012717724,0.0364415496588,,-0.00150013343759,0.000118049700684,0.0299192469678,-0.99955124539
665800000000,,14154,,665,792181321,"""map""",,,0.515784502029,-0.330358564854,0.036260087043,,-0.00145582137706,8.76283194561e-05,0.0299251896734,-0.999551118949
665836000000,,14155,,665,832181321,"""map""",,,0.516016602516,-0.335517406464,0.0358480848372,,-0.00147334697509,6.51333445621e-05,0.0299339983647,-0.999550823921
665868000000,,14156,,665,864180876,"""map""",,,0.516323208809,-0.340387165546,0.0352293327451,,-0.00147584071851,6.2756986705e-05,0.0300054794198,-0.999548632285
665900000000,,14157,,665,896180876,"""map""",,,0.515701889992,-0.3393625319,0.0346827916801,,-0.00151024172536,0.000140334887993,0.030019050705,-0.999548210817
665936000000,,14158,,665,928180876,"""map""",,,0.51525747776,-0.339401215315,0.0341365262866,,-0.00150882844769,0.000101478992184,0.0300351086543,-0.999547747201
665968000000,,14159,,665,960180430,"""map""",,,0.514993011951,-0.340395063162,0.0335854925215,,-0.00141565818808,0.000132363124406,0.030066086588,-0.999546946411
666000000000,,14160,,665,992180430,"""map""",,,0.51486903429,-0.342246025801,0.0330521315336,,-0.00139640926139,0.000125458614512,0.0300554234353,-0.999547241439
666036000000,,14161,,666,32180430,"""map""",,,0.514940142632,-0.345697164536,0.03233037889,,-0.00134109757309,0.000108986481893,0.0300474155341,-0.999547578614
666068000000,,14162,,666,64179984,"""map""",,,0.515139341354,-0.349283993244,0.0316531583667,,-0.00127539705707,0.000101212940203,0.0300345607453,-0.999548042229
666100000000,,14163,,666,96179984,"""map""",,,0.514165759087,-0.347088515759,0.030866291374,,-0.0012138697376,2.41908093207e-06,0.0300214109286,-0.999548547991
666136000000,,14164,,666,128179984,"""map""",,,0.513387620449,-0.346057683229,0.0300788097084,,-0.00120148004586,-3.09245915503e-05,0.0299918659877,-0.999549433075
666168000000,,14165,,666,160191538,"""map""",,,0.512836396694,-0.3460906744,0.0293079577386,,-0.00118429738488,-1.50091348356e-05,0.0300448867232,-0.999547915789
666200000000,,14166,,666,192191538,"""map""",,,0.512461543083,-0.347105979919,0.0285350587219,,-0.00110685880691,0.000112698944239,0.0300829031805,-0.999546819971
666236000000,,14167,,666,232191538,"""map""",,,0.51218110323,-0.34955355525,0.0274082031101,,-0.00108069495709,0.000231270006378,0.0300927655431,-0.999546567089
666268000000,,14168,,666,264191092,"""map""",,,0.512111842632,-0.35237711668,0.0266067236662,,-0.00105652851392,0.000268513167847,0.0300990875704,-0.999546398502
666300000000,,14169,,666,296191092,"""map""",,,0.511263251305,-0.349576592445,0.0260389707983,,-0.000992176161981,0.000249565895694,0.0300798264606,-0.999547030705
666336000000,,14170,,666,328191092,"""map""",,,0.510603547096,-0.347970247269,0.025477565825,,-0.000953874184421,0.000236543466162,0.0301025014651,-0.999546356355
666368000000,,14171,,666,360190645,"""map""",,,0.510093569756,-0.347455203533,0.0249879956245,,-0.000891266111093,0.000240833142769,0.0300764125659,-0.999547157145
666400000000,,14172,,666,392190645,"""map""",,,0.509726583958,-0.347951292992,0.0245248638093,,-0.000899229437078,0.000137017264239,0.0300920068998,-0.999546735677
666436000000,,14173,,666,432190645,"""map""",,,0.509495973587,-0.34983304143,0.0239600017667,,-0.00090530681507,0.000101519657307,0.0300862327816,-0.999546946411
666468000000,,14174,,666,464190198,"""map""",,,0.509452462196,-0.352245926857,0.0234151482582,,-0.000894668028544,0.000112781097666,0.0300608603788,-0.999547705054
666500000000,,14175,,666,496190198,"""map""",,,0.508762478828,-0.349127978086,0.0231899283826,,-0.000912044754363,0.00011193120482,0.0300997619199,-0.999546482796
666536000000,,14176,,666,528190198,"""map""",,,0.508283555508,-0.347230434418,0.022888308391,,-0.000901931486354,4.71091048557e-05,0.0301024593182,-0.999546482796
666568000000,,14177,,666,560189750,"""map""",,,0.507980406284,-0.346402138472,0.0224874522537,,-0.000919927984873,5.33935539363e-05,0.0300748531325,-0.999547283586
666600000000,,14178,,666,592189750,"""map""",,,0.50781494379,-0.346574902534,0.0220252685249,,-0.000899035207607,-5.91261838777e-06,0.0300665502033,-0.99954749432
666636000000,,14179,,666,632189750,"""map""",,,0.507797062397,-0.348089516163,0.0214106999338,,-0.000882184700009,-3.58354814234e-05,0.0300277751027,-0.999548674432
666668000000,,14180,,666,664189302,"""map""",,,0.507934570312,-0.350230187178,0.0208759289235,,-0.000881954250591,-5.79790816634e-05,0.0299677158435,-0.999550486746
666700000000,,14181,,666,696189302,"""map""",,,0.507540285587,-0.346724241972,0.0204271003604,,-0.000860344194879,-7.20331623263e-05,0.0299975136654,-0.999549601663
666736000000,,14182,,666,728189302,"""map""",,,0.507276952267,-0.344447314739,0.0199059825391,,-0.000845163673835,-7.20162048052e-05,0.0300222960124,-0.999548927313
666768000000,,14183,,666,760188854,"""map""",,,0.507199525833,-0.343293517828,0.0194601938128,,-0.000871403420915,-9.48753136531e-05,0.0300223381592,-0.999548885166
666800000000,,14184,,666,792188854,"""map""",,,0.507244884968,-0.343137860298,0.0189665164798,,-0.00083080616879,-7.8831070328e-05,0.0300563928128,-0.999547873642
666836000000,,14185,,666,832188854,"""map""",,,0.507454276085,-0.344243824482,0.0180640239269,,-0.000832319010161,2.59450072533e-05,0.0300405034509,-0.999548337257
666868000000,,14186,,666,864188405,"""map""",,,0.507778584957,-0.346047580242,0.01736183092,,-0.000797995958519,0.000104113046739,0.0301033444021,-0.999546524943
666900000000,,14187,,666,896188405,"""map""",,,0.507331252098,-0.342724323273,0.0168250445276,,-0.000715195428851,4.94553343015e-05,0.0301270730778,-0.99954589274
666936000000,,14188,,666,928188405,"""map""",,,0.507063627243,-0.340581446886,0.0162344519049,,-0.000661976944856,3.88453796768e-05,0.0301390427827,-0.999545555565
666968000000,,14189,,666,960187956,"""map""",,,0.506955564022,-0.339500725269,0.0156104564667,,-0.0006659105341,9.22605626843e-05,0.0301157777224,-0.999546229915
667000000000,,14190,,666,992187956,"""map""",,,0.506982266903,-0.339392900467,0.0149227380753,,-0.000594154372057,0.000131597731052,0.0301476828867,-0.999545260537
667036000000,,14191,,667,32187956,"""map""",,,0.507195174694,-0.340499669313,0.0140284840018,,-0.000561766741564,0.000137588428123,0.0301539627671,-0.999545134097
667068000000,,14192,,667,64187507,"""map""",,,0.507537305355,-0.34230312705,0.0132744787261,,-0.000519807310704,4.41197861183e-05,0.0302077421458,-0.999543532516
667100000000,,14193,,667,96187507,"""map""",,,0.507243037224,-0.338789671659,0.012998838909,,-0.000465571642978,-4.66766057494e-06,0.0301989756013,-0.999543785397
667136000000,,14194,,667,128187507,"""map""",,,0.507118523121,-0.33647158742,0.0127798374742,,-0.000451611816498,1.11125887205e-05,0.0302067727683,-0.999543574663
667168000000,,14195,,667,160187057,"""map""",,,0.507151961327,-0.335247069597,0.0123772667721,,-0.000400276378785,-1.70773556014e-05,0.0302130526487,-0.999543448223
667200000000,,14196,,667,192187057,"""map""",,,0.507363975048,-0.335008472204,0.0117730731145,,-0.000371097681334,-4.1505683404e-05,0.0302061405656,-0.99954361681
667236000000,,14197,,667,232187057,"""map""",,,0.50780069828,-0.335973739624,0.0108876489103,,-0.000374436121268,-6.48673954783e-05,0.0302206390815,-0.999543195342
667268000000,,14198,,667,264186607,"""map""",,,0.508252978325,-0.337658941746,0.0100992424414,,-0.000404241537006,-7.60942005119e-05,0.0302285205421,-0.999542984607
667300000000,,14199,,667,296186607,"""map""",,,0.508046448231,-0.334169209003,0.0096200639382,,-0.000399272787824,-0.000150958394229,0.0302452106941,-0.999542478845
667336000000,,14200,,667,328186607,"""map""",,,0.508029878139,-0.331867188215,0.0089203864336,,-0.000396169458569,-0.000176705076688,0.03023884652,-0.999542605286
667368000000,,14201,,667,360186156,"""map""",,,0.50814563036,-0.330650389194,0.00816349126399,,-0.000343402303937,-0.000205417905349,0.0302034853141,-0.999543743251
667400000000,,14202,,667,400186156,"""map""",,,0.508459985256,-0.330537885427,0.00729433400556,,-0.000302220405774,-0.000235400225179,0.0301772699743,-0.999544501894
667436000000,,14203,,667,432186156,"""map""",,,0.508857667446,-0.331454664469,0.00660669058561,,-0.000295400745224,-0.000251681647424,0.03017318173,-0.999544628334
667468000000,,14204,,667,464185706,"""map""",,,0.509392738342,-0.333161085844,0.0059908349067,,-0.000282566809908,-0.000304449104318,0.0302073628242,-0.999543574663
667500000000,,14205,,667,496185706,"""map""",,,0.5087864995,-0.32977643609,0.00605863984674,,-0.000282477071643,-0.000254227647376,0.0301875959522,-0.999544206866
667536000000,,14206,,667,528185706,"""map""",,,0.508362472057,-0.327550679445,0.00603155093268,,-0.000256559720687,-0.000250781486538,0.0301877223928,-0.999544164719
667568000000,,14207,,667,560185255,"""map""",,,0.508122444153,-0.326376527548,0.00565498834476,,-0.000200925397034,-5.22049942867e-05,0.0302247273258,-0.999543153195
667600000000,,14208,,667,592185255,"""map""",,,0.508101165295,-0.32615801692,0.00556289218366,,-0.000117810023925,-7.8226493028e-05,0.0302057612439,-0.999543743251
667636000000,,14209,,667,632185255,"""map""",,,0.508319675922,-0.327110439539,0.00538264308125,,-0.000130453500966,-0.000112247994311,0.0302358540938,-0.99954281602
667668000000,,14210,,667,664184803,"""map""",,,0.508655905724,-0.328773528337,0.00527476659045,,-7.34466020631e-05,-0.000150987321311,0.0302059719782,-0.999543701104
667700000000,,14211,,667,696184803,"""map""",,,0.508199632168,-0.325454354286,0.0052231438458,,-4.64387065465e-05,-0.000189950865996,0.030192948602,-0.999544080425
667736000000,,14212,,667,728184803,"""map""",,,0.507918655872,-0.323270082474,0.0051775961183,,1.05857119551e-05,-0.000184730089773,0.0301539206203,-0.999545260537
667768000000,,14213,,667,760184352,"""map""",,,0.507825672626,-0.322115838528,0.00499673932791,,4.11799302473e-05,-0.000231763287084,0.0301352074195,-0.999545850593
667800000000,,14214,,667,792184352,"""map""",,,0.507892727852,-0.321932137012,0.00462116766721,,7.09982699219e-05,-0.000193965157811,0.030138705608,-0.999545724152
667836000000,,14215,,667,832184352,"""map""",,,0.508197247982,-0.322967290878,0.00405818875879,,7.89165576371e-05,-0.000226441455148,0.0301386213143,-0.999545724152
667868000000,,14216,,667,864183900,"""map""",,,0.508618593216,-0.324707299471,0.00359678058885,,0.00010635149097,-0.000236201753591,0.0301533305644,-0.999545260537
667900000000,,14217,,667,896183900,"""map""",,,0.508225560188,-0.32177054882,0.00348240230232,,0.000122177570848,-0.000227824306007,0.0302103973973,-0.999543574663
667936000000,,14218,,667,928183900,"""map""",,,0.508019506931,-0.319932222366,0.00334555306472,,0.000132159330605,-0.000226119257103,0.0302370763524,-0.999542773873
667968000000,,14219,,667,960183448,"""map""",,,0.508035302162,-0.319077849388,0.00310083222575,,0.000108932995731,-0.000249723226093,0.0302271296961,-0.999543111048
668000000000,,14220,,667,992183448,"""map""",,,0.50819671154,-0.3191421628,0.00288584735245,,0.000168772169799,-0.000234788308709,0.0302755564251,-0.999541551614
668036000000,,14221,,668,32183448,"""map""",,,0.508594334126,-0.320391356945,0.00253527564928,,0.000166545476471,-0.00023634452141,0.0302403638066,-0.999542605286
668068000000,,14222,,668,64182995,"""map""",,,0.509079933167,-0.322250366211,0.00209577940404,,0.000182771799636,-0.000301587192077,0.0302400266318,-0.999542605286
668100000000,,14223,,668,96182995,"""map""",,,0.508737921715,-0.31941986084,0.00197236938402,,0.000264985954585,-0.00032910684356,0.0302390994011,-0.999542605286
668136000000,,14224,,668,128182995,"""map""",,,0.508606374264,-0.317664533854,0.00193218200002,,0.000295464904437,-0.000351053634172,0.0302551994972,-0.999542183817
668168000000,,14225,,668,160182542,"""map""",,,0.508657813072,-0.316886395216,0.00179992301855,,0.000336492219567,-0.000311432146931,0.0302122518586,-0.999543406076
668200000000,,14226,,668,192182542,"""map""",,,0.508861482143,-0.317012548447,0.00148752809037,,0.000374568077124,-0.000133820545141,0.0302600885317,-0.99954201523
668236000000,,14227,,668,232182542,"""map""",,,0.50935781002,-0.318303078413,0.0012136278674,,0.000378510628747,-0.000161356215204,0.0302815834244,-0.99954134088
668268000000,,14228,,668,264182089,"""map""",,,0.509926497936,-0.320165514946,0.00100653572008,,0.000434468143407,-0.00019231159371,0.0303324125237,-0.9995397393
668300000000,,14229,,668,296182089,"""map""",,,0.509647905827,-0.317272096872,0.00132986344397,,0.000469116320531,-0.000209331007685,0.0302955761781,-0.999540919412
668336000000,,14230,,668,328182089,"""map""",,,0.509593486786,-0.315462112427,0.00162582763005,,0.00048751324498,-0.000231211447366,0.0302963769682,-0.999540877265
668372000000,,14231,,668,360181636,"""map""",,,0.509721457958,-0.314619153738,0.00170546048321,,0.000517253063512,-0.000241266814907,0.0303357421247,-0.999539612859
668400000000,,14232,,668,392181636,"""map""",,,0.510025382042,-0.314681231976,0.0017684524646,,0.000547795328816,-0.000329009350676,0.030334562013,-0.999539612859
668436000000,,14233,,668,432181636,"""map""",,,0.510627508163,-0.315896749496,0.00185693858657,,0.00053673699799,-0.000343597973974,0.0303295043912,-0.999539781447
668468000000,,14234,,668,464181182,"""map""",,,0.511308729649,-0.317646920681,0.00195881072432,,0.00060615271343,-0.000364951259066,0.0303503670812,-0.999539149244
668500000000,,14235,,668,496181182,"""map""",,,0.511112809181,-0.314693927765,0.00177387334406,,0.000620256082034,-0.000335403457707,0.030307840911,-0.999540371503
668536000000,,14236,,668,528181182,"""map""",,,0.511155724525,-0.312771171331,0.00153635744937,,0.000683074014975,-0.000351878317112,0.0303322017895,-0.999539612859
668568000000,,14237,,668,560180728,"""map""",,,0.511416137218,-0.31179240346,0.00129987043329,,0.000728427378434,-0.000372942048415,0.030305059219,-0.999540371503
668600000000,,14238,,668,592180728,"""map""",,,0.511856138706,-0.311722427607,0.00104098545853,,0.000758625286699,-0.000372855840823,0.0302914036401,-0.999540792971
668636000000,,14239,,668,632180728,"""map""",,,0.512627899647,-0.312757819891,0.000713770510629,,0.000797066505264,-0.000388232443495,0.0303104540156,-0.999540118622
668668000000,,14240,,668,664180274,"""map""",,,0.513450860977,-0.314374923706,0.000519142253324,,0.000797631845144,-0.000387642655149,0.030308683848,-0.999540202915
668700000000,,14241,,668,696180274,"""map""",,,0.513378024101,-0.311383336782,0.000708067847881,,0.000852103765712,-0.000355687853034,0.0302509426655,-0.999541888789
668736000000,,14242,,668,728180274,"""map""",,,0.513529479504,-0.3093996346,0.000897182908375,,0.000881167804392,-0.000335680530019,0.0302816255713,-0.999540961559
668768000000,,14243,,668,760179819,"""map""",,,0.513886928558,-0.308335393667,0.00110071292147,,0.000974207692762,-0.000372191492892,0.0302387622263,-0.999542183817
668800000000,,14244,,668,792179819,"""map""",,,0.514392793179,-0.30808916688,0.00111249054316,,0.00104535326057,-0.000153525369852,0.0302619851399,-0.999541467321
668836000000,,14245,,668,832179819,"""map""",,,0.515257716179,-0.308842420578,0.00110414205119,,0.00102922060764,-0.0001526663397,0.0302782116765,-0.999541003705
668868000000,,14246,,668,864179365,"""map""",,,0.516128540039,-0.310237109661,0.00116795755457,,0.00106698171437,-0.000181026394301,0.0303449722846,-0.999538896363
668900000000,,14247,,668,896179365,"""map""",,,0.515932559967,-0.307030856609,0.00150240189396,,0.00107834177177,-0.000238952051541,0.0302962083808,-0.999540371503
668936000000,,14248,,668,928179365,"""map""",,,0.515984535217,-0.304822355509,0.00174397462979,,0.00114303496164,-0.000336810201384,0.0303116762742,-0.999539823594
668968000000,,14249,,668,960178910,"""map""",,,0.516236007214,-0.303536981344,0.00188450806309,,0.00116328273572,-0.00042094304891,0.0303137836167,-0.9995397393
669000000000,,14250,,668,992178910,"""map""",,,0.516681730747,-0.303093492985,0.00197318592109,,0.00119551857171,-0.000449324917797,0.030430825415,-0.999536072524
669036000000,,14251,,669,32178910,"""map""",,,0.517526388168,-0.303621470928,0.00212253071368,,0.00116899124647,-0.000451922217336,0.0304408142181,-0.99953586179
669068000000,,14252,,669,64178454,"""map""",,,0.518400549889,-0.304787069559,0.00217313319445,,0.00119192497664,-0.00046826194135,0.0304590216566,-0.99953518744
669100000000,,14253,,669,96178454,"""map""",,,0.51806306839,-0.301613897085,0.00241376692429,,0.00122691072986,-0.000493868374408,0.0304722136202,-0.999534723825
669136000000,,14254,,669,128178454,"""map""",,,0.517990469933,-0.299404144287,0.00269259884953,,0.00127345352759,-0.000502770579067,0.0304378639387,-0.999535777496
669168000000,,14255,,669,160177999,"""map""",,,0.518174529076,-0.298090666533,0.0029753993731,,0.00131305287899,-0.000454558124047,0.0304396762532,-0.999535735349
669200000000,,14256,,669,192177999,"""map""",,,0.518575906754,-0.297590494156,0.00319968257099,,0.00131053485175,-0.000402446920904,0.0304776505637,-0.999534513091
669236000000,,14257,,669,232177999,"""map""",,,0.519348800182,-0.298047989607,0.00357724749483,,0.00131351143177,-0.000414493058203,0.0304568721674,-0.999535145294
669268000000,,14258,,669,264177543,"""map""",,,0.520177900791,-0.299209088087,0.00390756456181,,0.00132259860511,-0.00041361793487,0.0304567457268,-0.99953518744
669300000000,,14259,,669,296177543,"""map""",,,0.520028114319,-0.296316623688,0.00420471094549,,0.00136092560737,-0.000417028660354,0.0304595695657,-0.999535061
669336000000,,14260,,669,328177543,"""map""",,,0.52011692524,-0.294383585453,0.00449891481549,,0.00142871654945,-0.000451185347191,0.0304719185923,-0.999534513091
669368000000,,14261,,669,360177087,"""map""",,,0.520445644855,-0.29329264164,0.00474379351363,,0.0013950813887,-0.000489686164033,0.0304245033877,-0.99953598823
669400000000,,14262,,669,392177087,"""map""",,,0.521027266979,-0.292985439301,0.00494570098817,,0.00142922733303,-0.000535157592174,0.0304180549199,-0.999536114671
669436000000,,14263,,669,432177087,"""map""",,,0.522069871426,-0.293565690517,0.00508688064292,,0.00141991399081,-0.00056062173846,0.0304171276892,-0.999536198965
669468000000,,14264,,669,464176631,"""map""",,,0.523082792759,-0.294746220112,0.00510463677347,,0.00142117580324,-0.000535841161374,0.0304311625898,-0.999535735349
669500000000,,14265,,669,496176631,"""map""",,,0.522768437862,-0.291775524616,0.00542037375271,,0.00145805450148,-0.000545538517367,0.0304317526457,-0.999535651056
669536000000,,14266,,669,528176631,"""map""",,,0.522720515728,-0.28976380825,0.00574834970757,,0.00150116002616,-0.000576457675925,0.0304010275931,-0.99953653614
669568000000,,14267,,669,568176175,"""map""",,,0.523073673248,-0.288469314575,0.00630106357858,,0.00148434396867,-0.000554424217254,0.0303907437621,-0.999536873314
669600000000,,14268,,669,592176175,"""map""",,,0.52347868681,-0.28826457262,0.00666531361639,,0.00144327017728,-0.000609209234577,0.0303202320845,-0.999539022804
669636000000,,14269,,669,632176175,"""map""",,,0.524418532848,-0.288795411587,0.00726728700101,,0.00144363632803,-0.000643351803865,0.0303085995543,-0.999539359978
669668000000,,14270,,669,664175718,"""map""",,,0.525393366814,-0.289940625429,0.00773053988814,,0.00149566714758,-0.000620914492775,0.0303107068967,-0.999539191391
669700000000,,14271,,669,696175718,"""map""",,,0.525160133839,-0.287079304457,0.00839244294912,,0.00155279917637,-0.00058151344559,0.0302891277103,-0.999539865741
669736000000,,14272,,669,728175718,"""map""",,,0.525251269341,-0.285147935152,0.0090766614303,,0.00160797018309,-0.000477665133743,0.0303042584289,-0.999539317832
669768000000,,14273,,669,760175261,"""map""",,,0.525617599487,-0.284068465233,0.00980199035257,,0.00161523158295,-0.000523089928702,0.0302960819403,-0.999539570713
669800000000,,14274,,669,792175261,"""map""",,,0.526244938374,-0.283750802279,0.0104889422655,,0.00165515938342,-0.000554326752667,0.0303026989955,-0.999539275685
669836000000,,14275,,669,832175261,"""map""",,,0.52735555172,-0.284339666367,0.0112500973046,,0.00164408710998,-0.000595899679639,0.0303068293867,-0.999539191391
669868000000,,14276,,669,864174804,"""map""",,,0.528484582901,-0.285532832146,0.0117349559441,,0.0016342922894,-0.000626479975889,0.0302770737116,-0.999540034328
669900000000,,14277,,669,896174804,"""map""",,,0.528295636177,-0.282667547464,0.0121051920578,,0.0016260172249,-0.000624680626498,0.0303209064341,-0.999538685629
669936000000,,14278,,669,928174804,"""map""",,,0.528432071209,-0.280754894018,0.0124569050968,,0.00161908608512,-0.000659457332989,0.0303425277674,-0.999538053426
669968000000,,14279,,669,960174347,"""map""",,,0.528890252113,-0.279658704996,0.0126844299957,,0.00161536773703,-0.000629686881848,0.0303621681988,-0.99953746337
670000000000,,14280,,670,174347,"""map""",,,0.5298858881,-0.279308885336,0.0127863585949,,0.0016208544006,-0.000625472690905,0.0303265962586,-0.999538559188
670036000000,,14281,,670,32174347,"""map""",,,0.530963182449,-0.279763102531,0.0128273386508,,0.00164865712075,-0.000664468445104,0.0303311059714,-0.999538348454
670068000000,,14282,,670,64185890,"""map""",,,0.53226006031,-0.280835479498,0.0128249032423,,0.00162231785113,-0.00068560010939,0.0303296308317,-0.999538390601
670100000000,,14283,,670,96185890,"""map""",,,0.53239262104,-0.278033256531,0.0126708503813,,0.00161168425064,-0.000669521827545,0.0303463631306,-0.999537926986
670136000000,,14284,,670,128185890,"""map""",,,0.532814145088,-0.276144862175,0.0126297129318,,0.0015978597139,-0.000647758289804,0.0303168603366,-0.999538854216
670168000000,,14285,,670,160185432,"""map""",,,0.533505320549,-0.27506929636,0.0126304412261,,0.00170079170222,-0.000663029772308,0.0302914879338,-0.999539444272
670200000000,,14286,,670,192185432,"""map""",,,0.534444928169,-0.274739891291,0.0127314478159,,0.0017071246778,-0.000700161722073,0.0302678014049,-0.999540118622
670236000000,,14287,,670,232185432,"""map""",,,0.53594326973,-0.275279730558,0.0129956360906,,0.00171898119544,-0.000723373193392,0.0302541879729,-0.999540497943
670268000000,,14288,,670,264184974,"""map""",,,0.537425816059,-0.276364386082,0.0131928483024,,0.00175054144708,-0.000759048854295,0.0302603414128,-0.999540245062
670300000000,,14289,,670,296184974,"""map""",,,0.537406921387,-0.273675620556,0.0140056768432,,0.00180329917629,-0.000769150515457,0.0302830164173,-0.999539486419
670336000000,,14290,,670,328184974,"""map""",,,0.537707924843,-0.271826326847,0.0147451469675,,0.00181781378536,-0.000819011101585,0.0302557474063,-0.999540202915
670368000000,,14291,,670,360184516,"""map""",,,0.538320302963,-0.27076125145,0.0154179902747,,0.00181734152663,-0.000874369752333,0.0303189255322,-0.999538222013
670400000000,,14292,,670,392184516,"""map""",,,0.539228618145,-0.270406723022,0.0159823279828,,0.00190662526234,-0.000874508622906,0.0303656663872,-0.99953666258
670436000000,,14293,,670,432184516,"""map""",,,0.540736734867,-0.2708517313,0.016696697101,,0.00188797096018,-0.000856793487528,0.0303640648069,-0.999536746874
670468000000,,14294,,670,464184057,"""map""",,,0.542208969593,-0.271852582693,0.0173075534403,,0.00183910683421,-0.000867518996135,0.0303745172254,-0.999536578286
670500000000,,14295,,670,496184057,"""map""",,,0.541983187199,-0.269012629986,0.01776089333,,0.00187405723181,-0.000900000921969,0.0303745593722,-0.999536451846
670536000000,,14296,,670,528184057,"""map""",,,0.542113363743,-0.267008751631,0.0181563477963,,0.0018632332708,-0.000929253592491,0.0304075603546,-0.999535482468
670568000000,,14297,,670,560183598,"""map""",,,0.542565822601,-0.265742570162,0.0185326915234,,0.00188790629934,-0.00092942876533,0.03041190148,-0.999535271734
670600000000,,14298,,670,592183598,"""map""",,,0.543322563171,-0.265173077583,0.0189181677997,,0.0019979738232,-0.000939879166968,0.0304319633799,-0.999534428797
670636000000,,14299,,670,632183598,"""map""",,,0.54463660717,-0.265309333801,0.0194751769304,,0.00204751810217,-0.00092265756954,0.0304335649601,-0.99953426021
670668000000,,14300,,670,664183139,"""map""",,,0.546004891396,-0.266084700823,0.0199847891927,,0.00210570540738,-0.000941761986876,0.0304518566924,-0.99953358586
670700000000,,14301,,670,696183139,"""map""",,,0.545713245869,-0.2628942132,0.0205059777945,,0.00215408430952,-0.000932078501476,0.0304883137164,-0.999532363602
670736000000,,14302,,670,728183139,"""map""",,,0.54576253891,-0.260550171137,0.020783232525,,0.00217447288865,-0.000916951363696,0.0304732672914,-0.999532827217
670768000000,,14303,,670,760182680,"""map""",,,0.546142756939,-0.258974313736,0.0209734197706,,0.00222766933198,-0.000911821096184,0.0304759225429,-0.999532616483
670800000000,,14304,,670,792182680,"""map""",,,0.546849548817,-0.258091211319,0.0211309697479,,0.00228990750909,-0.000899938524877,0.03051929165,-0.999531225637
670836000000,,14305,,670,832182680,"""map""",,,0.548154950142,-0.257853001356,0.0214809365571,,0.00226545249994,-0.000947546312562,0.0305038237566,-0.999531689252
670868000000,,14306,,670,864182220,"""map""",,,0.549495816231,-0.258330672979,0.0217542611063,,0.00223316019377,-0.000921302243784,0.0304983025195,-0.999531899986
670900000000,,14307,,670,896182220,"""map""",,,0.551097214222,-0.259336054325,0.0220417957753,,0.00222902461658,-0.000986055196574,0.0305662432393,-0.999529792644
670936000000,,14308,,670,928182220,"""map""",,,0.552938878536,-0.260828644037,0.022342024371,,0.00224230165588,-0.00104264149776,0.0306035432002,-0.999528570385
670968000000,,14309,,670,960181760,"""map""",,,0.5550314188,-0.262758672237,0.0225715450943,,0.00213377763687,-0.000998559680851,0.0306457321955,-0.999527516714
671000000000,,14310,,670,992181760,"""map""",,,0.555532813072,-0.261652648449,0.0228336844593,,0.00209423747215,-0.000925995484697,0.0306124783321,-0.999528738973
671040000000,,14311,,671,32181760,"""map""",,,0.555940330029,-0.259842813015,0.02340102382,,0.00213039909775,-0.000951761738275,0.030616397989,-0.999528528238
671068000000,,14312,,671,64181300,"""map""",,,0.556703031063,-0.25916916132,0.0239932723343,,0.00212811411294,-0.000867438900659,0.0306281148129,-0.999528275357
671100000000,,14313,,671,96181300,"""map""",,,0.557812690735,-0.25912553072,0.0246516428888,,0.00216295523331,-0.000886113082636,0.0306949175678,-0.999526125868
671136000000,,14314,,671,128181300,"""map""",,,0.559241890907,-0.259632080793,0.0253951586783,,0.00220220798451,-0.000921159298466,0.0306591770402,-0.999527053099
671168000000,,14315,,671,168180839,"""map""",,,0.561405539513,-0.260933995247,0.0263604559004,,0.00224637524757,-0.000959398343867,0.030698752931,-0.999525746546
671200000000,,14316,,671,200180839,"""map""",,,0.56110471487,-0.258347958326,0.0269161649048,,0.0022235588618,-0.000945625667504,0.0307005652455,-0.999525704399
671236000000,,14317,,671,232180839,"""map""",,,0.561220765114,-0.256523400545,0.0273989848793,,0.00221732964814,-0.000936098874538,0.030701239595,-0.999525704399
671268000000,,14318,,671,264180379,"""map""",,,0.561726987362,-0.2553781569,0.0278416015208,,0.00221625675566,-0.000917734167321,0.0306874575756,-0.999526168015
671300000000,,14319,,671,296180379,"""map""",,,0.562607645988,-0.254877537489,0.0282061100006,,0.00227615125518,-0.000935997376366,0.0306874997224,-0.999526041574
671336000000,,14320,,671,328180379,"""map""",,,0.563816666603,-0.254971772432,0.0285725239664,,0.00227381506854,-0.000948400074357,0.0306359962735,-0.999527558861
671372000000,,14321,,671,360179918,"""map""",,,0.565329194069,-0.255580216646,0.0289619956166,,0.00227910779075,-0.00092387587688,0.0306450156991,-0.99952730598
671400000000,,14322,,671,392179918,"""map""",,,0.565180361271,-0.253760665655,0.0289067514241,,0.00228651378228,-0.000700872291597,0.0306910400577,-0.999526041574
671436000000,,14323,,671,432179918,"""map""",,,0.564811766148,-0.251314461231,0.0289595648646,,0.00230177143535,-0.000735919536404,0.0306477130974,-0.999527390273
671468000000,,14324,,671,464179457,"""map""",,,0.565020620823,-0.250152647495,0.029049333185,,0.00234923158559,-0.000769803133064,0.0306830743033,-0.999526168015
671500000000,,14325,,671,496179457,"""map""",,,0.565612435341,-0.249610885978,0.0291677042842,,0.00238526640021,-0.000767049840795,0.0307070137133,-0.999525325078
671536000000,,14326,,671,528179457,"""map""",,,0.566589713097,-0.249628439546,0.0292907580733,,0.0023871352672,-0.000798522423694,0.0307161174326,-0.999524987903
671568000000,,14327,,671,560178995,"""map""",,,0.567896604538,-0.250157505274,0.0296511296183,,0.00246787529342,-0.000812509415135,0.0307148108803,-0.999524861462
671600000000,,14328,,671,592178995,"""map""",,,0.567494452,-0.24825066328,0.0300837326795,,0.00251504510785,-0.000744603021968,0.0307100061395,-0.999524945756
671636000000,,14329,,671,632178995,"""map""",,,0.56682485342,-0.245708853006,0.0306756719947,,0.00254386046366,-0.000701673410991,0.0307250525644,-0.999524397847
671668000000,,14330,,671,664178534,"""map""",,,0.566791653633,-0.244449347258,0.0312510170043,,0.00258006929866,-0.000692456669012,0.0306640660746,-0.999526210162
671700000000,,14331,,671,696178534,"""map""",,,0.567182183266,-0.243782564998,0.031671307981,,0.00262193947616,-0.0006991752224,0.0307074773286,-0.999524777169
671736000000,,14332,,671,728178534,"""map""",,,0.567965805531,-0.243656769395,0.0321740582585,,0.0025919021087,-0.000699432219394,0.0306522649571,-0.999526547336
671768000000,,14333,,671,760178072,"""map""",,,0.5691229105,-0.244015172124,0.0327406525612,,0.00265699766927,-0.000691103853956,0.0307074773286,-0.999524692875
671800000000,,14334,,671,792178072,"""map""",,,0.568691909313,-0.241929382086,0.033015254885,,0.00267159175643,-0.000653042862527,0.0307018296509,-0.999524861462
671836000000,,14335,,671,832178072,"""map""",,,0.568053841591,-0.23906481266,0.0333040654659,,0.00268762978474,-0.000654307432618,0.030707098007,-0.999524650728
671868000000,,14336,,671,864177610,"""map""",,,0.56809681654,-0.237508669496,0.0336004346609,,0.00272532750655,-0.00068862286984,0.030674265612,-0.999525535812
671900000000,,14337,,671,896177610,"""map""",,,0.56856918335,-0.236569702625,0.0340195707977,,0.00272064632524,-0.000695138097612,0.0306817256042,-0.999525240784
671936000000,,14338,,671,928177610,"""map""",,,0.569419145584,-0.236185878515,0.034536357969,,0.0027763477484,-0.000684338214635,0.0306971513507,-0.999524650728
671968000000,,14339,,671,960177147,"""map""",,,0.570615649223,-0.236259549856,0.0350617803633,,0.00278253057583,-0.000653317393269,0.030648387447,-0.999526210162
672000000000,,14340,,671,992177147,"""map""",,,0.570337295532,-0.234140664339,0.0354945845902,,0.00278580436522,-0.000635728163369,0.0306215820513,-0.999526968805
672036000000,,14341,,672,32177147,"""map""",,,0.56988543272,-0.231332018971,0.036111485213,,0.00281629900952,-0.000657615466318,0.030603880375,-0.999527390273
672068000000,,14342,,672,64176685,"""map""",,,0.570052444935,-0.229815021157,0.0365806929767,,0.00288224689132,-0.00063199882582,0.0305935122502,-0.999527558861
672100000000,,14343,,672,96176685,"""map""",,,0.570620298386,-0.228881821036,0.0370212011039,,0.00282331003899,-0.000549379560528,0.030618884653,-0.999526968805
672136000000,,14344,,672,128176685,"""map""",,,0.571568369865,-0.228428095579,0.03747600317,,0.00282860350206,-0.000534785802641,0.0306528971598,-0.999525999427
672168000000,,14345,,672,160176222,"""map""",,,0.572857737541,-0.228460147977,0.0379636138678,,0.00283081942201,-0.000517271893769,0.0306583341032,-0.999525788693
672200000000,,14346,,672,192176222,"""map""",,,0.572561144829,-0.22646021843,0.0383826829493,,0.0029195543432,-0.000517623556536,0.0306297163931,-0.999526420896
672236000000,,14347,,672,232176222,"""map""",,,0.572037756443,-0.223839446902,0.0390234366059,,0.00291816695456,-0.000473820633224,0.0306132791222,-0.999526926658
672268000000,,14348,,672,264175759,"""map""",,,0.572127938271,-0.222405999899,0.0395685397089,,0.00294346897542,-0.000488197565332,0.0306560581734,-0.999525535812
672300000000,,14349,,672,296175759,"""map""",,,0.572644114494,-0.221512690187,0.0401220619678,,0.00297985841625,-0.000426415306817,0.030606367039,-0.999527010952
672336000000,,14350,,672,328175759,"""map""",,,0.573547840118,-0.221131563187,0.0405413024127,,0.00300665055869,-0.00042289843219,0.0305839449156,-0.999527601008
672368000000,,14351,,672,360175296,"""map""",,,0.574794054031,-0.221200227737,0.0409670397639,,0.00305747299023,-0.000345979198887,0.0305060575396,-0.999529876937
672400000000,,14352,,672,400175296,"""map""",,,0.574242591858,-0.218858063221,0.0413834266365,,0.00301432408393,-0.00037574911496,0.0304382432603,-0.999532026427
672436000000,,14353,,672,432175296,"""map""",,,0.57385468483,-0.217056721449,0.0417711474001,,0.00304027287782,-0.000372058796174,0.0304289709537,-0.999532279308
672468000000,,14354,,672,464174833,"""map""",,,0.573941409588,-0.215822607279,0.0421783849597,,0.00300576415778,-0.0003844812505,0.030438622582,-0.999532068574
672500000000,,14355,,672,496174833,"""map""",,,0.574431419373,-0.21512337029,0.0426769778132,,0.00297223378793,-0.000318895732815,0.0304505079932,-0.999531815692
672536000000,,14356,,672,528174833,"""map""",,,0.575293660164,-0.214902505279,0.0432572923601,,0.00301047094002,-0.000321399436716,0.0304440173786,-0.999531899986
672568000000,,14357,,672,560174369,"""map""",,,0.576483130455,-0.215112477541,0.0438334308565,,0.00313350096586,-0.000238530089147,0.0303901537062,-0.999533164392
672600000000,,14358,,672,592174369,"""map""",,,0.576084733009,-0.213522940874,0.0442788042128,,0.00311863152478,-0.000251781157101,0.0303699653657,-0.999533880888
672636000000,,14359,,672,632174369,"""map""",,,0.575467050076,-0.211405530572,0.0448197796941,,0.00316586727598,-0.000224817052221,0.0303478382703,-0.999534428797
672668000000,,14360,,672,664173906,"""map""",,,0.575488269329,-0.210284456611,0.0453019030392,,0.00315737353355,-0.000171180413044,0.0303051435127,-0.999535735349
672700000000,,14361,,672,696173906,"""map""",,,0.575959980488,-0.209645852447,0.0457856692374,,0.00320506038773,-0.00019707767582,0.0303751494281,-0.999533417273
672736000000,,14362,,672,728173906,"""map""",,,0.57681542635,-0.209464266896,0.0461697690189,,0.00321628626669,-0.000227992718475,0.0303831994762,-0.999533122245
672768000000,,14363,,672,760173442,"""map""",,,0.578015863895,-0.209702938795,0.0466307736933,,0.00323598102802,-0.000243628211456,0.0303855175528,-0.999532995804
672800000000,,14364,,672,792173442,"""map""",,,0.577619075775,-0.208207577467,0.0468200035393,,0.00324550736823,5.14802351865e-05,0.0303994260128,-0.999532574336
672836000000,,14365,,672,832173442,"""map""",,,0.577013671398,-0.206229373813,0.0469803102314,,0.00324055215008,6.6147009196e-05,0.0303965600271,-0.999532658629
672868000000,,14366,,672,864172978,"""map""",,,0.57705360651,-0.205253303051,0.0471712648869,,0.00327595122229,6.82928764753e-05,0.0303588807446,-0.999533754448
672900000000,,14367,,672,896172978,"""map""",,,0.577475905418,-0.204739868641,0.0473383590579,,0.00326208770795,4.97899160706e-05,0.0304101313124,-0.999532237161
672936000000,,14368,,672,928172978,"""map""",,,0.578233003616,-0.204614162445,0.0477930791676,,0.00329238141386,0.000307846508424,0.0303923031954,-0.999532616483
672968000000,,14369,,672,960172514,"""map""",,,0.579174816608,-0.204830348492,0.0489297099411,,0.00327897048423,0.00243140921447,0.0302383829047,-0.99953438665
673000000000,,14370,,673,172514,"""map""",,,0.577761232853,-0.202724054456,0.051330730319,,0.00214329154705,0.00658608732536,0.02984017948,-0.999530762021
673036000000,,14371,,673,32172514,"""map""",,,0.576360404491,-0.201088145375,0.0545645393431,,0.000882921817109,0.00939075314615,0.0294418074678,-0.999521995477
673068000000,,14372,,673,64172050,"""map""",,,0.575150668621,-0.199988231063,0.058857858181,,-0.00311512296428,0.016061882769,0.0284043627917,-0.999462610567
673100000000,,14373,,673,96172050,"""map""",,,0.57411968708,-0.199370592833,0.06399243325,,-0.00869337295144,0.0240267454683,0.0267869353333,-0.999314590835
673136000000,,14374,,673,128172050,"""map""",,,0.573206245899,-0.199210822582,0.0698740184307,,-0.011913471203,0.0284954520095,0.0258178949923,-0.999189414695
673168000000,,14375,,673,160172050,"""map""",,,0.572380959988,-0.199523344636,0.0763976946473,,-0.0184967397932,0.0371363574029,0.0238185749395,-0.998855063746
673200000000,,14376,,673,192165585,"""map""",,,0.569937288761,-0.198316067457,0.0827013254166,,-0.0269376840737,0.0478898096991,0.0213491910853,-0.998261046063
673236000000,,14377,,673,232165585,"""map""",,,0.566438853741,-0.196923553944,0.0914497226477,,-0.0315966118546,0.0536911765412,0.0199715791948,-0.997857785016
673268000000,,14378,,673,264165121,"""map""",,,0.563770055771,-0.196616962552,0.099475838244,,-0.042902663994,0.0674128239365,0.0167906300972,-0.996660940959
673300000000,,14379,,673,296165121,"""map""",,,0.560728311539,-0.197313457727,0.108151242137,,-0.0541756117595,0.0806739044007,0.0140628439147,-0.995167804557
673336000000,,14380,,673,328165121,"""map""",,,0.556729257107,-0.199443310499,0.117356017232,,-0.058676223465,0.0857901287807,0.0131832813331,-0.994496531701
673368000000,,14381,,673,360164656,"""map""",,,0.551518678665,-0.203140035272,0.127349004149,,-0.0677697800845,0.0962078656234,0.0115763484399,-0.992984092042
673400000000,,14382,,673,392164656,"""map""",,,0.543049752712,-0.206466019154,0.137995347381,,-0.0733847518306,0.102941172385,0.0107518717894,-0.991918451124
673436000000,,14383,,673,432164656,"""map""",,,0.529765963554,-0.212514355779,0.15318441391,,-0.0756099263078,0.105244624096,0.0105730005643,-0.991511481155
673468000000,,14384,,673,464164191,"""map""",,,0.517531871796,-0.219570860267,0.167046412826,,-0.0787146620496,0.108482946909,0.0105238994858,-0.990921130248
673500000000,,14385,,673,496164191,"""map""",,,0.503912389278,-0.228494793177,0.182390600443,,-0.0797779282558,0.109578210475,0.0107419251331,-0.990713304138
673536000000,,14386,,673,528164191,"""map""",,,0.488984405994,-0.239216670394,0.199008360505,,-0.0798447994993,0.108901811509,0.0109079415694,-0.990780612655
673568000000,,14387,,673,560163726,"""map""",,,0.4728320539,-0.251612573862,0.216971114278,,-0.0797619611857,0.107106775913,0.011173466715,-0.990980051542
673600000000,,14388,,673,600163726,"""map""",,,0.449223548174,-0.266151666641,0.240150213242,,-0.0797203820025,0.106608791142,0.0117926882133,-0.991029869117
673636000000,,14389,,673,624163726,"""map""",,,0.434006273746,-0.275759160519,0.255000352859,,-0.0797833572968,0.106568575146,0.0124500104627,-0.991021102573
673668000000,,14390,,673,660163262,"""map""",,,0.412883162498,-0.290045082569,0.27619343996,,-0.079470497289,0.10577274123,0.0135644152842,-0.991116902359
673700000000,,14391,,673,692163262,"""map""",,,0.390873342752,-0.30591237545,0.298673182726,,-0.0785981167938,0.104339752332,0.0147307871699,-0.991321651749
673736000000,,14392,,673,732163262,"""map""",,,0.362106472254,-0.327756047249,0.328887969255,,-0.0782748425632,0.103987454728,0.0152372237016,-0.99137661124
673768000000,,14393,,673,764162797,"""map""",,,0.338084548712,-0.346734344959,0.354820787907,,-0.0782486864924,0.103979745806,0.0161989726378,-0.991364262213
673800000000,,14394,,673,796162797,"""map""",,,0.311288654804,-0.36416259408,0.381716996431,,-0.0787146067318,0.104375897206,0.0173369375476,-0.991266481525
673836000000,,14395,,673,828162797,"""map""",,,0.283271640539,-0.382161766291,0.409784972668,,-0.078896467749,0.104160592665,0.0181161906297,-0.991260707406
673868000000,,14396,,673,860162331,"""map""",,,0.254700481892,-0.40157404542,0.439264029264,,-0.0787349913185,0.103082108812,0.0193503346478,-0.991362955661
673900000000,,14397,,673,892162331,"""map""",,,0.225584313273,-0.422339975834,0.470187902451,,-0.0781322334329,0.10239607929,0.0204548771067,-0.991459514091
673936000000,,14398,,673,932162331,"""map""",,,0.188525885344,-0.450107246637,0.510887265205,,-0.0778088235421,0.102041072434,0.020994525355,-0.991510258896
673968000000,,14399,,673,964161866,"""map""",,,0.158377170563,-0.473617643118,0.545236051083,,-0.0771347479205,0.10073519448,0.0220694807263,-0.991673156466
674000000000,,14400,,673,996161866,"""map""",,,0.124053619802,-0.494421690702,0.57956391573,,-0.0764461131968,0.100009886729,0.0228300206077,-0.991782696125
674036000000,,14401,,674,28161866,"""map""",,,0.0896258950233,-0.516451179981,0.615529716015,,-0.0759321126229,0.0996947534261,0.0232534278478,-0.991844061937
674068000000,,14402,,674,60161401,"""map""",,,0.0551342368126,-0.539619147778,0.653055250645,,-0.0751866033614,0.0991059040005,0.0238941442389,-0.991944624317
674100000000,,14403,,674,92161401,"""map""",,,0.0205622334033,-0.563838541508,0.692142128944,,-0.0746172073405,0.0982444145144,0.0244902271174,-0.992058715836
674136000000,,14404,,674,132161401,"""map""",,,-0.0228002294898,-0.595506668091,0.743124544621,,-0.0743290572398,0.0978725765776,0.0247207282319,-0.992111441544
674168000000,,14405,,674,164160936,"""map""",,,-0.0575529634953,-0.621856808662,0.785560190678,,-0.0736894577402,0.0971370508508,0.0251543771562,-0.992220559734
674200000000,,14406,,674,196160936,"""map""",,,-0.0964241549373,-0.645767688751,0.828676998615,,-0.0732363527769,0.0965699386623,0.0255106866135,-0.992300301572
674236000000,,14407,,674,228160936,"""map""",,,-0.134963855147,-0.670639097691,0.872691273689,,-0.0728125701664,0.0961622903922,0.0257633991172,-0.992364533369
674268000000,,14408,,674,260160471,"""map""",,,-0.17269256711,-0.696025013924,0.911886572838,,-0.0719805742547,0.091468328702,0.0260550553089,-0.992861276125
674300000000,,14409,,674,292160471,"""map""",,,-0.209548398852,-0.721792340279,0.943090677261,,-0.0709757469588,0.0804532646609,0.026392230097,-0.993877858112
674336000000,,14410,,674,332160471,"""map""",,,-0.254426419735,-0.754512727261,0.970578432083,,-0.0704317894421,0.0727208876824,0.0266465863277,-0.994505466833
674368000000,,14411,,674,364160005,"""map""",,,-0.289362341166,-0.781037926674,0.98316693306,,-0.0690239537338,0.0551866231176,0.0271429076158,-0.995717525902
674404000000,,14412,,674,396160005,"""map""",,,-0.328265696764,-0.804458916187,0.987347781658,,-0.0619124468374,0.0314671624192,0.0271195161149,-0.997216731451
674436000000,,14413,,674,428160005,"""map""",,,-0.365515440702,-0.828436255455,0.986901879311,,-0.0529652030025,0.0187562840376,0.0266518968307,-0.998064431015
674468000000,,14414,,674,468159540,"""map""",,,-0.408569991589,-0.859237015247,0.993969619274,,-0.0325242343558,0.00549636919722,0.0262919627444,-0.999109925739
674500000000,,14415,,674,492159540,"""map""",,,-0.432225078344,-0.87785923481,1.00675308704,,-0.0251390673135,0.00497559615157,0.0267873989486,-0.999312609933
674536000000,,14416,,674,532159540,"""map""",,,-0.468267053366,-0.90870654583,1.04599678516,,-0.021436920409,0.00505957572286,0.0271366698822,-0.999389106463
674568000000,,14417,,674,564159075,"""map""",,,-0.494348168373,-0.932927250862,1.09355533123,,-0.015021880306,0.00698524942626,0.0279230879286,-0.999472852251
674600000000,,14418,,674,596159075,"""map""",,,-0.523521304131,-0.953694999218,1.15553402901,,-0.0128047459987,0.00969707183131,0.0287672050106,-0.99945708933
674636000000,,14419,,674,628159075,"""map""",,,-0.550445079803,-0.974126458168,1.22549176216,,-0.0165334631984,0.0172438009149,0.0289789507775,-0.999294571082
674668000000,,14420,,674,660158609,"""map""",,,-0.575751841068,-0.994415700436,1.2985098362,,-0.026797524729,0.0373458219717,0.028886986354,-0.998525306803
674700000000,,14421,,674,692158609,"""map""",,,-0.599955618382,-1.01477837563,1.37099123001,,-0.0383294135121,0.0629628345473,0.028667190539,-0.996867460517
674736000000,,14422,,674,732158609,"""map""",,,-0.629174888134,-1.04056179523,1.45883846283,,-0.0415812628286,0.0701807470897,0.0286217562364,-0.99625624692
674768000000,,14423,,674,764158144,"""map""",,,-0.652250051498,-1.06158745289,1.52759218216,,-0.04764491807,0.0824772179004,0.028706724283,-0.99503938311
674800000000,,14424,,674,796158144,"""map""",,,-0.681477189064,-1.08012366295,1.59491717815,,-0.051078707429,0.0900706456921,0.0288811700889,-0.994205254831
674836000000,,14425,,674,828158144,"""map""",,,-0.710595369339,-1.09945821762,1.66374397278,,-0.0522571161912,0.0922569146769,0.0289824489659,-0.993940614769
674868000000,,14426,,674,860157678,"""map""",,,-0.739740073681,-1.11953485012,1.73453569412,,-0.0540911797681,0.0935481768944,0.0290929580027,-0.993718585171
674900000000,,14427,,674,892157678,"""map""",,,-0.768858730793,-1.14025533199,1.80617749691,,-0.0558460336116,0.0936138350989,0.0290642559989,-0.993616126182
674936000000,,14428,,674,932157678,"""map""",,,-0.804907560349,-1.16691529751,1.8942964077,,-0.0565380479856,0.0937302394261,0.0290209711854,-0.993567277985
674968000000,,14429,,674,964157213,"""map""",,,-0.833266019821,-1.18873345852,1.96196401119,,-0.0567274559228,0.0940569407224,0.0402333815885,-0.993134767025
675000000000,,14430,,674,996157213,"""map""",,,-0.866264939308,-1.20797324181,2.0255548954,,-0.0579610704711,0.0929065029796,0.0399149200012,-0.993184668894
675036000000,,14431,,675,28157213,"""map""",,,-0.898455321789,-1.22781133652,2.0864007473,,-0.0583599614163,0.0926432195195,0.0396610273857,-0.993196048543
675068000000,,14432,,675,60156747,"""map""",,,-0.929955720901,-1.24822247028,2.14484024048,,-0.0592903675852,0.09210359893,0.038755923814,-0.993226857889
675100000000,,14433,,675,92156747,"""map""",,,-0.960845530033,-1.26921832561,2.20121026039,,-0.0601110944833,0.0910242484327,0.0373785648046,-0.993329864787
675136000000,,14434,,675,132156747,"""map""",,,-0.998775064945,-1.29628539085,2.26926136017,,-0.0604411425028,0.0906308326265,0.0366341250194,-0.993373486775
675168000000,,14435,,675,164156282,"""map""",,,-1.02864086628,-1.31853175163,2.32197856903,,-0.0609379181865,0.090263510988,0.0351008226705,-0.993431986601
675200000000,,14436,,675,196156282,"""map""",,,-1.06359314919,-1.33835351467,2.37357139587,,-0.0613360162441,0.0896363553454,0.0335584166024,-0.993517544704
675236000000,,14437,,675,228156282,"""map""",,,-1.0975266695,-1.35878920555,2.42149877548,,-0.0614739549768,0.0885580677389,0.0328933814798,-0.9936279273
675268000000,,14438,,675,260155816,"""map""",,,-1.1303050518,-1.37963962555,2.46202206612,,-0.061610548303,0.0818004784662,0.031625477836,-0.9942397731
675300000000,,14439,,675,292155816,"""map""",,,-1.16196072102,-1.4008808136,2.49416446686,,-0.0617254551,0.0707058013332,0.0306578283411,-0.995113519416
675336000000,,14440,,675,332155816,"""map""",,,-1.20002484322,-1.42791855335,2.52217316628,,-0.0617455221036,0.0604960066689,0.0300783934677,-0.995802704683
675368000000,,14441,,675,364155350,"""map""",,,-1.22931516171,-1.44989836216,2.53521037102,,-0.0614700300515,0.0374695914607,0.0292780669614,-0.99697560933
675400000000,,14442,,675,396155350,"""map""",,,-1.26319551468,-1.46944403648,2.54187631607,,-0.0578928452601,0.000985748932219,0.0277612861772,-0.997936304595
675436000000,,14443,,675,428155350,"""map""",,,-1.2950874567,-1.48978459835,2.54518795013,,-0.0492387933427,-0.0193848792585,0.0260785311035,-0.998258306518
675468000000,,14444,,675,468154885,"""map""",,,-1.33050239086,-1.51595449448,2.54992055893,,-0.0131653294098,-0.0567348764023,0.0207633077441,-0.998086515963
675500000000,,14445,,675,492154885,"""map""",,,-1.34870886803,-1.53148281574,2.55498099327,,0.00552707712762,-0.0556220942345,0.0170312464553,-0.9982913075
675536000000,,14446,,675,532154885,"""map""",,,-1.37328970432,-1.55606794357,2.5753326416,,0.0052368157332,-0.0486337950887,0.0166186288084,-0.998664728578
675568000000,,14447,,675,564154419,"""map""",,,-1.38830399513,-1.57447218895,2.60683131218,,0.00455844903552,-0.0343562314201,0.0168218609119,-0.999257650443
675600000000,,14448,,675,596154419,"""map""",,,-1.40599370003,-1.58907687664,2.6496257782,,0.000298086878816,-0.0118080500811,0.0177751804784,-0.99977230561
675636000000,,14449,,675,628154419,"""map""",,,-1.42130231857,-1.60338532925,2.69868540764,,-0.00727287547991,0.00708318537696,0.018122765538,-0.999784233168
675668000000,,14450,,675,660153954,"""map""",,,-1.43544244766,-1.61783635616,2.74892687798,,-0.0287647710301,0.0560462416787,0.0179655577931,-0.997852053045
675700000000,,14451,,675,692153954,"""map""",,,-1.44920504093,-1.63267350197,2.79672503471,,-0.0527143541798,0.114204699012,0.016972915217,-0.991912550566
675736000000,,14452,,675,732153954,"""map""",,,-1.46649980545,-1.65205717087,2.85074615479,,-0.0638493856032,0.142140322994,0.0163500269428,-0.98764977616
675768000000,,14453,,675,764153488,"""map""",,,-1.48129224777,-1.66846513748,2.88916397095,,-0.0830016221604,0.186631829664,0.0150975490456,-0.978801003169
675800000000,,14454,,675,796153488,"""map""",,,-1.49779868126,-1.68592631817,2.92415165901,,-0.0907188787102,0.204924236267,0.0143349439687,-0.974459203422
675836000000,,14455,,675,828153488,"""map""",,,-1.51647806168,-1.70461928844,2.95636868477,,-0.0908047792558,0.205254240822,0.0141690539729,-0.974384182032
675868000000,,14456,,675,860153023,"""map""",,,-1.53738284111,-1.72451555729,2.98628401756,,-0.0859921623332,0.192837162853,0.0141324283616,-0.977353301069
675900000000,,14457,,675,892153023,"""map""",,,-1.56435537338,-1.74314939976,3.01576685905,,-0.0751018539516,0.165535114006,0.0144384987755,-0.983234135135
675936000000,,14458,,675,932153023,"""map""",,,-1.60128235817,-1.76704823971,3.05139112473,,-0.0684764088783,0.149255980697,0.0146594747022,-0.986315786258
675968000000,,14459,,675,964152557,"""map""",,,-1.6313740015,-1.78714394569,3.07902431488,,-0.0549852342801,0.115949844593,0.0153005704149,-0.991613940144
676000000000,,14460,,675,996152557,"""map""",,,-1.66134512424,-1.80782616138,3.10612010956,,-0.0418654708819,0.0828460844843,0.0160947013346,-0.995552478843
676036000000,,14461,,676,28152557,"""map""",,,-1.69074654579,-1.82885825634,3.13271641731,,-0.0377522519344,0.0723398471623,0.016442623569,-0.996529653526
676068000000,,14462,,676,60152092,"""map""",,,-1.71924078465,-1.85007214546,3.15855169296,,-0.0294291509009,0.0512147923589,0.0173923185065,-0.998102447472
676100000000,,14463,,676,92152092,"""map""",,,-1.74842691422,-1.86795628071,3.18467211723,,-0.0232888838841,0.0365955869948,0.0185487858828,-0.998886505295
676136000000,,14464,,676,132152092,"""map""",,,-1.7836407423,-1.8892531395,3.21615624428,,-0.0213187090356,0.0326635277145,0.0190912158231,-0.999056609976
676168000000,,14465,,676,164151626,"""map""",,,-1.81012296677,-1.90649473667,3.24005079269,,-0.0189130917168,0.0289587739616,0.0200315541603,-0.999200878638
676200000000,,14466,,676,196151626,"""map""",,,-1.83518409729,-1.92384171486,3.26278042793,,-0.0177402542411,0.028463939667,0.0211292688297,-0.999214070602
676236000000,,14467,,676,228151626,"""map""",,,-1.85893726349,-1.94130170345,3.28462147713,,-0.0176542881703,0.0292706326524,0.0217232865126,-0.999179510186
676268000000,,14468,,676,260151161,"""map""",,,-1.88148248196,-1.95882296562,3.30564069748,,-0.0180072871244,0.0313947198892,0.0226633719687,-0.99908784079
676300000000,,14469,,676,292151161,"""map""",,,-1.90764176846,-1.97437953949,3.32575249672,,-0.0182587701255,0.03374495131,0.0235136424905,-0.998987025529
676336000000,,14470,,676,332151161,"""map""",,,-1.94023561478,-1.9933142662,3.34974861145,,-0.018351904124,0.0348844967266,0.0239611998749,-0.998935564227
676368000000,,14471,,676,364150695,"""map""",,,-1.96475303173,-2.00873708725,3.36814045906,,-0.018454167525,0.0365866189356,0.0247542349764,-0.998853462166
676400000000,,14472,,676,396150695,"""map""",,,-1.98805701733,-2.02435088158,3.38578939438,,-0.0184168596615,0.0373100090042,0.0253976487658,-0.998811231023
676436000000,,14473,,676,428150695,"""map""",,,-2.01022434235,-2.04010105133,3.40272092819,,-0.018368335468,0.0374418627856,0.0257704376409,-0.998797617591
676468000000,,14474,,676,460150230,"""map""",,,-2.03133869171,-2.05595970154,3.41887402534,,-0.0181409268785,0.0369544713611,0.0264629946556,-0.998801832276
676500000000,,14475,,676,492150230,"""map""",,,-2.05626726151,-2.06990766525,3.43462491035,,-0.0179098251714,0.0360619012084,0.026973983047,-0.998824928749
676536000000,,14476,,676,532150230,"""map""",,,-2.08741593361,-2.08692598343,3.4535779953,,-0.0176772944227,0.035456083725,0.0272200784954,-0.998844105565
676568000000,,14477,,676,564149765,"""map""",,,-2.11082172394,-2.10083627701,3.46820878983,,-0.0170178312451,0.0342996025193,0.02780056704,-0.998879972533
676600000000,,14478,,676,596149765,"""map""",,,-2.13298082352,-2.1149315834,3.48257541656,,-0.0165257911549,0.0329790120222,0.028253772102,-0.998919969893
676636000000,,14479,,676,628149765,"""map""",,,-2.15390610695,-2.12921857834,3.49642324448,,-0.0162369416799,0.0321498267784,0.028484694685,-0.998945215855
676668000000,,14480,,676,660149299,"""map""",,,-2.17370462418,-2.14365506172,3.50981163979,,-0.0157646618762,0.0306003696742,0.0288048842931,-0.998992209591
676700000000,,14481,,676,692149299,"""map""",,,-2.1971654892,-2.15622138977,3.52285003662,,-0.0152634199436,0.0288677812205,0.0290999543796,-0.999042996543
676736000000,,14482,,676,732149299,"""map""",,,-2.22628641129,-2.1715066433,3.53840780258,,-0.0150221786267,0.0283558346469,0.0291901907822,-0.999058717318
676768000000,,14483,,676,764148834,"""map""",,,-2.24793958664,-2.18399834633,3.55016422272,,-0.0144133272287,0.0272660468777,0.0294264238681,-0.999091128244
676800000000,,14484,,676,796148834,"""map""",,,-2.26822805405,-2.19670367241,3.56131982803,,-0.0138440451361,0.0262002946659,0.0296749216869,-0.999120293864
676836000000,,14485,,676,828148834,"""map""",,,-2.28722929955,-2.20958399773,3.57203745842,,-0.0136386747386,0.0256758581372,0.0297513339233,-0.999134497352
676868000000,,14486,,676,860148369,"""map""",,,-2.30502986908,-2.22261977196,3.58234000206,,-0.0132444838255,0.0246638905725,0.0299268334005,-0.999160038342
676900000000,,14487,,676,892148369,"""map""",,,-2.32655882835,-2.23382019997,3.59239983559,,-0.0128152145514,0.0237458594428,0.0300491857017,-0.999184188486
676936000000,,14488,,676,932148369,"""map""",,,-2.35332846642,-2.2473692894,3.60435509682,,-0.0125418161769,0.0233266691924,0.0301169578341,-0.999195483841
676968000000,,14489,,676,964147904,"""map""",,,-2.37308478355,-2.25848221779,3.61354875565,,-0.0119520793626,0.0225308994847,0.0301785343798,-0.999219128223
677000000000,,14490,,676,996147904,"""map""",,,-2.39147567749,-2.26982188225,3.62255263329,,-0.0116812068356,0.0216193764211,0.0302083743485,-0.999241550347
677036000000,,14491,,677,28147904,"""map""",,,-2.40855193138,-2.28134012222,3.63115525246,,-0.0115998459665,0.0211118246443,0.0302453792815,-0.999252171353
677068000000,,14492,,677,60147439,"""map""",,,-2.42439675331,-2.29293584824,3.63944172859,,-0.0113490837424,0.0201580483772,0.0303124349175,-0.999272781162
677100000000,,14493,,677,92147439,"""map""",,,-2.44408726692,-2.30285048485,3.64706158638,,-0.0109449405755,0.0191936359577,0.0303534016543,-0.999295034698
677136000000,,14494,,677,132147439,"""map""",,,-2.46857976913,-2.31488394737,3.65613913536,,-0.0108333637088,0.018966981731,0.0303389874321,-0.99930101955
677168000000,,14495,,677,164146974,"""map""",,,-2.48648071289,-2.32476615906,3.66313791275,,-0.0106784585647,0.0184875899758,0.0303080937921,-0.999312609933
677200000000,,14496,,677,196146974,"""map""",,,-2.50299215317,-2.33482599258,3.67002129555,,-0.0104553028556,0.0178036480404,0.0302833957389,-0.999328119974
677236000000,,14497,,677,228146974,"""map""",,,-2.51818346977,-2.34506678581,3.67680597305,,-0.0104255228145,0.0173510047168,0.0303053121001,-0.999335706406
677268000000,,14498,,677,260146509,"""map""",,,-2.53211855888,-2.35545492172,3.68345236778,,-0.0102901629421,0.0165391852917,0.0303507885497,-0.999349488426
677300000000,,14499,,677,292146509,"""map""",,,-2.54986286163,-2.36431241035,3.68989706039,,-0.0100570339057,0.0158925173046,0.0304178020388,-0.999360362313
677336000000,,14500,,677,332146509,"""map""",,,-2.57193875313,-2.37500047684,3.69766879082,,-0.00991255648468,0.015717906204,0.0303665936179,-0.999366136431
677368000000,,14501,,677,364146044,"""map""",,,-2.58794498444,-2.38379979134,3.70367598534,,-0.00960992597803,0.0153949536723,0.0304040621662,-0.999372922074
677400000000,,14502,,677,396146044,"""map""",,,-2.60259056091,-2.39281487465,3.70941281319,,-0.00941971807388,0.0148863510231,0.0304763018645,-0.999380255625
677436000000,,14503,,677,428146044,"""map""",,,-2.61595869064,-2.40198779106,3.71472406387,,-0.00903426950381,0.0142778214888,0.0304585580413,-0.999393194708
677464000000,,14504,,677,468145579,"""map""",,,-2.63102674484,-2.41364574432,3.71790480614,,0.00154406296609,0.00774626938658,0.0301182643864,-0.999515167687
677500000000,,14505,,677,492145579,"""map""",,,-2.64383411407,-2.41903209686,3.71711778641,,0.0268971282687,-0.0069471914806,0.0291949112293,-0.999187686674
677536000000,,14506,,677,532145579,"""map""",,,-2.66286730766,-2.42774248123,3.71267676353,,0.0418942123984,-0.0157759420851,0.0285836976321,-0.998588527076
677568000000,,14507,,677,564145115,"""map""",,,-2.6758055687,-2.43390846252,3.70772480965,,0.0574053629564,-0.0258219924562,0.027816962164,-0.997629264804
677600000000,,14508,,677,596145115,"""map""",,,-2.68664693832,-2.43897819519,3.70262694359,,0.0639301942827,-0.031426218073,0.0271799968425,-0.997089068646
