rosbagTimestamp,header,seq,stamp,secs,nsecs,frame_id,pose,position,x,y,z,orientation,x,y,z,w
540304000000,,10616,,540,296148973,"""map""",,,0.128964304924,-0.444369822741,0.0536473691463,,-0.00101817632234,-0.00778406654862,0.0315214594139,-0.999472304342
540336000000,,10617,,540,328148973,"""map""",,,0.12931895256,-0.444930255413,0.0534513369203,,-0.00103261326431,-0.00774689994295,0.0315236931969,-0.999472515077
540368000000,,10618,,540,360148440,"""map""",,,0.130163058639,-0.446276396513,0.0532336235046,,-0.00102722604097,-0.00771944357605,0.0316097570615,-0.999469986266
540404000000,,10619,,540,400148440,"""map""",,,0.128364622593,-0.443497121334,0.0527972392738,,-0.00104964520092,-0.00769353149602,0.031589863749,-0.999470744909
540436000000,,10620,,540,432148440,"""map""",,,0.126956745982,-0.44136685133,0.0524527989328,,-0.00104028432001,-0.00768132833702,0.0315548397179,-0.999471967168
540468000000,,10621,,540,464147907,"""map""",,,0.126173987985,-0.440256595612,0.0521263107657,,-0.0009714430406,-0.00763429410044,0.0315175819038,-0.999473568748
540504000000,,10622,,540,496147907,"""map""",,,0.125928357244,-0.440081954002,0.0517644770443,,-0.000954662667992,-0.00758419861972,0.0315367165731,-0.99947340016
540536000000,,10623,,540,528147907,"""map""",,,0.126171961427,-0.44077116251,0.0512641072273,,-0.000929574756416,-0.00735684732359,0.0315618360948,-0.999474327391
540568000000,,10624,,540,560147374,"""map""",,,0.126888260245,-0.44224691391,0.0508005768061,,-0.000902108182077,-0.00734696849743,0.0315689167653,-0.999474158804
540604000000,,10625,,540,600147374,"""map""",,,0.125267326832,-0.439684271812,0.0501880422235,,-0.000901063071943,-0.00734547821121,0.0316060481389,-0.999473020839
540636000000,,10626,,540,632147374,"""map""",,,0.124062180519,-0.437746316195,0.0497422330081,,-0.000886073281852,-0.00735081703153,0.031631884157,-0.999472220049
540668000000,,10627,,540,664152841,"""map""",,,0.12344314158,-0.436817735434,0.049460735172,,-0.000809401249693,-0.00734184469188,0.0316564136228,-0.999471545699
540704000000,,10628,,540,696152841,"""map""",,,0.123354949057,-0.436790794134,0.0492180660367,,-0.000739631093251,-0.00733094380464,0.0316262364793,-0.999472641517
540736000000,,10629,,540,728152841,"""map""",,,0.123731784523,-0.437597155571,0.0489577278495,,-0.000720018979258,-0.00733070607008,0.0316303247236,-0.999472515077
540768000000,,10630,,540,760152309,"""map""",,,0.124543756247,-0.439141005278,0.0486741103232,,-0.000716875746322,-0.00738876137827,0.0316555706859,-0.999471292818
540804000000,,10631,,540,800152309,"""map""",,,0.123079225421,-0.436700969934,0.0482263527811,,-0.000700027872902,-0.0074110396097,0.0316236655215,-0.999472177902
540836000000,,10632,,540,832152309,"""map""",,,0.121955901384,-0.434844970703,0.0477035343647,,-0.000689248487123,-0.00742338567286,0.0316645901114,-0.999470787056
540868000000,,10633,,540,864151776,"""map""",,,0.121401280165,-0.434005171061,0.0471794679761,,-0.000666679179018,-0.00742103236406,0.031654137693,-0.999471124231
540904000000,,10634,,540,896151776,"""map""",,,0.121316574514,-0.434094399214,0.0468132905662,,-0.000655909342134,-0.00741746897973,0.0316075654254,-0.99947259937
540936000000,,10635,,540,928151776,"""map""",,,0.121689908206,-0.435010015965,0.0464858859777,,-0.000695919872261,-0.0074417725648,0.031619914452,-0.999472051461
540968000000,,10636,,540,960151244,"""map""",,,0.122494392097,-0.436642825603,0.0461499132216,,-0.000638247507702,-0.0073647758702,0.0316414936385,-0.999471967168
541004000000,,10637,,541,151244,"""map""",,,0.120696395636,-0.434324264526,0.0452769547701,,-0.000612528051943,-0.00739501228274,0.0316334435904,-0.999472009314
541036000000,,10638,,541,32151244,"""map""",,,0.119258224964,-0.432599127293,0.0444633737206,,-0.000621154326453,-0.00737683382014,0.0316380375969,-0.999471967168
541068000000,,10639,,541,64150713,"""map""",,,0.118416562676,-0.431869387627,0.0437830239534,,-0.000535705871636,-0.00743505738645,0.0316153204455,-0.999472346489
541104000000,,10640,,541,96150713,"""map""",,,0.118100427091,-0.432029753923,0.0431655272841,,-0.000496743415094,-0.00752165631852,0.0316061324326,-0.999472009314
541136000000,,10641,,541,128150713,"""map""",,,0.118238270283,-0.433038234711,0.0425313971937,,-0.000504040417515,-0.00750726020631,0.0315779361909,-0.999472978692
541168000000,,10642,,541,160156181,"""map""",,,0.11879029125,-0.434765040874,0.0419228486717,,-0.000476913322869,-0.00748778935011,0.0316014541324,-0.999472388636
541204000000,,10643,,541,200156181,"""map""",,,0.117301426828,-0.432579249144,0.0412164777517,,-0.000441509640848,-0.00741505804829,0.0315967758322,-0.999473105132
541236000000,,10644,,541,232156181,"""map""",,,0.116186238825,-0.430913388729,0.0406979545951,,-0.000416400655848,-0.00742080450766,0.031608239775,-0.999472767958
541268000000,,10645,,541,264155650,"""map""",,,0.115607768297,-0.430213838816,0.0403314046562,,-0.000461354550324,-0.00737899318758,0.0315658821922,-0.999474327391
541304000000,,10646,,541,296155650,"""map""",,,0.115516319871,-0.430419147015,0.0400356426835,,-0.000388461246552,-0.0074374670008,0.0315829516659,-0.999473442307
541336000000,,10647,,541,328155650,"""map""",,,0.115906849504,-0.431410104036,0.0397399477661,,-0.000374635763151,-0.00743478409048,0.0315762924638,-0.999473695188
541368000000,,10648,,541,360155650,"""map""",,,0.116719760001,-0.433116585016,0.0393719263375,,-0.000403943957207,-0.00736003830101,0.0315579585847,-0.99947474886
541404000000,,10649,,541,400149119,"""map""",,,0.115313760936,-0.430647581816,0.038971055299,,-0.000172445477044,-0.00736425199804,0.031598503853,-0.999473484454
541436000000,,10650,,541,432149119,"""map""",,,0.114212930202,-0.428752034903,0.0387068092823,,-0.000149626909842,-0.00735636592756,0.0315977030629,-0.999473610895
541468000000,,10651,,541,464148588,"""map""",,,0.113646239042,-0.427865147591,0.0383486375213,,-0.000136028295024,-0.0073747337217,0.0316248877801,-0.999472641517
541504000000,,10652,,541,496148588,"""map""",,,0.113552890718,-0.427892029285,0.0379897393286,,-8.887025208e-05,-0.00738264975596,0.0316443596242,-0.999471967168
541536000000,,10653,,541,528148588,"""map""",,,0.113869376481,-0.42871928215,0.0376557633281,,-7.22943575418e-05,-0.00741286279017,0.0315946684898,-0.99947327372
541568000000,,10654,,541,560148057,"""map""",,,0.114561662078,-0.430295854807,0.0372743941844,,-7.9492249014e-05,-0.00739412522328,0.0316137188653,-0.999472852251
541604000000,,10655,,541,600148057,"""map""",,,0.113085187972,-0.428285628557,0.0368098653853,,-1.66812616594e-05,-0.0073522901956,0.0316123701661,-0.999473189426
541636000000,,10656,,541,632148057,"""map""",,,0.111956417561,-0.426788508892,0.0364783108234,,3.42640707509e-06,-0.00734060465258,0.0316299032551,-0.999472767958
541668000000,,10657,,541,664147527,"""map""",,,0.111334882677,-0.426235198975,0.0361221581697,,-2.99604823901e-06,-0.00727182527635,0.0316288074371,-0.99947327372
541704000000,,10658,,541,696147527,"""map""",,,0.111190579832,-0.426521122456,0.0357053428888,,3.52360824442e-05,-0.00730633202075,0.0316844834239,-0.999471292818
541736000000,,10659,,541,728147527,"""map""",,,0.111470632255,-0.427591264248,0.035358838737,,6.05416429802e-05,-0.00730632708166,0.0316910583323,-0.999471039937
541768000000,,10660,,541,760146997,"""map""",,,0.112125493586,-0.429360300303,0.0350686460733,,3.47783940111e-05,-0.00728176172515,0.0316826289626,-0.999471461405
541804000000,,10661,,541,800146997,"""map""",,,0.110628783703,-0.42728304863,0.034802287817,,3.38254801081e-05,-0.00724350358196,0.0316950622829,-0.999471334965
541836000000,,10662,,541,832146997,"""map""",,,0.109467476606,-0.425717294216,0.034514952451,,3.98518209006e-05,-0.00722380980845,0.0316904682764,-0.999471629993
541868000000,,10663,,541,864146467,"""map""",,,0.108796916902,-0.425110638142,0.034203864634,,3.42581438498e-05,-0.0072107041142,0.0316940929054,-0.999471629993
541904000000,,10664,,541,896146467,"""map""",,,0.108595445752,-0.425371497869,0.0338354893029,,3.14250853765e-05,-0.00714347330538,0.0317011314291,-0.999471925021
541936000000,,10665,,541,928146467,"""map""",,,0.108860276639,-0.42642351985,0.0334694236517,,5.55455950704e-05,-0.00715683912471,0.031688908843,-0.999472177902
541968000000,,10666,,541,960151937,"""map""",,,0.109532117844,-0.428215891123,0.033060759306,,-0.000159963095167,-0.00707628332632,0.0317620757721,-0.999470407734
542004000000,,10667,,542,151937,"""map""",,,0.108028925955,-0.426042437553,0.0326611101627,,-0.000116687172097,-0.00717151643543,0.0317640566739,-0.999469691238
542036000000,,10668,,542,32151937,"""map""",,,0.106874875724,-0.424349218607,0.0322774089873,,-0.000111863992121,-0.00717688423172,0.0317723174562,-0.999469354063
542068000000,,10669,,542,64151408,"""map""",,,0.106245674193,-0.423610717058,0.0318719930947,,-9.29252398879e-05,-0.00720985986014,0.0317949503139,-0.999468468979
542104000000,,10670,,542,96151408,"""map""",,,0.106087528169,-0.423729389906,0.0314773097634,,-9.88462135591e-05,-0.00720668567561,0.0317837392522,-0.999468806154
542136000000,,10671,,542,128151408,"""map""",,,0.106317140162,-0.424607127905,0.0310997683555,,-5.81484922381e-05,-0.00721658722156,0.0317247336643,-0.999470576322
542168000000,,10672,,542,160150879,"""map""",,,0.106911174953,-0.426182299852,0.0307623036206,,-2.56259424391e-05,-0.0072451716752,0.0317282739995,-0.99947032344
542204000000,,10673,,542,200150879,"""map""",,,0.10539277643,-0.423948019743,0.030532348901,,-5.24859972856e-06,-0.00719651182151,0.0317519605284,-0.999469901972
542236000000,,10674,,542,232150879,"""map""",,,0.104217283428,-0.422238856554,0.0302981883287,,1.24000638131e-05,-0.00721380816374,0.031693081381,-0.999471629993
542268000000,,10675,,542,264150350,"""map""",,,0.103538908064,-0.421463996172,0.0300423763692,,5.19887961828e-05,-0.00726567216574,0.031681954613,-0.999471629993
542304000000,,10676,,542,296150350,"""map""",,,0.103315316141,-0.421525478363,0.0297902170569,,-2.19963743833e-05,-0.00723395962568,0.0316885716682,-0.99947167214
542336000000,,10677,,542,328150350,"""map""",,,0.10350497067,-0.422348350286,0.0295100100338,,1.33263066636e-05,-0.00720768995599,0.0316736516839,-0.999472346489
542368000000,,10678,,542,360149821,"""map""",,,0.104063972831,-0.423816144466,0.0292975287884,,4.26690743058e-05,-0.00717284439043,0.0316045729992,-0.99947474886
542404000000,,10679,,542,400149821,"""map""",,,0.102598264813,-0.421248197556,0.029103320092,,0.000102041800784,-0.00711729253919,0.0316046572929,-0.999475170328
542436000000,,10680,,542,432149821,"""map""",,,0.10146137327,-0.419226318598,0.0289526637644,,0.000118694086485,-0.00715561752465,0.0315996418179,-0.999475043888
542468000000,,10681,,542,464149293,"""map""",,,0.100807279348,-0.418112844229,0.0289623420686,,0.000137596948042,-0.00716147791223,0.0316417043727,-0.999473610895
542504000000,,10682,,542,496149293,"""map""",,,0.10057977587,-0.417846679688,0.0289806686342,,0.000202213664438,-0.00716364024312,0.0316671189224,-0.999472810105
542536000000,,10683,,542,528149293,"""map""",,,0.100735634565,-0.418332099915,0.0289695262909,,0.000217219259597,-0.00717061686364,0.0316735673902,-0.999472515077
542568000000,,10684,,542,560148765,"""map""",,,0.101242996752,-0.419521063566,0.0289911720902,,0.000272948917857,-0.00719186249728,0.0316324742129,-0.999473737335
542604000000,,10685,,542,600148765,"""map""",,,0.0997535586357,-0.416957467794,0.0292369071394,,0.000298183684859,-0.00717729285859,0.0315640698777,-0.999475971118
542636000000,,10686,,542,632148765,"""map""",,,0.0985983386636,-0.414956897497,0.0293744131923,,0.00029583333951,-0.00709990663491,0.0316032243,-0.999475254622
542668000000,,10687,,542,664148237,"""map""",,,0.0979324355721,-0.413850814104,0.0295409858227,,0.000300038146193,-0.00705851118568,0.0316145196554,-0.999475254622
542704000000,,10688,,542,696148237,"""map""",,,0.0976791456342,-0.41357049346,0.0296671651304,,0.000260443157651,-0.00704229321008,0.031602381363,-0.99947567609
542736000000,,10689,,542,728148237,"""map""",,,0.0977856740355,-0.414001822472,0.029783109203,,0.000218751692667,-0.00702631527396,0.0316140560401,-0.999475465356
542768000000,,10690,,542,760147709,"""map""",,,0.0982162505388,-0.415090799332,0.0298719685525,,0.000302318356552,-0.00697739792936,0.0315902430707,-0.999476519027
542804000000,,10691,,542,800147709,"""map""",,,0.0966625958681,-0.412243753672,0.029798688367,,0.000262005225224,-0.0069689063272,0.031541184139,-0.999478120607
542836000000,,10692,,542,832147709,"""map""",,,0.0954065844417,-0.410036951303,0.0296836346388,,0.0002578471752,-0.00698292278851,0.0315209115049,-0.999478668516
542868000000,,10693,,542,864147182,"""map""",,,0.0946325659752,-0.408701986074,0.0297698192298,,0.000335290033705,-0.00673368542421,0.0315457781455,-0.999479595747
542904000000,,10694,,542,896147182,"""map""",,,0.0942635387182,-0.408162474632,0.0298439953476,,0.000327904127776,-0.00672949477623,0.0314820942574,-0.999481576649
542936000000,,10695,,542,928147182,"""map""",,,0.0942790657282,-0.408363223076,0.0298215877265,,0.000317433270099,-0.00671326231265,0.0314609365394,-0.999482419586
542968000000,,10696,,542,960146654,"""map""",,,0.0946141928434,-0.409232765436,0.0298484899104,,0.000338829051891,-0.0067834727061,0.0314540666031,-0.999482124558
543004000000,,10697,,543,146654,"""map""",,,0.092886544764,-0.406551420689,0.0299246758223,,0.000294173478077,-0.00679807165003,0.0315078881287,-0.999480396537
543036000000,,10698,,543,32146654,"""map""",,,0.0915262103081,-0.404510200024,0.030021769926,,0.000322740151017,-0.00679991063556,0.0315172025822,-0.999480017216
543068000000,,10699,,543,64146128,"""map""",,,0.0905760154128,-0.403342783451,0.0301527157426,,0.000451727288162,-0.00674433277181,0.0315553454801,-0.999479216426
543104000000,,10700,,543,96146128,"""map""",,,0.0899989679456,-0.402992248535,0.0302319806069,,0.000474738479632,-0.00676128271963,0.0315259269798,-0.999479975069
543136000000,,10701,,543,128146128,"""map""",,,0.0897859409451,-0.403318047523,0.0303386598825,,0.000488523791818,-0.00677714771537,0.0315343563495,-0.999479637894
543168000000,,10702,,543,160145601,"""map""",,,0.0899247229099,-0.404270231724,0.0304647907615,,0.000467884677665,-0.00683958925926,0.0315499506835,-0.999478710663
543204000000,,10703,,543,200145601,"""map""",,,0.0881315097213,-0.401917099953,0.0306491665542,,0.000406749356811,-0.00686993103892,0.0315853118894,-0.999477404111
543240000000,,10704,,543,232145601,"""map""",,,0.0867572948337,-0.400162667036,0.0307651404291,,0.0004009321039,-0.00688635151695,0.0315737215061,-0.999477614845
543268000000,,10705,,543,264145075,"""map""",,,0.0858151391149,-0.399238616228,0.0309011880308,,0.000490582731222,-0.00686124022705,0.0315857755047,-0.999477361964
543304000000,,10706,,543,296145075,"""map""",,,0.0852595716715,-0.399064689875,0.0310297980905,,0.000533467149582,-0.00685144042622,0.031593488378,-0.99947715123
543336000000,,10707,,543,328145075,"""map""",,,0.0850502997637,-0.39958178997,0.0311670564115,,0.000529169488123,-0.00689395210839,0.0315892736932,-0.999477066936
543368000000,,10708,,543,360144548,"""map""",,,0.0851697102189,-0.400705784559,0.0313995927572,,0.000480672624193,-0.0068844391037,0.0316086190966,-0.999476519027
543404000000,,10709,,543,400144548,"""map""",,,0.0857451483607,-0.402926385403,0.0316342785954,,0.000517116477265,-0.00685894421162,0.0315607402767,-0.999478204901
543436000000,,10710,,543,432144548,"""map""",,,0.0865275189281,-0.405308485031,0.0317191258073,,0.000487661427784,-0.00686045590054,0.0315005967239,-0.999480101509
543468000000,,10711,,543,464144023,"""map""",,,0.0875851660967,-0.408138245344,0.0318103171885,,0.000483728599983,-0.00687417930954,0.0315535331656,-0.999478331342
543504000000,,10712,,543,496144023,"""map""",,,0.0866302400827,-0.4065335989,0.0318987853825,,0.000539919568671,-0.00683949179467,0.0315282029097,-0.999479300719
543536000000,,10713,,543,528144023,"""map""",,,0.0860764458776,-0.405728548765,0.0319673232734,,0.0005387289202,-0.0068182761248,0.0315262220078,-0.999479511453
543568000000,,10714,,543,560143497,"""map""",,,0.0859012678266,-0.405670642853,0.0320408679545,,0.000589436188771,-0.00687125866465,0.0315357050487,-0.999478879251
543604000000,,10715,,543,600143497,"""map""",,,0.0861155614257,-0.406541466713,0.0320128016174,,0.000578394043733,-0.00684933473016,0.0315596866055,-0.999478247048
543636000000,,10716,,543,632143497,"""map""",,,0.0866308882833,-0.407916903496,0.0319575592875,,0.000578777975181,-0.00683705221654,0.0315332183846,-0.999479174279
543668000000,,10717,,543,664142972,"""map""",,,0.0874556303024,-0.409817934036,0.031882788986,,0.0005724654968,-0.0067306106799,0.0315700125834,-0.999478710663
543704000000,,10718,,543,696142972,"""map""",,,0.086441591382,-0.407366484404,0.0317623838782,,0.000565484595743,-0.0067246544741,0.0316072282506,-0.999477572698
543736000000,,10719,,543,736142972,"""map""",,,0.08576592803,-0.405506283045,0.0315865017474,,0.000574505338413,-0.00674891854649,0.031610726439,-0.999477361964
543768000000,,10720,,543,760142447,"""map""",,,0.0856312811375,-0.404988974333,0.0314549282193,,0.000561299874667,-0.00671894258831,0.0316343286742,-0.999476771908
543804000000,,10721,,543,800142447,"""map""",,,0.0858222320676,-0.405063390732,0.031207818538,,0.000347905770845,-0.0066464579114,0.0315996418179,-0.999478499929
543836000000,,10722,,543,832142447,"""map""",,,0.08633569628,-0.405857264996,0.0312286652625,,0.000387485612864,-0.00664715662713,0.0315456938518,-0.999480185803
543868000000,,10723,,543,864141922,"""map""",,,0.0871450677514,-0.407229870558,0.0312677696347,,0.000429319982005,-0.00666958434816,0.0315449773554,-0.999480059362
543904000000,,10724,,543,904141922,"""map""",,,0.0854637548327,-0.403962105513,0.0313641987741,,0.00042733677522,-0.00669677137036,0.0315057386394,-0.999481113034
543936000000,,10725,,543,928141922,"""map""",,,0.0847762152553,-0.402641415596,0.0314994975924,,0.000413867564398,-0.00674945690663,0.0315315746575,-0.999479890775
543968000000,,10726,,543,960141398,"""map""",,,0.0841934978962,-0.401591569185,0.0316444374621,,0.000481316680722,-0.00671476247704,0.0315424906913,-0.999479764335
544004000000,,10727,,544,141398,"""map""",,,0.083991907537,-0.401294708252,0.0317747294903,,0.000463135583946,-0.00668741312363,0.031554249662,-0.9994795536
544036000000,,10728,,544,32141398,"""map""",,,0.0842161253095,-0.401754647493,0.0317934826016,,0.000465924849209,-0.00672751486217,0.0315374752163,-0.999479806481
544068000000,,10729,,544,64140874,"""map""",,,0.0847459286451,-0.402798891068,0.0318819470704,,0.000505433239149,-0.00673688298707,0.0315158960299,-0.999480480831
544104000000,,10730,,544,96140874,"""map""",,,0.0833134278655,-0.399742692709,0.0327325537801,,0.00047553433067,-0.00674594949858,0.0314654462522,-0.999481955971
544136000000,,10731,,544,128140874,"""map""",,,0.0823146700859,-0.397583544254,0.0336341634393,,0.000533668005657,-0.00671617604283,0.0314336253816,-0.999483178229
544168000000,,10732,,544,160140350,"""map""",,,0.0817322209477,-0.396241515875,0.0344613231719,,0.000558040737897,-0.00673502161101,0.0315096161495,-0.999480607272
544204000000,,10733,,544,200140350,"""map""",,,0.0815019235015,-0.395643591881,0.0354308336973,,0.000621681491332,-0.00672681450008,0.0314986579689,-0.99948102874
544236000000,,10734,,544,232140350,"""map""",,,0.0816771686077,-0.395943135023,0.0361183583736,,0.000641521132451,-0.00675568805476,0.0315248311618,-0.999479975069
544268000000,,10735,,544,264139827,"""map""",,,0.0821585059166,-0.396859973669,0.0367792509496,,0.000691885628605,-0.00674971801953,0.0315187620156,-0.999480143656
544304000000,,10736,,544,296139827,"""map""",,,0.0807287544012,-0.393699496984,0.0376894101501,,0.000726045649323,-0.00678362120789,0.0314850445368,-0.999480986593
544336000000,,10737,,544,328139827,"""map""",,,0.0797557607293,-0.391423225403,0.0385783985257,,0.000740846766412,-0.00679748126487,0.0315132829253,-0.999479975069
544368000000,,10738,,544,360139303,"""map""",,,0.079207636416,-0.389981716871,0.0393583551049,,0.000764009752392,-0.00677855798844,0.0314890063406,-0.999480818006
544404000000,,10739,,544,400139303,"""map""",,,0.0790494158864,-0.389237016439,0.0402096174657,,0.000800390714463,-0.00684076113921,0.0314785117753,-0.999480691565
544436000000,,10740,,544,432139303,"""map""",,,0.0792834535241,-0.389375925064,0.0408333055675,,0.000815099964593,-0.00661115498669,0.0314951176336,-0.99948170309
544468000000,,10741,,544,464138781,"""map""",,,0.0798021480441,-0.390088200569,0.0414866693318,,0.000834391038138,-0.00666561628823,0.0315059072268,-0.99948102874
544504000000,,10742,,544,496138781,"""map""",,,0.0782877281308,-0.387117862701,0.0420860312879,,0.000869387410381,-0.0066632929432,0.0315151373866,-0.999480733712
544536000000,,10743,,544,528138781,"""map""",,,0.0772296413779,-0.385013341904,0.0427088737488,,0.000851485536476,-0.00666473581422,0.031533386972,-0.999480185803
544568000000,,10744,,544,560138258,"""map""",,,0.07658790797,-0.383721917868,0.0431052334607,,0.00090742164844,-0.00656352213316,0.0315162332047,-0.999481323768
544604000000,,10745,,544,600138258,"""map""",,,0.0763195455074,-0.38311329484,0.0434211939573,,0.000861375557897,-0.00660701109537,0.0315105012333,-0.999481239474
544636000000,,10746,,544,632138258,"""map""",,,0.0764971598983,-0.383359193802,0.0435918532312,,0.000887920169925,-0.00663925343449,0.0315653764301,-0.999479300719
544668000000,,10747,,544,664137736,"""map""",,,0.077021472156,-0.384201258421,0.0436691604555,,0.000892059780702,-0.00670379606462,0.0315877564066,-0.999478078461
544704000000,,10748,,544,696137736,"""map""",,,0.0758159011602,-0.381366938353,0.0439474470913,,0.000854991627437,-0.00670464229432,0.0315861548264,-0.999478162754
544736000000,,10749,,544,728137736,"""map""",,,0.0750333666801,-0.379396259785,0.0442178957164,,0.000858757514205,-0.00672592612354,0.031600737636,-0.999477572698
544768000000,,10750,,544,760137214,"""map""",,,0.0746182128787,-0.378236413002,0.0445361509919,,0.00085839729036,-0.00673539467648,0.0315723728069,-0.999478457782
544804000000,,10751,,544,800137214,"""map""",,,0.0745903477073,-0.377802401781,0.0449546128511,,0.000869554351414,-0.00670286455342,0.0315713612825,-0.999478710663
544836000000,,10752,,544,832137214,"""map""",,,0.0749366283417,-0.378188192844,0.0452359467745,,0.000862108847207,-0.0066567196812,0.0315386974749,-0.999480017216
544868000000,,10753,,544,864136692,"""map""",,,0.0755907297134,-0.37911465764,0.0455188117921,,0.000819896473517,-0.00669062583301,0.0315384445939,-0.999479848628
544904000000,,10754,,544,896136692,"""map""",,,0.074396841228,-0.37654158473,0.0457025207579,,0.000868716024255,-0.00672178387859,0.0315129878974,-0.999480438684
544936000000,,10755,,544,928136692,"""map""",,,0.0736480355263,-0.374802559614,0.045859746635,,0.000909031789762,-0.00676572559015,0.0315454831176,-0.999479047838
544968000000,,10756,,544,960136171,"""map""",,,0.0732932686806,-0.373844355345,0.0459939837456,,0.000907516478849,-0.00677467850274,0.0315824459037,-0.99947782558
545004000000,,10757,,545,136171,"""map""",,,0.0734047070146,-0.373625814915,0.0462226420641,,0.000920634356176,-0.00676650431904,0.0316106842922,-0.999476982643
545036000000,,10758,,545,32136171,"""map""",,,0.0737983286381,-0.374138236046,0.0463175959885,,0.000939370605972,-0.00673341443314,0.031652746847,-0.999475802531
545068000000,,10759,,545,64135650,"""map""",,,0.0744594037533,-0.375208556652,0.046478047967,,0.000880580691383,-0.00652530020991,0.0316175963754,-0.999478415635
545104000000,,10760,,545,96135650,"""map""",,,0.0731509923935,-0.372784674168,0.0464781187475,,0.000871878354983,-0.00656311021357,0.0316323899192,-0.999477699139
545136000000,,10761,,545,128135650,"""map""",,,0.0723001509905,-0.371122032404,0.0464228391647,,0.000885930048422,-0.00656937395965,0.0316373211005,-0.999477488405
545168000000,,10762,,545,160135130,"""map""",,,0.0718670040369,-0.370209038258,0.0463156178594,,0.000920769028527,-0.0065742603599,0.031594331315,-0.99947875281
545204000000,,10763,,545,200135130,"""map""",,,0.0718591138721,-0.369993448257,0.0461016781628,,0.000891301466701,-0.00653642862428,0.0316094620336,-0.999478542076
545236000000,,10764,,545,232135130,"""map""",,,0.0722730234265,-0.370502948761,0.0460468865931,,0.000888947499357,-0.00655218397236,0.0316038565027,-0.999478668516
545272000000,,10765,,545,264134610,"""map""",,,0.0729652643204,-0.371544629335,0.0460013747215,,0.000847941249934,-0.006565273203,0.0316511452668,-0.999477066936
545304000000,,10766,,545,296134610,"""map""",,,0.0718376636505,-0.369171082973,0.0458068326116,,0.000829668944743,-0.00656121097121,0.0316818281725,-0.999476139706
545336000000,,10767,,545,328134610,"""map""",,,0.0710902288556,-0.367547601461,0.045682862401,,0.000832779250455,-0.00652606115809,0.0316611762167,-0.999476982643
545368000000,,10768,,545,360134090,"""map""",,,0.0707153528929,-0.366611659527,0.0456115007401,,0.000888174368105,-0.00647677206512,0.031666655307,-0.99947715123
545404000000,,10769,,545,400134090,"""map""",,,0.0707234889269,-0.36636698246,0.0455281175673,,0.000893221453214,-0.0065167404484,0.0317148713017,-0.999475296769
545436000000,,10770,,545,432134090,"""map""",,,0.0710966140032,-0.366838186979,0.0454039312899,,0.000898952436795,-0.0065216475928,0.0317367033692,-0.999474622419
545468000000,,10771,,545,464133570,"""map""",,,0.0717649012804,-0.367829024792,0.0452373884618,,0.000897633042873,-0.00653478786064,0.031830522254,-0.999471503552
545504000000,,10772,,545,496133570,"""map""",,,0.0707551985979,-0.365502804518,0.044536229223,,0.000885981744165,-0.00651489224324,0.0317805782385,-0.999473315867
545536000000,,10773,,545,528133570,"""map""",,,0.0701333805919,-0.363958388567,0.0439620576799,,0.000883810522923,-0.00652382013113,0.0317866473847,-0.999473062986
545568000000,,10774,,545,560133051,"""map""",,,0.0699074342847,-0.363115489483,0.0434620566666,,0.000950178309165,-0.00649853696111,0.0318169931157,-0.999472135755
545604000000,,10775,,545,600133051,"""map""",,,0.0701218172908,-0.362946093082,0.0428719855845,,0.000945581009955,-0.00646332261063,0.0317866052379,-0.999473358014
545636000000,,10776,,545,632133051,"""map""",,,0.0706573575735,-0.363461792469,0.0424396768212,,0.00096575156969,-0.00648956824345,0.0318059084945,-0.99947259937
545668000000,,10777,,545,664132532,"""map""",,,0.0714678689837,-0.364476531744,0.0421110279858,,0.00103477411348,-0.00648517064787,0.0317951189013,-0.999472852251
545704000000,,10778,,545,696132532,"""map""",,,0.0705598592758,-0.362231403589,0.0417223572731,,0.00106982481564,-0.00642550552763,0.0318022417187,-0.999472978692
545736000000,,10779,,545,728132532,"""map""",,,0.0700349733233,-0.36074629426,0.0414268858731,,0.00107509152535,-0.00642847786826,0.0317862680631,-0.999473442307
545768000000,,10780,,545,760132014,"""map""",,,0.0698834359646,-0.3599652946,0.0411245599389,,0.00106152089867,-0.00642352429647,0.0317733289806,-0.999473905923
545804000000,,10781,,545,800132014,"""map""",,,0.0701775923371,-0.359878987074,0.0408943369985,,0.00107762264116,-0.00632477192551,0.0317839499864,-0.999474243097
545836000000,,10782,,545,832132014,"""map""",,,0.0707674399018,-0.360446274281,0.0407424606383,,0.00109641025743,-0.00633496553595,0.0317752677356,-0.999474411685
545868000000,,10783,,545,864131496,"""map""",,,0.0716272071004,-0.361533999443,0.0406342707574,,0.00109103636961,-0.00634554653519,0.0318276984152,-0.999472725811
545904000000,,10784,,545,896131496,"""map""",,,0.0706755146384,-0.359298497438,0.040279224515,,0.00106744055525,-0.00630331489908,0.0317718959878,-0.99947474886
545936000000,,10785,,545,928131496,"""map""",,,0.0701036378741,-0.357858151197,0.0400108546019,,0.00108175879458,-0.0062728682462,0.0317558801853,-0.999475423209
545968000000,,10786,,545,960130978,"""map""",,,0.0699243247509,-0.357131749392,0.0397605262697,,0.0011496002388,-0.00626696093733,0.0317863945036,-0.999474411685
546004000000,,10787,,546,130978,"""map""",,,0.0702257156372,-0.35711362958,0.0394735001028,,0.00115417317186,-0.00626072254521,0.0317130589872,-0.999476771908
546036000000,,10788,,546,32130978,"""map""",,,0.0708265900612,-0.357714086771,0.0392138324678,,0.0011922414896,-0.00625721530179,0.0316978861218,-0.999477193377
546068000000,,10789,,546,64130461,"""map""",,,0.0717347338796,-0.358837723732,0.0389300920069,,0.00119735228889,-0.00627163627406,0.0317242700489,-0.999476266146
546104000000,,10790,,546,96130461,"""map""",,,0.071208268404,-0.356895923615,0.038694344461,,0.00124829679812,-0.00629464499599,0.031701173576,-0.999476856202
546136000000,,10791,,546,128130461,"""map""",,,0.0710603818297,-0.355669289827,0.0385505966842,,0.00127819175533,-0.0063204339282,0.0317466500255,-0.999475212475
546168000000,,10792,,546,160129944,"""map""",,,0.071244597435,-0.355117917061,0.0382745601237,,0.00129585721176,-0.00617765555197,0.0317721910157,-0.999475212475
546204000000,,10793,,546,200129944,"""map""",,,0.0719260498881,-0.355294048786,0.0380987748504,,0.00135286016582,-0.00606635823739,0.0317197603361,-0.999477488405
546236000000,,10794,,546,232129944,"""map""",,,0.0728146508336,-0.3560795784,0.0380431264639,,0.00135385440339,-0.00604646377244,0.0317037866806,-0.999478120607
546268000000,,10795,,546,264129428,"""map""",,,0.0739859417081,-0.357369661331,0.0380634851754,,0.00139894297022,-0.00607550690234,0.0316790043336,-0.999478710663
546304000000,,10796,,546,296129428,"""map""",,,0.0732518658042,-0.355500429869,0.0379898846149,,0.00139937349369,-0.00608186794837,0.031704208149,-0.999477867726
546336000000,,10797,,546,328129428,"""map""",,,0.0728948563337,-0.354363918304,0.0378882326186,,0.00143078063373,-0.00611117202653,0.0317168943504,-0.999477235524
546368000000,,10798,,546,360128912,"""map""",,,0.072907961905,-0.3539262712,0.0377260558307,,0.00141040954719,-0.00613138637947,0.0317507382698,-0.999476013265
546404000000,,10799,,546,400128912,"""map""",,,0.0734244510531,-0.354249596596,0.0375305227935,,0.00141612538425,-0.00605861095517,0.0317530563465,-0.999476392587
546436000000,,10800,,546,432128912,"""map""",,,0.074169434607,-0.355163663626,0.0374012254179,,0.00142814546788,-0.00609043347215,0.0317356918449,-0.999476729761
546468000000,,10801,,546,464128396,"""map""",,,0.0752003565431,-0.356595516205,0.0373563468456,,0.00141947951607,-0.00613281492714,0.0317302549014,-0.999476687615
546504000000,,10802,,546,496128396,"""map""",,,0.0744580999017,-0.354868143797,0.0372864454985,,0.00142156578507,-0.00606770726582,0.0317577767935,-0.999476223999
546536000000,,10803,,546,528128396,"""map""",,,0.0741489827633,-0.353910148144,0.0372526347637,,0.00143110743644,-0.00608316923232,0.0317692407363,-0.999475718237
546568000000,,10804,,546,560127880,"""map""",,,0.0741883888841,-0.353636234999,0.037241756916,,0.00143726647396,-0.00604959762112,0.0317608956603,-0.999476139706
546604000000,,10805,,546,600127880,"""map""",,,0.0747115686536,-0.354141831398,0.03718682006,,0.00146683215891,-0.00602815969248,0.0318056134666,-0.999474833153
546636000000,,10806,,546,632127880,"""map""",,,0.0754632875323,-0.355166435242,0.0371765345335,,0.00149505079108,-0.00604800756541,0.0318017359565,-0.999474833153
546668000000,,10807,,546,664127365,"""map""",,,0.0765181705356,-0.356691271067,0.0371515788138,,0.00150417887651,-0.00607179551012,0.0317689035615,-0.999475718237
546704000000,,10808,,546,696127365,"""map""",,,0.0758912116289,-0.355206012726,0.0368553474545,,0.00153440574015,-0.00605590911169,0.0317400329703,-0.999476687615
546736000000,,10809,,546,728127365,"""map""",,,0.0756674483418,-0.354417920113,0.036638546735,,0.00155270603348,-0.00609696475195,0.0317459756759,-0.999476223999
546768000000,,10810,,546,760126851,"""map""",,,0.0757937803864,-0.354278117418,0.0364266447723,,0.00155470158798,-0.00615438703423,0.0317234692588,-0.999476561174
546804000000,,10811,,546,800126851,"""map""",,,0.0763875767589,-0.354952841997,0.0362260714173,,0.00155725822239,-0.00612505858993,0.0316715021946,-0.999478373489
546836000000,,10812,,546,832126851,"""map""",,,0.077204182744,-0.356075316668,0.0360817834735,,0.00153489388627,-0.00614447791502,0.0316543062804,-0.999478879251
546868000000,,10813,,546,864126337,"""map""",,,0.0783241018653,-0.357672184706,0.0360211282969,,0.00155875394161,-0.00612386777682,0.0316426316034,-0.999479258572
546904000000,,10814,,546,896126337,"""map""",,,0.0773777216673,-0.356160700321,0.0355032794178,,0.00156408321304,-0.0060705444402,0.0316025078036,-0.999480860153
546936000000,,10815,,546,928126337,"""map""",,,0.0768838971853,-0.355375409126,0.0350275784731,,0.00153906938772,-0.00602892343947,0.0316000211395,-0.999481239474
546968000000,,10816,,546,960125823,"""map""",,,0.0768089964986,-0.355245321989,0.0345437899232,,0.00156288647303,-0.00581364968499,0.0316237919621,-0.999481745236
547004000000,,10817,,547,125823,"""map""",,,0.0772267654538,-0.35592597723,0.0342109426856,,0.00163221589856,-0.00579916450463,0.0315862391201,-0.999482883201
547036000000,,10818,,547,32125823,"""map""",,,0.0779366642237,-0.357076346874,0.0340253300965,,0.00164089963108,-0.00578641821104,0.0315948370772,-0.999482714614
547068000000,,10819,,547,64125310,"""map""",,,0.0789585262537,-0.358719229698,0.0338784381747,,0.00168271967688,-0.00585881678325,0.0315443872995,-0.999483768285
547104000000,,10820,,547,96125310,"""map""",,,0.0781960636377,-0.357097774744,0.0339867472649,,0.00167870140293,-0.00583883835388,0.0315187198688,-0.999484737663
547136000000,,10821,,547,128125310,"""map""",,,0.0778589621186,-0.356183201075,0.0341283753514,,0.00170981713702,-0.00583460769932,0.0315172447291,-0.99948477981
547168000000,,10822,,547,160124797,"""map""",,,0.0778870657086,-0.355917841196,0.0342586822808,,0.00177959387891,-0.00582380230103,0.0314995009058,-0.999485243425
547200000000,,10823,,547,200124797,"""map""",,,0.0783877819777,-0.356431126595,0.0343765355647,,0.00178367619631,-0.00578464458604,0.0315494870682,-0.999483894726
547236000000,,10824,,547,232124797,"""map""",,,0.0791522040963,-0.357446074486,0.0344423763454,,0.00179054333381,-0.00581869347738,0.0315106276738,-0.99948490625
547268000000,,10825,,547,264124284,"""map""",,,0.0802084356546,-0.358934223652,0.0344614908099,,0.00184269594294,-0.0058007812314,0.0315217544418,-0.999484569075
547304000000,,10826,,547,296124284,"""map""",,,0.0794255807996,-0.35719949007,0.0344246588647,,0.00183716746179,-0.00586583752625,0.0315154745614,-0.999484442635
547336000000,,10827,,547,328124284,"""map""",,,0.079076461494,-0.356188386679,0.0344208516181,,0.00183751912456,-0.00587121849342,0.0315527745223,-0.999483220376
547368000000,,10828,,547,360123772,"""map""",,,0.079095505178,-0.355834424496,0.0344727225602,,0.00180545459246,-0.00591304726494,0.0315205321832,-0.999484021166
547404000000,,10829,,547,400123772,"""map""",,,0.0796338990331,-0.356225878,0.0346195921302,,0.00182177184365,-0.00594971782196,0.0315232295815,-0.999483683991
547436000000,,10830,,547,432123772,"""map""",,,0.080433614552,-0.357165068388,0.0347021855414,,0.00187774878537,-0.00598119427381,0.0315200264211,-0.999483515404
547468000000,,10831,,547,464123260,"""map""",,,0.08152808249,-0.358549445868,0.0348066650331,,0.00192506076309,-0.00589867453105,0.0315535331656,-0.999482798908
547504000000,,10832,,547,496123260,"""map""",,,0.0806242823601,-0.35661187768,0.0351887047291,,0.00203525600343,-0.00583904102095,0.0315832466938,-0.999481998118
547536000000,,10833,,547,528123260,"""map""",,,0.0801746249199,-0.355438888073,0.0355918966234,,0.00200819361078,-0.00583901550235,0.0315899480427,-0.999481871677
547568000000,,10834,,547,560122749,"""map""",,,0.0801061987877,-0.354943603277,0.0359380431473,,0.00204052337168,-0.00581035778563,0.0315880514346,-0.999481998118
547604000000,,10835,,547,600122749,"""map""",,,0.0805516317487,-0.35514074564,0.0363611206412,,0.00198818126637,-0.00573136109136,0.0315514258232,-0.999483726138
547636000000,,10836,,547,632122749,"""map""",,,0.0812860280275,-0.35588312149,0.0366237573326,,0.00197779486702,-0.00577469315535,0.0315640277309,-0.999483093936
547668000000,,10837,,547,664122238,"""map""",,,0.0823281630874,-0.357133179903,0.0368225090206,,0.00200286154054,-0.00578584642977,0.0315400040272,-0.999483768285
547704000000,,10838,,547,696122238,"""map""",,,0.0814046114683,-0.355530172586,0.0369015000761,,0.0020419074676,-0.00580799048276,0.0315319118323,-0.999483852579
547736000000,,10839,,547,728122238,"""map""",,,0.0809279233217,-0.354638785124,0.0369034186006,,0.0020639344643,-0.00580428287718,0.0315271070916,-0.999483936873
547768000000,,10840,,547,760121728,"""map""",,,0.0808284282684,-0.354410052299,0.0368371233344,,0.00207396804842,-0.00581441326735,0.031562889766,-0.999482714614
547804000000,,10841,,547,800121728,"""map""",,,0.0812320038676,-0.354956179857,0.03687582165,,0.00207146426221,-0.00581938461984,0.0315686217374,-0.999482546027
547836000000,,10842,,547,832121728,"""map""",,,0.0818971395493,-0.355988204479,0.0368913784623,,0.00205516808445,-0.00579374534187,0.031567905241,-0.999482756761
547868000000,,10843,,547,864121218,"""map""",,,0.0828253552318,-0.357483178377,0.0369510799646,,0.00207977904516,-0.00576291969663,0.0315416899012,-0.999483683991
547904000000,,10844,,547,896121218,"""map""",,,0.0817608162761,-0.355934530497,0.0370226241648,,0.00204686169793,-0.00569029343266,0.03156845315,-0.99948330467
547936000000,,10845,,547,928121218,"""map""",,,0.0811192542315,-0.355059087276,0.0370885320008,,0.00213779681632,-0.00564999775276,0.0315515944106,-0.999483894726
547968000000,,10846,,547,960120708,"""map""",,,0.0808900520205,-0.35481646657,0.0371519848704,,0.00216793839845,-0.00559816634872,0.031510585527,-0.999485454159
548004000000,,10847,,548,120708,"""map""",,,0.0811908096075,-0.355337500572,0.0370966121554,,0.00214139230469,-0.00557334399521,0.0314952019273,-0.999486086362
548036000000,,10848,,548,32120708,"""map""",,,0.0818037316203,-0.356334418058,0.0370094142854,,0.0021803705663,-0.00552326399029,0.0315172025822,-0.9994855806
548068000000,,10849,,548,64120199,"""map""",,,0.0827460587025,-0.357771873474,0.0369348376989,,0.00218955857928,-0.00549098082142,0.0315304366926,-0.999485327719
548104000000,,10850,,548,96120199,"""map""",,,0.081892631948,-0.355996400118,0.0369380898774,,0.0020766325195,-0.0054671969926,0.0315765031981,-0.999484274047
548136000000,,10851,,548,128120199,"""map""",,,0.0814914852381,-0.35491552949,0.0368762053549,,0.00210543396356,-0.00546222629866,0.0315733421844,-0.999484316194
548168000000,,10852,,548,160119691,"""map""",,,0.0815221145749,-0.354470103979,0.0368083119392,,0.00215698383983,-0.00546183874521,0.0315778940441,-0.999484063313
548204000000,,10853,,548,200119691,"""map""",,,0.082061804831,-0.354698717594,0.0368730686605,,0.00225512837421,-0.00543990756674,0.0315778940441,-0.999483979019
548236000000,,10854,,548,232119691,"""map""",,,0.0828285440803,-0.355492115021,0.0369166359305,,0.00211081377828,-0.00529963215354,0.0315818979947,-0.999484948397
548268000000,,10855,,548,264119183,"""map""",,,0.0839134007692,-0.356734484434,0.0367981083691,,0.00222029828446,-0.00530729810552,0.0315772618413,-0.99948477981
548304000000,,10856,,548,296119183,"""map""",,,0.0829783082008,-0.355031400919,0.0365992337465,,0.00226630420379,-0.00531262375496,0.0315193520715,-0.999486465683
548336000000,,10857,,548,328119183,"""map""",,,0.0824717730284,-0.354013085365,0.0365049019456,,0.00227078148326,-0.00531262326105,0.031517539757,-0.99948650783
548368000000,,10858,,548,360118675,"""map""",,,0.0823607519269,-0.353624552488,0.0365357026458,,0.00229673982604,-0.00529107914211,0.0314719790138,-0.999488067264
548404000000,,10859,,548,400118675,"""map""",,,0.0827082693577,-0.353905409575,0.0367218405008,,0.00227108523692,-0.00530280024653,0.0314910293893,-0.999487392914
548436000000,,10860,,548,432118675,"""map""",,,0.0833292677999,-0.354682266712,0.0370282754302,,0.00234045203485,-0.00527235145339,0.0314874047603,-0.999487561502
548468000000,,10861,,548,464118168,"""map""",,,0.0842780321836,-0.355952441692,0.0372030697763,,0.00230241170525,-0.00528087252542,0.0314932210254,-0.999487392914
548504000000,,10862,,548,496118168,"""map""",,,0.085519567132,-0.357633650303,0.0374087430537,,0.00223734619077,-0.00513375565797,0.0314802819429,-0.999488699466
548536000000,,10863,,548,528118168,"""map""",,,0.0868474245071,-0.359741330147,0.0385675318539,,0.00224527062147,-0.00394718868176,0.0314818835232,-0.999494009969
548568000000,,10864,,548,560117661,"""map""",,,0.0881091058254,-0.362242072821,0.0412801355124,,0.00164422966428,0.00160039410186,0.0313513125865,-0.999505811087
548604000000,,10865,,548,600117661,"""map""",,,0.0873261392117,-0.361727714539,0.0464967004955,,-0.00181253345202,0.0106099511674,0.0306768365697,-0.999471377112
548636000000,,10866,,548,632117661,"""map""",,,0.0863322019577,-0.361215889454,0.0517693050206,,-0.00376853115437,0.0143456733051,0.0302682228734,-0.999431801221
548668000000,,10867,,548,664117154,"""map""",,,0.0853511616588,-0.361319035292,0.0576741620898,,-0.0098464988729,0.0241464306643,0.028754013047,-0.999246312941
548704000000,,10868,,548,696117154,"""map""",,,0.0844572708011,-0.361944884062,0.0627681612968,,-0.0141420562823,0.0336431133287,0.0267997901221,-0.998974507915
548736000000,,10869,,548,728117154,"""map""",,,0.0834695100784,-0.363210558891,0.0643766149879,,-0.0120185215644,0.0364507756916,0.0256595914293,-0.998933667618
548768000000,,10870,,548,760116649,"""map""",,,0.0822910442948,-0.365066736937,0.0622546970844,,-0.000505675254256,0.0363634052747,0.0233445914812,-0.999065797988
548804000000,,10871,,548,800116649,"""map""",,,0.0784814506769,-0.36425447464,0.0553475171328,,0.0102788833918,0.0301859844938,0.0219658416258,-0.999250021863
548836000000,,10872,,548,832116649,"""map""",,,0.076037324965,-0.363819897175,0.050048109144,,0.0104445448726,0.0226062577206,0.023242806842,-0.999419705075
548868000000,,10873,,548,864116143,"""map""",,,0.074337311089,-0.364269405603,0.0460418015718,,0.0116199122293,0.0136117569787,0.0254199865955,-0.999516684974
548904000000,,10874,,548,896116143,"""map""",,,0.0735996812582,-0.365476340055,0.0435398593545,,0.0119637336248,0.00924544036138,0.0281637042867,-0.999488994494
548936000000,,10875,,548,928116143,"""map""",,,0.0731859430671,-0.366947382689,0.0452826060355,,0.00585293614543,0.015691787341,0.0286406380245,-0.99944946075
548968000000,,10876,,548,960115638,"""map""",,,0.0724595710635,-0.368862807751,0.0571056231856,,-0.00949807680316,0.0338953832905,0.0272509721354,-0.999008689009
549004000000,,10877,,549,115638,"""map""",,,0.0678161382675,-0.368090420961,0.0851354151964,,-0.0242204306521,0.0512727251778,0.024364587362,-0.998093680928
549036000000,,10878,,549,32115638,"""map""",,,0.0628029331565,-0.368010759354,0.110679864883,,-0.032319724676,0.0602139657209,0.0228208747416,-0.997401081766
549068000000,,10879,,549,64115134,"""map""",,,0.0571773536503,-0.3691816926,0.134875625372,,-0.0460648880371,0.075108281346,0.0200020513663,-0.995909968413
549104000000,,10880,,549,96115134,"""map""",,,0.0510236993432,-0.371560633183,0.155829116702,,-0.0558099862023,0.0843418563817,0.01753991677,-0.994718055537
549136000000,,10881,,549,128115134,"""map""",,,0.0447360500693,-0.374861240387,0.169887498021,,-0.060077014805,0.0863024250414,0.016194462925,-0.994324108944
549168000000,,10882,,549,160114630,"""map""",,,0.0384063050151,-0.37893640995,0.17618535459,,-0.0674595417425,0.0840275482345,0.0129554776169,-0.994092975626
549204000000,,10883,,549,200114630,"""map""",,,0.0282802227885,-0.381365060806,0.168725475669,,-0.0628941852336,0.0690504436867,0.00878538413155,-0.995589863098
549240000000,,10884,,549,232114630,"""map""",,,0.019529197365,-0.384133934975,0.158292904496,,-0.0509181206922,0.0574206273596,0.00671947205809,-0.997028124304
549268000000,,10885,,549,264114126,"""map""",,,0.0105842938647,-0.388167113066,0.147481068969,,-0.0175524014568,0.0317121436104,0.00317260402166,-0.999337898042
549304000000,,10886,,549,296114126,"""map""",,,0.00179758411832,-0.392975121737,0.137756735086,,0.0107284615611,0.00974806848904,0.00062183460293,-0.999894784352
549336000000,,10887,,549,328114126,"""map""",,,-0.00638444162905,-0.397871494293,0.132465541363,,0.01706859449,0.00378116434294,-0.000228225184686,-0.999847116266
549368000000,,10888,,549,360113623,"""map""",,,-0.0136160487309,-0.402364552021,0.137617066503,,0.0123406265492,0.00468828339018,-0.00048511022636,-0.999912738909
549404000000,,10889,,549,400113623,"""map""",,,-0.0236630942672,-0.403252601624,0.168869271874,,0.00643220276064,0.00814998252394,0.00099542426813,-0.999945613451
549436000000,,10890,,549,432113623,"""map""",,,-0.0313989594579,-0.403508603573,0.206778794527,,0.000972932339005,0.0128528987731,0.00197989035565,-0.999915014839
549468000000,,10891,,549,464113121,"""map""",,,-0.0388303250074,-0.40453004837,0.249865949154,,-0.0190331440513,0.0329392938858,0.00391388279327,-0.999268440036
549504000000,,10892,,549,496113121,"""map""",,,-0.0462868697941,-0.406629353762,0.293397545815,,-0.0382813740073,0.0546991678142,0.00597060685375,-0.997750942755
549536000000,,10893,,549,528113121,"""map""",,,-0.0540304630995,-0.409898966551,0.335106194019,,-0.0455351192735,0.0636901455899,0.00711746474858,-0.996904929065
549568000000,,10894,,549,560112619,"""map""",,,-0.0623013563454,-0.414447069168,0.37477260828,,-0.055729372452,0.077159524999,0.0094164488943,-0.995415501586
549604000000,,10895,,549,600112619,"""map""",,,-0.0776819735765,-0.419257998466,0.413368940353,,-0.0615817837374,0.0846367605149,0.0115379948078,-0.994440181364
549636000000,,10896,,549,632112619,"""map""",,,-0.0917005389929,-0.424611508846,0.444114476442,,-0.0634511782272,0.0862173279201,0.0125436607601,-0.994174614072
549668000000,,10897,,549,664112117,"""map""",,,-0.106755964458,-0.43189060688,0.477521508932,,-0.0657875927256,0.0878135515625,0.0144684230379,-0.993856911128
549704000000,,10898,,549,696112117,"""map""",,,-0.122813224792,-0.441013455391,0.513939619064,,-0.0672917235284,0.0887132662646,0.0160788962664,-0.993651529535
549736000000,,10899,,549,728112117,"""map""",,,-0.139819398522,-0.451871991158,0.552875578403,,-0.067824340497,0.0886914058796,0.0167591042545,-0.993606053086
549768000000,,10900,,549,760123616,"""map""",,,-0.157682046294,-0.464344054461,0.593880653381,,-0.0686678648889,0.0880065854458,0.0179576341856,-0.993588056381
549804000000,,10901,,549,800123616,"""map""",,,-0.183737933636,-0.477315098047,0.648059546947,,-0.0692281670687,0.087340979365,0.0191425085378,-0.993585738305
549832000000,,10902,,549,832123616,"""map""",,,-0.205688551068,-0.488673627377,0.693222999573,,-0.0693760656285,0.0871696260841,0.0195381831516,-0.993582788025
549868000000,,10903,,549,864123115,"""map""",,,-0.228106543422,-0.501703202724,0.739966630936,,-0.0696099740522,0.0864737460537,0.0204385662763,-0.993609129805
549904000000,,10904,,549,896123115,"""map""",,,-0.250999689102,-0.516286551952,0.788371920586,,-0.069727451807,0.0859144639594,0.0212799016663,-0.993631720516
549936000000,,10905,,549,928123115,"""map""",,,-0.274367332458,-0.532349824905,0.838535547256,,-0.069784394175,0.0857249381428,0.0216190152094,-0.993636778138
549968000000,,10906,,549,960122615,"""map""",,,-0.298198461533,-0.54980045557,0.890476226807,,-0.0697706496926,0.0852485463871,0.0222803414094,-0.993664131443
550004000000,,10907,,550,122615,"""map""",,,-0.331328421831,-0.568221271038,0.95725518465,,-0.0696862868484,0.0845855191667,0.0228805125322,-0.993713106081
550036000000,,10908,,550,32122615,"""map""",,,-0.358578801155,-0.583664953709,1.01242029667,,-0.0696384547851,0.0843753492968,0.0230877485863,-0.993729501205
550068000000,,10909,,550,64122115,"""map""",,,-0.386003792286,-0.600590348244,1.06924176216,,-0.0695196105505,0.0839733638509,0.0235249799928,-0.993761617103
550104000000,,10910,,550,96122115,"""map""",,,-0.413628876209,-0.618924856186,1.12751102448,,-0.0693998588415,0.0835065367958,0.0239613684623,-0.993798874917
550136000000,,10911,,550,128122115,"""map""",,,-0.441370069981,-0.638568282127,1.18721461296,,-0.0694091390507,0.0832469148431,0.0241678458731,-0.99381501716
550168000000,,10912,,550,160121616,"""map""",,,-0.469237864017,-0.659443080425,1.24835646152,,-0.0694739951481,0.0828405322956,0.0244501876113,-0.993837481431
550204000000,,10913,,550,200121616,"""map""",,,-0.50802052021,-0.682388663292,1.32641673088,,-0.06934880452,0.0824684427948,0.0247781322396,-0.993869133714
550236000000,,10914,,550,232121616,"""map""",,,-0.539632260799,-0.701356351376,1.39053046703,,-0.0692686589948,0.0822979199384,0.0249380373828,-0.993884812342
550268000000,,10915,,550,264121116,"""map""",,,-0.571105957031,-0.721625506878,1.45622718334,,-0.0691704383986,0.0821103954385,0.0251292576345,-0.993902387577
550304000000,,10916,,550,296121116,"""map""",,,-0.602462947369,-0.743088901043,1.52344167233,,-0.069179514459,0.0817939529486,0.0253117534886,-0.993923208121
550336000000,,10917,,550,328121116,"""map""",,,-0.633717298508,-0.76565015316,1.59217309952,,-0.0691760412952,0.0815957850524,0.0254139174493,-0.993937116581
550368000000,,10918,,550,360120618,"""map""",,,-0.664867758751,-0.78922855854,1.66248500347,,-0.069276340258,0.0811506721853,0.0254951765733,-0.993964512032
550404000000,,10919,,550,400120618,"""map""",,,-0.707815825939,-0.815897107124,1.75212967396,,-0.0692842967927,0.080783413767,0.0255715045159,-0.993991865337
550436000000,,10920,,550,432120618,"""map""",,,-0.742503643036,-0.837654411793,1.82438278198,,-0.0693089191133,0.0806841493776,0.0256247781324,-0.993996838665
550468000000,,10921,,550,464120119,"""map""",,,-0.776583611965,-0.860344231129,1.89558672905,,-0.0693341354411,0.08034839507,0.025826324362,-0.994017069152
550504000000,,10922,,550,496120119,"""map""",,,-0.810021460056,-0.883816599846,1.964397192,,-0.0678928903705,0.0812954894153,0.044775125984,-0.993366406105
550536000000,,10923,,550,528120119,"""map""",,,-0.842839479446,-0.907965838909,2.03038358688,,-0.0680512275193,0.0810952056155,0.0445713459715,-0.993381115355
550568000000,,10924,,550,560119622,"""map""",,,-0.875098884106,-0.932734310627,2.09349012375,,-0.0684655303816,0.080405589002,0.0437238571416,-0.993446358677
550604000000,,10925,,550,600119622,"""map""",,,-0.919380247593,-0.960633516312,2.16836190224,,-0.069044182904,0.0796721100316,0.0424681760839,-0.993519904927
550636000000,,10926,,550,632119622,"""map""",,,-0.954888284206,-0.983153402805,2.22583532333,,-0.0693649622388,0.0792957179302,0.0416387261052,-0.993562726125
550668000000,,10927,,550,664119124,"""map""",,,-0.989673197269,-1.00658500195,2.28157758713,,-0.0699455518699,0.0787355379105,0.0396904037391,-0.99364638762
550704000000,,10928,,550,704119124,"""map""",,,-1.03215003014,-1.03700935841,2.34799957275,,-0.0706337605152,0.0772658529368,0.0374042322354,-0.993801698756
550736000000,,10929,,550,728119124,"""map""",,,-1.05704247952,-1.05565202236,2.38318371773,,-0.0708741425962,0.0752994836523,0.0365397160787,-0.993967673046
550768000000,,10930,,550,760118627,"""map""",,,-1.08956301212,-1.08085560799,2.42285180092,,-0.0714330045391,0.0661799645741,0.0345121997842,-0.994648934705
550804000000,,10931,,550,800118627,"""map""",,,-1.13417315483,-1.1093609333,2.46171998978,,-0.0718213691442,0.0511783392862,0.0326598457922,-0.995568157471
550836000000,,10932,,550,832118627,"""map""",,,-1.16964662075,-1.13214206696,2.48321604729,,-0.0715337702453,0.0416354913346,0.031732868006,-0.996063467235
550868000000,,10933,,550,864118131,"""map""",,,-1.20403456688,-1.15547192097,2.49595737457,,-0.0672239178102,0.0201469258897,0.0295636540069,-0.997096317904
550904000000,,10934,,550,896118131,"""map""",,,-1.23705303669,-1.17943584919,2.50292873383,,-0.0521075897094,0.00033480139368,0.0269692204531,-0.998277230453
550936000000,,10935,,550,928118131,"""map""",,,-1.26769602299,-1.20438110828,2.51505732536,,-0.0406294460607,-0.00322859347573,0.025926212393,-0.998832683769
550968000000,,10936,,550,960117634,"""map""",,,-1.29549884796,-1.22996342182,2.53817653656,,-0.0298306753656,-0.00244058175165,0.0252610508298,-0.999232741655
551004000000,,10937,,551,117634,"""map""",,,-1.331335783,-1.25887787342,2.59094977379,,-0.0223826614452,-0.0012833129267,0.0251900755369,-0.999431253312
551036000000,,10938,,551,32117634,"""map""",,,-1.35801410675,-1.28142046928,2.64632081985,,-0.0201584833458,0.00277073777237,0.0252911858265,-0.999473020839
551068000000,,10939,,551,64117139,"""map""",,,-1.38263547421,-1.30391538143,2.70544862747,,-0.0266329228463,0.0246445135589,0.0252806491144,-0.999021712385
551104000000,,10940,,551,96117139,"""map""",,,-1.40599370003,-1.32648277283,2.76259112358,,-0.0436779809556,0.0598120250561,0.0243585603626,-0.996956095339
551136000000,,10941,,551,128117139,"""map""",,,-1.42863750458,-1.34930920601,2.81497383118,,-0.0546773634055,0.0811400656674,0.0235439039278,-0.994923310689
551168000000,,10942,,551,160116643,"""map""",,,-1.45093297958,-1.37255597115,2.86188149452,,-0.0764014889039,0.123354574358,0.0216306898865,-0.989180802579
551204000000,,10943,,551,200116643,"""map""",,,-1.4856044054,-1.39981782436,2.90786957741,,-0.0915651558181,0.150666859621,0.0197673777138,-0.984136499162
551236000000,,10944,,551,232116643,"""map""",,,-1.51519143581,-1.42234539986,2.93984127045,,-0.0951911677335,0.156994732139,0.0190146349994,-0.982817302804
551268000000,,10945,,551,264116149,"""map""",,,-1.54565906525,-1.44615018368,2.96956372261,,-0.0938172568632,0.155963448805,0.0179138857568,-0.983134204958
551304000000,,10946,,551,296116149,"""map""",,,-1.57694339752,-1.4711586237,2.99736690521,,-0.0850960386744,0.138555538599,0.0173834255215,-0.98653882738
551336000000,,10947,,551,328116149,"""map""",,,-1.60811114311,-1.49683201313,3.01993894577,,-0.0796697083197,0.124864205983,0.0170280432948,-0.988823439451
551368000000,,10948,,551,360115654,"""map""",,,-1.63869452477,-1.52287685871,3.03519248962,,-0.0683796904221,0.0894423237672,0.0161936621349,-0.993510042565
551404000000,,10949,,551,400115654,"""map""",,,-1.68011868,-1.55275082588,3.04631328583,,-0.0524136719771,0.0355665888105,0.0146541220524,-0.997884295384
551436000000,,10950,,551,432115654,"""map""",,,-1.71260261536,-1.57664310932,3.05081176758,,-0.0395113797317,0.0101397046198,0.013123769983,-0.999081518763
551468000000,,10951,,551,464115160,"""map""",,,-1.74286162853,-1.60072338581,3.05348944664,,0.0174170573895,-0.0546734885297,0.00700476407566,-0.998327806671
551504000000,,10952,,551,496115160,"""map""",,,-1.76976513863,-1.62392520905,3.05590415001,,0.0779297000451,-0.096124150787,-0.000170694736469,-0.992314083591
551536000000,,10953,,551,528115160,"""map""",,,-1.79241371155,-1.64508605003,3.0591108799,,0.101717345475,-0.101140241149,-0.00412217251861,-0.989650107737
551568000000,,10954,,551,560114667,"""map""",,,-1.81070947647,-1.66318321228,3.06389069557,,0.1121308686,-0.0893293814084,-0.00960754270545,-0.989623513076
551604000000,,10955,,551,600114667,"""map""",,,-1.83171999454,-1.67634296417,3.08310627937,,0.0830026139284,-0.0676217827431,-0.0095397284262,-0.994206687824
551636000000,,10956,,551,632114667,"""map""",,,-1.84426605701,-1.68208324909,3.11112880707,,0.0686418932106,-0.0546413686798,-0.00891119247436,-0.996104096797
551668000000,,10957,,551,664114173,"""map""",,,-1.85377705097,-1.68594777584,3.14715051651,,0.0322208784624,-0.0171348197014,-0.00784226410242,-0.999303126892
551704000000,,10958,,551,696114173,"""map""",,,-1.86188399792,-1.68948149681,3.18635225296,,-0.0169893867322,0.0321555929941,-0.00736115782667,-0.999311429822
551736000000,,10959,,551,728114173,"""map""",,,-1.86954319477,-1.6935710907,3.22437262535,,-0.0433170834187,0.0591403248045,-0.00740794082852,-0.997281890478
551768000000,,10960,,551,760113681,"""map""",,,-1.87724137306,-1.69872355461,3.2587864399,,-0.0928580709823,0.111966340474,-0.00783792297703,-0.989332826262
551804000000,,10961,,551,800113681,"""map""",,,-1.89493405819,-1.70690345764,3.29260993004,,-0.129558726119,0.151399288872,-0.00822837138163,-0.979910813984
551836000000,,10962,,551,832113681,"""map""",,,-1.91154611111,-1.71576476097,3.31515479088,,-0.140847627784,0.163760100798,-0.00836876253402,-0.976357792507
551868000000,,10963,,551,864113189,"""map""",,,-1.92960488796,-1.72719192505,3.33513522148,,-0.148232655215,0.17155685289,-0.00854169105346,-0.973921156754
551904000000,,10964,,551,896113189,"""map""",,,-1.94920527935,-1.74130785465,3.35294675827,,-0.138295391787,0.158402827396,-0.00834516029885,-0.977605929279
551936000000,,10965,,551,928113189,"""map""",,,-1.97020769119,-1.75791466236,3.36903500557,,-0.128730001856,0.146222424397,-0.00816308591329,-0.980806308074
551968000000,,10966,,551,960112697,"""map""",,,-1.99232280254,-1.7766726017,3.3844192028,,-0.104557708832,0.116408397695,-0.00723973275611,-0.987656013894
552004000000,,10967,,552,112697,"""map""",,,-2.0251595974,-1.79899466038,3.40560436249,,-0.0791343521352,0.0852178947623,-0.00573782980942,-0.993198282326
552036000000,,10968,,552,32112697,"""map""",,,-2.05199193954,-1.81774449348,3.42299675941,,-0.0672754487533,0.0706843046294,-0.00472440883698,-0.99521631558
552068000000,,10969,,552,64112206,"""map""",,,-2.07802176476,-1.83743000031,3.44029188156,,-0.046761141174,0.0455556510037,-0.00221262525312,-0.997864317778
552104000000,,10970,,552,96112206,"""map""",,,-2.10293865204,-1.85762298107,3.45735907555,,-0.0312475085206,0.026920521416,0.000691208315579,-0.999148869427
552132000000,,10971,,552,128112206,"""map""",,,-2.1265437603,-1.87803292274,3.47396636009,,-0.0253969897274,0.0202017172867,0.00223083269168,-0.99947087135
552168000000,,10972,,552,160111715,"""map""",,,-2.14875006676,-1.89845323563,3.48993706703,,-0.0173008420645,0.0113768483081,0.00524058129069,-0.999771926288
552204000000,,10973,,552,200111715,"""map""",,,-2.17939734459,-1.92076361179,3.50949501991,,-0.0130896519445,0.00794638147086,0.00816245371056,-0.99984947649
552236000000,,10974,,552,232111715,"""map""",,,-2.20293426514,-1.93807399273,3.52441978455,,-0.0120453638385,0.00774014492266,0.00952147884079,-0.999852216035
552268000000,,10975,,552,264111225,"""map""",,,-2.22485542297,-1.95538306236,3.53864598274,,-0.0113988959667,0.00894933117404,0.0120027481063,-0.999822966122
552304000000,,10976,,552,296111225,"""map""",,,-2.24531745911,-1.97266972065,3.55234289169,,-0.0120041360918,0.0114390526731,0.014401620283,-0.999758860765
552336000000,,10977,,552,328111225,"""map""",,,-2.26444935799,-1.98993062973,3.56558346748,,-0.0123705428062,0.0124087063248,0.0152055292715,-0.999730875258
552368000000,,10978,,552,360110735,"""map""",,,-2.2823548317,-2.00715303421,3.57843708992,,-0.0135188500958,0.0145746296388,0.0170957311335,-0.999656191042
552404000000,,10979,,552,400110735,"""map""",,,-2.30855178833,-2.02587556839,3.59421038628,,-0.0146468486753,0.0163739351542,0.0189695800183,-0.999578725135
552436000000,,10980,,552,432110735,"""map""",,,-2.32901549339,-2.04051470757,3.60629105568,,-0.0149690286519,0.0168467632786,0.0195775483081,-0.99955432211
552468000000,,10981,,552,464110245,"""map""",,,-2.34819817543,-2.05536818504,3.61782050133,,-0.0155560619764,0.0176300372688,0.0210602744387,-0.999501722843
552504000000,,10982,,552,496110245,"""map""",,,-2.3661813736,-2.0704100132,3.62868690491,,-0.0143639593574,0.0163842713396,0.022264325607,-0.999514704072
552536000000,,10983,,552,528110245,"""map""",,,-2.38310909271,-2.08562111855,3.63728547096,,-0.00749567789014,0.0103893214704,0.0223277987608,-0.999668624363
552568000000,,10984,,552,560109756,"""map""",,,-2.3989918232,-2.10093617439,3.6423997879,,0.0251393346826,-0.0133746425133,0.0209771187066,-0.999374397213
