rosbagTimestamp,header,seq,stamp,secs,nsecs,frame_id,pose,position,x,y,z,orientation,x,y,z,w
836068000000,,19129,,836,64027960,"""map""",,,0.758215904236,0.0331995822489,-0.0290397386998,,0.00535747329071,-0.00498007653855,0.0398935094021,-0.999177192109
836100000000,,19130,,836,96027960,"""map""",,,0.758115589619,0.0334590487182,-0.028863992542,,0.00531047496539,-0.00492820889398,0.0399182074553,-0.999176686347
836132000000,,19131,,836,128027960,"""map""",,,0.758775651455,0.0342326723039,-0.0288032721728,,0.00532953388142,-0.00491758264038,0.0399508712629,-0.999175379795
836168000000,,19132,,836,160027843,"""map""",,,0.760143339634,0.0354586429894,-0.0288598518819,,0.00532114309831,-0.00495470111056,0.0399536529549,-0.999175126914
836200000000,,19133,,836,192027843,"""map""",,,0.758302986622,0.0345085524023,-0.0285310745239,,0.00529177709639,-0.00489970426828,0.0399571089965,-0.999175379795
836232000000,,19134,,836,224027843,"""map""",,,0.756154298782,0.0333694182336,-0.0281839687377,,0.00528385085469,-0.00486213496264,0.0399701323727,-0.999175084767
836268000000,,19135,,836,264027726,"""map""",,,0.754750490189,0.0328079611063,-0.0280674789101,,0.00516945239229,-0.00477693517012,0.0399591320452,-0.999176559906
836300000000,,19136,,836,296027726,"""map""",,,0.754584550858,0.0329820290208,-0.0282650627196,,0.00512016111789,-0.0046724207405,0.0399404188445,-0.999178077193
836332000000,,19137,,836,328027726,"""map""",,,0.755207359791,0.0336395874619,-0.0286282803863,,0.00508416970548,-0.00464837725993,0.0399821442245,-0.999176728494
836368000000,,19138,,836,360027609,"""map""",,,0.756511449814,0.0347685627639,-0.0290145203471,,0.00502557231226,-0.00460492923037,0.0399859374409,-0.999177065669
836400000000,,19139,,836,392027609,"""map""",,,0.754630982876,0.0338472872972,-0.0290007181466,,0.00501330323707,-0.00453637777228,0.0399992979919,-0.999176854934
836432000000,,19140,,836,424027609,"""map""",,,0.752418160439,0.0327423289418,-0.0289603732526,,0.00500055484437,-0.00449417589415,0.0399615344156,-0.999178625102
836468000000,,19141,,836,464027492,"""map""",,,0.750931143761,0.0322216339409,-0.0291152186692,,0.00503235851052,-0.00444482465104,0.0399740941765,-0.999178203633
836500000000,,19142,,836,496027492,"""map""",,,0.750636518002,0.0324383229017,-0.0294500123709,,0.00494683315005,-0.00438018935134,0.0399824813993,-0.999178582955
836532000000,,19143,,836,528027492,"""map""",,,0.751125633717,0.0331637747586,-0.0299901217222,,0.00495888055299,-0.00463690318173,0.0400298966039,-0.999175421941
836568000000,,19144,,836,560027375,"""map""",,,0.752251029015,0.0343138724566,-0.0305436570197,,0.0051545507134,-0.00488388293198,0.0400370194213,-0.999172935277
836600000000,,19145,,836,600027375,"""map""",,,0.749668598175,0.0332328602672,-0.0314204059541,,0.00512950825169,-0.00481178810314,0.0400961935966,-0.999171080816
836632000000,,19146,,836,624027375,"""map""",,,0.748091638088,0.0325656645,-0.0319441147149,,0.00508425483265,-0.00475123581026,0.0400688824388,-0.999172682396
836668000000,,19147,,836,664027259,"""map""",,,0.746587395668,0.0321841053665,-0.0327747240663,,0.00509644289658,-0.00474672637529,0.040138930501,-0.999169816411
836700000000,,19148,,836,696027259,"""map""",,,0.746299445629,0.0324609614909,-0.0333961807191,,0.00509332981263,-0.00474067647095,0.0401643029038,-0.99916888918
836732000000,,19149,,836,728027259,"""map""",,,0.746723890305,0.0332163795829,-0.0341840647161,,0.00512034655991,-0.00467059552266,0.0401914454742,-0.999168046243
836768000000,,19150,,836,760027142,"""map""",,,0.747808992863,0.0344299860299,-0.0348904728889,,0.00513079517113,-0.00466749034125,0.0402182508699,-0.999166866131
836800000000,,19151,,836,792027142,"""map""",,,0.745781838894,0.0336006097496,-0.0349274538457,,0.00513033445751,-0.00462593854944,0.0402415580771,-0.999166149635
836832000000,,19152,,836,824027142,"""map""",,,0.74343764782,0.0325685590506,-0.0349006205797,,0.00510345892687,-0.0045767772141,0.04025382281,-0.999166023194
836868000000,,19153,,836,864027025,"""map""",,,0.741702377796,0.0320845283568,-0.0350138284266,,0.00505990559192,-0.00446051167512,0.0403103417339,-0.999164463761
836900000000,,19154,,836,896027025,"""map""",,,0.741178929806,0.0322775579989,-0.0352648608387,,0.00504245373029,-0.00432792339023,0.040343974919,-0.999163789411
836932000000,,19155,,836,928027025,"""map""",,,0.741354167461,0.0329609103501,-0.0355203486979,,0.00505147126256,-0.00429655946718,0.0403872597324,-0.999162145684
836968000000,,19156,,836,960026909,"""map""",,,0.742197036743,0.0340750105679,-0.0358550325036,,0.00499798814657,-0.00428952497706,0.0403967006265,-0.99916206139
837000000000,,19157,,836,992026909,"""map""",,,0.740238308907,0.0331658907235,-0.0361471958458,,0.00501511153855,-0.00423789253578,0.0403958998364,-0.999162187831
837032000000,,19158,,837,24026909,"""map""",,,0.738043606281,0.0320753604174,-0.0364545285702,,0.00501349691089,-0.00426916866662,0.0404101033243,-0.999161471335
837068000000,,19159,,837,64026793,"""map""",,,0.736524939537,0.0315668694675,-0.0369938984513,,0.00496562673438,-0.00409408464868,0.0404275099727,-0.999161766363
837100000000,,19160,,837,96026793,"""map""",,,0.736171901226,0.0317791067064,-0.0374244712293,,0.00512943085213,-0.00452921556569,0.040449131306,-0.99915818388
837132000000,,19161,,837,128026793,"""map""",,,0.736493706703,0.0324124619365,-0.0378913171589,,0.00511478426662,-0.00451151181078,0.040452208026,-0.999158226027
837168000000,,19162,,837,160026677,"""map""",,,0.737482607365,0.0334382466972,-0.0384417586029,,0.00510612296578,-0.00445115764719,0.0404279735881,-0.99915953258
837200000000,,19163,,837,192026677,"""map""",,,0.735642194748,0.0324783362448,-0.0387788712978,,0.00506992689008,-0.00444285718758,0.0404022640105,-0.999160796985
837232000000,,19164,,837,224026677,"""map""",,,0.733569443226,0.031324300915,-0.0390454418957,,0.00507827970398,-0.00439997820221,0.0403866696765,-0.999161555628
837268000000,,19165,,837,264026560,"""map""",,,0.732214152813,0.0306891351938,-0.0393926724792,,0.00504282914182,-0.00434026908297,0.0403835929566,-0.999162103537
837300000000,,19166,,837,296026560,"""map""",,,0.732012450695,0.0307854413986,-0.039758734405,,0.0050556592352,-0.00424892599626,0.0404582350253,-0.999159448286
837332000000,,19167,,837,328026560,"""map""",,,0.732522904873,0.031360141933,-0.0401790216565,,0.00503013865988,-0.00425715516843,0.0404768639323,-0.999158773936
837368000000,,19168,,837,360026444,"""map""",,,0.733672142029,0.0323678143322,-0.0405713059008,,0.00501587940144,-0.0041601467468,0.0404795191838,-0.999159153258
837400000000,,19169,,837,392026444,"""map""",,,0.732007622719,0.0313240326941,-0.0406158156693,,0.00498997913406,-0.00408134173014,0.0404608059831,-0.99916033337
837432000000,,19170,,837,424026444,"""map""",,,0.730074644089,0.030049758032,-0.0406311415136,,0.00495040015638,-0.00404039981228,0.0404453380897,-0.999161387041
837468000000,,19171,,837,464026329,"""map""",,,0.728824496269,0.0292890928686,-0.0407425388694,,0.00494239986958,-0.003944034624,0.0404603423677,-0.99916113416
837500000000,,19172,,837,496026329,"""map""",,,0.728674411774,0.0292678941041,-0.0409908294678,,0.0048795008019,-0.00390394786734,0.0404489205718,-0.999162103537
837532000000,,19173,,837,528026329,"""map""",,,0.729170978069,0.0297349039465,-0.0413397662342,,0.00487244075202,-0.00388838493773,0.0404563384171,-0.99916193495
837568000000,,19174,,837,560026213,"""map""",,,0.730265915394,0.0306618344039,-0.0417229533195,,0.0048100942855,-0.00381035210567,0.0404206400364,-0.999163915852
837600000000,,19175,,837,592026213,"""map""",,,0.728588819504,0.0296060666442,-0.0419364571571,,0.00496075202329,-0.00423608215577,0.040530095402,-0.999157045916
837632000000,,19176,,837,624026213,"""map""",,,0.726603925228,0.0283622350544,-0.0421073064208,,0.00494426556733,-0.00429330946771,0.0404920789447,-0.999158394615
837668000000,,19177,,837,664026097,"""map""",,,0.725267529488,0.0276233907789,-0.0425300188363,,0.00492208934856,-0.00430544090711,0.0405658359296,-0.999155444335
837700000000,,19178,,837,696026097,"""map""",,,0.725042998791,0.0276233591139,-0.0429384633899,,0.00490955341878,-0.00428400318426,0.0406026722752,-0.999154095636
837732000000,,19179,,837,728026097,"""map""",,,0.725480496883,0.0281068701297,-0.043406099081,,0.00490188894853,-0.00424164263806,0.0405947486676,-0.999154685692
837768000000,,19180,,837,760025982,"""map""",,,0.726520717144,0.0290295239538,-0.0439265295863,,0.00482830092146,-0.00426266037414,0.0405881316124,-0.999155233601
837800000000,,19181,,837,792025982,"""map""",,,0.724995791912,0.0279720909894,-0.0446641780436,,0.00488238345701,-0.00423039014979,0.0406277917969,-0.99915350558
837832000000,,19182,,837,824025982,"""map""",,,0.723262012005,0.0267200190574,-0.0454733669758,,0.0048532773538,-0.00420047222584,0.0406289297618,-0.999153716314
837868000000,,19183,,837,864025866,"""map""",,,0.72222328186,0.0259809400886,-0.0465787611902,,0.00482742460451,-0.00414519492591,0.0406059175825,-0.99915498072
837900000000,,19184,,837,896025866,"""map""",,,0.722224473953,0.0259710177779,-0.0474965982139,,0.00474567795185,-0.00405861891942,0.0406062969041,-0.99915578151
837932000000,,19185,,837,928025866,"""map""",,,0.722888588905,0.026445640251,-0.0485603399575,,0.0047317890218,-0.00399996983046,0.0406114388196,-0.999155865804
837968000000,,19186,,837,960025751,"""map""",,,0.724143385887,0.0273286607116,-0.0495699420571,,0.00468544255265,-0.00394827285181,0.0406347881737,-0.999155360042
838000000000,,19187,,837,992025751,"""map""",,,0.72248339653,0.0261328797787,-0.0500587634742,,0.00466671556363,-0.00389953919997,0.0406406887325,-0.999155360042
838032000000,,19188,,838,24025751,"""map""",,,0.720483899117,0.0247499812394,-0.050479605794,,0.00467985476134,-0.00386519684475,0.0406315850132,-0.99915578151
838068000000,,19189,,838,64025636,"""map""",,,0.719099104404,0.0238389577717,-0.0511240437627,,0.00463721877889,-0.00386029447479,0.0406592754927,-0.999154896426
838100000000,,19190,,838,96025636,"""map""",,,0.71882879734,0.0237056333572,-0.051626034081,,0.00464585970602,-0.00383694956589,0.0406974605375,-0.99915337914
838132000000,,19191,,838,128025636,"""map""",,,0.719198524952,0.0240592379123,-0.0521955676377,,0.00458660646421,-0.0038306367994,0.0407163423256,-0.999152873378
838168000000,,19192,,838,160025521,"""map""",,,0.720175683498,0.0248589571565,-0.0529726594687,,0.00470107549377,-0.0041387333901,0.040722622206,-0.999150892476
838200000000,,19193,,838,192025521,"""map""",,,0.718436837196,0.0238841883838,-0.0532519444823,,0.00463546340793,-0.0040581564977,0.0407559182163,-0.999150133832
838232000000,,19194,,838,224025521,"""map""",,,0.716422319412,0.0227736998349,-0.053408138454,,0.00459509300381,-0.00402197241986,0.0407750107387,-0.999149754511
838268000000,,19195,,838,264025406,"""map""",,,0.715019643307,0.0221465937793,-0.0538175813854,,0.00460616873462,-0.0039772496745,0.0408434572207,-0.999147057112
838300000000,,19196,,838,296025406,"""map""",,,0.71467512846,0.0221900381148,-0.0542209744453,,0.00458936142342,-0.00392664376005,0.0408601895196,-0.999146677791
838332000000,,19197,,838,328025406,"""map""",,,0.714948534966,0.0226626396179,-0.0545577481389,,0.00460276319517,-0.00392772996748,0.040867860246,-0.999146256322
838368000000,,19198,,838,360025291,"""map""",,,0.715802550316,0.0235851816833,-0.0549360886216,,0.0046362034679,-0.00384281390474,0.0408269356561,-0.99914815293
838400000000,,19199,,838,392025291,"""map""",,,0.714096307755,0.0225733462721,-0.0549769587815,,0.00457308522837,-0.00378657424491,0.0407867275626,-0.999150260273
838432000000,,19200,,838,424025291,"""map""",,,0.712171375751,0.0213697589934,-0.0548869594932,,0.00455096443024,-0.00375741615785,0.0407721026062,-0.999151061063
838468000000,,19201,,838,464025176,"""map""",,,0.710833787918,0.0206321142614,-0.0551339201629,,0.004521784817,-0.00369857800487,0.0407195454861,-0.999153547727
838500000000,,19202,,838,496025176,"""map""",,,0.710533261299,0.0205952338874,-0.0554324388504,,0.00446423609417,-0.00360697825044,0.0407475309935,-0.999153041965
838532000000,,19203,,838,528025176,"""map""",,,0.710835158825,0.0209972914308,-0.0558364056051,,0.00447806380016,-0.00357294244768,0.0407533894054,-0.999152831231
838568000000,,19204,,838,560025062,"""map""",,,0.711713016033,0.021784581244,-0.0563126802444,,0.00450995995065,-0.00349257215304,0.0407627038589,-0.999152620496
838600000000,,19205,,838,592025062,"""map""",,,0.710028409958,0.0207442101091,-0.0563714392483,,0.00449080424916,-0.00340913320564,0.0407477417277,-0.999153589874
838632000000,,19206,,838,624025062,"""map""",,,0.708087027073,0.0195083450526,-0.0563627593219,,0.00445839538061,-0.00335783118906,0.0407146985985,-0.999155275748
838668000000,,19207,,838,664024947,"""map""",,,0.706761658192,0.0187311992049,-0.0565264075994,,0.0046436822286,-0.00370181919631,0.0407208941852,-0.999152957671
838700000000,,19208,,838,696024947,"""map""",,,0.706419587135,0.0186408609152,-0.0567272864282,,0.00458164927043,-0.00362693482437,0.0407511977693,-0.999152325468
838732000000,,19209,,838,728024947,"""map""",,,0.706663191319,0.018984656781,-0.0570377372205,,0.00455147393789,-0.00360972458684,0.0407651483762,-0.999151946147
838768000000,,19210,,838,760024833,"""map""",,,0.707471370697,0.0197284035385,-0.057476721704,,0.00457518796099,-0.00348549493985,0.040786053213,-0.999151356091
838800000000,,19211,,838,792024833,"""map""",,,0.705895006657,0.018735524267,-0.0574819073081,,0.00452712804134,-0.00336058155904,0.0407766544658,-0.999152409762
838832000000,,19212,,838,824024833,"""map""",,,0.704120874405,0.0175743047148,-0.0574583001435,,0.00450136779698,-0.00331430230258,0.0407998352325,-0.999151735413
838868000000,,19213,,838,864024718,"""map""",,,0.702904701233,0.0168394967914,-0.0577533356845,,0.00447492369531,-0.00327744183779,0.040855047604,-0.999149712364
838900000000,,19214,,838,896024718,"""map""",,,0.702652752399,0.0167806521058,-0.0581512115896,,0.00447286516749,-0.00325294258268,0.0408529824085,-0.999149838804
838932000000,,19215,,838,928024718,"""map""",,,0.702938377857,0.017172312364,-0.0585639663041,,0.00448077774439,-0.0032376529902,0.0408772168464,-0.999148953721
838968000000,,19216,,838,960024604,"""map""",,,0.703699290752,0.017938842997,-0.0589873865247,,0.00446205417158,-0.00321325638573,0.0408514229751,-0.999150133832
839000000000,,19217,,838,992024604,"""map""",,,0.70216602087,0.0169345103204,-0.0590453147888,,0.00434500714607,-0.00318058397589,0.0408726649867,-0.999149880951
839032000000,,19218,,839,24024604,"""map""",,,0.700449407101,0.0157550275326,-0.0590006001294,,0.0043811286416,-0.00314253294495,0.0408589672609,-0.99915042886
839068000000,,19219,,839,64024490,"""map""",,,0.699254930019,0.0150021295995,-0.0591487213969,,0.00441045667431,-0.00315403335465,0.0408743508607,-0.99914962807
839100000000,,19220,,839,96024490,"""map""",,,0.699028491974,0.0149124171585,-0.0594877488911,,0.0044083384659,-0.00319091546909,0.040907646871,-0.999148110784
839132000000,,19221,,839,128024490,"""map""",,,0.699339270592,0.0152268288657,-0.0598656721413,,0.00448921493431,-0.00337201393285,0.0409183521705,-0.999146762084
839168000000,,19222,,839,160024376,"""map""",,,0.700141608715,0.0159150511026,-0.0602769851685,,0.0044966756262,-0.00336877451126,0.0409634071516,-0.999144865476
839200000000,,19223,,839,192024376,"""map""",,,0.701396048069,0.0169543363154,-0.0607943795621,,0.00451610939811,-0.00331600916762,0.0410183244952,-0.999142715987
839232000000,,19224,,839,224024376,"""map""",,,0.703104972839,0.018322777003,-0.0614323243499,,0.00446782606724,-0.00333974788614,0.0410106116219,-0.999143179602
839268000000,,19225,,839,264024263,"""map""",,,0.705810129642,0.0204144604504,-0.0622160434723,,0.00453237013794,-0.00326941916048,0.0409816145901,-0.99914427542
839300000000,,19226,,839,296024263,"""map""",,,0.703940331936,0.0190917719156,-0.0625223368406,,0.00451542866888,-0.0031796639069,0.0409570008306,-0.999145708413
839332000000,,19227,,839,328024263,"""map""",,,0.702783405781,0.018283020705,-0.0628322437406,,0.00451608906555,-0.00314679607398,0.0409894117571,-0.999144486155
839368000000,,19228,,839,360024149,"""map""",,,0.702246427536,0.0179366916418,-0.0631814002991,,0.00453558782756,-0.00309066774934,0.0410116231463,-0.999143601071
839400000000,,19229,,839,392024149,"""map""",,,0.702288508415,0.0180097762495,-0.063556663692,,0.00455801538396,-0.00297945917364,0.0410351410877,-0.999142926721
839432000000,,19230,,839,424024149,"""map""",,,0.702824532986,0.0184779390693,-0.0640502721071,,0.00455573278638,-0.00300031272635,0.0410524212956,-0.999142168078
839468000000,,19231,,839,464024035,"""map""",,,0.704136550426,0.0195527598262,-0.0647549256682,,0.00455354024476,-0.00290302158333,0.0410424746394,-0.999142842428
839500000000,,19232,,839,496024035,"""map""",,,0.701714873314,0.0177612863481,-0.0641297027469,,0.0045195213172,-0.00286093120501,0.0410411259402,-0.999143179602
839532000000,,19233,,839,528024035,"""map""",,,0.700025141239,0.0164896249771,-0.0637111887336,,0.0045023426898,-0.00286291391788,0.0410175658519,-0.999144233274
839568000000,,19234,,839,560023922,"""map""",,,0.699014008045,0.0156828388572,-0.0635645985603,,0.00462527459252,-0.0032421768617,0.0410391028915,-0.999141578022
839600000000,,19235,,839,592023922,"""map""",,,0.698566377163,0.0153308752924,-0.063389569521,,0.00461348969159,-0.00321527885823,0.0410841578725,-0.999139934295
839632000000,,19236,,839,624023922,"""map""",,,0.698668003082,0.0153919914737,-0.0633097738028,,0.00461653957584,-0.00319988389863,0.0410613142806,-0.999140861526
839668000000,,19237,,839,664023809,"""map""",,,0.69949477911,0.0160083323717,-0.0632411390543,,0.00462409020022,-0.00317202507872,0.0411030396607,-0.999139175652
839700000000,,19238,,839,696023809,"""map""",,,0.696870326996,0.0143058402464,-0.0626687929034,,0.00457262272433,-0.00314588440143,0.0410968862208,-0.999139765708
839732000000,,19239,,839,728023809,"""map""",,,0.694937825203,0.0131529774517,-0.0623278059065,,0.00458376620291,-0.00311850780073,0.0411298450563,-0.999138417008
839768000000,,19240,,839,760023696,"""map""",,,0.693627655506,0.012470042333,-0.062092833221,,0.00455069640262,-0.00308459111221,0.0411496119283,-0.999137869099
839800000000,,19241,,839,792023696,"""map""",,,0.692892193794,0.0121931312606,-0.0619210414588,,0.00454376201127,-0.00304682877071,0.0411479260543,-0.999138121981
839832000000,,19242,,839,824023696,"""map""",,,0.692713022232,0.0123249683529,-0.0618178397417,,0.00454178538993,-0.00300900625471,0.04117473145,-0.999137110456
839868000000,,19243,,839,864023583,"""map""",,,0.693192124367,0.0129951080307,-0.061893388629,,0.00452933437124,-0.00296593538594,0.0412074795513,-0.999135972491
839900000000,,19244,,839,896023583,"""map""",,,0.69048589468,0.0112607218325,-0.061193831265,,0.00453521607919,-0.00291503952669,0.0412601631119,-0.999133949443
839932000000,,19245,,839,928023583,"""map""",,,0.688476145267,0.0100837247446,-0.060627296567,,0.00453240302401,-0.00288586839221,0.0412613853705,-0.999133991589
839968000000,,19246,,839,960023470,"""map""",,,0.687104642391,0.00939975306392,-0.0602462738752,,0.00452364767477,-0.00282584140176,0.0412938805907,-0.999132853624
840000000000,,19247,,839,992023470,"""map""",,,0.686319768429,0.00914438068867,-0.059990812093,,0.00451296954021,-0.00273825876883,0.0413447939837,-0.999130999163
840032000000,,19248,,840,24023470,"""map""",,,0.686033308506,0.00927897356451,-0.0598535835743,,0.00456823920513,-0.00266964896781,0.0413187472314,-0.999132010687
840068000000,,19249,,840,64023357,"""map""",,,0.686313509941,0.00995702296495,-0.059849049896,,0.00455346130174,-0.00259657966802,0.041299359681,-0.999133106506
840100000000,,19250,,840,96023357,"""map""",,,0.68336057663,0.00830320641398,-0.0593619458377,,0.0046806803292,-0.00281363783117,0.0412270778358,-0.99913491882
840132000000,,19251,,840,128023357,"""map""",,,0.681071400642,0.0071283779107,-0.058846116066,,0.00463573919402,-0.00278204885052,0.0412168782985,-0.99913559317
840168000000,,19252,,840,160023244,"""map""",,,0.679422020912,0.00643917219713,-0.0583866238594,,0.0046115766198,-0.00276743039722,0.0412176369418,-0.999135761757
840200000000,,19253,,840,192023244,"""map""",,,0.67832916975,0.00617356877774,-0.0579327307642,,0.00453464899005,-0.00272023621664,0.0412490784908,-0.99913491882
840232000000,,19254,,840,224023244,"""map""",,,0.677740514278,0.00625678990036,-0.0576765425503,,0.00449320801893,-0.00270803544486,0.0412825430885,-0.999133738708
840268000000,,19255,,840,264023132,"""map""",,,0.677677035332,0.00682930741459,-0.0577615946531,,0.00445132969195,-0.00266508072688,0.041289918787,-0.999133780855
840300000000,,19256,,840,296023132,"""map""",,,0.675100386143,0.00540671311319,-0.056740898639,,0.00445981116898,-0.00261256962258,0.041252913854,-0.999135382435
840332000000,,19257,,840,328023132,"""map""",,,0.673131227493,0.00446186820045,-0.0557741783559,,0.00445499473909,-0.00254169162964,0.0412303231432,-0.999136562547
840368000000,,19258,,840,360035019,"""map""",,,0.671746194363,0.00397537043318,-0.0548550337553,,0.00446631544845,-0.00249067846715,0.0412076481387,-0.999137574071
840400000000,,19259,,840,392035019,"""map""",,,0.670861840248,0.00388236134313,-0.0541181080043,,0.0044898861558,-0.00250353053945,0.0412309974928,-0.999136478253
840432000000,,19260,,840,424035019,"""map""",,,0.670432209969,0.00414080405608,-0.0535517036915,,0.00450464092782,-0.00247567731716,0.0412425457292,-0.999135972491
840468000000,,19261,,840,464034907,"""map""",,,0.670454323292,0.00495575508103,-0.0527928769588,,0.00448098518591,-0.00246279174141,0.0412917732483,-0.99913411803
840500000000,,19262,,840,496034907,"""map""",,,0.667690515518,0.00336238578893,-0.0515128485858,,0.00446187397734,-0.00241053384748,0.0413123830572,-0.999133401533
840532000000,,19263,,840,528034907,"""map""",,,0.665560483932,0.00225567724556,-0.050301797688,,0.00442387184332,-0.00244068283823,0.0413152490429,-0.999133401533
840568000000,,19264,,840,560034795,"""map""",,,0.663977384567,0.00156574288849,-0.0491014607251,,0.00442686394029,-0.00235635786035,0.0413249428181,-0.999133232946
840600000000,,19265,,840,600034795,"""map""",,,0.662700593472,0.00123115046881,-0.0477906800807,,0.00449811829142,-0.00265292564162,0.0413240155874,-0.999132137128
840632000000,,19266,,840,624034795,"""map""",,,0.662251651287,0.00129737576935,-0.0469888523221,,0.0044607176555,-0.00265315868406,0.0413235519721,-0.999132347862
840668000000,,19267,,840,664034682,"""map""",,,0.662000834942,0.00183507951442,-0.045723862946,,0.00438793753906,-0.00264897141112,0.0413334986283,-0.999132263569
840700000000,,19268,,840,696034682,"""map""",,,0.659381568432,0.00021334097255,-0.0443130359054,,0.00437402809124,-0.00262744589606,0.0413667946387,-0.999130999163
840732000000,,19269,,840,728034682,"""map""",,,0.657361328602,-0.000914644042496,-0.0430458001792,,0.00437860950306,-0.00261560073831,0.0414063283826,-0.999129397583
840768000000,,19270,,840,760034570,"""map""",,,0.655849695206,-0.00163361942396,-0.0417774990201,,0.00437803895656,-0.00256388811924,0.0414247465554,-0.99912876538
840800000000,,19271,,840,792034570,"""map""",,,0.654825687408,-0.00195865752175,-0.0406836494803,,0.00433813066547,-0.00256806905368,0.041455724489,-0.999127627415
840832000000,,19272,,840,824034570,"""map""",,,0.654237687588,-0.00192108564079,-0.0397211462259,,0.00434223331544,-0.00257804674384,0.0415146879301,-0.999125140751
840868000000,,19273,,840,864034458,"""map""",,,0.654005587101,-0.00143083883449,-0.0385878123343,,0.00426485647602,-0.00249968505111,0.0415865483068,-0.999122738381
840900000000,,19274,,840,896034458,"""map""",,,0.651491880417,-0.00326933665201,-0.0373536497355,,0.00422005437605,-0.00243587142974,0.0416581136556,-0.999120040983
840932000000,,19275,,840,928034458,"""map""",,,0.649519383907,-0.0046539590694,-0.0362046472728,,0.00420525325896,-0.00239066333708,0.0416951607354,-0.99911873443
840968000000,,19276,,840,960034346,"""map""",,,0.648043096066,-0.00561034586281,-0.03517979756,,0.00417376684663,-0.00227641845961,0.0417354531226,-0.999117385731
841000000000,,19277,,840,992034346,"""map""",,,0.647059679031,-0.00617141090333,-0.0342694222927,,0.0041159514956,-0.00224555618284,0.0417578330991,-0.999116837822
841032000000,,19278,,841,24034346,"""map""",,,0.646461308002,-0.00638141436502,-0.0335249900818,,0.00408653554719,-0.0022875733804,0.0417705614474,-0.999116247766
841068000000,,19279,,841,64034233,"""map""",,,0.646219074726,-0.00618854071945,-0.0326669178903,,0.00400133264716,-0.00221756129117,0.0418691007792,-0.999112623137
841100000000,,19280,,841,96034233,"""map""",,,0.643890619278,-0.00789368059486,-0.0317240618169,,0.00400121575551,-0.00218878717671,0.0418929137486,-0.999111738053
841132000000,,19281,,841,128034233,"""map""",,,0.642106711864,-0.00912830978632,-0.030907034874,,0.00398349135935,-0.00218636011092,0.041889457707,-0.999111906641
841168000000,,19282,,841,160034121,"""map""",,,0.640777289867,-0.00995257217437,-0.0301240552217,,0.00395624350411,-0.0021469046515,0.0419503599031,-0.999109588564
841200000000,,19283,,841,192034121,"""map""",,,0.639888048172,-0.0104321464896,-0.0293600335717,,0.00396449605461,-0.00205325600047,0.0419847938784,-0.999108282012
841232000000,,19284,,841,224034121,"""map""",,,0.639390945435,-0.0106038879603,-0.0286130737513,,0.00399371254634,-0.00207393479193,0.0420172048049,-0.999106806872
841268000000,,19285,,841,264034009,"""map""",,,0.639245927334,-0.0103561831638,-0.0276662260294,,0.00388721618587,-0.00204711013385,0.0420362130336,-0.99910642755
841300000000,,19286,,841,296034009,"""map""",,,0.637040674686,-0.011781739071,-0.0259188562632,,0.00333181773433,-0.00200161503926,0.0418719667649,-0.999115489123
841332000000,,19287,,841,328034009,"""map""",,,0.635198652744,-0.0127821201459,-0.0234987493604,,0.00214826890876,-0.00174695797714,0.0416128057934,-0.999129945492
841368000000,,19288,,841,360033897,"""map""",,,0.633617997169,-0.0134886847809,-0.0201510470361,,-0.000882430913337,-0.000166597231381,0.0410982349199,-0.999154769986
841400000000,,19289,,841,392033897,"""map""",,,0.632246911526,-0.0139596285298,-0.0158002264798,,-0.00573422526606,0.0035606701415,0.0403465037299,-0.999162946474
841432000000,,19290,,841,424033897,"""map""",,,0.631077766418,-0.0142304571345,-0.0105616440997,,-0.00914167580816,0.00684068968713,0.0398804017322,-0.999139217799
841468000000,,19291,,841,464033785,"""map""",,,0.629828453064,-0.0143498601392,-0.00319655775093,,-0.0155465809934,0.013768965053,0.0391225171023,-0.999018593518
841500000000,,19292,,841,496033785,"""map""",,,0.626754581928,-0.0163592770696,0.00299247074872,,-0.0225474294046,0.0222824189939,0.038371123087,-0.998760654805
841532000000,,19293,,841,528033785,"""map""",,,0.623956799507,-0.0180798955262,0.00965939089656,,-0.026289721347,0.0270215533799,0.0379412252322,-0.99856854947
841568000000,,19294,,841,560033673,"""map""",,,0.621444880962,-0.0195398181677,0.0153944417834,,-0.032521557537,0.0353374237182,0.0371646274016,-0.99815449883
841600000000,,19295,,841,592033673,"""map""",,,0.618912041187,-0.0210497546941,0.0176421869546,,-0.0317003813469,0.03761222364,0.0359377326414,-0.998142782006
841632000000,,19296,,841,624033673,"""map""",,,0.6162571311,-0.0226293969899,0.0160959269851,,-0.0281648715569,0.0350791404219,0.035339963889,-0.99836232494
841668000000,,19297,,841,664033561,"""map""",,,0.612777590752,-0.0247432105243,0.0106793260202,,-0.0202553769749,0.0279633783401,0.034391238329,-0.998811863226
841700000000,,19298,,841,696033561,"""map""",,,0.607809603214,-0.0283156633377,0.00520000047982,,-0.0120719084506,0.018584447385,0.0334972193784,-0.999193123618
841732000000,,19299,,841,728033561,"""map""",,,0.603063285351,-0.0316869392991,0.000649038469419,,-0.00969226511495,0.0154630287352,0.0332383534348,-0.999280873356
841768000000,,19300,,841,760033449,"""map""",,,0.598872065544,-0.03461464867,-0.00051149650244,,-0.0123282325769,0.0169228024495,0.0323602238461,-0.999256976093
841800000000,,19301,,841,792033449,"""map""",,,0.596938729286,-0.0355533212423,0.00875683408231,,-0.0242035462294,0.0285419386664,0.0307718355663,-0.998825687393
841832000000,,19302,,841,824033449,"""map""",,,0.594397246838,-0.0370389409363,0.0266563910991,,-0.0371836626306,0.0427136175977,0.0297126852632,-0.997952994747
841868000000,,19303,,841,864033337,"""map""",,,0.589875519276,-0.0400254093111,0.05499958992,,-0.0575910810688,0.0666291263375,0.0284438122419,-0.995708253596
841900000000,,19304,,841,896033337,"""map""",,,0.583196222782,-0.0451059490442,0.0779296308756,,-0.0701244125583,0.0828830512218,0.0281633249651,-0.993690051755
841932000000,,19305,,841,928033337,"""map""",,,0.575727164745,-0.0508341938257,0.0990711301565,,-0.0754563991681,0.0903796696781,0.0282132689806,-0.992643924828
841968000000,,19306,,841,960033225,"""map""",,,0.567579984665,-0.0571571812034,0.117325156927,,-0.0804051181427,0.0958239631512,0.0281898774797,-0.99174505899
842000000000,,19307,,841,992033225,"""map""",,,0.559339284897,-0.0636012107134,0.128769800067,,-0.0841538834129,0.0917626052423,0.0277074646516,-0.99183171291
842032000000,,19308,,842,24033225,"""map""",,,0.550957202911,-0.0701440498233,0.132712110877,,-0.0848442873987,0.0869078081324,0.0273463083067,-0.992220096119
842068000000,,19309,,842,64033113,"""map""",,,0.539868354797,-0.078868329525,0.129884526134,,-0.0750491394393,0.0657595933888,0.0257266049184,-0.994676583038
842100000000,,19310,,842,96033113,"""map""",,,0.528784275055,-0.0877139940858,0.125928983092,,-0.0477601732371,0.0381890888727,0.0238820480934,-0.997842780738
842132000000,,19311,,842,128033113,"""map""",,,0.517835378647,-0.0968643724918,0.121656820178,,-0.0326204388181,0.0240358942979,0.023004930029,-0.998913942893
842168000000,,19312,,842,160033001,"""map""",,,0.507464945316,-0.105969823897,0.119638346136,,-0.00948847423641,0.00102238211684,0.0213502447565,-0.999726534133
842200000000,,19313,,842,192033001,"""map""",,,0.498109936714,-0.114742934704,0.125001177192,,-0.0103737760334,0.00233381884529,0.0208147268993,-0.999726871307
842232000000,,19314,,842,224033001,"""map""",,,0.489758729935,-0.12320265919,0.143524587154,,-0.0131297574697,0.00591789300006,0.020964221771,-0.999676505823
842268000000,,19315,,842,264032889,"""map""",,,0.480118602514,-0.133616432548,0.183866545558,,-0.0194303925865,0.0139564336589,0.021531223324,-0.999481998118
842300000000,,19316,,842,296032889,"""map""",,,0.470542937517,-0.143150344491,0.224681422114,,-0.0357364689274,0.0329249830551,0.0219576651372,-0.998577358161
842332000000,,19317,,842,328032889,"""map""",,,0.460862129927,-0.152930915356,0.267338991165,,-0.046991956867,0.0474407440832,0.0222592258383,-0.997519767291
842368000000,,19318,,842,360032778,"""map""",,,0.450860053301,-0.163082301617,0.308727651834,,-0.061159436754,0.0677770872944,0.0229983129738,-0.995558590136
842400000000,,19319,,842,392032778,"""map""",,,0.440368831158,-0.173719197512,0.347860634327,,-0.069049956693,0.0798904626463,0.0238286058895,-0.994123658532
842432000000,,19320,,842,424032778,"""map""",,,0.429086774588,-0.185054406524,0.38557600975,,-0.0719048284654,0.0842047065853,0.0242907039365,-0.99355383314
842468000000,,19321,,842,464032666,"""map""",,,0.413256585598,-0.200548693538,0.433339446783,,-0.0756710794094,0.0900141774761,0.0251785694473,-0.992742422013
842500000000,,19322,,842,496032666,"""map""",,,0.396505981684,-0.215259149671,0.472325026989,,-0.0776889249777,0.0929189889834,0.0259311435743,-0.992299374341
842532000000,,19323,,842,528032666,"""map""",,,0.378558516502,-0.231051653624,0.513366639614,,-0.0783131211213,0.0932240465559,0.0261917796855,-0.992214912057
842568000000,,19324,,842,560032554,"""map""",,,0.359452515841,-0.247852802277,0.556314826012,,-0.078970026512,0.0928875520443,0.0267132626421,-0.992180478082
842600000000,,19325,,842,592032554,"""map""",,,0.33928963542,-0.265583097935,0.60097771883,,-0.0791091868447,0.0929574506169,0.0271395780148,-0.992151270315
842632000000,,19326,,842,624032554,"""map""",,,0.318185210228,-0.28418135643,0.646875560284,,-0.0790656959068,0.0928733630443,0.0273613125848,-0.992156538672
842668000000,,19327,,842,664032443,"""map""",,,0.290556311607,-0.308578878641,0.705756127834,,-0.0789918394817,0.0922482245236,0.0276302094783,-0.99221326833
842700000000,,19328,,842,696032443,"""map""",,,0.265442878008,-0.329348951578,0.753795266151,,-0.0786466884025,0.0917642627988,0.0277893981251,-0.992281166903
842732000000,,19329,,842,728032443,"""map""",,,0.239672616124,-0.350844174623,0.803118944168,,-0.0783529011608,0.0915743622703,0.0279033632035,-0.992318677598
842768000000,,19330,,842,760032331,"""map""",,,0.213287964463,-0.37306624651,0.853787481785,,-0.0779923454085,0.0910860699569,0.0281324313251,-0.992385564646
842800000000,,19331,,842,792032331,"""map""",,,0.186284810305,-0.395984053612,0.905873835087,,-0.0774571805312,0.0904614800038,0.0283951747788,-0.992477107601
842832000000,,19332,,842,824032331,"""map""",,,0.158695429564,-0.419531941414,0.959454298019,,-0.0770333366761,0.0903070585606,0.0284694796727,-0.992522078289
842868000000,,19333,,842,864032219,"""map""",,,0.123427972198,-0.449815422297,1.02829027176,,-0.0765057503289,0.0898949598468,0.0286056982871,-0.992596341036
842900000000,,19334,,842,896032219,"""map""",,,0.0921695008874,-0.474692821503,1.08497881889,,-0.0759285288237,0.0894208387526,0.0287785846597,-0.99267852739
842932000000,,19335,,842,928032219,"""map""",,,0.0605982877314,-0.500109314919,1.14298856258,,-0.0756392776365,0.0892972299485,0.0288481269597,-0.992709716058
842968000000,,19336,,842,960032108,"""map""",,,0.0287376474589,-0.526010096073,1.20232117176,,-0.0749769998397,0.0889905833081,0.0289623027723,-0.992784105246
843000000000,,19337,,842,992032108,"""map""",,,-0.00336700072512,-0.552383601665,1.26303327084,,-0.0743367602349,0.0884888645893,0.0290582289995,-0.992874299502
843032000000,,19338,,843,24032108,"""map""",,,-0.0357322655618,-0.579184710979,1.32516205311,,-0.0741036605038,0.0883607342186,0.0291190047551,-0.992901442072
843068000000,,19339,,843,64031996,"""map""",,,-0.0765538811684,-0.613246262074,1.40473866463,,-0.0735656177869,0.0880986400898,0.0292507558035,-0.992960784835
843100000000,,19340,,843,96031996,"""map""",,,-0.112078808248,-0.640398025513,1.46954929829,,-0.0730347966692,0.0878185453055,0.0292986346234,-0.993023415052
843132000000,,19341,,843,128031996,"""map""",,,-0.147626072168,-0.667935907841,1.53573966026,,-0.0726303311447,0.0876712980462,0.0294109559747,-0.993062738061
843168000000,,19342,,843,160031885,"""map""",,,-0.18327511847,-0.695842504501,1.60325264931,,-0.0721911734956,0.0874747863894,0.0295221393611,-0.99310876242
843200000000,,19343,,843,192031885,"""map""",,,-0.218997269869,-0.724114894867,1.67207551003,,-0.0716572308769,0.087164106164,0.0295898271998,-0.993172741336
843232000000,,19344,,843,224031885,"""map""",,,-0.254786401987,-0.752714574337,1.74221932888,,-0.0715192704123,0.087050302429,0.0296211001614,-0.993191791712
843268000000,,19345,,843,264031774,"""map""",,,-0.299519479275,-0.788800418377,1.83098649979,,-0.0712018229835,0.0867469057058,0.0296463461237,-0.993240387028
843300000000,,19346,,843,296031774,"""map""",,,-0.337501615286,-0.817183494568,1.9012799263,,-0.0700520503706,0.0871572013248,0.0388201556111,-0.992970014995
843332000000,,19347,,843,328031774,"""map""",,,-0.375058710575,-0.845658063889,1.96941041946,,-0.0698531211969,0.0870778980781,0.0387105316581,-0.992995260957
843368000000,,19348,,843,360031662,"""map""",,,-0.412160605192,-0.874190568924,2.03470420837,,-0.0696517633111,0.0866982721939,0.038309377954,-0.993058144055
843400000000,,19349,,843,392031662,"""map""",,,-0.448808342218,-0.902744591236,2.09704041481,,-0.0695490053432,0.0863366772584,0.0376074643389,-0.993123724551
843432000000,,19350,,843,424031662,"""map""",,,-0.485081285238,-0.931330323219,2.15659427643,,-0.0694977751902,0.0861675636873,0.037135293195,-0.993159675813
843468000000,,19351,,843,464031551,"""map""",,,-0.530013084412,-0.96717196703,2.22776579857,,-0.0694015697402,0.0859330955007,0.0361121363006,-0.993224497666
843500000000,,19352,,843,496031551,"""map""",,,-0.568569302559,-0.995546042919,2.28296065331,,-0.0692394341067,0.085678704367,0.0351106428862,-0.993293702791
843532000000,,19353,,843,528031551,"""map""",,,-0.606690466404,-1.02405905724,2.33649325371,,-0.0690818470401,0.0855898588104,0.0344266838286,-0.993336271108
843568000000,,19354,,843,560031440,"""map""",,,-0.644421160221,-1.05269670486,2.38839507103,,-0.0689521519676,0.0855544646773,0.0332158048709,-0.993389544725
843600000000,,19355,,843,592031440,"""map""",,,-0.681811451912,-1.08149576187,2.43868660927,,-0.0687772162045,0.0855628571685,0.0321339374165,-0.993436538461
843632000000,,19356,,843,624031440,"""map""",,,-0.718876242638,-1.11042547226,2.48736405373,,-0.068664166503,0.0854899760478,0.0316306197515,-0.993466799898
843668000000,,19357,,843,664031329,"""map""",,,-0.764783918858,-1.14678299427,2.54579472542,,-0.0683911201205,0.0854576369026,0.0308287759586,-0.993513625047
843700000000,,19358,,843,696031329,"""map""",,,-0.80401468277,-1.17541468143,2.59092545509,,-0.0680922936962,0.0855354031065,0.0300823131247,-0.993550334952
843732000000,,19359,,843,728031329,"""map""",,,-0.842767298222,-1.20416545868,2.63449597359,,-0.0678830043003,0.0856336355565,0.0297028650475,-0.993567573013
843768000000,,19360,,843,760031218,"""map""",,,-0.881090819836,-1.23308467865,2.67658662796,,-0.0672090577534,0.0855448400493,0.0291131041963,-0.993638506159
843800000000,,19361,,843,792031218,"""map""",,,-0.919049024582,-1.26214933395,2.71718764305,,-0.0658515808613,0.0843342673147,0.028562034152,-0.99384886108
843832000000,,19362,,843,824031218,"""map""",,,-0.956651806831,-1.29130840302,2.75640535355,,-0.0644410331844,0.0828319409239,0.0283489396859,-0.994073756663
843868000000,,19363,,843,864031106,"""map""",,,-1.00319254398,-1.3278529644,2.80347299576,,-0.061202567468,0.0790745460865,0.0280284971967,-0.994593385159
843900000000,,19364,,843,896031106,"""map""",,,-1.0426350832,-1.35611069202,2.83977484703,,-0.0571491904599,0.0740764975184,0.0279112025173,-0.995222426873
843932000000,,19365,,843,928031106,"""map""",,,-1.0814281702,-1.38439166546,2.87474656105,,-0.0550311861988,0.0713826276952,0.0278510168176,-0.995540298404
843968000000,,19366,,843,960030995,"""map""",,,-1.11951649189,-1.41262447834,2.90853333473,,-0.0510706692347,0.0662589499085,0.0278983055817,-0.99610405465
844000000000,,19367,,843,992030995,"""map""",,,-1.15688025951,-1.44077813625,2.94126582146,,-0.0463444737665,0.0600584273863,0.0281175534876,-0.996721927449
844032000000,,19368,,844,24030995,"""map""",,,-1.19348657131,-1.46881902218,2.97293710709,,-0.0444023127428,0.0573815888412,0.0281900460671,-0.996965957702
844068000000,,19369,,844,64030884,"""map""",,,-1.23810887337,-1.5036008358,3.01108336449,,-0.0411978536062,0.0529161223389,0.0284599966318,-0.997342792675
844100000000,,19370,,844,96030884,"""map""",,,-1.27542769909,-1.53011608124,3.04021215439,,-0.0378106398076,0.0486600051601,0.0288556712456,-0.997682327686
844132000000,,19371,,844,128030884,"""map""",,,-1.31172668934,-1.55646681786,3.06844353676,,-0.035934559774,0.0465072732129,0.0290841071645,-0.997847627626
844168000000,,19372,,844,160030774,"""map""",,,-1.34699833393,-1.58261168003,3.09575533867,,-0.0334059108653,0.0437689885138,0.0293897139631,-0.998050396114
844200000000,,19373,,844,192030774,"""map""",,,-1.3812687397,-1.60851180553,3.12214159966,,-0.0309418704412,0.040985814787,0.0297539048811,-0.998237233094
844232000000,,19374,,844,224030774,"""map""",,,-1.41454148293,-1.63413727283,3.14750981331,,-0.029827377704,0.0397199799608,0.0299633747182,-0.9983160477
844268000000,,19375,,844,264030663,"""map""",,,-1.45477151871,-1.6657538414,3.17816495895,,-0.027694305286,0.0376265348,0.0303134464419,-0.998447967336
844300000000,,19376,,844,296030663,"""map""",,,-1.4859251976,-1.69069898129,3.20185375214,,-0.0259571587165,0.0358186941362,0.030696519148,-0.998549499094
844332000000,,19377,,844,328030663,"""map""",,,-1.51617574692,-1.71535229683,3.22485017776,,-0.0251865210429,0.0349860709608,0.0308922069656,-0.998592699614
844368000000,,19378,,844,360030552,"""map""",,,-1.54555022717,-1.73968577385,3.24721121788,,-0.0235763816965,0.0334770379527,0.0312597274847,-0.998672272864
844400000000,,19379,,844,392030552,"""map""",,,-1.57575798035,-1.76207494736,3.26961660385,,-0.022105493562,0.0322705369988,0.0316288074371,-0.998734017997
844432000000,,19380,,844,424030552,"""map""",,,-1.6055740118,-1.78375542164,3.29150462151,,-0.0215429190744,0.0318460744411,0.031778513043,-0.998755175715
844468000000,,19381,,844,464030441,"""map""",,,-1.64155769348,-1.81057715416,3.31797719002,,-0.020120956187,0.0308641022617,0.0321075956361,-0.998805161877
844500000000,,19382,,844,496030441,"""map""",,,-1.66936516762,-1.83180212975,3.33833217621,,-0.0189656850568,0.0297267955671,0.0323779676693,-0.998853504313
844532000000,,19383,,844,528030441,"""map""",,,-1.6963506937,-1.85283017159,3.35796284676,,-0.0185112234919,0.0291038098284,0.0325216884228,-0.998875757849
844568000000,,19384,,844,560030330,"""map""",,,-1.72259557247,-1.87366306782,3.37520289421,,-0.0177187478239,0.0244238201477,0.0327894473514,-0.999006708107
844600000000,,19385,,844,592030330,"""map""",,,-1.75020480156,-1.89255797863,3.3877081871,,-0.0172268875163,0.00309897413585,0.0333298963898,-0.999291157187
844632000000,,19386,,844,624030330,"""map""",,,-1.77755773067,-1.91094636917,3.39609313011,,-0.015774066715,-0.0126395446758,0.03340023948,-0.999237672837
844668000000,,19387,,844,664030220,"""map""",,,-1.80956029892,-1.9339672327,3.40270018578,,0.0156148673668,-0.0706809946201,0.0300059008883,-0.99692532814
844700000000,,19388,,844,696030220,"""map""",,,-1.83242201805,-1.95190536976,3.40574574471,,0.0596883853004,-0.112826104573,0.0246001460983,-0.991515274371
844732000000,,19389,,844,728030220,"""map""",,,-1.85204172134,-1.96853423119,3.40733551979,,0.0850157278545,-0.131157354766,0.0209580683311,-0.987487131472
844768000000,,19390,,844,760030109,"""map""",,,-1.86769425869,-1.98296689987,3.40882849693,,0.110727523424,-0.13489023265,0.0151669227583,-0.984537442132
844800000000,,19391,,844,792030109,"""map""",,,-1.88065373898,-1.99256575108,3.41421175003,,0.10661649496,-0.102223014946,0.00898305285107,-0.988990762439
844832000000,,19392,,844,824030109,"""map""",,,-1.88970291615,-1.99799108505,3.42617106438,,0.0835153784143,-0.0752120975949,0.00732562803338,-0.993637073166
844868000000,,19393,,844,864029999,"""map""",,,-1.89664793015,-2.00103402138,3.45293402672,,0.0419040036381,-0.0288501394717,0.00593355977391,-0.998687403583
844900000000,,19394,,844,896029999,"""map""",,,-1.90084981918,-2.00248646736,3.48017668724,,0.00517789443898,0.017967434645,0.00567410377448,-0.999809099809
844932000000,,19395,,844,928029999,"""map""",,,-1.90498971939,-2.00414776802,3.50759911537,,-0.014144390164,0.0415680221327,0.00579881629922,-0.999018804252
844968000000,,19396,,844,960029888,"""map""",,,-1.90960621834,-2.0064663887,3.53201413155,,-0.0519530187767,0.0857531264819,0.00613063843755,-0.994942066036
845000000000,,19397,,844,992029888,"""map""",,,-1.91973030567,-2.01022028923,3.55037808418,,-0.082093831727,0.121270739337,0.00659395874323,-0.989196986969
845032000000,,19398,,845,24029888,"""map""",,,-1.93237602711,-2.01545453072,3.56497788429,,-0.0912590551112,0.132473675919,0.00684629192526,-0.986952709433
845068000000,,19399,,845,64029778,"""map""",,,-1.95020973682,-2.02437400818,3.57988095284,,-0.0978425048011,0.138660152345,0.00759174323487,-0.985465642177
845100000000,,19400,,845,96029778,"""map""",,,-1.96631848812,-2.03352189064,3.58996582031,,-0.0914821317949,0.127915332251,0.00866446482317,-0.987518952343
845132000000,,19401,,845,128029778,"""map""",,,-1.98399281502,-2.04437875748,3.59918355942,,-0.0849661815999,0.118240549517,0.00932667610698,-0.989299235224
845168000000,,19402,,845,160029668,"""map""",,,-2.00292730331,-2.05675315857,3.6081507206,,-0.0688932570152,0.0939988228524,0.0106359258091,-0.993128782173
845200000000,,19403,,845,192029668,"""map""",,,-2.02281427383,-2.06737470627,3.61876106262,,-0.0538754563923,0.0707666515042,0.0119336694216,-0.995965475812
845232000000,,19404,,845,224029668,"""map""",,,-2.04305887222,-2.07813286781,3.62988519669,,-0.0445453295122,0.0565729363566,0.0129310745916,-0.997320454845
845268000000,,19405,,845,264029557,"""map""",,,-2.06826996803,-2.09275817871,3.64362502098,,-0.0309935365505,0.0362083753364,0.0147415767631,-0.998754754246
845300000000,,19406,,845,296029557,"""map""",,,-2.08797049522,-2.10506176949,3.6541595459,,-0.0217481271819,0.0223572906476,0.016540825726,-0.999376588849
845332000000,,19407,,845,328029557,"""map""",,,-2.10706043243,-2.11769652367,3.66413736343,,-0.0172193100562,0.0156501952339,0.0177372061679,-0.999571981639
845368000000,,19408,,845,360029447,"""map""",,,-2.12541866302,-2.13054990768,3.67363190651,,-0.0122721800672,0.00895891818267,0.0194932124642,-0.999694544675
845400000000,,19409,,845,392029447,"""map""",,,-2.14264011383,-2.13998508453,3.68205118179,,-0.00915866164665,0.00565118379142,0.0213567353711,-0.999714058665
845432000000,,19410,,845,424029447,"""map""",,,-2.15895533562,-2.14864206314,3.68984413147,,-0.00814539592608,0.00504656107239,0.022209239676,-0.99970744161
845468000000,,19411,,845,464029337,"""map""",,,-2.17833638191,-2.15994906425,3.69924712181,,-0.00706947224743,0.0052563235502,0.0237767231189,-0.999678486725
845500000000,,19412,,845,496029337,"""map""",,,-2.19309186935,-2.16932678223,3.70640993118,,-0.007180032897,0.0071675696142,0.0253452180863,-0.999627278304
845532000000,,19413,,845,528029337,"""map""",,,-2.20725512505,-2.17897677422,3.71328353882,,-0.00741504401306,0.00815015460985,0.0259858923305,-0.999601610874
845568000000,,19414,,845,560029227,"""map""",,,-2.22087407112,-2.1888692379,3.7199678421,,-0.00803763227902,0.00967133813453,0.0271371756444,-0.999552636236
845600000000,,19415,,845,592029227,"""map""",,,-2.23518896103,-2.1965341568,3.72633433342,,-0.00874569587664,0.011258993619,0.0283805919692,-0.999495569403
845632000000,,19416,,845,632029227,"""map""",,,-2.25283622742,-2.20574879646,3.7338218689,,-0.00887662250968,0.0117631330651,0.0287857917708,-0.999477024789
845668000000,,19417,,845,664029117,"""map""",,,-2.26642632484,-2.21363306046,3.7394952774,,-0.00921607948376,0.0124621823409,0.029738900603,-0.999437491046
845700000000,,19418,,845,696029117,"""map""",,,-2.2795958519,-2.22189903259,3.74497890472,,-0.00929440380409,0.0123082755503,0.0305786344127,-0.999413383048
845732000000,,19419,,845,728029117,"""map""",,,-2.29236388206,-2.23049902916,3.75024914742,,-0.00932037054331,0.0120868896796,0.0310097545261,-0.999402551308
845768000000,,19420,,845,760029007,"""map""",,,-2.30473875999,-2.23941993713,3.75520944595,,-0.009377542661,0.0116977584463,0.0315810972045,-0.999388811435
845800000000,,19421,,845,792029007,"""map""",,,-2.31782197952,-2.24616718292,3.7599260807,,-0.00946009648343,0.0108425224988,0.032170520881,-0.999378822632
845832000000,,19422,,845,824029007,"""map""",,,-2.33081459999,-2.25260686874,3.76437330246,,-0.00943263916987,0.0103096506323,0.0325257766671,-0.999373217102
845868000000,,19423,,845,864028897,"""map""",,,-2.34643363953,-2.26136779785,3.76969623566,,-0.00918815517983,0.00967547556388,0.0330349948908,-0.999365124907
845900000000,,19424,,845,896028897,"""map""",,,-2.35845541954,-2.26887226105,3.77379631996,,-0.00899246578014,0.00903657438644,0.0334164660167,-0.999360193725
845932000000,,19425,,845,928028897,"""map""",,,-2.37010073662,-2.27673172951,3.77774262428,,-0.00888225532897,0.0084548376351,0.0336801367009,-0.999357412033
845968000000,,19426,,845,960028788,"""map""",,,-2.38136076927,-2.28493261337,3.7815990448,,-0.00868965340974,0.00770493592286,0.0340099357905,-0.999353998139
846000000000,,19427,,845,992028788,"""map""",,,-2.39339160919,-2.29060769081,3.78502011299,,-0.00855253547051,0.00724181161649,0.0342971665631,-0.99934889837
846032000000,,19428,,846,24028788,"""map""",,,-2.40533351898,-2.29589796066,3.78826236725,,-0.00845885035258,0.00689839045142,0.0344085185369,-0.99934822402
846068000000,,19429,,846,64028678,"""map""",,,-2.4196190834,-2.30326890945,3.79235911369,,-0.00821561290497,0.00609932184738,0.0346399468821,-0.999347507524
846100000000,,19430,,846,96028678,"""map""",,,-2.43055176735,-2.309705019,3.79566216469,,-0.00813624141655,0.00575004803264,0.0348701108218,-0.999342239168
846132000000,,19431,,846,128028678,"""map""",,,-2.44105410576,-2.31657028198,3.79886007309,,-0.00810946038705,0.00562198549198,0.0349517071205,-0.999340300413
846168000000,,19432,,846,160028568,"""map""",,,-2.45116281509,-2.32379508018,3.8019785881,,-0.00809368223686,0.00490967024869,0.035183894109,-0.999336043581
846200000000,,19433,,846,192028568,"""map""",,,-2.46166563034,-2.32844090462,3.80482983589,,-0.00797953803438,0.00445644147905,0.0353493204894,-0.999333304036
846232000000,,19434,,846,224028568,"""map""",,,-2.47198605537,-2.33269691467,3.80763602257,,-0.00786153838308,0.00436426401645,0.0354106863008,-0.999332461099
846268000000,,19435,,846,264028459,"""map""",,,-2.48429775238,-2.33887386322,3.81111216545,,-0.00769748934851,0.00412644021629,0.0355654495285,-0.999329173645
846300000000,,19436,,846,296028459,"""map""",,,-2.4936850071,-2.34444570541,3.81377696991,,-0.00762750714074,0.00357432967169,0.0356666862586,-0.999328246414
846332000000,,19437,,846,328028459,"""map""",,,-2.50273799896,-2.35048127174,3.81649255753,,-0.0075687830806,0.00337496552934,0.035703859779,-0.999328077827
846368000000,,19438,,846,360028349,"""map""",,,-2.5114440918,-2.35694241524,3.81912565231,,-0.0074679661726,0.00328507321618,0.0358219973954,-0.999324916813
846400000000,,19439,,846,392028349,"""map""",,,-2.5204474926,-2.36083364487,3.82154846191,,-0.00718684126004,0.00278875538548,0.035826296374,-0.999328288561
846432000000,,19440,,846,424028349,"""map""",,,-2.52930736542,-2.36437010765,3.82384896278,,-0.00710746804295,0.00252799233983,0.0358768304453,-0.999327740652
846468000000,,19441,,846,464028240,"""map""",,,-2.53991365433,-2.36959934235,3.82669663429,,-0.00687585629313,0.00233824689856,0.0359725459383,-0.9993264341
846500000000,,19442,,846,496028240,"""map""",,,-2.54798769951,-2.37437272072,3.82907176018,,-0.00687019988971,0.00215107817732,0.0360081178784,-0.999325591163
846532000000,,19443,,846,528028240,"""map""",,,-2.55572772026,-2.37965321541,3.83143734932,,-0.00701152732776,0.00169379293814,0.0360073592352,-0.999325506869
846568000000,,19444,,846,560028130,"""map""",,,-2.56317687035,-2.38540530205,3.83372306824,,-0.0072586020319,0.0011244561863,0.0360501804332,-0.999323062352
846600000000,,19445,,846,592028130,"""map""",,,-2.57093262672,-2.38858985901,3.83589720726,,-0.00723105709076,0.00126192208399,0.0360386321968,-0.99932348382
846632000000,,19446,,846,624028130,"""map""",,,-2.57853627205,-2.39147686958,3.83793187141,,-0.00716755759512,0.00125315356386,0.0360643839212,-0.999323020205
846668000000,,19447,,846,664028021,"""map""",,,-2.58762145042,-2.39601778984,3.84039759636,,-0.0069096027479,0.00063144836493,0.0361625860782,-0.999321840093
846700000000,,19448,,846,696028021,"""map""",,,-2.59462046623,-2.40030217171,3.84231734276,,-0.00668262155379,0.0005171362336,0.0360969634351,-0.999325844044
846732000000,,19449,,846,728028021,"""map""",,,-2.60136532784,-2.40508460999,3.8444211483,,-0.00663966304917,0.000660084185042,0.0360965419666,-0.999326096925
846768000000,,19450,,846,760027912,"""map""",,,-2.60784864426,-2.41034460068,3.84623384476,,-0.00535198693584,-0.000541068399565,0.0360445749024,-0.999335748553
846800000000,,19451,,846,792027912,"""map""",,,-2.6144618988,-2.412940979,3.8469209671,,0.00996867838851,-0.0105573109883,0.0354847383136,-0.999264731113
846832000000,,19452,,846,824027912,"""map""",,,-2.62083244324,-2.41497397423,3.84604930878,,0.0219963946336,-0.0176588586338,0.0349970571295,-0.998989301458
846868000000,,19453,,846,864027803,"""map""",,,-2.62788105011,-2.41763687134,3.84325122833,,0.0459596756738,-0.0323278214807,0.03395417551,-0.997842570004
846900000000,,19454,,846,896027803,"""map""",,,-2.63252711296,-2.41939330101,3.84019374847,,0.0575739681312,-0.0413743145584,0.0333290534528,-0.996926634692
846932000000,,19455,,846,928027803,"""map""",,,-2.63619947433,-2.42050600052,3.83695244789,,0.0608859260976,-0.0442509258728,0.0330340255133,-0.996616012419
846968000000,,19456,,846,960027694,"""map""",,,-2.63872027397,-2.42073321342,3.8351418972,,0.0584471046354,-0.0429299323464,0.0325433519029,-0.996835934674
847000000000,,19457,,846,992027694,"""map""",,,-2.64039731026,-2.41734600067,3.83668828011,,0.0326680713424,-0.0285358066292,0.0320550806629,-0.998544441472
847032000000,,19458,,847,24027694,"""map""",,,-2.64139461517,-2.41293287277,3.84082436562,,0.0214935187286,-0.0224744029102,0.0318239894925,-0.999009616239
847068000000,,19459,,847,64027585,"""map""",,,-2.64223194122,-2.40817785263,3.84717965126,,-0.0057664313029,-0.00493312439366,0.0313026751233,-0.999481113034
847100000000,,19460,,847,96027585,"""map""",,,-2.64284563065,-2.40538167953,3.85192131996,,-0.0231784900926,0.00922699156626,0.0311415055746,-0.999203618183
847132000000,,19461,,847,128027585,"""map""",,,-2.64363479614,-2.40366387367,3.85544896126,,-0.031824129104,0.0156652433875,0.0311161331718,-0.99888616812
847168000000,,19462,,847,160039476,"""map""",,,-2.64485502243,-2.40316104889,3.85759949684,,-0.0403942040842,0.0206527664386,0.0312651222813,-0.998481010465
847200000000,,19463,,847,192039476,"""map""",,,-2.64689517021,-2.40151190758,3.85765624046,,-0.0422761142124,0.0234132052334,0.0314836115439,-0.998335266663
847232000000,,19464,,847,224039476,"""map""",,,-2.6494307518,-2.4005947113,3.85733413696,,-0.0415270139076,0.0238433750671,0.0316445703584,-0.9983514932
847268000000,,19465,,847,264039367,"""map""",,,-2.65308737755,-2.40145254135,3.85717320442,,-0.0378671258042,0.0194236596275,0.0319602081069,-0.998582668664
847300000000,,19466,,847,296039367,"""map""",,,-2.656488657,-2.40353012085,3.85738658905,,-0.0324799748965,0.0137369315548,0.0322712939958,-0.998856833914
847332000000,,19467,,847,328039367,"""map""",,,-2.66018033028,-2.40668392181,3.85823059082,,-0.029006168422,0.0124517424348,0.0324970325164,-0.998973243509
847364000000,,19468,,847,360039367,"""map""",,,-2.66393184662,-2.41074991226,3.85927295685,,-0.0243679004994,0.00978502901143,0.0328382534019,-0.999115699857
847400000000,,19469,,847,392039258,"""map""",,,-2.66740870476,-2.41214132309,3.85956954956,,-0.0194221140235,0.00309730801825,0.0331830146227,-0.999255795982
847432000000,,19470,,847,424039258,"""map""",,,-2.67093038559,-2.41335368156,3.85960960388,,-0.0177934056976,0.00175478601338,0.0332711015361,-0.999286478887
847464000000,,19471,,847,456039258,"""map""",,,-2.67443537712,-2.41546607018,3.86012029648,,-0.0144576466156,0.00182892561264,0.033497893728,-0.999332545393
847500000000,,19472,,847,496039149,"""map""",,,-2.67858052254,-2.41917514801,3.86115121841,,-0.0122722258361,-0.000350324604822,0.033693202224,-0.999356821977
847532000000,,19473,,847,528039149,"""map""",,,-2.68191075325,-2.42284107208,3.86176156998,,-0.0113452776844,-0.00266119218619,0.0338323711178,-0.999359603669
847564000000,,19474,,847,560039149,"""map""",,,-2.68528056145,-2.42705059052,3.86256480217,,-0.0104227305857,-0.00213800491638,0.0339961116242,-0.999365377788
847600000000,,19475,,847,592039040,"""map""",,,-2.68802046776,-2.42839002609,3.86352396011,,-0.0099932650654,0.000219190941854,0.0341309393926,-0.999367442983
847632000000,,19476,,847,624039040,"""map""",,,-2.69047307968,-2.42942094803,3.86433672905,,-0.00985040239547,-0.000845375231259,0.034202336154,-0.999366094284
847664000000,,19477,,847,656039040,"""map""",,,-2.69304394722,-2.43126153946,3.86496448517,,-0.00961933526196,-0.00347109261262,0.0343555820952,-0.999357412033
847700000000,,19478,,847,696038931,"""map""",,,-2.6963455677,-2.43448615074,3.86633253098,,-0.00959133065675,-0.000186665099332,0.0343667931569,-0.999363228298
847732000000,,19479,,847,728038931,"""map""",,,-2.69876933098,-2.4378194809,3.86785459518,,-0.00964248869904,0.00089727183121,0.0344137447461,-0.999360783781
847764000000,,19480,,847,760038822,"""map""",,,-2.70122385025,-2.4417526722,3.86900568008,,-0.00966679722319,-0.00227169011005,0.0346058079348,-0.999351722209
847800000000,,19481,,847,792038822,"""map""",,,-2.70349860191,-2.44320034981,3.87006831169,,-0.00960596121082,-0.00218692061462,0.034707845455,-0.999348982664
847832000000,,19482,,847,824038822,"""map""",,,-2.70564579964,-2.44439673424,3.8716545105,,-0.00949919567028,0.000584056538685,0.0347212902997,-0.999351722209
847864000000,,19483,,847,856038822,"""map""",,,-2.70761275291,-2.44636511803,3.87342309952,,-0.00916755561951,0.000380623249818,0.0347431223672,-0.999354166726
847900000000,,19484,,847,896038713,"""map""",,,-2.71023988724,-2.44976639748,3.87497091293,,-0.0090946466753,-0.00401736433698,0.0349508220367,-0.999339583916
847932000000,,19485,,847,928038713,"""map""",,,-2.71259427071,-2.45314288139,3.87638735771,,-0.00911156023854,-0.00296096329259,0.0350166975609,-0.999340806175
847964000000,,19486,,847,960038713,"""map""",,,-2.71480631828,-2.45709562302,3.8782916069,,-0.00800974184897,0.00114833237598,0.0349301279341,-0.999356990565
848000000000,,19487,,847,992038604,"""map""",,,-2.71652674675,-2.45880794525,3.87837171555,,0.00784795787824,-0.0107153713015,0.0344451862951,-0.999318384052
848032000000,,19488,,848,24038604,"""map""",,,-2.71837282181,-2.46014881134,3.87645578384,,0.0167324057488,-0.0163995005517,0.0341713582203,-0.999141325141
848064000000,,19489,,848,56038604,"""map""",,,-2.72015213966,-2.46168112755,3.87388038635,,0.0382513852075,-0.0229315036335,0.0332950409461,-0.998450032532
848100000000,,19490,,848,96038495,"""map""",,,-2.72141766548,-2.46327519417,3.87037420273,,0.0488906195442,-0.0279796845607,0.0328808638658,-0.997870639805
848132000000,,19491,,848,128038495,"""map""",,,-2.72186088562,-2.46406984329,3.86676907539,,0.0523073433808,-0.0334001907477,0.0328689784545,-0.997530936206
848164000000,,19492,,848,160038386,"""map""",,,-2.7221057415,-2.4642906189,3.86352062225,,0.0537258192751,-0.035805435001,0.0327235718271,-0.997376931622
848200000000,,19493,,848,192038386,"""map""",,,-2.72083759308,-2.46096014977,3.86170077324,,0.0495340083089,-0.0273014140105,0.0322153229809,-0.997879364203
848232000000,,19494,,848,224038386,"""map""",,,-2.71855831146,-2.45644807816,3.860227108,,0.0473970814299,-0.0265768912454,0.0321763792929,-0.998003950287
848264000000,,19495,,848,256038386,"""map""",,,-2.71617412567,-2.4519507885,3.85779261589,,0.0415817323708,-0.0300763025889,0.0324373947257,-0.998155383914
848300000000,,19496,,848,296038276,"""map""",,,-2.71329784393,-2.44633150101,3.85491991043,,0.034658477666,-0.0223654707994,0.0323611932236,-0.998624731219
848332000000,,19497,,848,328038276,"""map""",,,-2.71043348312,-2.44182229042,3.85355496407,,0.0315416688278,-0.0168346630171,0.0321490259882,-0.998843389069
848364000000,,19498,,848,360038276,"""map""",,,-2.70724630356,-2.43744969368,3.85296463966,,0.0219251126236,-0.0155781936817,0.0320921277427,-0.999122991262
848400000000,,19499,,848,392038167,"""map""",,,-2.70401477814,-2.43062567711,3.85414266586,,-0.00025566179525,-0.0084234523505,0.0320214896246,-0.999451652387
848432000000,,19500,,848,424038167,"""map""",,,-2.70103573799,-2.42371225357,3.85825109482,,-0.0135996615741,0.00401735495272,0.0316833033122,-0.999397367246
