rosbagTimestamp,header,seq,stamp,secs,nsecs,frame_id,pose,position,x,y,z,orientation,x,y,z,w
1161664000000,,28540,,1161,656068683,"""map""",,,0.284675329924,-0.0398852750659,0.0411278121173,,0.00333958440247,-0.00528454259396,0.0570060149813,-0.998354274892
1161696000000,,28541,,1161,688068531,"""map""",,,0.284440159798,-0.0402626544237,0.0407007709146,,0.00327249312276,-0.00528319595276,0.0570136857078,-0.998354106305
1161728000000,,28542,,1161,720068531,"""map""",,,0.284501492977,-0.0406599380076,0.0402793511748,,0.00327202934279,-0.005337610333,0.0569509711972,-0.998357393759
1161764000000,,28543,,1161,760068531,"""map""",,,0.284422129393,-0.0411545671523,0.0398675091565,,0.00332428065128,-0.00533631654,0.0569423732401,-0.99835764664
1161796000000,,28544,,1161,792068380,"""map""",,,0.283121973276,-0.0414025261998,0.0396181493998,,0.00330613248173,-0.00532020261443,0.0569032188178,-0.998360133304
1161828000000,,28545,,1161,824068380,"""map""",,,0.282227575779,-0.0416738688946,0.0393832549453,,0.00334194907116,-0.00530909132222,0.0569617607904,-0.998356635115
1161864000000,,28546,,1161,856068380,"""map""",,,0.281702667475,-0.0419474504888,0.0391534343362,,0.00331953485028,-0.00534417857361,0.0570083752049,-0.998353937717
1161896000000,,28547,,1161,888068229,"""map""",,,0.281488895416,-0.0422221124172,0.0390084311366,,0.00333181851636,-0.00534659493804,0.0570415026278,-0.998351914668
1161928000000,,28548,,1161,920068229,"""map""",,,0.281547993422,-0.0425172112882,0.0389334671199,,0.00332329826751,-0.00534201739517,0.0570403646629,-0.998352041109
1161964000000,,28549,,1161,960068229,"""map""",,,0.281522154808,-0.0427987463772,0.0388532616198,,0.00326865545464,-0.00535399310936,0.0570129270645,-0.99835376913
1161996000000,,28550,,1161,992068077,"""map""",,,0.280212193727,-0.0427198261023,0.0385871492326,,0.0032838838848,-0.0053548687266,0.056999440073,-0.998354443479
1162028000000,,28551,,1162,24068077,"""map""",,,0.279265344143,-0.0426857620478,0.0381765402853,,0.0032699289974,-0.00539172845053,0.0570400274881,-0.998352041109
1162064000000,,28552,,1162,56068077,"""map""",,,0.278649419546,-0.04269734025,0.0378762967885,,0.00326382840572,-0.0054216505727,0.0570382151736,-0.998351998962
1162096000000,,28553,,1162,88067926,"""map""",,,0.27838024497,-0.0427352115512,0.0375704541802,,0.00324371736194,-0.00565930257507,0.0570451272568,-0.998350313088
1162128000000,,28554,,1162,120067926,"""map""",,,0.278362631798,-0.0428126379848,0.0372769869864,,0.00325724477164,-0.00560447454656,0.0570340004888,-0.998351240319
1162164000000,,28555,,1162,160067926,"""map""",,,0.27822932601,-0.0428402908146,0.0367880612612,,0.00316031698055,-0.00564072470523,0.057008333058,-0.998352799752
1162196000000,,28556,,1162,192067774,"""map""",,,0.27694183588,-0.042587723583,0.0359170660377,,0.00319839188373,-0.00564792934678,0.0570014209749,-0.998353052633
1162228000000,,28557,,1162,224067774,"""map""",,,0.276033192873,-0.042379360646,0.0351733751595,,0.00321229540465,-0.00569156812787,0.0570109040158,-0.998352251843
1162264000000,,28558,,1162,256067774,"""map""",,,0.275475919247,-0.0421929806471,0.0345500670373,,0.00323144810153,-0.00570480462553,0.0570029382614,-0.998352462577
1162296000000,,28559,,1162,288067622,"""map""",,,0.275181293488,-0.0420479290187,0.033950842917,,0.00321761841991,-0.00573181046567,0.0569794624668,-0.99835376913
1162328000000,,28560,,1162,320067622,"""map""",,,0.275175631046,-0.0419087186456,0.0332225374877,,0.00318096959486,-0.00574642702566,0.056961887231,-0.998354738507
1162364000000,,28561,,1162,360067622,"""map""",,,0.274980068207,-0.0417909771204,0.032399687916,,0.00312395239977,-0.00574116698372,0.0570098503446,-0.998352209696
1162396000000,,28562,,1162,392067470,"""map""",,,0.273484110832,-0.0417099297047,0.0320912450552,,0.00314143017101,-0.00575841294729,0.0569760064252,-0.998354022011
1162428000000,,28563,,1162,424067470,"""map""",,,0.272347688675,-0.0416497848928,0.0315724648535,,0.00316841320904,-0.00581651649387,0.0569810219002,-0.998353305514
1162464000000,,28564,,1162,456067470,"""map""",,,0.27155905962,-0.0416352264583,0.0312365051359,,0.00317627252616,-0.00582625216892,0.0569808954596,-0.998353263368
1162496000000,,28565,,1162,488067317,"""map""",,,0.271099388599,-0.0416830666363,0.0310761835426,,0.00317596860787,-0.00586044149487,0.0569631094896,-0.998354106305
1162528000000,,28566,,1162,520067317,"""map""",,,0.27093693614,-0.041774764657,0.0308682415634,,0.00321263027453,-0.00587754076766,0.0569846043823,-0.998352589018
1162564000000,,28567,,1162,560067317,"""map""",,,0.270686864853,-0.0419141352177,0.0308086946607,,0.00316743979794,-0.00588055080997,0.0570455065784,-0.998349259417
1162596000000,,28568,,1162,592067165,"""map""",,,0.269464969635,-0.0419409908354,0.030829437077,,0.00313896919018,-0.00591100561233,0.0570278470489,-0.998350144501
1162628000000,,28569,,1162,624067165,"""map""",,,0.268588274717,-0.0419971048832,0.0307291056961,,0.00331682288168,-0.00592138369755,0.0570922052866,-0.998345887669
1162664000000,,28570,,1162,656067165,"""map""",,,0.268023371696,-0.0421060360968,0.0307738669217,,0.00330046899896,-0.0059376493353,0.0571491456789,-0.998342558068
1162696000000,,28571,,1162,688067012,"""map""",,,0.267766267061,-0.0422569401562,0.0306721813977,,0.00332051344742,-0.0059349970473,0.057202545736,-0.998339481348
1162728000000,,28572,,1162,720067012,"""map""",,,0.267784118652,-0.0424137413502,0.0307037308812,,0.00328368311104,-0.00593996831747,0.0572122395111,-0.998338975586
1162764000000,,28573,,1162,760067012,"""map""",,,0.26777857542,-0.0426662638783,0.0307757984847,,0.00324523851744,-0.00598245834999,0.0572203738529,-0.998338427677
1162796000000,,28574,,1162,792066859,"""map""",,,0.266870200634,-0.0429293215275,0.0307154022157,,0.00323923744829,-0.00594699021292,0.0572583481634,-0.998336446775
1162828000000,,28575,,1162,824066859,"""map""",,,0.266317725182,-0.0432426407933,0.0306471381336,,0.00331246875003,-0.00594982607021,0.05725371201,-0.998336446775
1162864000000,,28576,,1162,856066859,"""map""",,,0.266047418118,-0.0435804985464,0.0306649692357,,0.00324033351331,-0.00595658693508,0.0572323857047,-0.998337879768
1162896000000,,28577,,1162,888066706,"""map""",,,0.26606926322,-0.0439709573984,0.0307270996273,,0.00320608327199,-0.00597357277358,0.0572564515552,-0.998336488922
1162928000000,,28578,,1162,920066706,"""map""",,,0.266358226538,-0.0443912632763,0.0307582244277,,0.00297563039587,-0.00599071781521,0.0572980926415,-0.998334718754
1162960000000,,28579,,1162,960066706,"""map""",,,0.266598105431,-0.0448328703642,0.0307842474431,,0.00303252666573,-0.00597206520056,0.0572714136864,-0.998336193894
1162996000000,,28580,,1162,992066553,"""map""",,,0.265596747398,-0.0450088083744,0.030921831727,,0.00304808724927,-0.00595490896368,0.0572233241323,-0.998339017733
1163028000000,,28581,,1163,24066553,"""map""",,,0.264924585819,-0.0452336110175,0.0310903768986,,0.00304896410128,-0.00593034953407,0.0572451561998,-0.998337921915
1163064000000,,28582,,1163,56066553,"""map""",,,0.264532357454,-0.0454980880022,0.0313260033727,,0.00307678036275,-0.00593754808409,0.0572280445793,-0.998338764852
1163096000000,,28583,,1163,88066400,"""map""",,,0.264403760433,-0.0457982644439,0.0315065830946,,0.00308277690441,-0.00592255516591,0.0571967716177,-0.998340619313
1163128000000,,28584,,1163,120066400,"""map""",,,0.26449406147,-0.0461488030851,0.0317260846496,,0.00309095125275,-0.00587559649731,0.0571539082728,-0.998343274564
1163164000000,,28585,,1163,160066400,"""map""",,,0.26454988122,-0.046529635787,0.0320822373033,,0.00310024496212,-0.00591284278687,0.0571792806756,-0.998341588691
1163196000000,,28586,,1163,192066247,"""map""",,,0.263726055622,-0.0466236025095,0.0326155312359,,0.0030816471713,-0.00591605236816,0.0571993425755,-0.998340492872
1163228000000,,28587,,1163,224066247,"""map""",,,0.263233035803,-0.046770516783,0.0330530405045,,0.00308483930117,-0.00589904924288,0.0572145997346,-0.998339734229
1163264000000,,28588,,1163,256066247,"""map""",,,0.263045251369,-0.0469723679125,0.0335169769824,,0.0031102897415,-0.00585995244325,0.057225347181,-0.998339270614
1163296000000,,28589,,1163,288066093,"""map""",,,0.263136029243,-0.0472271889448,0.0340293161571,,0.00313288259257,-0.00589096248095,0.0572346616345,-0.998338469824
1163328000000,,28590,,1163,320066093,"""map""",,,0.263437181711,-0.0475421175361,0.0344668664038,,0.00314122256485,-0.00590987637313,0.0572798009093,-0.998335730279
1163364000000,,28591,,1163,360066093,"""map""",,,0.26370254159,-0.0477863661945,0.0348757468164,,0.00316464600519,-0.00594545061818,0.0572716244207,-0.998335898866
1163396000000,,28592,,1163,392065940,"""map""",,,0.262890994549,-0.0473573543131,0.0349386259913,,0.00314897099954,-0.00594145621647,0.0572924871107,-0.998334845195
1163428000000,,28593,,1163,424065940,"""map""",,,0.262380897999,-0.0470506213605,0.034947771579,,0.00317177598426,-0.00591820539712,0.0572478114513,-0.998337458299
1163464000000,,28594,,1163,456065940,"""map""",,,0.262158155441,-0.0468176826835,0.0349336452782,,0.00317683212435,-0.00593534352403,0.0572211324961,-0.998338849145
1163496000000,,28595,,1163,488065786,"""map""",,,0.262203782797,-0.0466515682638,0.0348667688668,,0.00317630388934,-0.00595257903321,0.0572270752018,-0.998338469824
1163528000000,,28596,,1163,520065786,"""map""",,,0.262488603592,-0.0465444847941,0.0345520637929,,0.00321643015866,-0.00593056800621,0.0572614248833,-0.998336404628
1163564000000,,28597,,1163,560065786,"""map""",,,0.262750506401,-0.0464439056814,0.0342300161719,,0.00323368279,-0.00589080829922,0.0572783257696,-0.998335688132
1163596000000,,28598,,1163,592065632,"""map""",,,0.262020587921,-0.0461399257183,0.0341919362545,,0.00326668039735,-0.00588149590365,0.0573227906948,-0.99833303288
1163628000000,,28599,,1163,624065632,"""map""",,,0.261593490839,-0.0458971858025,0.0341022461653,,0.00348258363806,-0.00587204307347,0.0573258252679,-0.998332189943
1163664000000,,28600,,1163,656065632,"""map""",,,0.261405915022,-0.0457178577781,0.0341238826513,,0.00343957327306,-0.00592045218634,0.0573853787648,-0.998328607461
1163696000000,,28601,,1163,688065478,"""map""",,,0.261427611113,-0.0456172786653,0.0341736786067,,0.00344525091454,-0.00589905706309,0.0573909421488,-0.998328438874
1163728000000,,28602,,1163,720065478,"""map""",,,0.261693567038,-0.045586515218,0.0341383777559,,0.003497966003,-0.00592365773405,0.0574070000981,-0.998327216615
1163764000000,,28603,,1163,760065478,"""map""",,,0.261948764324,-0.04556677863,0.0338789746165,,0.00344300741804,-0.0059794506949,0.0574239431312,-0.998326120797
1163796000000,,28604,,1163,792065324,"""map""",,,0.261165827513,-0.0453958250582,0.0336424782872,,0.00348631569211,-0.00593834459367,0.0574488519187,-0.998324729951
1163824000000,,28605,,1163,824065324,"""map""",,,0.26068380475,-0.0452618673444,0.0334079749882,,0.00346282944309,-0.00592394872841,0.0574674808257,-0.99832380272
1163864000000,,28606,,1163,856065324,"""map""",,,0.260467618704,-0.0451965406537,0.0332318767905,,0.00349643192357,-0.00597277560545,0.0575247583928,-0.998320135945
1163896000000,,28607,,1163,888065170,"""map""",,,0.260516375303,-0.0452277027071,0.0332165621221,,0.00351752436329,-0.00601525641835,0.057542797244,-0.998318702952
1163928000000,,28608,,1163,920065170,"""map""",,,0.260793328285,-0.0453239195049,0.0332132689655,,0.00355226184523,-0.00601817056011,0.057526107092,-0.998319545889
1163964000000,,28609,,1163,960065170,"""map""",,,0.261017799377,-0.0454859212041,0.0330137200654,,0.00349726819277,-0.00601015072278,0.0575210073233,-0.998320093798
1163996000000,,28610,,1163,992065016,"""map""",,,0.260235697031,-0.0454729199409,0.0322836861014,,0.00348948765405,-0.00601403662928,0.0574826115443,-0.998322327581
1164028000000,,28611,,1164,24065016,"""map""",,,0.259743601084,-0.0455193296075,0.0314868576825,,0.0034715382003,-0.00601130449275,0.0574834123344,-0.998322369728
1164064000000,,28612,,1164,64064861,"""map""",,,0.259539306164,-0.0456943623722,0.0305616538972,,0.00349886532784,-0.00598485915631,0.0575069724227,-0.998321063175
1164096000000,,28613,,1164,88064861,"""map""",,,0.259601950645,-0.0458394885063,0.0301530603319,,0.00351357844692,-0.00600344007192,0.0575033056469,-0.998321105322
1164128000000,,28614,,1164,120064861,"""map""",,,0.259885966778,-0.0460805334151,0.0297716688365,,0.0034514292968,-0.00598948452598,0.0574518864917,-0.998324392776
1164164000000,,28615,,1164,160064861,"""map""",,,0.260122030973,-0.0463219508529,0.0296694077551,,0.00345073173353,-0.00599657853206,0.057422594432,-0.998326036503
1164196000000,,28616,,1164,192064707,"""map""",,,0.259276151657,-0.0462923683226,0.0296865701675,,0.00343888007265,-0.00598061854127,0.0574659635391,-0.998323634133
1164228000000,,28617,,1164,224064707,"""map""",,,0.258746176958,-0.0463423207402,0.0297884885222,,0.00348853210597,-0.00597410775867,0.0574489362124,-0.99832447707
1164264000000,,28618,,1164,256064707,"""map""",,,0.258470058441,-0.0464684255421,0.0298965387046,,0.00350501185301,-0.00598480219221,0.0574603158614,-0.998323718427
1164296000000,,28619,,1164,288064552,"""map""",,,0.258455783129,-0.0466369055212,0.0299129746854,,0.00348709186913,-0.00597534648089,0.0574421084229,-0.998324898539
1164328000000,,28620,,1164,320064552,"""map""",,,0.258679836988,-0.0468659065664,0.0300346836448,,0.00351879642433,-0.00596521452668,0.0574505377926,-0.998324392776
1164364000000,,28621,,1164,360064552,"""map""",,,0.258882582188,-0.0471156202257,0.0299714859575,,0.00350373337116,-0.00596996345577,0.0574094867621,-0.998326753
1164396000000,,28622,,1164,392064397,"""map""",,,0.258131802082,-0.0471110828221,0.029756097123,,0.00350589973564,-0.00594886130251,0.0574146286777,-0.998326584412
1164428000000,,28623,,1164,424064397,"""map""",,,0.257699131966,-0.0472017489374,0.0296995248646,,0.00372316147136,-0.00596756396653,0.0573852523243,-0.998327300909
1164464000000,,28624,,1164,456064397,"""map""",,,0.257490366697,-0.0473586209118,0.0297491066158,,0.00374739623852,-0.0059426120444,0.057362788054,-0.998328691755
1164496000000,,28625,,1164,488064242,"""map""",,,0.257519185543,-0.047558683902,0.0298586562276,,0.00374372468825,-0.00591430203918,0.0573998772807,-0.998326753
1164528000000,,28626,,1164,520064242,"""map""",,,0.257770299911,-0.0477928183973,0.0299279708415,,0.00373018460158,-0.00588990996219,0.0573974327635,-0.998327090175
1164564000000,,28627,,1164,560064242,"""map""",,,0.257974475622,-0.048024315387,0.0297141782939,,0.00374978724899,-0.00588040411918,0.0573319787077,-0.998330841244
1164596000000,,28628,,1164,592064087,"""map""",,,0.257179915905,-0.0479588471353,0.0289361514151,,0.00375048571776,-0.00590236484984,0.0573000313966,-0.998332527118
1164628000000,,28629,,1164,624064087,"""map""",,,0.256703138351,-0.0479413866997,0.0281862374395,,0.00375340092966,-0.00595124021222,0.0572827933355,-0.998333243615
1164664000000,,28630,,1164,656064087,"""map""",,,0.256483346224,-0.0480305440724,0.0274100080132,,0.00349079939239,-0.0059447584879,0.0572814446364,-0.998334255139
1164696000000,,28631,,1164,688063932,"""map""",,,0.256519973278,-0.04817686975,0.0268284939229,,0.00343690814344,-0.00592225593975,0.0573127597448,-0.998332864293
1164728000000,,28632,,1164,720063932,"""map""",,,0.256792634726,-0.048381883651,0.0262513235211,,0.00348244633153,-0.00594812768392,0.0572787472381,-0.99833450802
1164764000000,,28633,,1164,760063932,"""map""",,,0.257119506598,-0.0486087612808,0.0257643144578,,0.0035166211695,-0.00600668579085,0.0572461677242,-0.998335814572
1164796000000,,28634,,1164,792063776,"""map""",,,0.256616055965,-0.0485075041652,0.0256831273437,,0.0035140842091,-0.00599981412586,0.0572727202387,-0.998334381579
1164828000000,,28635,,1164,824063776,"""map""",,,0.256398975849,-0.048450153321,0.0256537720561,,0.00354024480736,-0.00598765154966,0.0572813181958,-0.998333875817
1164864000000,,28636,,1164,856063776,"""map""",,,0.256458073854,-0.0484521314502,0.0256613511592,,0.00354148706926,-0.00598722785859,0.0572838048599,-0.998333749377
1164896000000,,28637,,1164,888063621,"""map""",,,0.256781816483,-0.0485296659172,0.0256388951093,,0.00353653020475,-0.00599723444239,0.0572931614603,-0.998333159321
1164928000000,,28638,,1164,920063621,"""map""",,,0.257345020771,-0.0486498437822,0.0255823582411,,0.00348651490182,-0.00604679337397,0.0572240406287,-0.998337036831
1164964000000,,28639,,1164,960063621,"""map""",,,0.258357346058,-0.0488794334233,0.0253831073642,,0.00349602066252,-0.00607600410344,0.0572196995033,-0.998336994684
1164996000000,,28640,,1164,992063466,"""map""",,,0.259352117777,-0.0491241663694,0.0251666754484,,0.00352449217578,-0.00606809630099,0.0572169178113,-0.998337163271
1165028000000,,28641,,1165,24063466,"""map""",,,0.260526657104,-0.0493924580514,0.0249213371426,,0.00356765128952,-0.0061022121169,0.0571996376034,-0.998337753327
1165064000000,,28642,,1165,56063466,"""map""",,,0.261868208647,-0.0496555678546,0.0247531030327,,0.00360332250524,-0.00614989419664,0.0571789856476,-0.998338511971
1165096000000,,28643,,1165,88063310,"""map""",,,0.261604130268,-0.0495161823928,0.0244607981294,,0.00359769960528,-0.00614040481724,0.0571684067887,-0.998339228467
1165128000000,,28644,,1165,120063310,"""map""",,,0.261657834053,-0.0494235269725,0.0242762193084,,0.00361025566182,-0.00612403842217,0.0572144732941,-0.998336657509
1165164000000,,28645,,1165,160063310,"""map""",,,0.262123674154,-0.0493826270103,0.023918941617,,0.00354535132611,-0.00611595034316,0.0572372325923,-0.998335645985
1165196000000,,28646,,1165,192063154,"""map""",,,0.262735277414,-0.049384355545,0.0236797984689,,0.00353048550703,-0.0061299040781,0.0572470106611,-0.998335055929
1165228000000,,28647,,1165,224063154,"""map""",,,0.263538599014,-0.0493822358549,0.0233303103596,,0.00355343767645,-0.00616933582992,0.0572511410523,-0.998334465873
1165264000000,,28648,,1165,256063154,"""map""",,,0.26455077529,-0.0494580902159,0.0231185983866,,0.00374874131568,-0.00621990570965,0.0572093735254,-0.998335856719
1165296000000,,28649,,1165,288062998,"""map""",,,0.264155954123,-0.0492123700678,0.0229742806405,,0.00373309446281,-0.0062124363332,0.0572067604208,-0.9983361096
1165328000000,,28650,,1165,328062998,"""map""",,,0.264074832201,-0.0489892140031,0.0227974951267,,0.003799273823,-0.00620233796476,0.0571875414579,-0.998336952537
1165364000000,,28651,,1165,360062998,"""map""",,,0.264320343733,-0.048831500113,0.0226687323302,,0.00381894306573,-0.00620744382497,0.0571677324391,-0.998338048355
1165396000000,,28652,,1165,392062842,"""map""",,,0.264829069376,-0.0487109944224,0.0225676931441,,0.00385608300035,-0.00618871218498,0.0571462375463,-0.998339228467
1165428000000,,28653,,1165,424062842,"""map""",,,0.265552818775,-0.0486302040517,0.0225372686982,,0.00386017988805,-0.00617282142369,0.0571224667238,-0.99834066146
1165464000000,,28654,,1165,456062842,"""map""",,,0.266464740038,-0.0485726930201,0.0225258544087,,0.00382742223786,-0.00619629886467,0.0571718628302,-0.998337795474
1165496000000,,28655,,1165,488062686,"""map""",,,0.265916496515,-0.0482260622084,0.022431243211,,0.00385223166743,-0.00624117924911,0.0571885108354,-0.998336488922
1165528000000,,28656,,1165,520062686,"""map""",,,0.265655249357,-0.0479394719005,0.0223545841873,,0.003890227216,-0.00628795813506,0.0571810508432,-0.998336446775
1165564000000,,28657,,1165,560062686,"""map""",,,0.265707343817,-0.0476813465357,0.0223260428756,,0.00384109617371,-0.00630761667644,0.0571120564522,-0.998340535019
1165596000000,,28658,,1165,592062530,"""map""",,,0.266042500734,-0.0475380718708,0.0222788993269,,0.00383397483803,-0.00630215915346,0.0570820900429,-0.99834226304
1165628000000,,28659,,1165,624062530,"""map""",,,0.266643732786,-0.0474382378161,0.0222901832312,,0.00382007378665,-0.00628013923611,0.0571802079062,-0.998336868243
1165664000000,,28660,,1165,656062530,"""map""",,,0.267468631268,-0.0473652817309,0.022318392992,,0.00381692643781,-0.00631465042569,0.0572106800777,-0.998334887342
1165696000000,,28661,,1165,688062374,"""map""",,,0.267041385174,-0.0470656268299,0.0220725350082,,0.00380196364804,-0.00630378707549,0.0572105536372,-0.998335013782
1165728000000,,28662,,1165,720062374,"""map""",,,0.266931593418,-0.0468432456255,0.021863900125,,0.00379985729344,-0.00631182559902,0.0572822875733,-0.998330883391
1165764000000,,28663,,1165,760062374,"""map""",,,0.26718506217,-0.046620041132,0.0216502789408,,0.00378487968642,-0.00636439160947,0.0572804752589,-0.998330672657
1165796000000,,28664,,1165,792062218,"""map""",,,0.267678797245,-0.046462751925,0.0214291401207,,0.00377490965184,-0.00637567807452,0.0572594018346,-0.998331852769
1165828000000,,28665,,1165,824062218,"""map""",,,0.268422007561,-0.0463658683002,0.0211315061897,,0.00374740693987,-0.00634364638733,0.0572357995994,-0.998333538642
1165864000000,,28666,,1165,856062218,"""map""",,,0.269381403923,-0.0462938696146,0.0207829680294,,0.00375194439385,-0.00639507994818,0.0572675783232,-0.998331347006
1165896000000,,28667,,1165,888062061,"""map""",,,0.268779486418,-0.0461434684694,0.0207006409764,,0.00377323777197,-0.00638377273897,0.0572704443089,-0.998331178419
1165928000000,,28668,,1165,920062061,"""map""",,,0.268539041281,-0.046018153429,0.0206469055265,,0.00373826510733,-0.00640359756284,0.0572423745078,-0.998332779999
1165964000000,,28669,,1165,960062061,"""map""",,,0.268670111895,-0.045899335295,0.0207186359912,,0.00374707807921,-0.0063436334634,0.0572875137826,-0.998330546216
1165996000000,,28670,,1165,992061905,"""map""",,,0.269071012735,-0.0458452701569,0.0208430849016,,0.0037249134467,-0.00635135884902,0.0573165108143,-0.998328944636
1166028000000,,28671,,1166,24061905,"""map""",,,0.269708245993,-0.0458214059472,0.0209295749664,,0.00376039121498,-0.00634329102025,0.0573586998097,-0.998326457972
1166064000000,,28672,,1166,56061905,"""map""",,,0.270546674728,-0.0458090044558,0.0209705401212,,0.00372439171482,-0.00630258259758,0.0573361933926,-0.998328143846
1166096000000,,28673,,1166,88061748,"""map""",,,0.269757062197,-0.0457203276455,0.0211279653013,,0.00372644703222,-0.00627039491767,0.0572964910613,-0.998330588363
1166128000000,,28674,,1166,120061748,"""map""",,,0.269336819649,-0.045667424798,0.0212220381945,,0.0038292152076,-0.00648652757882,0.0572697278125,-0.998330377629
1166164000000,,28675,,1166,160061748,"""map""",,,0.269206553698,-0.0456420369446,0.021422829479,,0.003847091069,-0.0064675223136,0.0572450719061,-0.998331852769
1166196000000,,28676,,1166,192061592,"""map""",,,0.269395142794,-0.0456620268524,0.0215957593173,,0.00381601698784,-0.00648488549809,0.0572558193525,-0.998331220566
1166228000000,,28677,,1166,224061592,"""map""",,,0.269853770733,-0.0457435846329,0.0217599458992,,0.00381531053422,-0.00647169139424,0.0572596968625,-0.998331051978
1166264000000,,28678,,1166,256061592,"""map""",,,0.270550251007,-0.0458629988134,0.0220561698079,,0.00380686305455,-0.00639829298683,0.0572626892888,-0.9983314313
1166296000000,,28679,,1166,292061435,"""map""",,,0.269538938999,-0.0457569882274,0.0220945309848,,0.00380891730182,-0.00640531940978,0.0572642487222,-0.998331304859
1166328000000,,28680,,1166,324061435,"""map""",,,0.26889705658,-0.0456712581217,0.0221568346024,,0.0039021013497,-0.00643915806078,0.057265133806,-0.998330588363
1166364000000,,28681,,1166,356061435,"""map""",,,0.268573462963,-0.0456154644489,0.0221973042935,,0.00396404100035,-0.00643623387621,0.0572565358489,-0.998330925538
1166396000000,,28682,,1166,388061278,"""map""",,,0.268569767475,-0.0455948114395,0.0221590753645,,0.00396712619906,-0.00645249934933,0.0572396771095,-0.998331768475
1166428000000,,28683,,1166,420061278,"""map""",,,0.268825441599,-0.0455814227462,0.0220330841839,,0.00403206535531,-0.00643692271376,0.0571879629264,-0.998334592314
1166464000000,,28684,,1166,460061278,"""map""",,,0.268943607807,-0.0454697757959,0.0219119340181,,0.00404184309489,-0.00646893028175,0.0572073926235,-0.998333201468
1166496000000,,28685,,1166,492061121,"""map""",,,0.267758220434,-0.0450002029538,0.0219453405589,,0.00404040096473,-0.0064781432371,0.0572113965741,-0.99833290644
1166528000000,,28686,,1166,524061121,"""map""",,,0.266916811466,-0.0446034371853,0.0219302400947,,0.00403206206258,-0.0064979454235,0.0572083620011,-0.998332990733
1166564000000,,28687,,1166,556061121,"""map""",,,0.26641574502,-0.0442781150341,0.0218813996762,,0.00407028028151,-0.00650836400921,0.0572659345961,-0.998329450398
1166596000000,,28688,,1166,588060964,"""map""",,,0.26622274518,-0.0439929738641,0.0218658726662,,0.0040517471927,-0.00654168405641,0.0572739003505,-0.998328902489
1166628000000,,28689,,1166,620060964,"""map""",,,0.266317665577,-0.0437358692288,0.0218763966113,,0.00400563006167,-0.00652034252222,0.0572936250756,-0.998328059552
1166664000000,,28690,,1166,660072807,"""map""",,,0.266404926777,-0.0434040166438,0.0217765774578,,0.00395510537456,-0.00676210853444,0.0572725516513,-0.998327890965
1166696000000,,28691,,1166,692072807,"""map""",,,0.265382111073,-0.0430478528142,0.0219788905233,,0.00393835875236,-0.00674459964697,0.0572373590328,-0.998330040454
1166728000000,,28692,,1166,724072807,"""map""",,,0.264717966318,-0.0427289530635,0.0223080813885,,0.00393298585235,-0.00673541739626,0.0572554400308,-0.99832915537
1166764000000,,28693,,1166,756072807,"""map""",,,0.264388024807,-0.0424297191203,0.0227456428111,,0.00391681924323,-0.00676766236955,0.0572325542921,-0.998330293335
1166796000000,,28694,,1166,788072650,"""map""",,,0.264355748892,-0.04213616997,0.0231914129108,,0.00391065444345,-0.00675216632337,0.0572328914669,-0.998330377629
1166828000000,,28695,,1166,820072650,"""map""",,,0.264608055353,-0.0418929047883,0.0236503761262,,0.003900787965,-0.00674858664006,0.0571974459673,-0.998332442824
1166864000000,,28696,,1166,860072650,"""map""",,,0.264913767576,-0.0415686815977,0.0241767019033,,0.00391054545434,-0.00679401913176,0.0572163277554,-0.998331094125
1166896000000,,28697,,1166,892072493,"""map""",,,0.264264851809,-0.0412156283855,0.0245357546955,,0.00388497598209,-0.00679856852186,0.0572277074045,-0.998330504069
1166928000000,,28698,,1166,924072493,"""map""",,,0.263963848352,-0.0408755838871,0.0248261503875,,0.00392467436212,-0.00675508285236,0.0572587696319,-0.998328860342
1166964000000,,28699,,1166,956072493,"""map""",,,0.264011025429,-0.0405692085624,0.0251304302365,,0.00391104380789,-0.00676243484325,0.0572270330549,-0.998330672657
1166996000000,,28700,,1166,988072335,"""map""",,,0.264332711697,-0.0402941666543,0.0254685804248,,0.00389671124522,-0.00673099526989,0.0572518575487,-0.998329534692
1167028000000,,28701,,1167,20072335,"""map""",,,0.264922171831,-0.0400515384972,0.0257910899818,,0.00394767221806,-0.00671777482426,0.0572701071341,-0.998328312433
1167064000000,,28702,,1167,60072335,"""map""",,,0.265576153994,-0.0397063493729,0.0261829793453,,0.00390634097693,-0.0067334155856,0.0572649230718,-0.998328691755
1167096000000,,28703,,1167,92072177,"""map""",,,0.265017300844,-0.0393043905497,0.0266548823565,,0.00393180014297,-0.00673274008357,0.0572441868223,-0.998329787573
1167128000000,,28704,,1167,124072177,"""map""",,,0.264792829752,-0.0389511622488,0.0271085947752,,0.00387249409412,-0.00678603493814,0.0572968282361,-0.998326626559
1167164000000,,28705,,1167,156072177,"""map""",,,0.264892399311,-0.0386256314814,0.0275465156883,,0.00384044421464,-0.00684817569183,0.0572819503986,-0.998327174468
1167196000000,,28706,,1167,188072019,"""map""",,,0.265283465385,-0.0383272618055,0.0280365794897,,0.00383800759996,-0.00682735844138,0.0572950159216,-0.998326668706
1167232000000,,28707,,1167,220072019,"""map""",,,0.265952318907,-0.0380240678787,0.0283964462578,,0.00404864931701,-0.00687519017536,0.0573168058423,-0.998324182042
1167264000000,,28708,,1167,260072019,"""map""",,,0.266654491425,-0.0376895181835,0.0288341697305,,0.0040843631735,-0.00686632451992,0.0572858700555,-0.998325867916
1167296000000,,28709,,1167,292071861,"""map""",,,0.266021609306,-0.0373853743076,0.0287415795028,,0.00411433616824,-0.00685418425192,0.0573048782841,-0.998324729951
1167328000000,,28710,,1167,324071861,"""map""",,,0.265727341175,-0.0370665639639,0.0287986081094,,0.00390552504028,-0.0067992627924,0.0573142348845,-0.998325404301
1167364000000,,28711,,1167,356071861,"""map""",,,0.265742868185,-0.036747906357,0.0288778301328,,0.00394822374909,-0.00673181532244,0.057375305668,-0.998322158993
1167396000000,,28712,,1167,396071703,"""map""",,,0.266158372164,-0.0363377220929,0.0290781594813,,0.00394579783576,-0.00670444012115,0.0573681407038,-0.998322833343
1167428000000,,28713,,1167,420071703,"""map""",,,0.266621261835,-0.0360930711031,0.0292860865593,,0.00398544180355,-0.00664984653449,0.0573799418213,-0.998322327581
1167464000000,,28714,,1167,460071703,"""map""",,,0.267278105021,-0.0357223525643,0.029749667272,,0.00392328466857,-0.00660796944227,0.0574196020058,-0.99832059956
1167496000000,,28715,,1167,492071544,"""map""",,,0.266712516546,-0.0355041138828,0.0301618352532,,0.0038879732651,-0.00659829632895,0.0574249125087,-0.998320515266
1167528000000,,28716,,1167,524071544,"""map""",,,0.266514390707,-0.0352719686925,0.0305998269469,,0.00392838155611,-0.00663505496629,0.0574574077289,-0.99831819719
1167564000000,,28717,,1167,556071544,"""map""",,,0.266650676727,-0.0350329652429,0.0311112180352,,0.00392203055287,-0.0066368468659,0.0574762052233,-0.998317185665
1167596000000,,28718,,1167,588071386,"""map""",,,0.267084091902,-0.0348079949617,0.0316001139581,,0.00393887077071,-0.00664855652811,0.0574447636743,-0.998318787245
1167628000000,,28719,,1167,620071386,"""map""",,,0.267767608166,-0.0346097461879,0.0320554040372,,0.00387793910475,-0.00664738217862,0.0574130270974,-0.998320852441
1167664000000,,28720,,1167,660071386,"""map""",,,0.268519550562,-0.0343414321542,0.0326313599944,,0.00383159205937,-0.0066180012154,0.057414544384,-0.998321189616
1167696000000,,28721,,1167,692071227,"""map""",,,0.267986744642,-0.0340691618621,0.0330694131553,,0.00384786098985,-0.00660746425631,0.0574058621332,-0.998321695378
1167728000000,,28722,,1167,724071227,"""map""",,,0.267801135778,-0.0338248163462,0.0334868356586,,0.00383605098191,-0.00656813038067,0.0574302230116,-0.99832059956
1167764000000,,28723,,1167,756071227,"""map""",,,0.267923176289,-0.0335775800049,0.033925190568,,0.00385683020141,-0.00659863070492,0.0574736342656,-0.998317817868
1167796000000,,28724,,1167,788071068,"""map""",,,0.268312752247,-0.0333286337554,0.0343413501978,,0.00389546116311,-0.00657860889393,0.0574796612649,-0.998317438546
1167828000000,,28725,,1167,820071068,"""map""",,,0.268948704004,-0.0330451913178,0.0348041690886,,0.003858474834,-0.0065743150191,0.0574687452312,-0.998318239336
1167864000000,,28726,,1167,860071068,"""map""",,,0.269604474306,-0.0326718539,0.0354562550783,,0.00381019282022,-0.00660276694066,0.0574563962045,-0.998318955833
1167896000000,,28727,,1167,892070909,"""map""",,,0.268898457289,-0.0323918275535,0.0357038751245,,0.00381053707436,-0.00660597685122,0.057444847968,-0.998319545889
1167928000000,,28728,,1167,924070909,"""map""",,,0.268547475338,-0.0320924781263,0.0359820015728,,0.00386364786575,-0.00661544622734,0.0574591778965,-0.998318534364
1167964000000,,28729,,1167,956070909,"""map""",,,0.268516927958,-0.0318053849041,0.0362834893167,,0.00388270268645,-0.00664749775318,0.0574810521109,-0.998316974931
1167996000000,,28730,,1167,988070750,"""map""",,,0.268790900707,-0.0315047539771,0.0365558303893,,0.00387734657933,-0.00666167440544,0.0575047807866,-0.998315499791
1168028000000,,28731,,1168,20070750,"""map""",,,0.2693143785,-0.0311517417431,0.0368619672954,,0.00380186733591,-0.00666320832024,0.0574684080564,-0.998317902162
1168064000000,,28732,,1168,60070750,"""map""",,,0.269888818264,-0.0306979417801,0.0373956821859,,0.00378688808253,-0.00664052014485,0.0575117771635,-0.998315584085
1168096000000,,28733,,1168,92070590,"""map""",,,0.269276559353,-0.0303226280957,0.0377594977617,,0.00375625884819,-0.00664706706507,0.0574873319913,-0.998317101372
1168128000000,,28734,,1168,124070590,"""map""",,,0.269012928009,-0.0299215894192,0.0381947904825,,0.00374117554478,-0.00660602327861,0.057472116979,-0.998318239336
1168164000000,,28735,,1168,156070590,"""map""",,,0.269087344408,-0.0295106358826,0.0386117734015,,0.00383134642226,-0.00659876644741,0.0575120721914,-0.998315710526
1168196000000,,28736,,1168,188070430,"""map""",,,0.269448757172,-0.0291087385267,0.039109069854,,0.00398580408535,-0.00656414742117,0.0575159497015,-0.998315036176
1168228000000,,28737,,1168,220070430,"""map""",,,0.270081818104,-0.0286921150982,0.0396160855889,,0.004039328525,-0.00659305694884,0.0574374722696,-0.998319250861
1168264000000,,28738,,1168,260070430,"""map""",,,0.270763725042,-0.0282166730613,0.0400028452277,,0.00401426679057,-0.00657871598973,0.0573785509753,-0.998322791196
1168296000000,,28739,,1168,292070271,"""map""",,,0.270244985819,-0.0279418807477,0.040050983429,,0.00399953597311,-0.00656218767503,0.0573796889402,-0.998322917637
1168328000000,,28740,,1168,324070271,"""map""",,,0.270085692406,-0.027652695775,0.0400353744626,,0.00397860355969,-0.00654864264927,0.0574032490286,-0.998321695378
1168364000000,,28741,,1168,356070271,"""map""",,,0.270249515772,-0.0273282565176,0.0400584712625,,0.0039453869863,-0.00657261852613,0.0574111726361,-0.998321189616
1168396000000,,28742,,1168,388070111,"""map""",,,0.270716100931,-0.0269785895944,0.0401063673198,,0.0039509334951,-0.00654350073375,0.0574506220863,-0.998319082273
1168428000000,,28743,,1168,420070111,"""map""",,,0.271468728781,-0.0265817325562,0.0401500947773,,0.00395467501573,-0.0066085191623,0.0573849572963,-0.998322454021
1168464000000,,28744,,1168,460070111,"""map""",,,0.272263407707,-0.0261123310775,0.0402754805982,,0.00394011879487,-0.00657868026369,0.0573593320124,-0.998324224189
1168496000000,,28745,,1168,492069951,"""map""",,,0.271725893021,-0.0257999766618,0.0402394086123,,0.00393603186766,-0.00656944220133,0.0573811219331,-0.99832300193
1168528000000,,28746,,1168,524069951,"""map""",,,0.271527945995,-0.0254869181663,0.0402603261173,,0.00391193012648,-0.00655267006053,0.0574175789571,-0.998321105322
1168564000000,,28747,,1168,556069951,"""map""",,,0.271670162678,-0.0251440685242,0.04034659639,,0.00396575601489,-0.00659033444353,0.0574231844879,-0.998320304532
1168596000000,,28748,,1168,588069791,"""map""",,,0.272115707397,-0.0247504282743,0.0403829887509,,0.00397125552007,-0.00656799002837,0.057400340896,-0.998321737525
1168628000000,,28749,,1168,620069791,"""map""",,,0.272852748632,-0.024310650304,0.0403401516378,,0.00401466315205,-0.00659487346155,0.057383650744,-0.998322411874
1168664000000,,28750,,1168,660069791,"""map""",,,0.2736941576,-0.0237571746111,0.0401356220245,,0.00403711301664,-0.00662160304226,0.0573839457719,-0.998322116847
1168696000000,,28751,,1168,692069630,"""map""",,,0.273376435041,-0.0234792605042,0.0395366698503,,0.00402265442501,-0.00660743141141,0.0573847465621,-0.998322158993
1168728000000,,28752,,1168,724069630,"""map""",,,0.273410588503,-0.0231469478458,0.0390852987766,,0.00403407539778,-0.00661176414036,0.0573873596667,-0.998321990406
1168760000000,,28753,,1168,756069630,"""map""",,,0.273750901222,-0.0227842051536,0.0387379787862,,0.00405627674414,-0.00661250450902,0.0574220886698,-0.998319883064
1168796000000,,28754,,1168,788063470,"""map""",,,0.274360507727,-0.0224014781415,0.0384461209178,,0.0040612238128,-0.00660535724316,0.0574441736185,-0.998318618658
1168828000000,,28755,,1168,820063470,"""map""",,,0.27522957325,-0.0219659041613,0.0382212027907,,0.00407730160074,-0.00663246614551,0.057408981,-0.998320430973
1168864000000,,28756,,1168,860063470,"""map""",,,0.276148200035,-0.0214838311076,0.0378042124212,,0.00400610396676,-0.0066825468913,0.0573924594353,-0.998321358203
1168896000000,,28757,,1168,892063309,"""map""",,,0.275727182627,-0.0213381797075,0.0372033827007,,0.00403477386655,-0.00666896095347,0.0573641789,-0.998322917637
1168928000000,,28758,,1168,924063309,"""map""",,,0.275672197342,-0.0211122799665,0.0367700979114,,0.00378685400285,-0.00659212551995,0.0573686464659,-0.998324182042
1168964000000,,28759,,1168,956063309,"""map""",,,0.275924861431,-0.0208243429661,0.0364037230611,,0.0038662037593,-0.00660997693288,0.0573633781099,-0.998324055602
1168996000000,,28760,,1168,988063148,"""map""",,,0.276438981295,-0.0205031894147,0.03609957546,,0.00397381421244,-0.00659610436355,0.0574112990766,-0.998320894588
1169028000000,,28761,,1169,20063148,"""map""",,,0.277169018984,-0.0201553292572,0.0358420237899,,0.00393448749847,-0.00653605276,0.0573203883244,-0.998326753
1169064000000,,28762,,1169,60063148,"""map""",,,0.277917832136,-0.019714999944,0.0354686565697,,0.00386610003854,-0.006508192623,0.0573191239189,-0.998327258762
1169096000000,,28763,,1169,92062988,"""map""",,,0.277286469936,-0.0195067338645,0.0351460129023,,0.00390394667373,-0.0065713528859,0.0573239708065,-0.998326373678
1169128000000,,28764,,1169,124062988,"""map""",,,0.277032494545,-0.019197108224,0.0349459163845,,0.00390375437873,-0.00656245397396,0.0573137712692,-0.998327048028
1169164000000,,28765,,1169,164062988,"""map""",,,0.277230143547,-0.0187301002443,0.0350916832685,,0.00390196264376,-0.00662056970361,0.0572694749314,-0.998329197517
1169196000000,,28766,,1169,188062827,"""map""",,,0.277567267418,-0.0184212177992,0.0352298282087,,0.00385743252268,-0.00660015021405,0.0572983455226,-0.998327890965
1169228000000,,28767,,1169,220062827,"""map""",,,0.278245776892,-0.0179646275938,0.035487677902,,0.00389248380107,-0.00656051678298,0.0572727202387,-0.998329492545
1169264000000,,28768,,1169,260062827,"""map""",,,0.279000163078,-0.017423376441,0.0357543639839,,0.00388324582103,-0.00656157761586,0.0572745325532,-0.998329366104
1169296000000,,28769,,1169,292062666,"""map""",,,0.278467953205,-0.0172270368785,0.035845823586,,0.00385493005355,-0.006552306297,0.0572578845481,-0.998330504069
1169328000000,,28770,,1169,324062666,"""map""",,,0.278282254934,-0.0169304590672,0.0358764156699,,0.0038806011886,-0.00651823806093,0.0572299411875,-0.99833223209
1169364000000,,28771,,1169,356062666,"""map""",,,0.2783844769,-0.0165728945285,0.0358565300703,,0.00391293341904,-0.00652351399025,0.0572146840283,-0.998332990733
1169396000000,,28772,,1169,388068505,"""map""",,,0.278747975826,-0.0161733366549,0.0356572344899,,0.00394389538299,-0.00651369459773,0.0572074347704,-0.998333327908
1169428000000,,28773,,1169,420068505,"""map""",,,0.279335975647,-0.0157230403274,0.035372864455,,0.0038886891853,-0.00649704700416,0.057209499966,-0.998333538642
1169464000000,,28774,,1169,460068505,"""map""",,,0.279932677746,-0.0151654770598,0.035085901618,,0.00390477117145,-0.0064333673966,0.0572381598229,-0.998332189943
1169496000000,,28775,,1169,492068344,"""map""",,,0.279252082109,-0.0148255843669,0.0346940346062,,0.00386089613752,-0.00639850948334,0.0572447347313,-0.998332274237
1169528000000,,28776,,1169,524068344,"""map""",,,0.278931707144,-0.0144493253902,0.0344313047826,,0.0038124703964,-0.00634369059213,0.0572366425364,-0.998333201468
1169564000000,,28777,,1169,556068344,"""map""",,,0.278933852911,-0.0140411714092,0.0342277921736,,0.00383809592725,-0.0063513979501,0.0572408150744,-0.998332822146
1169596000000,,28778,,1169,588068182,"""map""",,,0.279233664274,-0.0135267237201,0.0340024493635,,0.00414060509707,-0.00646168884403,0.0572521525767,-0.998330251188
1169628000000,,28779,,1169,620068182,"""map""",,,0.279797405005,-0.0129820192233,0.0339694172144,,0.004145615386,-0.00647375724836,0.0572635743726,-0.998329534692
1169664000000,,28780,,1169,660068182,"""map""",,,0.280313789845,-0.0123530486599,0.0337353013456,,0.00412173425724,-0.00643734731033,0.0572409836618,-0.998331136272
1169696000000,,28781,,1169,692068021,"""map""",,,0.279469549656,-0.0122019983828,0.033400002867,,0.0041203892624,-0.00641520597384,0.0572442289691,-0.998331094125
1169728000000,,28782,,1169,724068021,"""map""",,,0.278983473778,-0.0119836181402,0.0332007147372,,0.00406785799018,-0.00638474549153,0.0573242658345,-0.998326921587
1169764000000,,28783,,1169,756068021,"""map""",,,0.278796464205,-0.0117018586025,0.0330370515585,,0.00406662157286,-0.00635335958955,0.0573605121242,-0.998325067126
1169796000000,,28784,,1169,788067859,"""map""",,,0.278908640146,-0.0113292280585,0.0330246500671,,0.00410048697723,-0.00635775627964,0.0573717653327,-0.998324266336
1169828000000,,28785,,1169,820067859,"""map""",,,0.279309123755,-0.010869147256,0.0331720113754,,0.00412548285721,-0.00637892436967,0.0573852944711,-0.998323212665
1169864000000,,28786,,1169,860067859,"""map""",,,0.280159622431,-0.0101895490661,0.0334974490106,,0.00411074619517,-0.00634319676607,0.0573832714224,-0.998323634133
1169896000000,,28787,,1169,892067698,"""map""",,,0.281111270189,-0.0095762135461,0.0337545052171,,0.00412196672345,-0.00634280139241,0.0574357021019,-0.99832059956
1169928000000,,28788,,1169,924067698,"""map""",,,0.282266408205,-0.00890838820487,0.0338615700603,,0.0041057252872,-0.00634019067503,0.0575328505877,-0.998315078323
1169964000000,,28789,,1169,956067698,"""map""",,,0.283609509468,-0.00808708183467,0.0340485870838,,0.00435349368566,-0.00641397441329,0.0575587708996,-0.998312085897
1169996000000,,28790,,1169,988067536,"""map""",,,0.282994568348,-0.00755458371714,0.0346595980227,,0.00434709403245,-0.00639154496358,0.0575690125838,-0.998311622281
1170028000000,,28791,,1170,20067536,"""map""",,,0.282722324133,-0.00690642558038,0.0351522676647,,0.00432700653164,-0.00640088699365,0.0576190830398,-0.998308756296
1170064000000,,28792,,1170,60067536,"""map""",,,0.282857388258,-0.00600327877328,0.0358381345868,,0.00425730050097,-0.00640259171843,0.0575943849866,-0.998310526463
1170096000000,,28793,,1170,92067374,"""map""",,,0.283319234848,-0.00524770421907,0.0364676713943,,0.00427616096873,-0.00637178920456,0.0576274702626,-0.998308714149
1170128000000,,28794,,1170,124067374,"""map""",,,0.284070670605,-0.00444963155314,0.0370601266623,,0.00423915792905,-0.00637919988823,0.0576640537271,-0.9983066911
1170164000000,,28795,,1170,156067374,"""map""",,,0.285098105669,-0.00358102330938,0.0376133620739,,0.00425215850314,-0.00639865041186,0.0577046832891,-0.998304162289
1170196000000,,28796,,1170,188067212,"""map""",,,0.284261286259,-0.00353476637974,0.0383780263364,,0.00425841829796,-0.0063916161687,0.0577109210227,-0.998303825114
1170228000000,,28797,,1170,220067212,"""map""",,,0.283779323101,-0.00335854361765,0.0391039736569,,0.00422426181691,-0.00628170155064,0.0577039246458,-0.99830508952
1170264000000,,28798,,1170,260067212,"""map""",,,0.283613622189,-0.00295957736671,0.0399238392711,,0.00419815028022,-0.00629784074785,0.0576697014049,-0.998307028275
1170296000000,,28799,,1170,292067050,"""map""",,,0.283815681934,-0.00254092388786,0.0405962467194,,0.00425737425796,-0.00627609190389,0.0576687320273,-0.998306986128
1170328000000,,28800,,1170,324067050,"""map""",,,0.284321784973,-0.00202914746478,0.0411080382764,,0.00425456581258,-0.0062709820101,0.0577007636322,-0.99830521596
1170364000000,,28801,,1170,356067050,"""map""",,,0.28509002924,-0.00142195587978,0.0416353642941,,0.00425006153279,-0.00625469801541,0.0577102466731,-0.998304752345
1170396000000,,28802,,1170,388066887,"""map""",,,0.28376185894,-0.00173511402681,0.0419345535338,,0.00423512294453,-0.00627634256239,0.0577123961624,-0.998304541611
1170428000000,,28803,,1170,420066887,"""map""",,,0.282808750868,-0.00182073458564,0.0425162799656,,0.00378718566233,-0.0064284260902,0.0575477705721,-0.998314909735
1170464000000,,28804,,1170,460066887,"""map""",,,0.281979262829,-0.00167141738348,0.0442348867655,,0.00209302484476,-0.0056086162976,0.0571155967875,-0.998349638739
1170496000000,,28805,,1170,492066725,"""map""",,,0.281488567591,-0.00144543300848,0.046940036118,,0.000531464351097,-0.0045968360888,0.05680328864,-0.99837475826
1170528000000,,28806,,1170,524066725,"""map""",,,0.281114697456,-0.00118919101078,0.0507348291576,,-0.00408710304792,-0.00103453259228,0.0560170813279,-0.998420951206
1170564000000,,28807,,1170,556066725,"""map""",,,0.280869573355,-0.000923202140257,0.05540811643,,-0.0107656017838,0.00533405180543,0.0550786817458,-0.998409782291
1170596000000,,28808,,1170,596066563,"""map""",,,0.278260141611,-0.00159725197591,0.0620154961944,,-0.0134533761191,0.00821094431832,0.0547683545002,-0.998374673967
1170628000000,,28809,,1170,620066563,"""map""",,,0.276881068945,-0.0020049829036,0.0663570091128,,-0.0214296792182,0.0172563124374,0.0539746029022,-0.998163223228
1170664000000,,28810,,1170,660066563,"""map""",,,0.274832189083,-0.00273767136969,0.074447080493,,-0.0286871561268,0.0258813011393,0.0533863171907,-0.997826217027
1170696000000,,28811,,1170,692066400,"""map""",,,0.273351073265,-0.00340202241205,0.0817065611482,,-0.0329650643787,0.0312004146857,0.0531508848949,-0.997554454148
1170728000000,,28812,,1170,724066400,"""map""",,,0.271951317787,-0.00415257690474,0.0895636454225,,-0.0425328056008,0.04248804573,0.0525106321192,-0.996809087132
1170764000000,,28813,,1170,756066400,"""map""",,,0.270597875118,-0.0050664129667,0.0979534387589,,-0.0551651844378,0.0550104602494,0.0516694653166,-0.995620883179
1170796000000,,28814,,1170,788066237,"""map""",,,0.267272293568,-0.00703210383654,0.105723321438,,-0.0612378771427,0.0610788626809,0.0513389497306,-0.994929000513
1170828000000,,28815,,1170,820066237,"""map""",,,0.263170868158,-0.00988726597279,0.113990217447,,-0.0721238648962,0.0726324049837,0.0508849860253,-0.993445305005
1170864000000,,28816,,1170,860066237,"""map""",,,0.256286203861,-0.0152682745829,0.125304445624,,-0.0827296197357,0.0849502578291,0.0503319350791,-0.991668309578
1170896000000,,28817,,1170,892066074,"""map""",,,0.24906180799,-0.0212396681309,0.1355561167,,-0.085475239468,0.0882667352218,0.0501217487456,-0.991156267516
1170928000000,,28818,,1170,924066074,"""map""",,,0.240174397826,-0.0288032311946,0.147351980209,,-0.0903427539779,0.0939352374167,0.049561027073,-0.990231312778
1170964000000,,28819,,1170,956066074,"""map""",,,0.229622766376,-0.037925299257,0.1607927531,,-0.0933679329332,0.0972403043735,0.049053283989,-0.989656809086
1170996000000,,28820,,1170,988065911,"""map""",,,0.216337785125,-0.0484313331544,0.175254419446,,-0.0940944721617,0.0977704366536,0.0488495882701,-0.989545836434
1171028000000,,28821,,1171,20065911,"""map""",,,0.201585650444,-0.0604235976934,0.191134124994,,-0.0954068222914,0.0984650773032,0.0482883186885,-0.989378808474
1171064000000,,28822,,1171,60065911,"""map""",,,0.181162580848,-0.0774388387799,0.212824299932,,-0.0961424561841,0.0985592094905,0.0479320092312,-0.989315588201
1171096000000,,28823,,1171,92065748,"""map""",,,0.163300648332,-0.092618778348,0.231564238667,,-0.0963567475548,0.0984966046276,0.0478489799396,-0.989304967195
1171128000000,,28824,,1171,124065748,"""map""",,,0.144134163857,-0.109108865261,0.251537173986,,-0.0966547364751,0.0981633387951,0.0476119039168,-0.989320435088
1171164000000,,28825,,1171,156065748,"""map""",,,0.123724296689,-0.126876115799,0.272808253765,,-0.0969286670153,0.0976161070157,0.0474801107215,-0.98935411042
1171196000000,,28826,,1171,188065585,"""map""",,,0.101597204804,-0.144888192415,0.294510900974,,-0.0970767098169,0.0974184784469,0.0474785934349,-0.989359168042
1171228000000,,28827,,1171,220065585,"""map""",,,0.0783931091428,-0.16414026916,0.317687302828,,-0.0973950280062,0.0969952988985,0.0475120580326,-0.989367850293
1171264000000,,28828,,1171,260065585,"""map""",,,0.04790610075,-0.189900368452,0.348596453667,,-0.0977444019197,0.0968927158564,0.0478325848156,-0.989328021521
1171296000000,,28829,,1171,292065422,"""map""",,,0.0223390180618,-0.211857914925,0.374925464392,,-0.097848191868,0.0967345775469,0.048026671053,-0.989323848983
1171328000000,,28830,,1171,324065422,"""map""",,,-0.00418602582067,-0.234922647476,0.402596801519,,-0.0975541745885,0.095661709309,0.048420322618,-0.989437982649
1171364000000,,28831,,1171,356065422,"""map""",,,-0.0316193476319,-0.258998095989,0.431685477495,,-0.0967814935336,0.0945891170424,0.048750290295,-0.989600795925
1171396000000,,28832,,1171,388065259,"""map""",,,-0.0613018609583,-0.283619374037,0.461085915565,,-0.096502140929,0.0941511935056,0.0489327440022,-0.98966077089
1171428000000,,28833,,1171,420065259,"""map""",,,-0.0916282236576,-0.309211105108,0.492032796144,,-0.0959729191689,0.0931684602957,0.0493540860468,-0.989784387597
1171464000000,,28834,,1171,460065259,"""map""",,,-0.130371838808,-0.342450201511,0.532793700695,,-0.0952359950228,0.0922602875772,0.0496858660383,-0.989923977959
1171496000000,,28835,,1171,492065095,"""map""",,,-0.16199798882,-0.369944959879,0.567114114761,,-0.0947722550596,0.0917071926732,0.0498203566319,-0.990013118544
1171528000000,,28836,,1171,524065095,"""map""",,,-0.194150984287,-0.398181438446,0.602994441986,,-0.0938803707811,0.0907016258319,0.0500000707939,-0.990181705938
1171564000000,,28837,,1171,556065095,"""map""",,,-0.226781919599,-0.427111983299,0.64047139883,,-0.0929975826485,0.0898283233744,0.0502106785959,-0.990333898208
1171596000000,,28838,,1171,588064932,"""map""",,,-0.261714160442,-0.45687314868,0.678164899349,,-0.092605456931,0.0893847403061,0.0503306706736,-0.990404662766
1171628000000,,28839,,1171,620064932,"""map""",,,-0.296865791082,-0.487194269896,0.717448592186,,-0.0917203867771,0.0885285134139,0.05053145826,-0.990553778316
1171664000000,,28840,,1171,660064932,"""map""",,,-0.341088861227,-0.525867402554,0.768732964993,,-0.0909473093607,0.0879423338923,0.0506621556372,-0.990670567234
1171696000000,,28841,,1171,692064768,"""map""",,,-0.37666875124,-0.557345628738,0.81152588129,,-0.0904678601476,0.0874948474661,0.0507585033329,-0.990749128959
1171728000000,,28842,,1171,724064768,"""map""",,,-0.41241902113,-0.589255750179,0.855983734131,,-0.0898469970624,0.0868170502448,0.0508728477329,-0.990859427262
1171764000000,,28843,,1171,756064768,"""map""",,,-0.448306173086,-0.621564865112,0.901858568192,,-0.0890753498401,0.0862137408282,0.0510440482315,-0.990972886578
1171796000000,,28844,,1171,788064604,"""map""",,,-0.486696451902,-0.654724299908,0.947837293148,,-0.088784153971,0.0859801662865,0.0511315029422,-0.991014822692
1171828000000,,28845,,1171,820064604,"""map""",,,-0.524997115135,-0.68819797039,0.995325744152,,-0.088007312232,0.0854209634645,0.0512415062168,-0.991126849016
1171864000000,,28846,,1171,860076440,"""map""",,,-0.572751998901,-0.730418801308,1.05685400963,,-0.0873380173142,0.0849208203133,0.0513028720282,-0.991225809816
1171896000000,,28847,,1171,892076440,"""map""",,,-0.610876917839,-0.76449406147,1.10795795918,,-0.0869550255267,0.0846123087573,0.0513260949418,-0.991284688963
1171928000000,,28848,,1171,924076440,"""map""",,,-0.648952901363,-0.798802256584,1.1606798172,,-0.0864013213044,0.0842378023981,0.0513606132107,-0.991363208542
1171964000000,,28849,,1171,956076440,"""map""",,,-0.686984956264,-0.833334863186,1.21494674683,,-0.0858008838827,0.083753495843,0.0514001891015,-0.991454287882
1171996000000,,28850,,1171,988076276,"""map""",,,-0.728301405907,-0.869009673595,1.26989877224,,-0.085431975728,0.0835559187435,0.051440102167,-0.991500775856
1172028000000,,28851,,1172,20076276,"""map""",,,-0.769291400909,-0.904744505882,1.32647335529,,-0.0848032501154,0.0831174650785,0.0514472671312,-0.991591222992
1172064000000,,28852,,1172,60076276,"""map""",,,-0.820066809654,-0.94953507185,1.39942705631,,-0.0833511580759,0.0818583873305,0.0515490939172,-0.991813758353
1172096000000,,28853,,1172,92076112,"""map""",,,-0.860314369202,-0.985418081284,1.45933234692,,-0.082375741707,0.0809312738842,0.0515801139978,-0.991969701692
1172128000000,,28854,,1172,124076112,"""map""",,,-0.900242030621,-1.02127587795,1.52071428299,,-0.0787845855234,0.0774129310736,0.0517511880559,-0.99253316291
1172164000000,,28855,,1172,156076112,"""map""",,,-0.939792454243,-1.05704689026,1.58354985714,,-0.0743798939124,0.0731299876315,0.0518942344597,-0.993190147984
1172196000000,,28856,,1172,188075948,"""map""",,,-0.982015967369,-1.09394311905,1.64673113823,,-0.0725077197062,0.0712492694689,0.0519403009651,-0.993462880241
1172228000000,,28857,,1172,220075948,"""map""",,,-1.02344357967,-1.13049924374,1.71154654026,,-0.0673312621291,0.0659635094731,0.0521856377703,-0.994179081638
1172264000000,,28858,,1172,260075948,"""map""",,,-1.07403850555,-1.17565047741,1.79474616051,,-0.0632318434757,0.0616380049169,0.0524444194202,-0.994712070684
1172296000000,,28859,,1172,292075783,"""map""",,,-1.11352491379,-1.21123230457,1.8626704216,,-0.0610409233556,0.0592988869285,0.0525751589442,-0.994984170738
1172328000000,,28860,,1172,324075783,"""map""",,,-1.15204584599,-1.24624764919,1.93060052395,,-0.0572221118342,0.0554604590125,0.052793353179,-0.995420854236
1172364000000,,28861,,1172,356075783,"""map""",,,-1.18958818913,-1.280631423,1.9972589016,,-0.05484831979,0.0535730360849,0.056518123063,-0.995453307309
1172396000000,,28862,,1172,388075618,"""map""",,,-1.23006641865,-1.31565582752,2.0613257885,,-0.054356182194,0.0531124652437,0.0565178701819,-0.995504979345
1172428000000,,28863,,1172,420075618,"""map""",,,-1.26928150654,-1.34992396832,2.12268686295,,-0.0541533953489,0.0531370446766,0.0564195415843,-0.995520362945
1172464000000,,28864,,1172,460075618,"""map""",,,-1.31670939922,-1.39180743694,2.19562935829,,-0.0539471168185,0.0532606627003,0.0562422297926,-0.995534987901
1172496000000,,28865,,1172,492075453,"""map""",,,-1.35347044468,-1.42463970184,2.25156378746,,-0.0534106833169,0.0529241296021,0.0561261573718,-0.995588430105
1172528000000,,28866,,1172,524075453,"""map""",,,-1.38926541805,-1.45692563057,2.30574154854,,-0.0516436447125,0.0514089929155,0.055902146872,-0.995773581211
1172564000000,,28867,,1172,556075453,"""map""",,,-1.42412745953,-1.48862147331,2.35832214355,,-0.0491986587824,0.0491389898292,0.0557685413622,-0.996019465925
1172596000000,,28868,,1172,588075288,"""map""",,,-1.46242141724,-1.52141797543,2.41146683693,,-0.0472958906435,0.0474032837564,0.0556571472416,-0.996202003926
1172628000000,,28869,,1172,620075288,"""map""",,,-1.49947226048,-1.5534607172,2.46288824081,,-0.0444294684687,0.0445195376319,0.0555460902958,-0.996473134602
1172664000000,,28870,,1172,660075288,"""map""",,,-1.54408621788,-1.59248733521,2.52492713928,,-0.041007547651,0.0408955748549,0.0554754521777,-0.996779036429
1172696000000,,28871,,1172,692075123,"""map""",,,-1.57844245434,-1.62291765213,2.57268929482,,-0.0398103990993,0.0395760086415,0.0554225157359,-0.996883813494
1172728000000,,28872,,1172,724075123,"""map""",,,-1.61161005497,-1.65264248848,2.61880278587,,-0.0370413296362,0.0364287142448,0.0554073428705,-0.997111322182
1172764000000,,28873,,1172,756075123,"""map""",,,-1.64362514019,-1.68164503574,2.66335582733,,-0.0343321334244,0.0333065146436,0.0553790201883,-0.997319021852
1172796000000,,28874,,1172,788074957,"""map""",,,-1.67822420597,-1.7114597559,2.70734477043,,-0.0331882715366,0.0321232172174,0.0553507817998,-0.99739808934
1172828000000,,28875,,1172,820074957,"""map""",,,-1.71144938469,-1.74041855335,2.74974870682,,-0.0310831042012,0.0301094520731,0.0553477050798,-0.997528871011
1172864000000,,28876,,1172,860074957,"""map""",,,-1.75113737583,-1.77548801899,2.80066180229,,-0.0293948382625,0.0286102624944,0.0554262246586,-0.997619866057
1172896000000,,28877,,1172,892074792,"""map""",,,-1.78151237965,-1.80266869068,2.83964705467,,-0.0285138836825,0.0278040576551,0.0554657584025,-0.997666059003
1172928000000,,28878,,1172,924074792,"""map""",,,-1.81070446968,-1.82911264896,2.87726402283,,-0.0269460488649,0.0262350289786,0.055538798891,-0.997748034623
1172964000000,,28879,,1172,956074792,"""map""",,,-1.83873915672,-1.85482609272,2.91354775429,,-0.0252587654334,0.0246549780781,0.0556999684397,-0.997823477482
1172996000000,,28880,,1172,988074626,"""map""",,,-1.8695076704,-1.88134050369,2.94903373718,,-0.0245337667464,0.0240148772203,0.0558116575882,-0.997850957227
1173028000000,,28881,,1173,20074626,"""map""",,,-1.89889097214,-1.90699267387,2.98302412033,,-0.0230997283547,0.0228245525274,0.0558890392021,-0.997908782703
1173064000000,,28882,,1173,60074626,"""map""",,,-1.93380236626,-1.9378888607,3.02373361588,,-0.0220050335234,0.0218863836829,0.0559103655075,-0.997953289775
1173096000000,,28883,,1173,92074460,"""map""",,,-1.96037352085,-1.96176314354,3.05488276482,,-0.0213816037996,0.0213855751986,0.0559179519402,-0.997977313479
1173128000000,,28884,,1173,124074460,"""map""",,,-1.98578178883,-1.98492622375,3.084846735,,-0.020410744587,0.0204552269533,0.0560043529796,-0.998012295363
1173164000000,,28885,,1173,156074460,"""map""",,,-2.01009297371,-2.0073928833,3.11391282082,,-0.0192894463326,0.0193380349606,0.0561371576993,-0.998049426737
1173196000000,,28886,,1173,188074294,"""map""",,,-2.03713679314,-2.03049373627,3.1428129673,,-0.0188687808344,0.0189820420419,0.0561215633653,-0.998065189658
1173228000000,,28887,,1173,220074294,"""map""",,,-2.06288051605,-2.05285763741,3.17068386078,,-0.0179353733747,0.0180567971899,0.0562602264969,-0.998091742173
1173264000000,,28888,,1173,260074294,"""map""",,,-2.09331774712,-2.07978606224,3.2040438652,,-0.016910569018,0.0172258415624,0.0563618846956,-0.998118547568
1173296000000,,28889,,1173,292074127,"""map""",,,-2.11637401581,-2.10050106049,3.2295229435,,-0.0163923515366,0.0167819097125,0.0563724635545,-0.998134184049
1173328000000,,28890,,1173,324074127,"""map""",,,-2.13836669922,-2.12050914764,3.25405478477,,-0.0152122768214,0.0157564477477,0.0564100163966,-0.998167437912
1173364000000,,28891,,1173,356074127,"""map""",,,-2.15935778618,-2.13986635208,3.27760028839,,-0.014479667459,0.0149552410966,0.0564709185927,-0.998187204784
1173396000000,,28892,,1173,388073961,"""map""",,,-2.18302631378,-2.15974712372,3.30077648163,,-0.0140966066067,0.0144288704226,0.0565011800299,-0.998198753021
1173428000000,,28893,,1173,420073961,"""map""",,,-2.20547151566,-2.17891860008,3.32305407524,,-0.0135730319275,0.0137376122428,0.0564778728227,-0.9982170869
1173464000000,,28894,,1173,460073961,"""map""",,,-2.23191905022,-2.20195245743,3.34987783432,,-0.0129489394636,0.0130241929085,0.0564934671566,-0.998234029933
1173496000000,,28895,,1173,492073794,"""map""",,,-2.25190711021,-2.21969413757,3.3705701828,,-0.0126653705791,0.0126198040531,0.056478884347,-0.998243723708
1173528000000,,28896,,1173,524073794,"""map""",,,-2.27091431618,-2.23684573174,3.39058852196,,-0.0121175775038,0.0116755802519,0.0565117588889,-0.998260160979
1173564000000,,28897,,1173,556073794,"""map""",,,-2.2889778614,-2.25340914726,3.40970230103,,-0.0113681422469,0.0107567536827,0.0564873558636,-0.998280686494
1173596000000,,28898,,1173,588073627,"""map""",,,-2.30971384048,-2.27010560036,3.4282438755,,-0.0110213874266,0.0103110371155,0.0564698649214,-0.998290253829
1173628000000,,28899,,1173,620073627,"""map""",,,-2.3292620182,-2.28620576859,3.44604969025,,-0.0103340274805,0.00962398833166,0.0564002804746,-0.998308419121
1173664000000,,28900,,1173,660073627,"""map""",,,-2.35215473175,-2.30550742149,3.4673333168,,-0.00973690941119,0.00894209311135,0.0563619689893,-0.99832287549
1173696000000,,28901,,1173,692073460,"""map""",,,-2.36931586266,-2.32033371925,3.48361110687,,-0.00950531474237,0.00866722490668,0.0563177569452,-0.998330082601
1173728000000,,28902,,1173,724073460,"""map""",,,-2.38554883003,-2.33462548256,3.49929499626,,-0.00911955019442,0.00807330703442,0.0563027105202,-0.998339481348
1173764000000,,28903,,1173,756073460,"""map""",,,-2.40091490746,-2.34840106964,3.5144507885,,-0.00879117253198,0.00767044609482,0.0562665485242,-0.998347657837
1173796000000,,28904,,1173,788073293,"""map""",,,-2.41884231567,-2.36268734932,3.52879333496,,-0.00857157621482,0.00739005171391,0.0562553796094,-0.998352251843
