rosbagTimestamp,header,seq,stamp,secs,nsecs,frame_id,pose,position,x,y,z,orientation,x,y,z,w
139180000000,,1,,139,172000000,"""map""",,,0.00771505758166,-0.0191596709192,-0.0363280288875,,0.0101717059316,-0.00662422808299,0.024965812156,-0.99961463425
139208000000,,2,,139,208000000,"""map""",,,0.0076763946563,-0.0191154684871,-0.0364746116102,,0.0102326802384,-0.0065668836736,0.0249753794906,-0.999614170634
139240000000,,3,,139,240000000,"""map""",,,0.00763897644356,-0.0191619712859,-0.0367395021021,,0.0102033692455,-0.00657299150927,0.0249833030981,-0.999614254928
139272000000,,4,,139,272000000,"""map""",,,0.00761741632596,-0.0192603096366,-0.0370304509997,,0.0101684733013,-0.00655642483436,0.0249796784691,-0.99961476069
139308000000,,5,,139,308000000,"""map""",,,0.00760235916823,-0.0191904567182,-0.0372177585959,,0.0103316856551,-0.0065916372092,0.0249540110384,-0.999613538432
139340000000,,6,,139,340000000,"""map""",,,0.00761862332001,-0.0190012771636,-0.0370862521231,,0.0103135990594,-0.00662408007511,0.0249730614139,-0.99961303267
139372000000,,7,,139,372000000,"""map""",,,0.007663089782,-0.0188888330013,-0.0369752049446,,0.0103774405043,-0.00665991592697,0.0250553320622,-0.99961008239
139408000000,,8,,139,408000000,"""map""",,,0.00773338321596,-0.0188182797283,-0.0368502959609,,0.0103375399511,-0.00660713160902,0.0250716428926,-0.999610377418
139440000000,,9,,139,440000000,"""map""",,,0.00783407408744,-0.0188522152603,-0.0367811769247,,0.010360469977,-0.006646549943,0.0250721486548,-0.999609871656
139472000000,,10,,139,472000000,"""map""",,,0.00795570295304,-0.0189501568675,-0.0369005724788,,0.0103022024528,-0.0066755899448,0.0250808309056,-0.999610040243
139508000000,,11,,139,508000000,"""map""",,,0.00810563750565,-0.0189504921436,-0.0366887412965,,0.0102196573561,-0.00670741394351,0.0250753518153,-0.99961088318
139540000000,,12,,139,540000000,"""map""",,,0.0082172844559,-0.0188676863909,-0.0360966771841,,0.0101745408011,-0.00671190883905,0.0250790185911,-0.999611178208
139572000000,,13,,139,572000000,"""map""",,,0.00835029873997,-0.0188535004854,-0.0354991704226,,0.0101849958537,-0.00677903428075,0.0250883751914,-0.999610419565
139608000000,,14,,139,608000000,"""map""",,,0.00849553290755,-0.0188954509795,-0.0347852483392,,0.0101668022446,-0.00670684265615,0.0250995862531,-0.999610841033
139640000000,,15,,139,640000000,"""map""",,,0.00862323027104,-0.0190118905157,-0.0340577326715,,0.0101665217046,-0.00670672148396,0.0251400050809,-0.999609787362
139672000000,,16,,139,672000000,"""map""",,,0.00873131677508,-0.0191871486604,-0.0334092304111,,0.0101640241746,-0.00667120255665,0.0251290890471,-0.999610335271
139708000000,,17,,139,708000000,"""map""",,,0.00871194154024,-0.0192352924496,-0.0321172475815,,0.0101562635568,-0.0067082578683,0.0251641973719,-0.9996092816
139740000000,,18,,139,740000000,"""map""",,,0.00855368748307,-0.0190600361675,-0.0304534975439,,0.0101095133176,-0.00674108252539,0.0251502046182,-0.999609871656
139772000000,,19,,139,772000000,"""map""",,,0.00839976780117,-0.0189683400095,-0.0289469845593,,0.0101354081108,-0.00674866945203,0.0251330929977,-0.99960995595
139808000000,,20,,139,808000000,"""map""",,,0.00824202038348,-0.0189580079168,-0.0276020932943,,0.0100819787485,-0.00669489303678,0.0251251693902,-0.999611136061
139840000000,,21,,139,840000000,"""map""",,,0.00809545163065,-0.019015647471,-0.0263348408043,,0.0100812059465,-0.00673424996149,0.0251754084336,-0.999609534481
139872000000,,22,,139,872000000,"""map""",,,0.00797080621123,-0.0191258974373,-0.0251093078405,,0.0100606455285,-0.00669761842323,0.0251906234459,-0.999609576628
139908000000,,23,,139,908000000,"""map""",,,0.00775092933327,-0.019307974726,-0.0236904751509,,0.0100682128634,-0.00673350317201,0.025243180566,-0.999608017195
139940000000,,24,,139,940000000,"""map""",,,0.00747633399442,-0.019471667707,-0.0225597992539,,0.0100489260704,-0.00647335372522,0.0252589856342,-0.999609492334
139972000000,,25,,139,972000000,"""map""",,,0.00720778340474,-0.0196716617793,-0.0214028246701,,0.0100932072617,-0.00647086245134,0.025280733408,-0.999608565104
140008000000,,26,,140,8000000,"""map""",,,0.00693771243095,-0.0199298951775,-0.0203842315823,,0.0100744158588,-0.0065579475539,0.0252672885634,-0.999608522957
140040000000,,27,,140,40000000,"""map""",,,0.00666893459857,-0.020238570869,-0.0194452609867,,0.0100737983086,-0.00655706230544,0.025290216449,-0.999607932901
140072000000,,28,,140,72000000,"""map""",,,0.00642121117562,-0.0205798447132,-0.0186796430498,,0.0100342755954,-0.00659813128123,0.0253437850934,-0.999606710642
140108000000,,29,,140,108000000,"""map""",,,0.00603922642767,-0.020981349051,-0.0177616216242,,0.010017472503,-0.00662913654448,0.0253598430427,-0.999606247027
140140000000,,30,,140,140000000,"""map""",,,0.0057065198198,-0.0212655588984,-0.0170172601938,,0.0100276425704,-0.00663145379797,0.02540093622,-0.999605109062
140172000000,,31,,140,172000000,"""map""",,,0.00539688533172,-0.0216475389898,-0.0163106881082,,0.0100537408539,-0.00665097025837,0.025394824927,-0.999604814034
140208000000,,32,,140,208000000,"""map""",,,0.0051020453684,-0.0221193972975,-0.0157721787691,,0.0100134731622,-0.00669285270126,0.0254276994688,-0.999604139685
140240000000,,33,,140,240000000,"""map""",,,0.00482689309865,-0.0226176902652,-0.0153954299167,,0.00999704313524,-0.00673376214464,0.0254538726617,-0.999603338894
140272000000,,34,,140,272000000,"""map""",,,0.00457147182897,-0.0231435168535,-0.0151344584301,,0.00994425140866,-0.00675809684594,0.0255192424238,-0.999602032342
140308000000,,35,,140,308000000,"""map""",,,0.00435398472473,-0.0235860683024,-0.0147614143789,,0.00993093234599,-0.00677368788716,0.0255801867667,-0.999600515056
140340000000,,36,,140,340000000,"""map""",,,0.00424929661676,-0.0237171370536,-0.0144241042435,,0.00993739316152,-0.00679655337566,0.0255707037258,-0.999600557202
140372000000,,37,,140,372000000,"""map""",,,0.00417490117252,-0.0239289905876,-0.0141857992858,,0.00987642576952,-0.00679702160081,0.0255824626965,-0.99960085223
140408000000,,38,,140,408000000,"""map""",,,0.00410899659619,-0.0241974871606,-0.0140889296308,,0.00984682057189,-0.00681099163473,0.0256101110292,-0.999600346468
140440000000,,39,,140,440000000,"""map""",,,0.00403681769967,-0.0245190747082,-0.0141202956438,,0.00986729751946,-0.00678628024597,0.0255975091215,-0.999600641496
140472000000,,40,,140,472000000,"""map""",,,0.00396748399362,-0.0248932112008,-0.0142666744068,,0.00989369395897,-0.00682220450743,0.0256425641025,-0.999598997769
140508000000,,41,,140,508000000,"""map""",,,0.00386544992216,-0.0251141563058,-0.0141015965492,,0.00987093120341,-0.006850013031,0.0256828986365,-0.999597944098
140536000000,,42,,140,536000000,"""map""",,,0.00374796055257,-0.0250452589244,-0.0137690762058,,0.00985752076769,-0.00687626245046,0.0256725305118,-0.999598196979
140572000000,,43,,140,572000000,"""map""",,,0.00365310907364,-0.0250284355134,-0.0134771699086,,0.00991576507815,-0.00667525227611,0.0256800747977,-0.999598744888
140608000000,,44,,140,608000000,"""map""",,,0.00355779216625,-0.0251016002148,-0.0134458728135,,0.00987560703406,-0.00668400828388,0.0257009374877,-0.999598618447
140640000000,,45,,140,640000000,"""map""",,,0.00345361698419,-0.0252608601004,-0.0134579036385,,0.00990686962358,-0.00669902820239,0.025693056027,-0.999598323419
140672000000,,46,,140,672000000,"""map""",,,0.00335559342057,-0.0255091059953,-0.0135770849884,,0.00990543712464,-0.00670755717694,0.0256748064416,-0.999598787035
140708000000,,47,,140,708000000,"""map""",,,0.00330675765872,-0.0256786458194,-0.0133851636201,,0.0098675634068,-0.00670239105992,0.0256871133214,-0.999598871328
140740000000,,48,,140,740000000,"""map""",,,0.00331008294597,-0.0255920421332,-0.012844260782,,0.00987554101497,-0.00667814476822,0.025701401103,-0.999598576301
140772000000,,49,,140,772000000,"""map""",,,0.00329348375089,-0.0255900919437,-0.0124744921923,,0.00984880081522,-0.00667849972371,0.025690274335,-0.999599166356
140808000000,,50,,140,808000000,"""map""",,,0.00324434507638,-0.025710131973,-0.0121950441971,,0.0097844063576,-0.00667331105153,0.025678051749,-0.999600177881
140840000000,,51,,140,840000000,"""map""",,,0.00320006278343,-0.0259502157569,-0.0120210256428,,0.00980014590061,-0.00670357611076,0.0256837837204,-0.999599587825
140872000000,,52,,140,872000000,"""map""",,,0.00312314229086,-0.0262693855911,-0.0119660580531,,0.00974870205001,-0.00675258598086,0.0256697488198,-0.999600135734
140908000000,,53,,140,908000000,"""map""",,,0.00299401767552,-0.0264831893146,-0.012069966644,,0.00969346383059,-0.00672610672937,0.0256831936645,-0.999600515056
140940000000,,54,,140,940000000,"""map""",,,0.00292256404646,-0.0264183618128,-0.0121924821287,,0.0096936803271,-0.00673479770588,0.0257113899061,-0.999599798559
140972000000,,55,,140,972000000,"""map""",,,0.00281055807136,-0.0264952052385,-0.0121436445042,,0.00967572461718,-0.0067486045854,0.025702791949,-0.99960005144
141008000000,,56,,141,8000000,"""map""",,,0.00266444054432,-0.0267000701278,-0.0121722705662,,0.00966753792113,-0.00676283540295,0.0256932667613,-0.999600304321
141040000000,,57,,141,40000000,"""map""",,,0.00248777377419,-0.0270222574472,-0.0123988036066,,0.00959574142323,-0.0067422341551,0.0257047728509,-0.99960085223
141072000000,,58,,141,72000000,"""map""",,,0.00232243584469,-0.0274493582547,-0.0128053156659,,0.00963188695564,-0.00675673332953,0.02569528981,-0.999600641496
141108000000,,59,,141,108000000,"""map""",,,0.00216567330062,-0.0278182048351,-0.0133115593344,,0.00964233706917,-0.00655177024178,0.0256382229771,-0.999603338894
141140000000,,60,,141,140000000,"""map""",,,0.00214075553231,-0.0278972294182,-0.0134711824358,,0.00964737509929,-0.00656461301213,0.0256391502078,-0.999603170307
141172000000,,61,,141,172000000,"""map""",,,0.00209416658618,-0.0281233917922,-0.0137327788398,,0.00969268888834,-0.00660296203447,0.0256568518842,-0.999602074489
141208000000,,62,,141,208000000,"""map""",,,0.00203615007922,-0.0284725446254,-0.0140746077523,,0.00966547305482,-0.00658343964716,0.0256100267355,-0.999603633922
141240000000,,63,,141,240000000,"""map""",,,0.00197849050164,-0.028948051855,-0.0145080415532,,0.00971940982566,-0.0065875298671,0.0256107853787,-0.999603043866
141272000000,,64,,141,272000000,"""map""",,,0.00192428985611,-0.029523672536,-0.0150082204491,,0.00963710246351,-0.00665238711688,0.0256323224183,-0.999602833132
141308000000,,65,,141,308000000,"""map""",,,0.00186166109052,-0.0300071164966,-0.0154314646497,,0.00962938514506,-0.00666243041454,0.0255913556816,-0.99960392895
141336000000,,66,,141,336000000,"""map""",,,0.00177512189839,-0.0301151275635,-0.015769680962,,0.00962047289759,-0.00672996497701,0.0255793438297,-0.999603886803
141372000000,,67,,141,372000000,"""map""",,,0.00164329865947,-0.0303486976773,-0.0161659419537,,0.00960148212035,-0.00673465216755,0.0255907656257,-0.999603760363
141408000000,,68,,141,408000000,"""map""",,,0.00153279979713,-0.03071266599,-0.0166783835739,,0.00958465927162,-0.00671519579933,0.0256018923937,-0.999603760363
141440000000,,69,,141,440000000,"""map""",,,0.00140533025842,-0.0311856903136,-0.0172802507877,,0.00960408863951,-0.00671634463022,0.0256195097764,-0.999603086013
141472000000,,70,,141,472000000,"""map""",,,0.00127072783653,-0.0317612960935,-0.0177689921111,,0.00957194047226,-0.00670763537911,0.0256206477413,-0.999603465335
141508000000,,71,,141,508000000,"""map""",,,0.0011168087367,-0.0326215438545,-0.0185036528856,,0.00948654140828,-0.0066757371295,0.0255955703664,-0.999605109062
141540000000,,72,,141,540000000,"""map""",,,0.00096740439767,-0.0333926826715,-0.019163005054,,0.00948957878019,-0.00664881829956,0.0255637916426,-0.999606036293
141572000000,,73,,141,572000000,"""map""",,,0.000800540030468,-0.034261919558,-0.019921047613,,0.00950326037162,-0.00664504648589,0.0255664468941,-0.999605909852
141608000000,,74,,141,608000000,"""map""",,,0.000576165795792,-0.0347956940532,-0.0203154720366,,0.00948386030896,-0.00669907808713,0.0255784165991,-0.99960540409
141640000000,,75,,141,640000000,"""map""",,,0.000257124367636,-0.0350225456059,-0.0204198006541,,0.00941727174567,-0.00664674800026,0.0255941795204,-0.999605994146
141672000000,,76,,141,663975685,"""map""",,,-6.48054847261e-05,-0.0354169271886,-0.0207305252552,,0.00940497688434,-0.0066302750033,0.0256162223222,-0.999605699118
141708000000,,77,,141,703975685,"""map""",,,-0.000477620982565,-0.0361206419766,-0.0211517233402,,0.00934914474009,-0.00659554147263,0.0255985206458,-0.99960687923
141740000000,,78,,141,735975685,"""map""",,,-0.000828779651783,-0.0368150547147,-0.0214991699904,,0.00936119026,-0.00658145841601,0.0255978041494,-0.999606837083
141772000000,,79,,141,767975411,"""map""",,,-0.00120264862198,-0.0376100353897,-0.0219009127468,,0.00940832690025,-0.00652583181997,0.0255804817947,-0.999607216404
141808000000,,80,,141,799975411,"""map""",,,-0.00152795366012,-0.0380658172071,-0.02227759175,,0.00940519519184,-0.00648269682542,0.0255402315543,-0.999608522957
141840000000,,81,,141,831975411,"""map""",,,-0.00184061541222,-0.0382302738726,-0.0226476825774,,0.00942456166873,-0.00650484499431,0.0255523276999,-0.999607890754
141872000000,,82,,141,863975139,"""map""",,,-0.00216265302151,-0.0385692454875,-0.0230049416423,,0.00938932986683,-0.00654356181376,0.0255740754737,-0.999607469286
141908000000,,83,,141,903975139,"""map""",,,-0.00261677545495,-0.0391658507288,-0.0237306561321,,0.00943128442034,-0.00656798854665,0.0255708301663,-0.999606921377
141940000000,,84,,141,935975139,"""map""",,,-0.00303740380332,-0.0397376827896,-0.0244165677577,,0.00944720226428,-0.00657829657919,0.0255771100468,-0.999606626349
141972000000,,85,,141,967974868,"""map""",,,-0.00347969564609,-0.0404340997338,-0.0250570196658,,0.00945435586864,-0.00660336160635,0.0255425917778,-0.999607258551
142008000000,,86,,141,999974868,"""map""",,,-0.00394158251584,-0.0407260023057,-0.0252705328166,,0.00948404206724,-0.00664101816913,0.0255511475881,-0.999606542055
142040000000,,87,,142,31974868,"""map""",,,-0.00442173052579,-0.0406788252294,-0.0252919383347,,0.00949030729505,-0.00662954385426,0.0255369441001,-0.999606921377
142072000000,,88,,142,63974598,"""map""",,,-0.00491736829281,-0.0408255271614,-0.0253125037998,,0.00944264777047,-0.00667123564852,0.0255444462392,-0.999606837083
142108000000,,89,,142,103974598,"""map""",,,-0.00553086772561,-0.0412188954651,-0.0254314485937,,0.00948863352187,-0.00672918534263,0.0255501360637,-0.999605867705
142140000000,,90,,142,135974598,"""map""",,,-0.00601592194289,-0.0417076162994,-0.025554575026,,0.00947288253664,-0.00668380627536,0.0255504310917,-0.999606331321
142172000000,,91,,142,167974329,"""map""",,,-0.00652524922043,-0.0423187576234,-0.025857353583,,0.00948891430878,-0.00676903889221,0.025568975705,-0.999605151209
142208000000,,92,,142,199974329,"""map""",,,-0.00678391428664,-0.0426615178585,-0.0259528513998,,0.00938051500164,-0.0067865893503,0.0255975934152,-0.999605277649
142240000000,,93,,142,231974329,"""map""",,,-0.00682570319623,-0.0428213588893,-0.0257562976331,,0.00940885431208,-0.00679136824316,0.0255954860727,-0.999605024768
142272000000,,94,,142,263974061,"""map""",,,-0.0069082248956,-0.0431684069335,-0.0256433207542,,0.00936069602235,-0.0067945716506,0.0256031567992,-0.999605361943
142308000000,,95,,142,303974061,"""map""",,,-0.00707723200321,-0.0438324026763,-0.0255702063441,,0.0093606324728,-0.00680602802013,0.0256222071747,-0.999604687594
142340000000,,96,,142,335974061,"""map""",,,-0.00724270055071,-0.0444970242679,-0.0254816971719,,0.00938094519584,-0.00680889342961,0.0256251996009,-0.999604476859
142372000000,,97,,142,367973794,"""map""",,,-0.00744083803147,-0.0452877879143,-0.0255244094878,,0.0094069868445,-0.00686591004847,0.0256823928744,-0.99960232737
142408000000,,98,,142,399973794,"""map""",,,-0.00735803833231,-0.045691408217,-0.0252176355571,,0.00939272877967,-0.00684536930441,0.0256949104884,-0.999602285223
142440000000,,99,,142,431973794,"""map""",,,-0.00702419364825,-0.0457692220807,-0.0244151484221,,0.00942847613961,-0.00693058603387,0.02571227499,-0.999600936524
142472000000,,100,,142,463973528,"""map""",,,-0.00675205420703,-0.0459945723414,-0.023717764765,,0.00942506981814,-0.00688702232685,0.0257631040893,-0.999599925
142508000000,,101,,142,503973528,"""map""",,,-0.00653528608382,-0.0464389882982,-0.0230117663741,,0.00942940279405,-0.00688926689349,0.0257532417267,-0.999600177881
142540000000,,102,,142,535973528,"""map""",,,-0.0064199292101,-0.0469532012939,-0.0226655714214,,0.0094586790487,-0.00691070251723,0.0257271106806,-0.999600346468
142572000000,,103,,142,567973263,"""map""",,,-0.00638567982242,-0.047574903816,-0.0224266536534,,0.0094677500877,-0.00691456924362,0.0257083974799,-0.999600767937
142608000000,,104,,142,599973263,"""map""",,,-0.00628120917827,-0.0477634444833,-0.0224176440388,,0.00945438706718,-0.00687882064891,0.0257166161153,-0.999600894377
142640000000,,105,,142,631973263,"""map""",,,-0.00608752341941,-0.0475853160024,-0.0224308613688,,0.00939540666859,-0.00686139671369,0.025677208812,-0.999602622398
142672000000,,106,,142,663972999,"""map""",,,-0.00594092812389,-0.0475759394467,-0.022542309016,,0.00945566703075,-0.00691239612906,0.0257360036657,-0.999600135734
142708000000,,107,,142,703972999,"""map""",,,-0.00582806672901,-0.0478108823299,-0.0225772317499,,0.00946366546539,-0.00695053137139,0.0257635255577,-0.999599166356
142740000000,,108,,142,735972999,"""map""",,,-0.00576993543655,-0.0481853224337,-0.0226476024836,,0.00946766818123,-0.00698248913695,0.025776253906,-0.999598576301
142772000000,,109,,142,767972736,"""map""",,,-0.00575903709978,-0.0487411916256,-0.0227838270366,,0.00941238131183,-0.00698368974591,0.0257873385271,-0.999598787035
142808000000,,110,,142,799972736,"""map""",,,-0.00564360246062,-0.0488628186285,-0.0227109640837,,0.00936730657444,-0.00697462817348,0.0257879707299,-0.99959925065
142840000000,,111,,142,831972736,"""map""",,,-0.00544952368364,-0.0485949516296,-0.0223861206323,,0.0093639058506,-0.00701422118639,0.0257935341139,-0.999598913475
142872000000,,112,,142,863972475,"""map""",,,-0.00529405800626,-0.0485036447644,-0.0220986716449,,0.00936028805403,-0.00692243695718,0.0258244699007,-0.999598744888
142908000000,,113,,142,903972475,"""map""",,,-0.00520780868828,-0.0486663654447,-0.0218454897404,,0.00933189811797,-0.00687805640801,0.0257697211445,-0.99960072579
142940000000,,114,,142,935972475,"""map""",,,-0.00518917571753,-0.0490061342716,-0.0217257626355,,0.00940244807343,-0.00684591408535,0.0257631462361,-0.999600472909
142972000000,,115,,142,967984214,"""map""",,,-0.00523513788357,-0.049492713064,-0.0216947048903,,0.00942059064535,-0.00696056701346,0.0257391225325,-0.999600135734
143008000000,,116,,142,999984214,"""map""",,,-0.00523326825351,-0.0495617724955,-0.0214951857924,,0.00936708826693,-0.00693664958243,0.0257340649106,-0.999600894377
143040000000,,117,,143,31984214,"""map""",,,-0.0051951049827,-0.0492752380669,-0.0211461838335,,0.0093788783539,-0.00697276465716,0.0257454024129,-0.999600262174
143072000000,,118,,143,63995954,"""map""",,,-0.00517289014533,-0.0491702854633,-0.0209313351661,,0.00935835580212,-0.00695491118627,0.0257450652381,-0.999600599349
143108000000,,119,,143,103995954,"""map""",,,-0.00520434323698,-0.0492982789874,-0.0209209900349,,0.00943365411044,-0.00692157928527,0.0257783612484,-0.99959925065
143140000000,,120,,143,135995954,"""map""",,,-0.00526322796941,-0.0496176294982,-0.0209182966501,,0.00938781134551,-0.00693712373448,0.0257592265792,-0.999600093587
143172000000,,121,,143,167995695,"""map""",,,-0.00538417557254,-0.0501146055758,-0.0210954621434,,0.00944233290387,-0.00697560709989,0.0257559812719,-0.999599377091
143208000000,,122,,143,207995695,"""map""",,,-0.00549847120419,-0.0501098632812,-0.0212541576475,,0.00940524153691,-0.0069765878373,0.0257794992133,-0.99959912421
143240000000,,123,,143,231995695,"""map""",,,-0.00556169543415,-0.0499389767647,-0.0213532745838,,0.00939133340618,-0.0070101416678,0.0257644106416,-0.999599377091
143272000000,,124,,143,263995437,"""map""",,,-0.00569981150329,-0.0498540736735,-0.021688753739,,0.00957726974369,-0.00694572918252,0.0257578357332,-0.999598196979
143308000000,,125,,143,303995437,"""map""",,,-0.00589095894247,-0.0500068888068,-0.0221712142229,,0.00950833025883,-0.00700571773043,0.025753705342,-0.999598618447
143340000000,,126,,143,335995437,"""map""",,,-0.00609164964408,-0.0503542199731,-0.0226917378604,,0.00940954100937,-0.00697642665853,0.0257459503219,-0.999599882853
143372000000,,127,,143,367995179,"""map""",,,-0.00631754659116,-0.0508562885225,-0.0232764557004,,0.00941807706328,-0.00704428835299,0.0257973273302,-0.999598070538
143408000000,,128,,143,399995179,"""map""",,,-0.00625295424834,-0.0508537553251,-0.0234172157943,,0.00937380871364,-0.00703895644738,0.0259040852975,-0.999595752462
143440000000,,129,,143,431995179,"""map""",,,-0.00594425620511,-0.0504162982106,-0.0233636107296,,0.00937452570397,-0.00708021244981,0.0258898818096,-0.999595794609
143472000000,,130,,143,463994923,"""map""",,,-0.0056978110224,-0.0502065531909,-0.023536702618,,0.00939662225944,-0.00711536316842,0.0259032002137,-0.999595035965
143508000000,,131,,143,503994923,"""map""",,,-0.00548908207566,-0.0502098761499,-0.0240844096988,,0.00937445499276,-0.00717086727519,0.0259109552338,-0.999594614497
143540000000,,132,,143,535994923,"""map""",,,-0.0053872470744,-0.0503704249859,-0.0246214251965,,0.00936432262696,-0.00714934340649,0.0259432397198,-0.999594024441
143572000000,,133,,143,567994667,"""map""",,,-0.00532096065581,-0.0506623275578,-0.0249727573246,,0.00940537299886,-0.00712627788509,0.0259987049724,-0.999592338567
143608000000,,134,,143,599994667,"""map""",,,-0.00505812373012,-0.0505640171468,-0.0249939747155,,0.00938406957794,-0.00705595932571,0.0259752291778,-0.999593645119
143640000000,,135,,143,631994667,"""map""",,,-0.00462656375021,-0.0501130372286,-0.0247812699527,,0.00938322071406,-0.00706392310445,0.0259936894975,-0.999593139357
143672000000,,136,,143,663994412,"""map""",,,-0.00429735286161,-0.049902472645,-0.024881253019,,0.00936476566277,-0.00709512757741,0.0260148050686,-0.999592591448
143708000000,,137,,143,703994412,"""map""",,,-0.00399184273556,-0.049918781966,-0.025052132085,,0.00938904924455,-0.00706287429,0.0260422848138,-0.999591832805
143740000000,,138,,143,735994412,"""map""",,,-0.00377280497923,-0.050119984895,-0.0252235438675,,0.00941138839135,-0.00707813803461,0.0260835887253,-0.999590399812
143772000000,,139,,143,767994158,"""map""",,,-0.00358526338823,-0.0504302419722,-0.025426607579,,0.00943568810747,-0.00708979879989,0.0260978343601,-0.999589809756
143808000000,,140,,143,799994158,"""map""",,,-0.00333599024452,-0.0501996576786,-0.0253162141889,,0.00949599012257,-0.00709703579244,0.0261156203302,-0.999588629644
143840000000,,141,,143,831994158,"""map""",,,-0.0030468814075,-0.0494707152247,-0.0252329614013,,0.00969558063959,-0.00708825459534,0.0261097619183,-0.999586985917
143872000000,,142,,143,863993905,"""map""",,,-0.00279975053854,-0.0489785447717,-0.0253093801439,,0.00977818344127,-0.00720046111292,0.0261288965875,-0.999584878575
143908000000,,143,,143,903993905,"""map""",,,-0.00259612244554,-0.0486404672265,-0.0257065817714,,0.00977400909227,-0.0072096746445,0.0261384639221,-0.999584583547
143940000000,,144,,143,935993905,"""map""",,,-0.00252031721175,-0.0485880561173,-0.0261956695467,,0.0097354689274,-0.00722726519149,0.0261377052788,-0.999584836428
143972000000,,145,,143,959993652,"""map""",,,-0.00248194648884,-0.0486727617681,-0.0265973173082,,0.00967494119617,-0.00726088874538,0.0261720549604,-0.999584288519
144008000000,,146,,144,3993652,"""map""",,,-0.00236559309997,-0.0484887771308,-0.0273383427411,,0.00967877046785,-0.00729355074198,0.0262315663105,-0.999582518351
144040000000,,147,,144,35993652,"""map""",,,-0.00223809317686,-0.0479502566159,-0.0279256720096,,0.00966306714478,-0.00732396990062,0.0262315663105,-0.999582349764
144072000000,,148,,144,67993400,"""map""",,,-0.00211108103395,-0.0476595312357,-0.0284538585693,,0.00962119565019,-0.00737605410344,0.0263324658658,-0.999579736659
144108000000,,149,,144,99993400,"""map""",,,-0.00199026754126,-0.0475789606571,-0.0289408359677,,0.00958646055548,-0.00730590018019,0.0263787431055,-0.999579399484
144140000000,,150,,144,139993400,"""map""",,,-0.00184387271293,-0.0476610995829,-0.0295277256519,,0.00958589527734,-0.00728237063187,0.0263740226584,-0.999579652366
144172000000,,151,,144,163993150,"""map""",,,-0.00175940175541,-0.0478285253048,-0.0298905652016,,0.00953603407383,-0.00733029308035,0.0263996900892,-0.999579104456
144208000000,,152,,144,203993150,"""map""",,,-0.0016286552418,-0.0478165447712,-0.0301821194589,,0.00947947901234,-0.00730688766768,0.0264423426999,-0.999578682988
144240000000,,153,,144,235993150,"""map""",,,-0.00148477964103,-0.0473944917321,-0.0299725551158,,0.0094843887086,-0.00733349327739,0.0264432699305,-0.999578430107
144272000000,,154,,144,267992900,"""map""",,,-0.0013324378524,-0.0471610166132,-0.0299196541309,,0.00948473156334,-0.00730539540582,0.0264947733794,-0.999577249995
144308000000,,155,,144,299992900,"""map""",,,-0.0012102255132,-0.0471418537199,-0.0300169307739,,0.00949836631579,-0.00729537737981,0.0265347285918,-0.999576154177
144340000000,,156,,144,331992900,"""map""",,,-0.00109447888099,-0.0473265238106,-0.0302111841738,,0.00956297183693,-0.00728659931079,0.0265786456079,-0.999574468303
144372000000,,157,,144,363992650,"""map""",,,-0.00102214806248,-0.0476689264178,-0.030465554446,,0.00950270735887,-0.00734702052245,0.0266140911075,-0.999573667513
144408000000,,158,,144,403992650,"""map""",,,-0.000874032732099,-0.0477819852531,-0.0305496361107,,0.00949084837168,-0.00730931744996,0.0266347430633,-0.999573498926
144440000000,,159,,144,435992650,"""map""",,,-0.000685352715664,-0.047421939671,-0.0305249840021,,0.00954864849388,-0.0073259644673,0.0266493258729,-0.999572403108
144472000000,,160,,144,467992402,"""map""",,,-0.000494858017191,-0.0472507886589,-0.0307370815426,,0.00961210987625,-0.00728969570475,0.0266603262004,-0.999571770905
144508000000,,161,,144,499992402,"""map""",,,-0.000293570774375,-0.0472873933613,-0.0309120472521,,0.00972410401323,-0.00735295343224,0.0266692613322,-0.999570000737
144540000000,,162,,144,531992402,"""map""",,,-0.000121862802189,-0.0474982447922,-0.0310990791768,,0.00975529852571,-0.00734734995934,0.0266835491139,-0.999569368534
144572000000,,163,,144,563992154,"""map""",,,7.07016442902e-05,-0.0478776618838,-0.0312986895442,,0.00967976799814,-0.00729154827277,0.0266814417715,-0.999570548646
144608000000,,164,,144,603992154,"""map""",,,0.000310143455863,-0.0479911379516,-0.0318903103471,,0.00965716452804,-0.00735606941789,0.0266986798325,-0.99956983215
144640000000,,165,,144,635992154,"""map""",,,0.000481919938466,-0.0476189032197,-0.032424878329,,0.00963156533897,-0.00731988791249,0.0266846449319,-0.999570717234
144672000000,,166,,144,667991907,"""map""",,,0.000622656487394,-0.0474389046431,-0.032958202064,,0.00959861605233,-0.00730940882301,0.0267059290904,-0.999570590793
144708000000,,167,,144,699991907,"""map""",,,0.000743936514482,-0.0474270768464,-0.0335695184767,,0.00956711078916,-0.00732337572884,0.0267049175661,-0.99957075938
144740000000,,168,,144,731991907,"""map""",,,0.000867818016559,-0.047572940588,-0.0342996381223,,0.00958585848117,-0.00733646602962,0.0267474858831,-0.999569326388
144772000000,,169,,144,763991661,"""map""",,,0.000957507756539,-0.0478840433061,-0.0351446308196,,0.00955827180477,-0.00731644520644,0.0267942267381,-0.999568525598
144808000000,,170,,144,803991661,"""map""",,,0.00110813020729,-0.0479205772281,-0.0359557159245,,0.00961361489741,-0.00739467733054,0.026844044313,-0.99956608108
144840000000,,171,,144,835991661,"""map""",,,0.00128773169126,-0.0475047156215,-0.0364306233823,,0.00958596763492,-0.00738231011163,0.0268558454306,-0.99956608108
144872000000,,172,,144,867991416,"""map""",,,0.00143980083521,-0.0472873970866,-0.0370551869273,,0.00962672141484,-0.007411117071,0.0269149774591,-0.999563931591
144908000000,,173,,144,899991416,"""map""",,,0.00157524074893,-0.0472693443298,-0.0377044826746,,0.00963896960183,-0.00731474114021,0.0269427943791,-0.999563763004
144940000000,,174,,144,931991416,"""map""",,,0.00171772716567,-0.0474101342261,-0.0384393855929,,0.00962245132993,-0.00730429464868,0.0269196136124,-0.999564605941
144972000000,,175,,144,963991172,"""map""",,,0.00182377605233,-0.0477105118334,-0.039438445121,,0.00963859801809,-0.00709458329038,0.0268915016644,-0.99956675543
145008000000,,176,,145,3991172,"""map""",,,0.00200266414322,-0.0476552471519,-0.0399551764131,,0.00966062254525,-0.00718252779352,0.0269038928379,-0.999565575318
145040000000,,177,,145,35991172,"""map""",,,0.00212421268225,-0.0471398197114,-0.0397888869047,,0.00969376215125,-0.00720613233359,0.026922226717,-0.999564521647
145072000000,,178,,145,67990928,"""map""",,,0.00224044499919,-0.0468665063381,-0.0397468656301,,0.00976371447757,-0.00718840390384,0.0268383123416,-0.999566333961
145108000000,,179,,145,99990928,"""map""",,,0.00235042301938,-0.0468111336231,-0.0397359058261,,0.00977776238438,-0.00727174551014,0.0268310209368,-0.999565786052
145140000000,,180,,145,131990928,"""map""",,,0.00247040530667,-0.0469659492373,-0.0398322753608,,0.00982149229157,-0.00727651477179,0.0268386073696,-0.999565027409
145172000000,,181,,145,163990686,"""map""",,,0.00260444846936,-0.0472800508142,-0.0402413606644,,0.00985390725166,-0.00734648636053,0.0268715240582,-0.999563383682
145208000000,,182,,145,203990686,"""map""",,,0.00277996505611,-0.0472792685032,-0.040706332773,,0.0098765173072,-0.00732113807692,0.0268182925886,-0.999564774528
145240000000,,183,,145,235990686,"""map""",,,0.00289053842425,-0.0467803254724,-0.0408360958099,,0.00986913576413,-0.0073116832711,0.0268236030915,-0.999564774528
145272000000,,184,,145,267990444,"""map""",,,0.00301759573631,-0.0464939288795,-0.0409349054098,,0.00983773578576,-0.0073100928038,0.026860186556,-0.999564100178
145308000000,,185,,145,307990444,"""map""",,,0.00316899083555,-0.0463775545359,-0.0410870239139,,0.00972918880001,-0.00733946825171,0.0269194871718,-0.999563383682
145340000000,,186,,145,331990444,"""map""",,,0.00325311161578,-0.0464186780155,-0.0412441752851,,0.00974234429669,-0.00734354423062,0.0269572507481,-0.999562119277
145372000000,,187,,145,363984203,"""map""",,,0.00337145524099,-0.0466358140111,-0.0413940474391,,0.00969508829525,-0.00728385392106,0.0269535839723,-0.999563172948
145408000000,,188,,145,403984203,"""map""",,,0.00353335798718,-0.0465410239995,-0.0414415150881,,0.00973665644778,-0.00736410333162,0.0269613811393,-0.999561950689
145440000000,,189,,145,435984203,"""map""",,,0.00365277100354,-0.0459898486733,-0.0412995107472,,0.00967214633328,-0.00737704809406,0.027007363351,-0.999561234193
145472000000,,190,,145,467983962,"""map""",,,0.00377160706557,-0.0456471480429,-0.0411686301231,,0.00965887353335,-0.00742685299202,0.0270497209337,-0.999559843347
145508000000,,191,,145,499983962,"""map""",,,0.00388115621172,-0.0454832203686,-0.0410369299352,,0.00966207562371,-0.00742456101017,0.0270625757225,-0.999559548319
145540000000,,192,,145,531983962,"""map""",,,0.00397301279008,-0.0454965829849,-0.0409980900586,,0.00970204828752,-0.00745402527928,0.0270552000241,-0.999559084703
145572000000,,193,,145,563983723,"""map""",,,0.00405882671475,-0.0456785559654,-0.0410300903022,,0.00962525121423,-0.00749073016293,0.0270334943971,-0.999560138375
145608000000,,194,,145,603983723,"""map""",,,0.00412901584059,-0.0456809215248,-0.0409092195332,,0.00962412979525,-0.00752504485929,0.0270573495133,-0.999559295438
145640000000,,195,,145,635983723,"""map""",,,0.00410909904167,-0.0453698858619,-0.0404629074037,,0.00963038522721,-0.00747893694788,0.0270786336718,-0.99955900041
145672000000,,196,,145,667983484,"""map""",,,0.00410692859441,-0.0452804043889,-0.0400277413428,,0.00967080405493,-0.00749826786337,0.0271120982695,-0.999557483123
145708000000,,197,,145,699983484,"""map""",,,0.00410131923854,-0.0453962422907,-0.0396733693779,,0.00961721623037,-0.00752032589398,0.0271005078862,-0.99955819962
145740000000,,198,,145,731983484,"""map""",,,0.00412608450279,-0.0456777773798,-0.0394446738064,,0.00958754180325,-0.00754469903781,0.027107251382,-0.999558115326
145772000000,,199,,145,763983247,"""map""",,,0.00416253926232,-0.0461650192738,-0.0393848717213,,0.00949671962524,-0.0075438755279,0.0271447620771,-0.999557946739
145808000000,,200,,145,803983247,"""map""",,,0.00426379358396,-0.0464685149491,-0.039272531867,,0.0095240987778,-0.00751467615833,0.0271636017184,-0.99955739883
145840000000,,201,,145,835983247,"""map""",,,0.00440035853535,-0.0462996959686,-0.0388812348247,,0.0095296425701,-0.00750593183971,0.0271948325332,-0.999556598039
145872000000,,202,,145,867983010,"""map""",,,0.00458758557215,-0.0463168919086,-0.0386313274503,,0.00958884177011,-0.00752974876039,0.0272632790152,-0.999553984935
145908000000,,203,,145,899983010,"""map""",,,0.00480085099116,-0.0464819818735,-0.0385325215757,,0.00977802761318,-0.00758482234368,0.0272570412816,-0.999551877592
145940000000,,204,,145,931983010,"""map""",,,0.00503259943798,-0.0468187555671,-0.0383940599859,,0.00973899493933,-0.00762744013384,0.0273079968214,-0.99955057104
145972000000,,205,,145,963982774,"""map""",,,0.00525589892641,-0.0473000891507,-0.0384113155305,,0.00969037624466,-0.00759505917111,0.0273084182899,-0.99955124539
146008000000,,206,,146,3982774,"""map""",,,0.0054639056325,-0.0474194549024,-0.0383494980633,,0.00966965917531,-0.00758615095723,0.0273096405485,-0.999551456124
146040000000,,207,,146,35982774,"""map""",,,0.00556073989719,-0.0469980984926,-0.0381713435054,,0.00966861587617,-0.00759389823946,0.0272881878026,-0.999552004033
146072000000,,208,,146,67982539,"""map""",,,0.00568491499871,-0.0467906855047,-0.0381548888981,,0.00964617893551,-0.00756281921922,0.0272811914258,-0.999552678382
146108000000,,209,,146,99982539,"""map""",,,0.00583852361888,-0.0467873290181,-0.0383946672082,,0.00960114387542,-0.00756679271215,0.027317564156,-0.999552130473
146140000000,,210,,146,131982539,"""map""",,,0.00600359775126,-0.0469811074436,-0.0387610420585,,0.00962201767837,-0.00760358501758,0.0273409135101,-0.999550950362
146172000000,,211,,146,163982305,"""map""",,,0.00616698199883,-0.0473673790693,-0.0391296856105,,0.00954267623605,-0.00759638712611,0.0274072947965,-0.999549980984
146208000000,,212,,146,203982305,"""map""",,,0.00637817708775,-0.0475544854999,-0.0392398163676,,0.00958418561348,-0.00766119844241,0.0274364604157,-0.99954829511
146240000000,,213,,146,235982305,"""map""",,,0.00651708897203,-0.047307703644,-0.0391968861222,,0.00959229353114,-0.00763105694259,0.0274594304481,-0.999547747201
146272000000,,214,,146,267982071,"""map""",,,0.00669843889773,-0.0472584888339,-0.0392225421965,,0.00960495594263,-0.00765142448945,0.0274616220842,-0.999547410026
146308000000,,215,,146,299982071,"""map""",,,0.00691276276484,-0.0474006459117,-0.0393523834646,,0.00957604172282,-0.00768857973523,0.0273960837348,-0.999549222341
146340000000,,216,,146,331982071,"""map""",,,0.00711884023622,-0.0477040037513,-0.0396038033068,,0.00958683740758,-0.0077260211186,0.0274329622273,-0.999547831495
146372000000,,217,,146,363981839,"""map""",,,0.00733459647745,-0.0481862165034,-0.0398456789553,,0.00954815153973,-0.00772326214638,0.0274860672564,-0.999546735677
146408000000,,218,,146,403981839,"""map""",,,0.00755574321374,-0.0490205660462,-0.0402216799557,,0.0095925553849,-0.00776353000277,0.0274666797061,-0.999546567089
146440000000,,219,,146,435981839,"""map""",,,0.00772870471701,-0.049856800586,-0.0405388735235,,0.00955825863388,-0.00773730651351,0.0274801666976,-0.999546735677
146472000000,,220,,146,467981607,"""map""",,,0.00791338458657,-0.0508253313601,-0.0408891439438,,0.00961929986519,-0.0077450700124,0.0275274554616,-0.999544796922
146508000000,,221,,146,499981607,"""map""",,,0.00802225526422,-0.0513873025775,-0.0409040823579,,0.00963476989886,-0.00771692431403,0.0276242246258,-0.999542183817
146540000000,,222,,146,539981607,"""map""",,,0.00816378556192,-0.051736947149,-0.040475320071,,0.00963676339541,-0.00773568814038,0.0276158795498,-0.999542268111
146572000000,,223,,146,563981377,"""map""",,,0.00827130302787,-0.0520471669734,-0.0403806865215,,0.00976526065776,-0.0077659185437,0.027629998744,-0.999540371503
146608000000,,224,,146,603981377,"""map""",,,0.00847750157118,-0.0527817904949,-0.0401490293443,,0.00973444661936,-0.00781055806549,0.0277139974131,-0.999537969132
146640000000,,225,,146,635981377,"""map""",,,0.00865782611072,-0.0535726621747,-0.0399965196848,,0.009692011493,-0.00781011140768,0.0277433316197,-0.999537631958
146672000000,,226,,146,667981147,"""map""",,,0.00884678214788,-0.0544753298163,-0.0398984737694,,0.00971090653434,-0.00784257625252,0.0277676924981,-0.99953653614
146708000000,,227,,146,699981147,"""map""",,,0.00893194973469,-0.0548529475927,-0.0396878272295,,0.00966913744342,-0.00785654027722,0.0278055825149,-0.999535735349
146740000000,,228,,146,731981147,"""map""",,,0.00892971083522,-0.054777789861,-0.0392775200307,,0.00967772140644,-0.00787355525631,0.0278504267618,-0.999534218063
146772000000,,229,,146,763980918,"""map""",,,0.00897581595927,-0.0548943392932,-0.0389731712639,,0.00967531352077,-0.00792052289757,0.0278787915908,-0.999533164392
146808000000,,230,,146,803980918,"""map""",,,0.00907567050308,-0.0553137511015,-0.0386615023017,,0.00957990046437,-0.007930533268,0.0279028995882,-0.999533248685
146840000000,,231,,146,835980918,"""map""",,,0.00917964801192,-0.0558444969356,-0.0385700166225,,0.00959351225007,-0.00794722374928,0.0279120876011,-0.999532827217
146872000000,,232,,146,867980690,"""map""",,,0.00930020119995,-0.0564988031983,-0.0386338457465,,0.00954286499137,-0.00791656183468,0.0279106124614,-0.999533543713
146908000000,,233,,146,899980690,"""map""",,,0.00936798844486,-0.0566414110363,-0.0385128259659,,0.00953985667774,-0.00799447300064,0.0279974349694,-0.99953050914
146940000000,,234,,146,931980690,"""map""",,,0.0093752341345,-0.0563504956663,-0.0382357239723,,0.00950722077597,-0.00795007500005,0.0280115541636,-0.999530804168
146972000000,,235,,146,963980462,"""map""",,,0.00944097619504,-0.0562875233591,-0.038199685514,,0.00949958174199,-0.0079361690919,0.0280317425041,-0.999530424846
147008000000,,236,,147,3980462,"""map""",,,0.00955407042056,-0.0564565695822,-0.0385715253651,,0.00950926135844,-0.00773279309641,0.0280826558971,-0.99953050914
147040000000,,237,,147,35980462,"""map""",,,0.00972038973123,-0.0567693039775,-0.0389464572072,,0.00951448880243,-0.00773623604941,0.0281060895448,-0.999529750497
147072000000,,238,,147,67980236,"""map""",,,0.00991605781019,-0.0572446100414,-0.0393564514816,,0.00952206132341,-0.00776756243543,0.0280519308445,-0.999530972755
147108000000,,239,,147,99980236,"""map""",,,0.0100904619321,-0.0572911649942,-0.0394912734628,,0.0095027635821,-0.00777619834115,0.0279962548576,-0.999532616483
147140000000,,240,,147,131980236,"""map""",,,0.0102053787559,-0.0569774657488,-0.0394908003509,,0.00949757375747,-0.00781921364524,0.0280068337166,-0.999532068574
147172000000,,241,,147,163980010,"""map""",,,0.010330973193,-0.0568322688341,-0.0395858697593,,0.00949373650094,-0.00785663008623,0.0280524787535,-0.99953050914
147208000000,,242,,147,203980010,"""map""",,,0.010503295809,-0.0569122210145,-0.0398702956736,,0.00951106206608,-0.00790388929807,0.0280503714111,-0.999530087672
147240000000,,243,,147,235980010,"""map""",,,0.0106457453221,-0.0572203472257,-0.040125310421,,0.00951761293758,-0.00791677866045,0.0280038412903,-0.99953118349
147272000000,,244,,147,267979785,"""map""",,,0.0107951136306,-0.0576854795218,-0.0405130423605,,0.00949453226966,-0.00793359525301,0.0279618630292,-0.999532447895
147308000000,,245,,147,299979785,"""map""",,,0.010815910995,-0.0576540902257,-0.0408076122403,,0.00948646040731,-0.00794676029859,0.027964433987,-0.999532321455
147340000000,,246,,147,331979785,"""map""",,,0.010710535571,-0.057200089097,-0.0410524271429,,0.00946576967973,-0.00796255935756,0.0279533915127,-0.999532742923
147372000000,,247,,147,363979561,"""map""",,,0.0106672421098,-0.0569868944585,-0.0412534736097,,0.0094834148036,-0.00799747267088,0.0279541501559,-0.999532237161
147408000000,,248,,147,403979561,"""map""",,,0.0106576774269,-0.057004455477,-0.0415362045169,,0.00947028581333,-0.00797992402378,0.0279646447212,-0.999532279308
147440000000,,249,,147,435979561,"""map""",,,0.010674498044,-0.0572086721659,-0.0418233349919,,0.00947506215433,-0.00799954543972,0.0279586177219,-0.999532152867
147472000000,,250,,147,467979338,"""map""",,,0.0107202846557,-0.0575807243586,-0.0421301014721,,0.00948347349637,-0.00802036820547,0.0279890055997,-0.999531099196
147508000000,,251,,147,499979338,"""map""",,,0.0107351513579,-0.0575457625091,-0.0421025790274,,0.00953816298358,-0.00802909787147,0.0280010595983,-0.999530171965
147540000000,,252,,147,531979338,"""map""",,,0.0107066463679,-0.0571692958474,-0.0418994836509,,0.00949825856144,-0.00797523345821,0.0279970977946,-0.999531099196
147572000000,,253,,147,563979116,"""map""",,,0.0106802126393,-0.0569751411676,-0.0418324954808,,0.00952692813196,-0.00797993497209,0.0279678057349,-0.999531647105
147608000000,,254,,147,603979116,"""map""",,,0.0106641165912,-0.0569842755795,-0.0421508178115,,0.00951358577327,-0.00798779824046,0.0279389351436,-0.999532532189
147640000000,,255,,147,635979116,"""map""",,,0.0106769287959,-0.0571914277971,-0.0424448437989,,0.0095155637117,-0.00802084696733,0.0279308850956,-0.999532405748
147672000000,,256,,147,667978895,"""map""",,,0.0106935380027,-0.0575847364962,-0.0429107956588,,0.00954372727309,-0.00776459783269,0.027985296677,-0.999532616483
147708000000,,257,,147,699978895,"""map""",,,0.0106662549078,-0.0574386678636,-0.0432439297438,,0.00953944344106,-0.00783083884912,0.0280119334853,-0.999531436371
147740000000,,258,,147,731978895,"""map""",,,0.0105755617842,-0.0568378902972,-0.0435292460024,,0.00955661342506,-0.00781443014257,0.0280410991044,-0.99953050914
147772000000,,259,,147,763978674,"""map""",,,0.0105022890493,-0.0564602613449,-0.043873026967,,0.00957107481551,-0.00785284592485,0.0280623411161,-0.999529581909
147808000000,,260,,147,803978674,"""map""",,,0.0104318801314,-0.0562658645213,-0.044379863888,,0.00959237774252,-0.00786612185286,0.0280967750913,-0.999528275357
147840000000,,261,,147,835978674,"""map""",,,0.010417108424,-0.0563152618706,-0.0448207817972,,0.00958108082308,-0.00789809838694,0.0281084497683,-0.999527727448
147872000000,,262,,147,867978455,"""map""",,,0.010426029563,-0.056540120393,-0.0453364923596,,0.00963249380441,-0.00788786814496,0.0281367303037,-0.999526589483
147908000000,,263,,147,899978455,"""map""",,,0.010383089073,-0.0563336536288,-0.0459123030305,,0.00966054607177,-0.0079420746721,0.0282110351976,-0.999523765644
147940000000,,264,,147,931978455,"""map""",,,0.0102823153138,-0.0557666309178,-0.0463571473956,,0.00965056401875,-0.00796912356458,0.0282264187973,-0.999523217735
147972000000,,265,,147,963978236,"""map""",,,0.0102129802108,-0.0554488189518,-0.0467006787658,,0.00960203579164,-0.00799630441292,0.0282500631793,-0.999522838414
148008000000,,266,,148,3978236,"""map""",,,0.0101880095899,-0.0553435310721,-0.0471294149756,,0.00957538943449,-0.00802933338345,0.0282761942254,-0.99952207977
148040000000,,267,,148,35978236,"""map""",,,0.0101794814691,-0.0554482378066,-0.0474632568657,,0.00959344285595,-0.00807950912428,0.0282635501709,-0.999521826889
148072000000,,268,,148,67978018,"""map""",,,0.0101939206943,-0.0557376369834,-0.0478097237647,,0.00966470156993,-0.00807350953686,0.0283112182565,-0.999519845987
148108000000,,269,,148,99978018,"""map""",,,0.0101501364261,-0.0556158013642,-0.0478151515126,,0.00967322716945,-0.00808186506726,0.0283310272753,-0.999519171638
148140000000,,270,,148,131978018,"""map""",,,0.0100428266451,-0.0551268085837,-0.0476898215711,,0.00969624025424,-0.00809156452236,0.0283586756079,-0.99951807582
148172000000,,271,,148,163977801,"""map""",,,0.009975284338,-0.0548747777939,-0.0475240498781,,0.00973067941551,-0.00808938482236,0.0283722047463,-0.999517359323
148208000000,,272,,148,203977801,"""map""",,,0.00992476101965,-0.0548213087022,-0.0474062711,,0.00966226602539,-0.0080417955974,0.0284292715792,-0.999516769268
148240000000,,273,,148,235977801,"""map""",,,0.0098943207413,-0.0549639053643,-0.0473334863782,,0.00967583064284,-0.00799343480523,0.0284552340379,-0.999516263505
148272000000,,274,,148,267977585,"""map""",,,0.00989118218422,-0.0552774704993,-0.0473114587367,,0.00969458335625,-0.00800717072657,0.0284842732165,-0.999515209834
148308000000,,275,,148,299977585,"""map""",,,0.00981033686548,-0.0551438182592,-0.0473219156265,,0.00965874314154,-0.00798549761523,0.0284971280053,-0.999515336275
148340000000,,276,,148,331977585,"""map""",,,0.00969445705414,-0.0545992217958,-0.0470978282392,,0.00964281467857,-0.00802203325294,0.0284932926421,-0.999515294128
148372000000,,277,,148,363977370,"""map""",,,0.00957745406777,-0.054256554693,-0.0470327697694,,0.00964912649841,-0.00798125057938,0.0285000361379,-0.999515378422
148408000000,,278,,148,403977370,"""map""",,,0.00946704577655,-0.0541216731071,-0.0472667068243,,0.00968564987073,-0.00806716380198,0.0285426466017,-0.999513144639
148440000000,,279,,148,435977370,"""map""",,,0.00940739177167,-0.0542268045247,-0.0475811883807,,0.0096701745687,-0.00805334441012,0.0285405392593,-0.999513481813
148472000000,,280,,148,467977155,"""map""",,,0.00938452966511,-0.0544930286705,-0.0481327138841,,0.00964401767475,-0.00808015194604,0.0285874487017,-0.999512175261
148508000000,,281,,148,499977155,"""map""",,,0.00929673481733,-0.0542023703456,-0.0486108213663,,0.00967824132733,-0.00788127636139,0.0285825596672,-0.99951352396
148540000000,,282,,148,531977155,"""map""",,,0.00920724496245,-0.0534206740558,-0.0488038212061,,0.00967259867103,-0.00790555319309,0.0285946979596,-0.999513018198
148572000000,,283,,148,563976941,"""map""",,,0.00917076505721,-0.0528771728277,-0.0490100085735,,0.00967078890841,-0.00798491315698,0.0286494467158,-0.999510868709
148608000000,,284,,148,603976941,"""map""",,,0.00916216988117,-0.052505068481,-0.0492149703205,,0.00971658113004,-0.00800691282408,0.0286315764521,-0.999510784415
148640000000,,285,,148,635976941,"""map""",,,0.00918300077319,-0.0524017326534,-0.049406979233,,0.00972515472099,-0.00801301819021,0.0286222619985,-0.999510910856
148672000000,,286,,148,667976729,"""map""",,,0.00921533815563,-0.0524444393814,-0.0496452860534,,0.00970582034815,-0.00809220372212,0.0286955132212,-0.999508297751
148708000000,,287,,148,699976729,"""map""",,,0.0091748861596,-0.051932554692,-0.0496446862817,,0.00968986793062,-0.00812214757627,0.0287047855279,-0.999507960576
148740000000,,288,,148,731976729,"""map""",,,0.0091020828113,-0.0509895049036,-0.0495816878974,,0.00967974799485,-0.00814794877386,0.0286753670277,-0.999508719219
148772000000,,289,,148,763976517,"""map""",,,0.00906710606068,-0.050325833261,-0.0495307929814,,0.00969143847696,-0.00813548252633,0.0286478872824,-0.999509477863
148804000000,,290,,148,803976517,"""map""",,,0.00910351797938,-0.0498023666441,-0.0495023168623,,0.00973396571724,-0.00817708434694,0.028693363732,-0.999507496961
148840000000,,291,,148,835976517,"""map""",,,0.00917700026184,-0.0496075414121,-0.0495489314198,,0.0097315962741,-0.00821011693946,0.028691972886,-0.999507201933
148872000000,,292,,148,867976305,"""map""",,,0.00928777176887,-0.0495957918465,-0.0497547537088,,0.00964611933723,-0.00821067587911,0.0287019195422,-0.999507707695
148908000000,,293,,148,899976305,"""map""",,,0.00939952302724,-0.0492336973548,-0.0497444905341,,0.00958324150761,-0.00815639205532,0.0287213913862,-0.999508297751
148940000000,,294,,148,931976305,"""map""",,,0.00950099527836,-0.0485686734319,-0.0494930073619,,0.00958094697391,-0.00817762896325,0.0287500933901,-0.99950724408
148972000000,,295,,148,963976095,"""map""",,,0.00963332876563,-0.048134572804,-0.0492622330785,,0.00966724643286,-0.00820978058785,0.0288061908454,-0.999504588828
149008000000,,296,,149,3976095,"""map""",,,0.00985392089933,-0.0478447303176,-0.0493302866817,,0.00960058057291,-0.0081497740946,0.0288375902476,-0.999504799563
149040000000,,297,,149,35976095,"""map""",,,0.0100702084601,-0.0478236079216,-0.0497238524258,,0.00960569021975,-0.0081485933243,0.028837758835,-0.999504799563
149072000000,,298,,149,67975886,"""map""",,,0.0103073716164,-0.0479495003819,-0.0501857064664,,0.00958518273218,-0.00813877088601,0.0288226281164,-0.999505431765
149108000000,,299,,149,99975886,"""map""",,,0.0104871429503,-0.0475506149232,-0.050434216857,,0.00956009918346,-0.00822383861978,0.0287911865674,-0.999505937527
149140000000,,300,,149,131975886,"""map""",,,0.0106158182025,-0.0467090085149,-0.0503238067031,,0.0094958510462,-0.00820627182155,0.0287446564466,-0.99950804487
149172000000,,301,,149,163975677,"""map""",,,0.010779613629,-0.0461287125945,-0.0502313375473,,0.00952669237303,-0.00818998432835,0.0288374216602,-0.999505221031
149208000000,,302,,149,203975677,"""map""",,,0.0110066141933,-0.0457055456936,-0.0501002930105,,0.00944856466939,-0.00818243802568,0.0288138615719,-0.999506696171
149240000000,,303,,149,235975677,"""map""",,,0.0112572964281,-0.0455904938281,-0.0499526150525,,0.00944910525212,-0.00818604232209,0.0288312682203,-0.999506148262
149272000000,,304,,149,267975469,"""map""",,,0.0115480823442,-0.0456865355372,-0.0496753305197,,0.00942157068306,-0.00819051993083,0.0288147888025,-0.999506864758
149308000000,,305,,149,299975469,"""map""",,,0.0117029044777,-0.0453130714595,-0.0492603965104,,0.00944497506676,-0.00816505298573,0.028866123664,-0.999505347472
149340000000,,306,,149,339975469,"""map""",,,0.0117082456127,-0.044331535697,-0.048589207232,,0.00944649029535,-0.00807355160139,0.0288798213898,-0.9995056425
149372000000,,307,,149,363975263,"""map""",,,0.0117359580472,-0.0439154244959,-0.0483082607388,,0.00944897979939,-0.00813177068137,0.0288836988998,-0.999505052444
149408000000,,308,,149,403975263,"""map""",,,0.0118243368343,-0.0434697754681,-0.047843221575,,0.00944255047051,-0.00807786021115,0.0289070482539,-0.999504883856
149440000000,,309,,149,435975263,"""map""",,,0.0119345095009,-0.0433302372694,-0.0475346259773,,0.0094377842958,-0.00807655592259,0.0289157726516,-0.999504673122
149472000000,,310,,149,467975056,"""map""",,,0.0120646171272,-0.0433502309024,-0.0472366251051,,0.00941599873797,-0.00810375998463,0.028938742684,-0.999504040919
149508000000,,311,,149,499975056,"""map""",,,0.0120226964355,-0.0431550592184,-0.046713963151,,0.00944513394062,-0.00809020726213,0.0289568658289,-0.99950336657
149540000000,,312,,149,531975056,"""map""",,,0.0118474578485,-0.0428094118834,-0.0461568273604,,0.0094341889309,-0.0080344654208,0.0289865793571,-0.999502987248
149572000000,,313,,149,563974851,"""map""",,,0.0117424326017,-0.042648345232,-0.0457899086177,,0.00959707555209,-0.00805033807212,0.028942072285,-0.999502650073
149608000000,,314,,149,603974851,"""map""",,,0.011695493944,-0.0426767915487,-0.0454561077058,,0.00959135066004,-0.00808942614603,0.0289937443213,-0.999500879906
149640000000,,315,,149,635974851,"""map""",,,0.0117343086749,-0.0428818538785,-0.0452659241855,,0.00958423047682,-0.00806595430267,0.0290092122147,-0.999500669171
149672000000,,316,,149,667980647,"""map""",,,0.0118178986013,-0.0432335063815,-0.0451557151973,,0.00962380900175,-0.00807706789979,0.0290809882977,-0.999498182507
149708000000,,317,,149,699980647,"""map""",,,0.0116925127804,-0.0432606711984,-0.0448648184538,,0.00961663366543,-0.00802556033501,0.0290987742678,-0.999498098214
149740000000,,318,,149,731980647,"""map""",,,0.0114013962448,-0.0430049933493,-0.0444672591984,,0.00960218330561,-0.00803076077867,0.029117908937,-0.999497676745
149772000000,,319,,149,763980443,"""map""",,,0.011198354885,-0.0429506152868,-0.0441354177892,,0.00961563325401,-0.00802529634098,0.0291469902625,-0.999496665221
149808000000,,320,,149,803980443,"""map""",,,0.0110311340541,-0.0431161895394,-0.0438280701637,,0.00961740070515,-0.0080332094941,0.0291857232163,-0.999495442962
149840000000,,321,,149,835980443,"""map""",,,0.0109791662544,-0.0434340201318,-0.0435101166368,,0.00960119227844,-0.00806530333143,0.0292127393462,-0.999494557878
149872000000,,322,,149,867980241,"""map""",,,0.0109845753759,-0.0438914112747,-0.0432197675109,,0.00955385758094,-0.00804507136242,0.0292802164506,-0.999493251326
149908000000,,323,,149,899980241,"""map""",,,0.0108889956027,-0.0440478362143,-0.0425371825695,,0.00954776225761,-0.00803198460132,0.0293003204974,-0.999492787711
149940000000,,324,,149,931980241,"""map""",,,0.0107253119349,-0.0439131297171,-0.0415687784553,,0.00962005521574,-0.00802237322654,0.0293409500593,-0.999491017543
149972000000,,325,,149,963980039,"""map""",,,0.0105980969965,-0.0439502559602,-0.0406526438892,,0.0096733695797,-0.00804354288061,0.0293307926689,-0.999490638221
150008000000,,326,,150,3980039,"""map""",,,0.0104894014075,-0.0442404411733,-0.0395986288786,,0.00970908878686,-0.00806652501381,0.0293833076421,-0.999488530879
150040000000,,327,,150,35980039,"""map""",,,0.0104518402368,-0.0446202754974,-0.038863170892,,0.00970418600531,-0.00809877978294,0.0294043389195,-0.999487730089
150072000000,,328,,150,67979837,"""map""",,,0.0104104960337,-0.0451606623828,-0.0383432283998,,0.00975493015238,-0.00794268036841,0.0294510376277,-0.999487055739
150108000000,,329,,150,99979837,"""map""",,,0.0104188770056,-0.0453211069107,-0.0377425216138,,0.00975939615428,-0.00797795489339,0.0294152549533,-0.999487856529
150140000000,,330,,150,131979837,"""map""",,,0.0104315495118,-0.0451467707753,-0.0371062979102,,0.00975211125261,-0.00799076498347,0.0294176573236,-0.999487730089
150172000000,,331,,150,163979637,"""map""",,,0.0104844709858,-0.0451669991016,-0.0365969352424,,0.00977839080047,-0.00809413836125,0.0294062355277,-0.999487013593
150208000000,,332,,150,203979637,"""map""",,,0.0106219816953,-0.0454312600195,-0.0359516628087,,0.00972917488826,-0.00810983304092,0.0294159293028,-0.999487013593
150240000000,,333,,150,235979637,"""map""",,,0.0107749719173,-0.0458210706711,-0.0353809371591,,0.00973445806158,-0.00813345206897,0.0294056454718,-0.999487097886
150272000000,,334,,150,267979437,"""map""",,,0.0109274592251,-0.0463820174336,-0.0349333062768,,0.00969598152856,-0.00815853644087,0.0294532292638,-0.999485875628
150308000000,,335,,150,299979437,"""map""",,,0.0110133532435,-0.0465075522661,-0.0343865901232,,0.00970036150808,-0.00821348868734,0.0295072615236,-0.999483768285
150340000000,,336,,150,331979437,"""map""",,,0.0110419336706,-0.0462856441736,-0.0336963832378,,0.00965154096953,-0.00817806821243,0.0294931423293,-0.999484990544
150372000000,,337,,150,363979238,"""map""",,,0.0111122559756,-0.0462745651603,-0.0330440290272,,0.00969395880911,-0.00822742250131,0.0295534123227,-0.999482377439
150408000000,,338,,150,403979238,"""map""",,,0.0112605653703,-0.046532779932,-0.0322926007211,,0.00963025919826,-0.00820727622541,0.0296048314779,-0.999481618796
150440000000,,339,,150,435979238,"""map""",,,0.0114149414003,-0.0468756332994,-0.0317343808711,,0.00966239674647,-0.00823651765951,0.0295752865371,-0.999481998118
150472000000,,340,,150,467979040,"""map""",,,0.0115780029446,-0.0473160669208,-0.0311654452235,,0.00965241572243,-0.00828276077834,0.0296133029944,-0.999480565125
150508000000,,341,,150,499979040,"""map""",,,0.0116372350603,-0.047321241349,-0.0306014809757,,0.00967429434082,-0.00825486306314,0.0295849381654,-0.999481365915
150540000000,,342,,150,531979040,"""map""",,,0.0116181131452,-0.0469661839306,-0.0300765987486,,0.00963526821126,-0.00826585758718,0.0295709032648,-0.999482082411
150572000000,,343,,150,563978843,"""map""",,,0.0116562098265,-0.0467747077346,-0.0296220611781,,0.00968320378947,-0.00825070962293,0.029600911821,-0.999480902299
150608000000,,344,,150,603978843,"""map""",,,0.0117712020874,-0.0468145012856,-0.0291877873242,,0.00968151750394,-0.00822723950826,0.0295723784045,-0.999481955971
150640000000,,345,,150,635978843,"""map""",,,0.0119272973388,-0.0470306910574,-0.0289549622685,,0.00971842818275,-0.00824289780334,0.0295567840706,-0.999481871677
150672000000,,346,,150,667978646,"""map""",,,0.0121414763853,-0.047409478575,-0.0286382827908,,0.00976330362811,-0.00824850769705,0.0295699338873,-0.99948102874
150708000000,,347,,150,699978646,"""map""",,,0.0124002955854,-0.0473793447018,-0.0281836614013,,0.00972642036122,-0.00823401658979,0.029562516042,-0.99948170309
150740000000,,348,,150,731978646,"""map""",,,0.0126634510234,-0.0470170490444,-0.0275930017233,,0.00973718649379,-0.00824365875152,0.0295872140952,-0.999480775859
150772000000,,349,,150,763978451,"""map""",,,0.0129927638918,-0.0468419007957,-0.0269948989153,,0.00977477259231,-0.00822008384595,0.0296252726994,-0.999479469307
150808000000,,350,,150,803978451,"""map""",,,0.0134334499016,-0.0468715466559,-0.0263627283275,,0.0097679964986,-0.00820199593322,0.0295861182771,-0.999480860153
150840000000,,351,,150,835978451,"""map""",,,0.0138099724427,-0.0470418594778,-0.0258585512638,,0.00975540957278,-0.00815878701706,0.0295856968086,-0.999481365915
150872000000,,352,,150,867978256,"""map""",,,0.0142299812287,-0.0473093278706,-0.0253491587937,,0.00973811018478,-0.00818356220231,0.0295676158106,-0.99948182953
150908000000,,353,,150,899978256,"""map""",,,0.0145358592272,-0.0471629872918,-0.0248816907406,,0.00974442521502,-0.00799131898404,0.0295932832414,-0.99948263032
150940000000,,354,,150,931978256,"""map""",,,0.0147857172415,-0.0466660857201,-0.0242023337632,,0.00971182578015,-0.00801220949756,0.0295876355637,-0.999482883201
150972000000,,355,,150,963978062,"""map""",,,0.0150693012401,-0.0463804975152,-0.0235725324601,,0.00966758270215,-0.00804026160028,0.0296258627553,-0.999481998118
151008000000,,356,,151,3978062,"""map""",,,0.0154598038644,-0.0462876968086,-0.0227261539549,,0.00975417850614,-0.00809377245746,0.0296174333856,-0.999480986593
151040000000,,357,,151,35978062,"""map""",,,0.0158159472048,-0.046424485743,-0.0220853425562,,0.00975359240153,-0.00814181986476,0.0295970343109,-0.999481239474
151072000000,,358,,151,67977868,"""map""",,,0.016209833324,-0.0467139706016,-0.0215561222285,,0.00974291204438,-0.00816768098991,0.0296283494193,-0.999480185803
151108000000,,359,,151,99977868,"""map""",,,0.0164790544659,-0.0466281399131,-0.0209928490222,,0.00977325670517,-0.00823128033736,0.0296165483018,-0.999479680041
151140000000,,360,,151,131977868,"""map""",,,0.0166563913226,-0.0462365597486,-0.0203943923116,,0.00978542973577,-0.00825931935151,0.0296307096429,-0.999478921398
151172000000,,361,,151,163977676,"""map""",,,0.0168807208538,-0.0460188649595,-0.0199656747282,,0.00970146457014,-0.00826266023012,0.0296171383576,-0.999480101509
151208000000,,362,,151,203977676,"""map""",,,0.0172364525497,-0.0459503605962,-0.01945871301,,0.0097558535141,-0.00828382214629,0.0296110270646,-0.9994795536
151240000000,,363,,151,235977676,"""map""",,,0.0175794661045,-0.0460169166327,-0.0190116725862,,0.0097512758889,-0.00829205205933,0.0296433536974,-0.999478584223
151272000000,,364,,151,267977484,"""map""",,,0.017981313169,-0.0462020151317,-0.0185463484377,,0.00972155692771,-0.00835110917835,0.0296795578403,-0.999477361964
151308000000,,365,,151,299977484,"""map""",,,0.0182867925614,-0.0460385344923,-0.0181268081069,,0.00972201593323,-0.00838187703631,0.0296646800028,-0.999477488405
