rosbagTimestamp,header,seq,stamp,secs,nsecs,frame_id,pose,position,x,y,z,orientation,x,y,z,w
1424556000000,,36257,,1424,552119799,"""map""",,,0.266368091106,-0.00593469757587,0.0393326319754,,0.00749991879329,-0.00835085765551,0.0662704401931,-0.997738551582
1424592000000,,36258,,1424,584119447,"""map""",,,0.267410904169,-0.00468184798956,0.0390411093831,,0.00746773300669,-0.00829644088804,0.0662837585972,-0.997738467288
1424628000000,,36259,,1424,624119447,"""map""",,,0.270061522722,-0.00198968406767,0.0387492366135,,0.00740443885346,-0.00819725235481,0.0663104796992,-0.997737877232
1424660000000,,36260,,1424,656119447,"""map""",,,0.273180127144,0.00101664615795,0.0385636612773,,0.00736269347014,-0.00808323088857,0.066280766171,-0.99774112254
1424692000000,,36261,,1424,688119096,"""map""",,,0.270685970783,-0.000552588724531,0.0378063470125,,0.00768873795055,-0.00820980009723,0.0662734747662,-0.997738130114
1424728000000,,36262,,1424,720119096,"""map""",,,0.269361525774,-0.00110899482388,0.037249814719,,0.00782465085623,-0.00834771263215,0.0663297829558,-0.997732145261
1424760000000,,36263,,1424,752119096,"""map""",,,0.26921787858,-0.000698877498507,0.0367590412498,,0.0077837808432,-0.00825137884821,0.0663292771936,-0.997733325373
1424792000000,,36264,,1424,784118744,"""map""",,,0.270129680634,0.000585380941629,0.0362456515431,,0.0077816518717,-0.00818105738711,0.0663267905295,-0.997734126163
1424828000000,,36265,,1424,824118744,"""map""",,,0.27262750268,0.00336385820992,0.0354779474437,,0.00773495363688,-0.00812310499708,0.0663362314236,-0.99773429475
1424860000000,,36266,,1424,856118744,"""map""",,,0.275637209415,0.00643478846177,0.0347158461809,,0.00765761104178,-0.00806195436507,0.0663997467243,-0.997731133737
1424892000000,,36267,,1424,888118392,"""map""",,,0.272861242294,0.0046644504182,0.0338165983558,,0.00767970471611,-0.0080256440319,0.0664057315768,-0.997730880856
1424928000000,,36268,,1424,920118392,"""map""",,,0.271399408579,0.00400295760483,0.0329263210297,,0.00755785951474,-0.00791457652878,0.0663886621031,-0.997733788988
1424960000000,,36269,,1424,952118392,"""map""",,,0.271133780479,0.00433707702905,0.0319871790707,,0.00750456887896,-0.00783817209207,0.06636476484,-0.99773644424
1424992000000,,36270,,1424,984118041,"""map""",,,0.271936655045,0.00558248441666,0.0311993490905,,0.00747994072406,-0.00782141204173,0.0663941411935,-0.997734800513
1425028000000,,36271,,1425,24118041,"""map""",,,0.274285286665,0.00835297442973,0.0301817823201,,0.007724781069,-0.00779525983991,0.0663477796601,-0.997736233505
1425060000000,,36272,,1425,56118041,"""map""",,,0.277169197798,0.0114405089989,0.0295563824475,,0.0079212938937,-0.00796578811382,0.0663275491728,-0.997734631925
1425092000000,,36273,,1425,88117689,"""map""",,,0.280871778727,0.0152204940096,0.0289100948721,,0.00790416044991,-0.00792713361816,0.0663433120941,-0.997734126163
1425128000000,,36274,,1425,120117689,"""map""",,,0.285344302654,0.0196666605771,0.028313498944,,0.00787632321148,-0.00783012267167,0.0663597915119,-0.997733999722
1425160000000,,36275,,1425,152117689,"""map""",,,0.29053157568,0.0247456543148,0.0275899488479,,0.00790979670984,-0.00775713781993,0.0663263269142,-0.99773644424
1425192000000,,36276,,1425,184117337,"""map""",,,0.289130181074,0.024007294327,0.0269441921264,,0.00787049329188,-0.00776494963952,0.0663690216717,-0.997733957576
1425228000000,,36277,,1425,224117337,"""map""",,,0.289063155651,0.0245367716998,0.0262823216617,,0.00780762764147,-0.00777347614839,0.0664189235404,-0.99773109159
1425260000000,,36278,,1425,256117337,"""map""",,,0.290246933699,0.0260454379022,0.025866869837,,0.00775313208147,-0.00771257100299,0.0664044671713,-0.997732903904
1425292000000,,36279,,1425,288116986,"""map""",,,0.292373210192,0.0284179132432,0.0255108792335,,0.00775527444252,-0.00768297787268,0.0663869762292,-0.99773429475
1425328000000,,36280,,1425,320116986,"""map""",,,0.295353293419,0.0315934717655,0.0252605695277,,0.0077400007117,-0.00765052556591,0.0664364144825,-0.997731302324
1425360000000,,36281,,1425,360116986,"""map""",,,0.298444211483,0.0349724255502,0.0248294211924,,0.00820001406411,-0.00786183116785,0.0664064059264,-0.99772801487
1425392000000,,36282,,1425,384128634,"""map""",,,0.296782970428,0.0336437486112,0.0245358012617,,0.00815209239765,-0.00787605116057,0.0664203143864,-0.99772734052
1425428000000,,36283,,1425,424128634,"""map""",,,0.295648515224,0.0328857824206,0.0241071619093,,0.00806351274891,-0.00773920839005,0.0664626719691,-0.997726371143
1425460000000,,36284,,1425,456128634,"""map""",,,0.296044409275,0.0334633886814,0.0238269101828,,0.00794902836703,-0.00764273857551,0.0664764961354,-0.997727045492
1425492000000,,36285,,1425,488128282,"""map""",,,0.297465503216,0.0349873527884,0.0234886035323,,0.00791664984297,-0.00762598441091,0.0664739673245,-0.997727635548
1425528000000,,36286,,1425,520128282,"""map""",,,0.299822837114,0.0373623594642,0.0231402143836,,0.00783209285163,-0.00760072910555,0.0665185165434,-0.997725486059
1425560000000,,36287,,1425,552128282,"""map""",,,0.303040534258,0.0405277647078,0.0228919908404,,0.00772015298798,-0.00756020801307,0.0664986653778,-0.997727972723
1425592000000,,36288,,1425,584127930,"""map""",,,0.299990743399,0.0380811579525,0.023178756237,,0.00765192214331,-0.00754255675137,0.0664748102615,-0.997730332947
1425628000000,,36289,,1425,624127930,"""map""",,,0.298023760319,0.0367868877947,0.0235445033759,,0.0075258096404,-0.00745002984344,0.0664804579392,-0.997731597352
1425660000000,,36290,,1425,656127930,"""map""",,,0.297804117203,0.0370317548513,0.0236604213715,,0.00778495057259,-0.00751366528222,0.0664890137495,-0.997728520632
1425692000000,,36291,,1425,688127578,"""map""",,,0.298697918653,0.0382375381887,0.0237902365625,,0.00795934327314,-0.00771202984661,0.0664708484577,-0.997726876905
1425728000000,,36292,,1425,720127578,"""map""",,,0.300569832325,0.0403300896287,0.0239933095872,,0.007905424283,-0.00762726068046,0.0665395478208,-0.99772333657
1425760000000,,36293,,1425,760127578,"""map""",,,0.302363455296,0.0424957945943,0.0242415685207,,0.00783017051905,-0.00756849931995,0.0665272830879,-0.997725148884
1425792000000,,36294,,1425,784127226,"""map""",,,0.29996317625,0.0407241880894,0.0245806872845,,0.00778157355635,-0.0075107782231,0.0665293904303,-0.997725823234
1425828000000,,36295,,1425,824127226,"""map""",,,0.297650098801,0.0392848066986,0.0250833574682,,0.00771395983477,-0.00746022798652,0.0664679403252,-0.997730880856
1425860000000,,36296,,1425,856127226,"""map""",,,0.297188282013,0.0393996909261,0.0254917107522,,0.00759884116135,-0.00735621334074,0.0664845461835,-0.997731470911
1425888000000,,36297,,1425,888126874,"""map""",,,0.297813385725,0.0405680909753,0.0258141867816,,0.0075095802689,-0.00731292107753,0.0664984546435,-0.997731470911
1425928000000,,36298,,1425,920126874,"""map""",,,0.299432843924,0.042679361999,0.0261486619711,,0.00747073439531,-0.0071900231516,0.0665378619469,-0.997729995772
1425960000000,,36299,,1425,952126874,"""map""",,,0.301959633827,0.0456157438457,0.0263185277581,,0.00743720113404,-0.00712000160608,0.0665948866329,-0.997727003346
1425992000000,,36300,,1425,984126522,"""map""",,,0.298255383968,0.043001331389,0.0265720877796,,0.00774449300393,-0.00727426514259,0.0665921470878,-0.997723758038
1426028000000,,36301,,1426,24126522,"""map""",,,0.295514166355,0.0414455533028,0.0269154254347,,0.00788361956565,-0.00740713326773,0.0665749933204,-0.997722872954
1426060000000,,36302,,1426,56126522,"""map""",,,0.294673860073,0.0414902493358,0.0270660445094,,0.00777434064884,-0.00730626799787,0.0665875952281,-0.997723589451
1426092000000,,36303,,1426,88126169,"""map""",,,0.294954925776,0.0425879247487,0.0271345600486,,0.00772149621812,-0.00726055334043,0.0665819475504,-0.997724685269
1426128000000,,36304,,1426,120126169,"""map""",,,0.296339660883,0.0446812883019,0.0270322076976,,0.00790651530604,-0.00774640934787,0.0666186153086,-0.99771718313
1426160000000,,36305,,1426,152126169,"""map""",,,0.298604041338,0.0476378388703,0.0270234830678,,0.00789759823268,-0.00767125004389,0.0666080785965,-0.997718447535
1426192000000,,36306,,1426,184125817,"""map""",,,0.294931411743,0.0446844659746,0.0271159056574,,0.00784119324731,-0.00758768797953,0.0666283933775,-0.997718194654
1426228000000,,36307,,1426,224125817,"""map""",,,0.292249232531,0.0427854023874,0.0270243603736,,0.00775997055942,-0.00752459195559,0.066659413458,-0.997717267424
1426260000000,,36308,,1426,256125817,"""map""",,,0.291436672211,0.0425980351865,0.0268054064363,,0.00770684627816,-0.00745917822542,0.0666617315346,-0.99771798392
1426292000000,,36309,,1426,288125464,"""map""",,,0.291682302952,0.0434753969312,0.0265872403979,,0.00769812895987,-0.00738536674596,0.0666460950539,-0.997719627647
1426328000000,,36310,,1426,320125464,"""map""",,,0.292943418026,0.0453584082425,0.0262376964092,,0.00799776220409,-0.00746586909936,0.0666432290682,-0.997716845955
1426360000000,,36311,,1426,352125464,"""map""",,,0.295093804598,0.0481164976954,0.0259720180184,,0.00807970067841,-0.00751455687945,0.066607109219,-0.997718321095
1426392000000,,36312,,1426,384125112,"""map""",,,0.291380405426,0.0451606325805,0.0259617604315,,0.00805278440033,-0.00749291340261,0.0665775642782,-0.997720639171
1426428000000,,36313,,1426,424125112,"""map""",,,0.288589626551,0.0433236919343,0.0257798582315,,0.00794905598474,-0.00739729512727,0.0666033160026,-0.997720512731
1426460000000,,36314,,1426,456125112,"""map""",,,0.287705153227,0.0432144738734,0.0255045313388,,0.00785245758938,-0.00727677930088,0.0665648780768,-0.997724643122
1426492000000,,36315,,1426,488124759,"""map""",,,0.287898361683,0.0441956035793,0.0250941384584,,0.00781451003225,-0.00724429288871,0.0665830433685,-0.997724010919
1426528000000,,36316,,1426,520124759,"""map""",,,0.289097994566,0.046215582639,0.024425232783,,0.00777280873025,-0.00719257833516,0.0665894918363,-0.997724305947
1426560000000,,36317,,1426,552124759,"""map""",,,0.2912068367,0.0491465702653,0.0237202085555,,0.00775730463748,-0.00710174066078,0.066571200104,-0.997726328996
1426592000000,,36318,,1426,584124406,"""map""",,,0.287326008081,0.0464548692107,0.0230930484831,,0.00765711571341,-0.00704585321938,0.0665559850917,-0.997728478485
1426628000000,,36319,,1426,624124406,"""map""",,,0.284350454807,0.0449402965605,0.022073790431,,0.00760090992747,-0.00701970406332,0.0665347852269,-0.997730459387
1426660000000,,36320,,1426,656124406,"""map""",,,0.283361703157,0.0450530610979,0.0214076768607,,0.00805713470419,-0.0073515002303,0.0665171678443,-0.99772573894
1426692000000,,36321,,1426,688136054,"""map""",,,0.283400326967,0.0462182760239,0.020581221208,,0.00801034902701,-0.00731719800513,0.066518347956,-0.997726244702
1426728000000,,36322,,1426,720136054,"""map""",,,0.284457266331,0.0483846031129,0.0195944830775,,0.0080117665029,-0.00723795637346,0.0665110986981,-0.99772734052
1426760000000,,36323,,1426,752136054,"""map""",,,0.286429822445,0.051436662674,0.0184259619564,,0.00789722239927,-0.00715513468805,0.0665234898715,-0.99772801487
1426792000000,,36324,,1426,784135701,"""map""",,,0.28267171979,0.0488884970546,0.0170658119023,,0.00784633859961,-0.00714042350344,0.0665201602705,-0.997728731366
1426828000000,,36325,,1426,824135701,"""map""",,,0.279779791832,0.0475287735462,0.0154574019834,,0.00773305816057,-0.00703510536141,0.0665179264875,-0.997730459387
1426860000000,,36326,,1426,856135701,"""map""",,,0.278811275959,0.0477754473686,0.0142149636522,,0.00760951510798,-0.00700388782046,0.066522520494,-0.997731344471
1426892000000,,36327,,1426,888135347,"""map""",,,0.278927177191,0.0491172261536,0.0130187068135,,0.00760335806668,-0.00695764052399,0.0664905731828,-0.997733873282
1426928000000,,36328,,1426,920135347,"""map""",,,0.280056357384,0.0514673255384,0.0117052821442,,0.00751913028585,-0.00685872707715,0.0664698369334,-0.99773657068
1426960000000,,36329,,1426,952135347,"""map""",,,0.282102376223,0.0547604858875,0.010332508944,,0.0079735452382,-0.00714441078464,0.0664992132868,-0.997729110688
1426992000000,,36330,,1426,984134994,"""map""",,,0.278724044561,0.0523668788373,0.00945282820612,,0.00794252713333,-0.00712851417877,0.066499424021,-0.997729405716
1427028000000,,36331,,1427,24134994,"""map""",,,0.276307344437,0.0511854961514,0.00854750163853,,0.00784052352813,-0.00704813388248,0.0665431303029,-0.997727846283
1427060000000,,36332,,1427,56134994,"""map""",,,0.275671124458,0.051594376564,0.00785529334098,,0.00771500673532,-0.00704857068271,0.066621565588,-0.997723673745
1427092000000,,36333,,1427,88134641,"""map""",,,0.276069760323,0.0531107597053,0.00707601103932,,0.00769123179686,-0.0070474605413,0.0666568425002,-0.997721439962
1427128000000,,36334,,1427,120134641,"""map""",,,0.277392238379,0.0555946975946,0.00628885533661,,0.00759711438562,-0.00701878179232,0.0666918665313,-0.997720049116
1427160000000,,36335,,1427,152134641,"""map""",,,0.279563695192,0.0589641556144,0.00542905321345,,0.00746806964641,-0.00700469188272,0.066684448686,-0.997721650696
1427192000000,,36336,,1427,184134287,"""map""",,,0.276190757751,0.0565500557423,0.00486150663346,,0.00741900260641,-0.00699654457586,0.066685291623,-0.997721903577
1427228000000,,36337,,1427,224134287,"""map""",,,0.273773640394,0.0553809292614,0.00413107965142,,0.00739410382059,-0.00694419872508,0.0666918665313,-0.997722156458
1427260000000,,36338,,1427,256134287,"""map""",,,0.273155659437,0.0558400154114,0.00345957651734,,0.00767359227062,-0.00714022550792,0.0666417960753,-0.997721903577
1427292000000,,36339,,1427,288133934,"""map""",,,0.273554116488,0.0573437213898,0.00293269008398,,0.00773657480882,-0.00719664499155,0.0666388879428,-0.997721271374
1427328000000,,36340,,1427,320133934,"""map""",,,0.27484986186,0.0598198063672,0.0023072946351,,0.00765987808125,-0.00717922780641,0.0666380871526,-0.997721987871
1427360000000,,36341,,1427,352133934,"""map""",,,0.277034074068,0.0631740614772,0.00149106665049,,0.00760744978892,-0.00721676113905,0.0666597927796,-0.997720681318
1427392000000,,36342,,1427,384133580,"""map""",,,0.273848086596,0.0605736263096,0.000898967555258,,0.00759322650348,-0.00718881518547,0.0666801075606,-0.997719669794
1427428000000,,36343,,1427,424133580,"""map""",,,0.271594166756,0.0592359527946,-3.5422417568e-06,,0.0075225873564,-0.00709730750379,0.0667022768029,-0.997719332619
1427460000000,,36344,,1427,456133580,"""map""",,,0.271040827036,0.0595462024212,-0.000609427515883,,0.00744639939561,-0.0070952880359,0.0666981464118,-0.997720175556
1427492000000,,36345,,1427,488133226,"""map""",,,0.271499037743,0.0609664842486,-0.00127241422888,,0.00741237674316,-0.00707844207637,0.0666793910642,-0.997721819283
1427528000000,,36346,,1427,520133226,"""map""",,,0.272861778736,0.0634196996689,-0.00197656895034,,0.00735747265276,-0.00698510516385,0.066697514209,-0.997721734989
1427560000000,,36347,,1427,552133226,"""map""",,,0.275054097176,0.0668372437358,-0.00266015948728,,0.00734736722555,-0.00693001073351,0.066721453619,-0.997720554878
1427592000000,,36348,,1427,584132871,"""map""",,,0.271829873323,0.0643335208297,-0.00298161781393,,0.00780618401287,-0.00725688495941,0.0667048056138,-0.997715792284
1427628000000,,36349,,1427,624132871,"""map""",,,0.269468486309,0.0630045682192,-0.00319480779581,,0.00787786687068,-0.00726947209102,0.0667357414006,-0.997713179179
1427660000000,,36350,,1427,656132871,"""map""",,,0.268832504749,0.0633097961545,-0.00336076831445,,0.0078518250368,-0.0072806571608,0.0666914450628,-0.997716255899
1427692000000,,36351,,1427,688132517,"""map""",,,0.26923468709,0.0647392049432,-0.00351819070056,,0.00779188843159,-0.00723460366163,0.0667262162129,-0.997714780759
1427728000000,,36352,,1427,720132517,"""map""",,,0.270553559065,0.0671672821045,-0.00368102104403,,0.00776193290886,-0.0072159072332,0.0667281128211,-0.997714991494
1427760000000,,36353,,1427,752132517,"""map""",,,0.272719055414,0.0705119147897,-0.00396528467536,,0.00765213929836,-0.0072041730402,0.0667616617125,-0.997713558501
1427792000000,,36354,,1427,784132163,"""map""",,,0.269392728806,0.0678051188588,-0.00358400400728,,0.00756167139672,-0.00715169990511,0.0667759073473,-0.997713727088
1427828000000,,36355,,1427,824132163,"""map""",,,0.266956627369,0.0663825049996,-0.00320683792233,,0.00748322728303,-0.00708526027578,0.0668110999658,-0.997712420536
1427860000000,,36356,,1427,856132163,"""map""",,,0.266274213791,0.06663864851,-0.00306749367155,,0.00740038645867,-0.00703124238049,0.0667915859749,-0.997714822906
1427892000000,,36357,,1427,888131808,"""map""",,,0.266658395529,0.0680485665798,-0.00284520583227,,0.00747240311623,-0.00702912100283,0.0667814285844,-0.997714949347
1427928000000,,36358,,1427,920131808,"""map""",,,0.267961889505,0.0704409107566,-0.00253224605694,,0.00780996759803,-0.00727389820982,0.0668103834693,-0.997708585173
1427960000000,,36359,,1427,952131808,"""map""",,,0.270109593868,0.0737789869308,-0.00233206222765,,0.00770610646514,-0.00723544919162,0.0668061687845,-0.997709933872
1427992000000,,36360,,1427,984131454,"""map""",,,0.267018526793,0.0708850026131,-0.00181714538485,,0.00764557990695,-0.0071969807052,0.0668516030872,-0.997707657942
1428028000000,,36361,,1428,24131454,"""map""",,,0.264882683754,0.0691966116428,-0.00127012538724,,0.00756189421114,-0.0071208876983,0.0668730558331,-0.997707447208
1428060000000,,36362,,1428,56131454,"""map""",,,0.264424473047,0.0692469552159,-0.00106037035584,,0.00751440845999,-0.00731024632698,0.0668224796149,-0.997709807431
1428092000000,,36363,,1428,88131099,"""map""",,,0.264943569899,0.0704723969102,-0.000717427465133,,0.00781817478098,-0.00762510354589,0.0668019540996,-0.997706562124
1428128000000,,36364,,1428,120131099,"""map""",,,0.266304194927,0.0727257579565,-0.000422519806307,,0.00774350169894,-0.00756517408177,0.0668198243634,-0.997706393537
1428160000000,,36365,,1428,152131099,"""map""",,,0.268468141556,0.0759483724833,-0.000186276534805,,0.0076758364977,-0.00750415836906,0.0667879613459,-0.997709512403
1428192000000,,36366,,1428,184130744,"""map""",,,0.26522025466,0.0730810388923,0.000321151397657,,0.00763860859594,-0.00748749625665,0.0667888885766,-0.997709849578
1428228000000,,36367,,1428,224130744,"""map""",,,0.262850761414,0.0715101137757,0.000792084727436,,0.00797706275079,-0.00761655997017,0.066816874084,-0.997704286194
1428260000000,,36368,,1428,256130744,"""map""",,,0.262135177851,0.0716777592897,0.00110298837535,,0.00793877268877,-0.00751917800974,0.0668831710767,-0.997700956593
1428292000000,,36369,,1428,288130389,"""map""",,,0.262427031994,0.0730254426599,0.00132101180498,,0.00788679230961,-0.00746778929166,0.0669012099279,-0.997700535125
1428328000000,,36370,,1428,320130389,"""map""",,,0.263647288084,0.0754386112094,0.00133392028511,,0.00775677387119,-0.00739726248816,0.0669468549648,-0.997699059985
1428360000000,,36371,,1428,352130389,"""map""",,,0.265696108341,0.0788083001971,0.00136201304849,,0.00768893458782,-0.00740497270668,0.0669578974391,-0.997698807104
1428392000000,,36372,,1428,384130034,"""map""",,,0.262473016977,0.076013840735,0.0015704180114,,0.00761871213478,-0.00737388994097,0.06697741143,-0.997698174901
1428428000000,,36373,,1428,424130034,"""map""",,,0.26010748744,0.0744413435459,0.0019799573347,,0.0075501411776,-0.0073088527542,0.0670181674325,-0.99769644688
1428460000000,,36374,,1428,456130034,"""map""",,,0.259420365095,0.0745830312371,0.00216317013837,,0.00751604337904,-0.00721888340162,0.0670491032193,-0.997695351062
1428492000000,,36375,,1428,488129679,"""map""",,,0.259732097387,0.0758846774697,0.00232601934113,,0.00748051198055,-0.00716818366516,0.0670642760848,-0.997694929594
1428528000000,,36376,,1428,520129679,"""map""",,,0.260990440845,0.0782755315304,0.00233890954405,,0.0076538275801,-0.00722711959141,0.0670862345929,-0.997691599993
1428560000000,,36377,,1428,552129679,"""map""",,,0.263039648533,0.081631667912,0.00243939040229,,0.0079008282803,-0.0075754826391,0.067037512836,-0.997690419881
1428592000000,,36378,,1428,584129323,"""map""",,,0.260053426027,0.0788888558745,0.00264024711214,,0.00784190753144,-0.0075407254317,0.0670101595313,-0.997692990839
1428628000000,,36379,,1428,624129323,"""map""",,,0.257999897003,0.0774111077189,0.00281926989555,,0.00775607260361,-0.00748941319739,0.0670109603214,-0.99769404451
1428660000000,,36380,,1428,656129323,"""map""",,,0.257561743259,0.0776450783014,0.00298749213107,,0.00764310593015,-0.00738400914617,0.0670410953181,-0.997693665188
1428692000000,,36381,,1428,688128968,"""map""",,,0.258062005043,0.0790310278535,0.00323531730101,,0.00754777287662,-0.00735101031435,0.0670315701303,-0.997695266769
1428728000000,,36382,,1428,728128968,"""map""",,,0.259849697351,0.0822403281927,0.00348893273622,,0.00750080672737,-0.00730368869512,0.0670318230114,-0.997695856824
1428760000000,,36383,,1428,752128968,"""map""",,,0.261512339115,0.0848849639297,0.00362683087587,,0.00740552423771,-0.00722509699543,0.0669975997704,-0.997699481453
1428792000000,,36384,,1428,784128612,"""map""",,,0.258488327265,0.0820141732693,0.00389262381941,,0.00734438219764,-0.00718104445288,0.0670249530751,-0.997698512076
1428828000000,,36385,,1428,824128612,"""map""",,,0.256377309561,0.0804022401571,0.00415849126875,,0.00724668489215,-0.00713869173204,0.0670258803058,-0.997699355013
1428860000000,,36386,,1428,856128612,"""map""",,,0.25594368577,0.080566957593,0.00432992679998,,0.00760059722173,-0.00740257581047,0.0670545401628,-0.997692948692
1428892000000,,36387,,1428,888128257,"""map""",,,0.256412267685,0.0818350464106,0.00455873645842,,0.00757775863066,-0.0073087953888,0.0669914041837,-0.997698090607
1428928000000,,36388,,1428,920128257,"""map""",,,0.25775539875,0.0841563642025,0.00478379940614,,0.00756770301616,-0.00724172622178,0.0670128990764,-0.997697079083
1428960000000,,36389,,1428,952128257,"""map""",,,0.259873151779,0.0874283388257,0.00501258857548,,0.00752793576678,-0.00715760149288,0.0669629129141,-0.997701462355
1428992000000,,36390,,1428,984127901,"""map""",,,0.257124990225,0.0844154134393,0.00523979961872,,0.00745733277791,-0.00715727396988,0.0669552000408,-0.997702431733
1429028000000,,36391,,1429,24127901,"""map""",,,0.255277812481,0.0826044157147,0.0053138108924,,0.0073321597865,-0.00699170614647,0.0669841970726,-0.99770260032
1429060000000,,36392,,1429,56127901,"""map""",,,0.25495377183,0.082548879087,0.00532561866567,,0.0072847461151,-0.00699576256455,0.0669588246698,-0.997704707663
1429092000000,,36393,,1429,88127545,"""map""",,,0.255545020103,0.0836480483413,0.00534787680954,,0.00721484150239,-0.00694640608395,0.0669130531923,-0.997708585173
1429128000000,,36394,,1429,120127545,"""map""",,,0.256977409124,0.0858259648085,0.00542697915807,,0.00713531773585,-0.00692886170711,0.0669160034717,-0.997709090935
1429160000000,,36395,,1429,152127545,"""map""",,,0.259213626385,0.0889814943075,0.00547870853916,,0.00766148945734,-0.00728439678811,0.0669364446932,-0.997701293768
1429192000000,,36396,,1429,184127190,"""map""",,,0.256178289652,0.085797175765,0.00567748909816,,0.00762599814774,-0.00727202244869,0.0669496788037,-0.997700703712
1429228000000,,36397,,1429,224127190,"""map""",,,0.254018962383,0.0838038474321,0.00592161947861,,0.0075163654176,-0.00721389886795,0.0669187851637,-0.997704117607
1429260000000,,36398,,1429,256127190,"""map""",,,0.253463327885,0.08365329355,0.00627620890737,,0.00748349757439,-0.00714786386277,0.0669286053794,-0.997704159754
1429292000000,,36399,,1429,288138834,"""map""",,,0.253838121891,0.0846548601985,0.00656663253903,,0.00742657189641,-0.00712584717641,0.0669156241501,-0.997705508453
1429328000000,,36400,,1429,320138834,"""map""",,,0.255045711994,0.0867005735636,0.00683405855671,,0.00728144767145,-0.00702515780996,0.0669185322826,-0.997707236474
1429360000000,,36401,,1429,352138834,"""map""",,,0.2570297122,0.0896873474121,0.00702577875927,,0.00715545660313,-0.0069870027084,0.0669266244775,-0.997707742236
1429392000000,,36402,,1429,384138477,"""map""",,,0.253924131393,0.0864163935184,0.0072660674341,,0.00710549134958,-0.00692620340988,0.0669019685712,-0.9977102289
1429428000000,,36403,,1429,424138477,"""map""",,,0.251642346382,0.0843094885349,0.00749367754906,,0.00702112895813,-0.00683067251517,0.0669222412053,-0.997710102459
1429460000000,,36404,,1429,456138477,"""map""",,,0.251010984182,0.0840689912438,0.00764903612435,,0.00736800152409,-0.00698329015345,0.0669310077498,-0.997706056362
1429492000000,,36405,,1429,488138121,"""map""",,,0.251262277365,0.0849306434393,0.00788859464228,,0.00733301482422,-0.00693303353512,0.0669216090026,-0.997707194327
1429528000000,,36406,,1429,520138121,"""map""",,,0.252364635468,0.0868584364653,0.00819079391658,,0.00722802461678,-0.00685513671307,0.0669389735042,-0.997707362914
1429560000000,,36407,,1429,552138121,"""map""",,,0.254259318113,0.0897653996944,0.00846651569009,,0.00711540462585,-0.00680559670435,0.0669747561785,-0.997706140656
1429592000000,,36408,,1429,584137765,"""map""",,,0.251140356064,0.0864410400391,0.0086719756946,,0.00708719040799,-0.00678635357079,0.0669721009271,-0.997706604271
1429628000000,,36409,,1429,624137765,"""map""",,,0.248779192567,0.0842731446028,0.0089361872524,,0.00698940904032,-0.00676937038705,0.0669816682617,-0.997706730711
1429660000000,,36410,,1429,656137765,"""map""",,,0.247990712523,0.0839538797736,0.00919805373996,,0.00687751087592,-0.00670555965711,0.067012730489,-0.997705929921
1429692000000,,36411,,1429,688137408,"""map""",,,0.248118788004,0.0847800821066,0.00930640101433,,0.00685383302646,-0.00668507551185,0.0670263439211,-0.997705297719
1429728000000,,36412,,1429,720137408,"""map""",,,0.249088391662,0.0866769626737,0.00938852503896,,0.00675787434021,-0.00664072997359,0.067062548064,-0.997703906873
1429760000000,,36413,,1429,752137408,"""map""",,,0.25089776516,0.0896011665463,0.00946068391204,,0.00731621544643,-0.00708484507376,0.0670584176728,-0.997697079083
1429792000000,,36414,,1429,784137051,"""map""",,,0.247698798776,0.0862156897783,0.00961481872946,,0.00729987750255,-0.00704048892161,0.0670203590686,-0.997700155803
1429828000000,,36415,,1429,824137051,"""map""",,,0.245248422027,0.0839407071471,0.00976596679538,,0.00717236320019,-0.00692737896328,0.0670713146085,-0.997698427782
1429860000000,,36416,,1429,856137051,"""map""",,,0.24443988502,0.0835463926196,0.00986536499113,,0.00707910553939,-0.00685892970306,0.0671133350164,-0.997696784055
1429892000000,,36417,,1429,888136694,"""map""",,,0.244555264711,0.0842889249325,0.00992931891233,,0.00701254394555,-0.00682215907815,0.0671392131814,-0.997695688237
1429928000000,,36418,,1429,920136694,"""map""",,,0.245493814349,0.086083047092,0.0099366819486,,0.00694552617588,-0.00679523679084,0.0671353356714,-0.997696615468
1429960000000,,36419,,1429,952136694,"""map""",,,0.247187033296,0.0888347625732,0.00995337963104,,0.00681319043252,-0.00670515176081,0.0671205842744,-0.997699059985
1429992000000,,36420,,1429,984136337,"""map""",,,0.244012668729,0.0852436348796,0.00999737437814,,0.00679547063588,-0.00666290581164,0.0670961812491,-0.997701209474
1430028000000,,36421,,1430,24136337,"""map""",,,0.241610318422,0.0827086344361,0.0101157324389,,0.00667770381093,-0.0065964909086,0.0671376116012,-0.997699650041
1430060000000,,36422,,1430,56136337,"""map""",,,0.240865573287,0.0821339488029,0.0100919045508,,0.00702636262742,-0.00679889818512,0.0671142622471,-0.997697458405
1430092000000,,36423,,1430,88135980,"""map""",,,0.24106657505,0.0826731026173,0.0101636666805,,0.00717468310329,-0.00726646565527,0.067154091019,-0.997690419881
1430128000000,,36424,,1430,120135980,"""map""",,,0.242033705115,0.0842567160726,0.0103239528835,,0.00712849330085,-0.00723160706803,0.0671477268448,-0.997691473552
1430160000000,,36425,,1430,152135980,"""map""",,,0.243769958615,0.086825273931,0.0104926358908,,0.00702094861984,-0.00720855051931,0.0671357992867,-0.997693117279
1430192000000,,36426,,1430,184135622,"""map""",,,0.246214210987,0.0903083831072,0.0106245949864,,0.00701793505328,-0.00718698720482,0.0671347034686,-0.99769337016
1430228000000,,36427,,1430,224135622,"""map""",,,0.250224381685,0.0958156138659,0.0108303036541,,0.0069936213894,-0.00717351358484,0.0671405618806,-0.997693328014
1430260000000,,36428,,1430,256135622,"""map""",,,0.254107058048,0.101041562855,0.0110670560971,,0.0069180068974,-0.00713371156637,0.0671119863173,-0.997695941118
1430292000000,,36429,,1430,288135265,"""map""",,,0.252071529627,0.0986936315894,0.0114157535136,,0.00685685170703,-0.0071264400311,0.0671046527657,-0.997696952643
1430328000000,,36430,,1430,320135265,"""map""",,,0.251088410616,0.0976393297315,0.0118043674156,,0.00674646057028,-0.00710533168341,0.0670354476404,-0.997702516027
1430360000000,,36431,,1430,352135265,"""map""",,,0.251049727201,0.0977765619755,0.0121328057721,,0.00660314247566,-0.00706664388108,0.0670633488541,-0.997701841677
1430392000000,,36432,,1430,384134907,"""map""",,,0.251864790916,0.0990189984441,0.0124977882951,,0.00653946418519,-0.00703273114383,0.0670807976494,-0.997701335915
1430428000000,,36433,,1430,424134907,"""map""",,,0.253961414099,0.101950086653,0.0129661485553,,0.00645580923518,-0.00701202786274,0.0670672263642,-0.997703021789
1430460000000,,36434,,1430,456134907,"""map""",,,0.256435126066,0.105293393135,0.0133443791419,,0.00634398617572,-0.00699922137407,0.0670016880147,-0.997708121557
1430492000000,,36435,,1430,488134549,"""map""",,,0.253488957882,0.101769767702,0.0135790314525,,0.00630263962342,-0.00696769075694,0.0670177038172,-0.997707531502
1430528000000,,36436,,1430,520134549,"""map""",,,0.251644015312,0.0996088832617,0.0138142602518,,0.00619586488384,-0.00692728870152,0.0670209069777,-0.997708290145
1430560000000,,36437,,1430,552134549,"""map""",,,0.25078189373,0.0987113490701,0.0139851700515,,0.00605609786701,-0.0068304090665,0.0670019408958,-0.99771115613
1430592000000,,36438,,1430,584134191,"""map""",,,0.250812083483,0.0989854410291,0.0140578318387,,0.00616858424543,-0.00682683673008,0.0669980212389,-0.997710692515
1430628000000,,36439,,1430,624134191,"""map""",,,0.251970231533,0.100778289139,0.0143633680418,,0.00632591328604,-0.00682087941298,0.0669715951649,-0.997711493305
1430660000000,,36440,,1430,656134191,"""map""",,,0.253738373518,0.103230625391,0.0145544167608,,0.00623683380202,-0.00678837314158,0.0669595833131,-0.997713052739
1430692000000,,36441,,1430,688133833,"""map""",,,0.250123471022,0.0991934463382,0.0144178541377,,0.00614355039624,-0.00677215244948,0.0669716373118,-0.997712968445
1430728000000,,36442,,1430,720133833,"""map""",,,0.247663140297,0.0965233519673,0.0143417268991,,0.00602809147139,-0.0067001132162,0.0669630393547,-0.997714822906
1430760000000,,36443,,1430,752133833,"""map""",,,0.246239632368,0.0951061025262,0.0143533796072,,0.0059110253275,-0.006684605131,0.0669166778213,-0.997718700416
1430792000000,,36444,,1430,784133475,"""map""",,,0.245751321316,0.0948365330696,0.0143869696185,,0.00586427850445,-0.00666442144154,0.0669143175978,-0.997719290472
1430828000000,,36445,,1430,824133475,"""map""",,,0.246329396963,0.0959441810846,0.0144872190431,,0.00573096855767,-0.00661928821716,0.0668972059773,-0.997721482108
1430860000000,,36446,,1430,856133475,"""map""",,,0.247647881508,0.0979093387723,0.0145804407075,,0.00566386093784,-0.00660165828098,0.06687002126,-0.997723800185
1430892000000,,36447,,1430,888133117,"""map""",,,0.244091466069,0.0936440974474,0.0145196625963,,0.00560527644797,-0.00655892833246,0.0668505072691,-0.997725696793
1430928000000,,36448,,1430,920133117,"""map""",,,0.241662085056,0.0907669737935,0.0145798996091,,0.00548188348179,-0.00648470394561,0.0668834661047,-0.997724685269
1430960000000,,36449,,1430,952133117,"""map""",,,0.24021884799,0.0891370400786,0.0148099251091,,0.00540576429774,-0.00639443790844,0.0668654694004,-0.997726834758
1430992000000,,36450,,1430,984132758,"""map""",,,0.239698141813,0.0886686518788,0.01510612946,,0.00534236897562,-0.00637490930612,0.0669044130884,-0.997724727416
1431028000000,,36451,,1431,24132758,"""map""",,,0.240245789289,0.0895243957639,0.0155857540667,,0.0052296485052,-0.0063003713286,0.0668843511885,-0.997727256227
1431060000000,,36452,,1431,56132758,"""map""",,,0.241524428129,0.0912501290441,0.0160516276956,,0.00520516472589,-0.00624795159736,0.0669235477576,-0.997725064591
1431092000000,,36453,,1431,88132399,"""map""",,,0.238197684288,0.0871258303523,0.0158960837871,,0.00547999708104,-0.00636164733103,0.0669179000799,-0.997723125835
1431128000000,,36454,,1431,120132399,"""map""",,,0.235957711935,0.0843340232968,0.0158979147673,,0.00534793305932,-0.00631988721278,0.0668865428246,-0.997726328996
1431160000000,,36455,,1431,152132399,"""map""",,,0.234678402543,0.0827513635159,0.0158583875746,,0.00526845402236,-0.0062320142852,0.0668247133978,-0.997731344471
1431192000000,,36456,,1431,184132041,"""map""",,,0.234278172255,0.0823000818491,0.0158859491348,,0.00519962628426,-0.00622012027168,0.0668256406285,-0.997731765939
1431228000000,,36457,,1431,224132041,"""map""",,,0.234864339232,0.0831624045968,0.0160798598081,,0.00513142329911,-0.00623125510686,0.0668274107961,-0.997731850233
1431260000000,,36458,,1431,256132041,"""map""",,,0.236137792468,0.0848926976323,0.0163974612951,,0.00508539692375,-0.00619590908864,0.0667456880569,-0.997737792939
1431292000000,,36459,,1431,288131682,"""map""",,,0.232716947794,0.0804150849581,0.0162997953594,,0.00503788437806,-0.00620554083713,0.0667890150172,-0.99773509554
1431328000000,,36460,,1431,320131682,"""map""",,,0.230326667428,0.0773163586855,0.0162522476166,,0.00498680832457,-0.00616384904288,0.0668114792874,-0.997734210457
1431360000000,,36461,,1431,352131682,"""map""",,,0.228912457824,0.075463861227,0.0162779390812,,0.00494470650404,-0.00611411551468,0.0668219738527,-0.997733999722
1431392000000,,36462,,1431,384131323,"""map""",,,0.228361442685,0.0747253671288,0.0163536705077,,0.00487605636717,-0.00607421644321,0.0667850110665,-0.997736992149
1431428000000,,36463,,1431,424131323,"""map""",,,0.228840425611,0.0752553492785,0.0164078269154,,0.0050390942478,-0.00621008928057,0.0667828615773,-0.997735517009
1431460000000,,36464,,1431,456131323,"""map""",,,0.230005711317,0.0766902193427,0.0165382307023,,0.00514923606372,-0.00645755557174,0.0667836623674,-0.997733283226
1431492000000,,36465,,1431,488130964,"""map""",,,0.226651653647,0.0723069086671,0.0165414642543,,0.00508265091663,-0.00637037716166,0.0667797848573,-0.997734547631
1431528000000,,36466,,1431,520130964,"""map""",,,0.224342122674,0.069264575839,0.0166232213378,,0.00496624556042,-0.00632602258385,0.0667960535409,-0.99773429475
1431560000000,,36467,,1431,552130964,"""map""",,,0.222964420915,0.0674625560641,0.0167041569948,,0.00486658694989,-0.00627319653064,0.0667969386247,-0.99773509554
1431592000000,,36468,,1431,584130605,"""map""",,,0.222423478961,0.0667553395033,0.0168367028236,,0.00480238272931,-0.00624200070107,0.0667911645064,-0.997735896331
1431628000000,,36469,,1431,624130605,"""map""",,,0.222826525569,0.0672782063484,0.0169997494668,,0.00467008846397,-0.0061933532774,0.06679044801,-0.997736865708
1431660000000,,36470,,1431,656130605,"""map""",,,0.223959386349,0.0687044784427,0.0171600840986,,0.00461707777134,-0.00613271170029,0.0667578684961,-0.997739689547
1431692000000,,36471,,1431,688130245,"""map""",,,0.220534384251,0.0643301904202,0.0173201281577,,0.00453230901678,-0.0060931301296,0.0667341819672,-0.997741881183
1431728000000,,36472,,1431,720130245,"""map""",,,0.218128412962,0.0612710639834,0.0175030250102,,0.00441279578324,-0.00605715244372,0.0667777618086,-0.997739689547
1431760000000,,36473,,1431,752130245,"""map""",,,0.216701701283,0.0594631023705,0.0176760330796,,0.00493348708705,-0.00637164638272,0.0667383545052,-0.997737961526
1431792000000,,36474,,1431,784129886,"""map""",,,0.216088086367,0.0586943626404,0.0179610028863,,0.00489043515143,-0.00631582312882,0.0667561826222,-0.997737329323
1431828000000,,36475,,1431,824129886,"""map""",,,0.216396138072,0.0591122955084,0.0181597899646,,0.00481589244062,-0.00624411100695,0.0667776775149,-0.997736739268
1431860000000,,36476,,1431,856129886,"""map""",,,0.21742887795,0.0604448541999,0.0183500684798,,0.0047565035798,-0.00615164016277,0.0667875398775,-0.997736992149
1431892000000,,36477,,1431,888141526,"""map""",,,0.2143638134,0.056432697922,0.0183166246861,,0.0047131135639,-0.00612033015804,0.0667445922388,-0.997740237456
1431928000000,,36478,,1431,920141526,"""map""",,,0.21227607131,0.053694922477,0.0183078609407,,0.00464692267917,-0.00603162874031,0.0667772981933,-0.997738888757
1431960000000,,36479,,1431,952141526,"""map""",,,0.211086109281,0.0521305315197,0.0184634141624,,0.00456753801987,-0.00595806775473,0.0667825665493,-0.997739352372
1431992000000,,36480,,1431,984141167,"""map""",,,0.210701838136,0.0515829175711,0.0187188312411,,0.00449472670489,-0.00591849383961,0.0667797848573,-0.997740026722
1432028000000,,36481,,1432,24141167,"""map""",,,0.211228132248,0.052219543606,0.0189273096621,,0.00438611312382,-0.00587913576245,0.066809919854,-0.997738804463
1432060000000,,36482,,1432,56141167,"""map""",,,0.212437227368,0.0537282824516,0.0188804231584,,0.00478282947274,-0.00622017102076,0.0667170281999,-0.997741080393
1432092000000,,36483,,1432,88140807,"""map""",,,0.209375783801,0.0497976951301,0.0193799715489,,0.00480952777259,-0.00621081680762,0.0667005066353,-0.997742091917
1432128000000,,36484,,1432,120140807,"""map""",,,0.207264125347,0.0471412055194,0.0197149850428,,0.00476251428016,-0.00615048425252,0.0666119139597,-0.997748666826
1432160000000,,36485,,1432,152140807,"""map""",,,0.206013128161,0.0456388220191,0.0200721807778,,0.00467330775879,-0.00607199834183,0.066622113497,-0.997748919707
1432192000000,,36486,,1432,184140447,"""map""",,,0.20560875535,0.0451493524015,0.0205470528454,,0.00460936950788,-0.00609087502625,0.0666191210708,-0.997749214735
1432228000000,,36487,,1432,224140447,"""map""",,,0.206141099334,0.0458644591272,0.021278379485,,0.00455495545691,-0.00608010700036,0.0666367806003,-0.997748413945
1432256000000,,36488,,1432,256140447,"""map""",,,0.207297608256,0.0473720580339,0.0217917505652,,0.00449549440315,-0.00598839257687,0.0666715096035,-0.997746980952
1432292000000,,36489,,1432,288140087,"""map""",,,0.204299390316,0.0435772798955,0.0219257194549,,0.00443657335588,-0.00595952108014,0.0666670841844,-0.997747697448
1432328000000,,36490,,1432,320140087,"""map""",,,0.202283605933,0.0409759692848,0.021995080635,,0.00436086008221,-0.00589174935932,0.0666945639296,-0.99774660163
1432360000000,,36491,,1432,352140087,"""map""",,,0.201158359647,0.0394681915641,0.0219610743225,,0.00446067468547,-0.00586088897586,0.066698905055,-0.997745969427
1432392000000,,36492,,1432,384139726,"""map""",,,0.200829848647,0.0389933176339,0.0220498256385,,0.00446537965671,-0.00589827751103,0.0666889162519,-0.997746433043
1432428000000,,36493,,1432,424139726,"""map""",,,0.201391875744,0.0396347343922,0.0222870167345,,0.00440460340725,-0.00585922894979,0.0666620687094,-0.997748751119
1432460000000,,36494,,1432,456139726,"""map""",,,0.202530577779,0.0410857945681,0.0224728994071,,0.00434983588251,-0.0058043363016,0.0666036953243,-0.997753092245
1432492000000,,36495,,1432,488139366,"""map""",,,0.199445053935,0.0373492464423,0.02245833911,,0.00434198718443,-0.00578524526095,0.0665942122833,-0.997753893035
1432528000000,,36496,,1432,520139366,"""map""",,,0.197311282158,0.0348111130297,0.0225531738251,,0.00428539491518,-0.00590021815938,0.0665593568396,-0.997755873937
1432560000000,,36497,,1432,552139366,"""map""",,,0.1960362643,0.0333352163434,0.0226260591298,,0.0042449557549,-0.00583579464348,0.0665226047877,-0.997758824216
1432592000000,,36498,,1432,584139005,"""map""",,,0.195582002401,0.0328170284629,0.0227266252041,,0.00422053256168,-0.00582106736569,0.0665451533517,-0.997757517664
1432628000000,,36499,,1432,624139005,"""map""",,,0.196012094617,0.0334454141557,0.022884292528,,0.00423122180918,-0.00581951278906,0.0665464177571,-0.99775743337
1432660000000,,36500,,1432,656139005,"""map""",,,0.197037249804,0.0348450019956,0.023252768442,,0.00423571028391,-0.00580731078251,0.0666035688837,-0.997753640154
1432692000000,,36501,,1432,688138644,"""map""",,,0.194239512086,0.0312041696161,0.023333651945,,0.00419639772865,-0.00578897896136,0.0665969939753,-0.997754398797
1432728000000,,36502,,1432,720138644,"""map""",,,0.192365095019,0.0287395287305,0.0234705414623,,0.00409871697423,-0.00574925637982,0.066628519818,-0.997752881511
1432760000000,,36503,,1432,752138644,"""map""",,,0.191313922405,0.0273436494172,0.0236582364887,,0.00408172364479,-0.00569707224287,0.066595982451,-0.997755494615
1432792000000,,36504,,1432,784138283,"""map""",,,0.191052079201,0.0269617326558,0.0238708090037,,0.00400606824072,-0.00564767992305,0.0666095537362,-0.997755073147
1432828000000,,36505,,1432,824138283,"""map""",,,0.191716387868,0.0277604330331,0.0240453779697,,0.004002744155,-0.00554475377931,0.0665679126499,-0.997758529188
1432860000000,,36506,,1432,856138283,"""map""",,,0.192936122417,0.0293162129819,0.0240166094154,,0.00390109007229,-0.00548595941954,0.0665362603666,-0.997761353027
1432892000000,,36507,,1432,888137922,"""map""",,,0.190228238702,0.0256135705858,0.0242247581482,,0.00350089199856,-0.00540071404339,0.0665181793686,-0.997764514041
1432928000000,,36508,,1432,920137922,"""map""",,,0.188309118152,0.0229837819934,0.0252564046532,,0.000624216558415,-0.00523097905322,0.0662617579423,-0.997788369157
1432960000000,,36509,,1432,952137922,"""map""",,,0.187046453357,0.0212981346995,0.0274140592664,,-0.00451776897143,-0.00380867944378,0.0657645937172,-0.997817787657
1432992000000,,36510,,1432,984137560,"""map""",,,0.186347439885,0.0204374529421,0.0307299625129,,-0.00701078547737,-0.00264613028548,0.0655479589159,-0.997821327993
1433028000000,,36511,,1433,24137560,"""map""",,,0.186219200492,0.0203653723001,0.0358895100653,,-0.0147454285899,0.00232463642994,0.0650134947299,-0.99777281697
1433060000000,,36512,,1433,56137560,"""map""",,,0.186658918858,0.0210377108306,0.0406612232327,,-0.0215029803257,0.00780156539328,0.0647016501978,-0.997642456767
1433092000000,,36513,,1433,88137199,"""map""",,,0.18314345181,0.0167736969888,0.0451096668839,,-0.025354786738,0.0113939118549,0.0645381625724,-0.997528028074
1433128000000,,36514,,1433,120137199,"""map""",,,0.180349320173,0.0134187107906,0.0503388009965,,-0.0339457744577,0.0211121130867,0.0644693789157,-0.997118697881
1433160000000,,36515,,1433,152137199,"""map""",,,0.178201183677,0.0107783908024,0.0563634224236,,-0.0431253811124,0.031323681376,0.0646359011141,-0.996484429958
1433192000000,,36516,,1433,184136837,"""map""",,,0.176606059074,0.0087276417762,0.0631713122129,,-0.0482949041336,0.0367348770607,0.0647472952347,-0.996055248599
1433228000000,,36517,,1433,224136837,"""map""",,,0.175199151039,0.00688825501129,0.0726108700037,,-0.0581969627603,0.0472813735135,0.0650748605414,-0.995059234275
1433260000000,,36518,,1433,256136837,"""map""",,,0.174166381359,0.00564177986234,0.0808298662305,,-0.0708816307412,0.0616637382844,0.0655997573927,-0.993413315547
1433292000000,,36519,,1433,288136475,"""map""",,,0.168442443013,-0.00177549675573,0.088721178472,,-0.0754613557034,0.0671696593404,0.0656808900761,-0.992713382834
1433328000000,,36520,,1433,320136475,"""map""",,,0.161938756704,-0.00958338193595,0.0972778499126,,-0.0855881963148,0.080097492576,0.0652590001225,-0.990959315293
1433360000000,,36521,,1433,352136475,"""map""",,,0.154392302036,-0.0180377550423,0.107100628316,,-0.0904144472489,0.0869033292889,0.0644952570806,-0.990006838663
1433392000000,,36522,,1433,384136113,"""map""",,,0.145614624023,-0.0272596497089,0.118474148214,,-0.0922487260052,0.0894469069077,0.063932596653,-0.989647494633
1433428000000,,36523,,1433,424136113,"""map""",,,0.132851690054,-0.0400375984609,0.134949371219,,-0.0948510790506,0.0922942467419,0.0626738810222,-0.989220420617
1433460000000,,36524,,1433,456136113,"""map""",,,0.12120795995,-0.0512907132506,0.149804607034,,-0.0964320964064,0.0935940929224,0.0614455954161,-0.989022541163
1433492000000,,36525,,1433,488135751,"""map""",,,0.104864887893,-0.0679824128747,0.165808811784,,-0.0970578737153,0.0940351787898,0.0607615099179,-0.988961723261
1433528000000,,36526,,1433,520135751,"""map""",,,0.0876347199082,-0.0851795598865,0.183149442077,,-0.0978416766814,0.09443024425,0.0598456588998,-0.988902633379
1433560000000,,36527,,1433,552135751,"""map""",,,0.069537460804,-0.102938942611,0.201785758138,,-0.0983770471893,0.0942998628095,0.0588210690125,-0.988923453922
1433592000000,,36528,,1433,584135389,"""map""",,,0.0505879484117,-0.121275298297,0.221799880266,,-0.0984840063419,0.0941664775828,0.058483725637,-0.988945538871
1433628000000,,36529,,1433,624135389,"""map""",,,0.0256556794047,-0.1450111866,0.248727202415,,-0.0987034330427,0.0937344832516,0.0578695617605,-0.989000835536
1433660000000,,36530,,1433,656135389,"""map""",,,0.0047640488483,-0.164703473449,0.271823555231,,-0.0989625767274,0.0933616062962,0.0573878654289,-0.989038304084
1433692000000,,36531,,1433,688135026,"""map""",,,-0.0205223094672,-0.189248666167,0.295463144779,,-0.0991708964165,0.0932918443715,0.0572053695748,-0.989034595162
1433728000000,,36532,,1433,720135026,"""map""",,,-0.0463361032307,-0.214114323258,0.320437014103,,-0.0995516780463,0.093279489418,0.0570346748383,-0.989007284004
1433760000000,,36533,,1433,752135026,"""map""",,,-0.0726696178317,-0.239342138171,0.346836924553,,-0.0996002305572,0.0927317917802,0.0570871055179,-0.989050948139
1433792000000,,36534,,1433,784134664,"""map""",,,-0.0995012968779,-0.264896064997,0.374673485756,,-0.0992982437778,0.0922220091838,0.0571197271786,-0.989127065347
1433828000000,,36535,,1433,824134664,"""map""",,,-0.13369217515,-0.297321766615,0.411419421434,,-0.0983480236511,0.0911372951707,0.057160525328,-0.989320182207
1433860000000,,36536,,1433,856134664,"""map""",,,-0.16159157455,-0.323690652847,0.442504167557,,-0.0978200869583,0.0904461764172,0.0572753333433,-0.989429258251
1433892000000,,36537,,1433,888134301,"""map""",,,-0.193838760257,-0.354618370533,0.474513232708,,-0.0975544564455,0.090122256813,0.0572975868793,-0.989483796273
1433928000000,,36538,,1433,920134301,"""map""",,,-0.22615480423,-0.385530441999,0.508051633835,,-0.096786023579,0.0892942724251,0.0573798996745,-0.989629497929
1433960000000,,36539,,1433,952134301,"""map""",,,-0.258547365665,-0.416445583105,0.543054521084,,-0.0957938663501,0.0883364635607,0.0574942019277,-0.989805334581
1433992000000,,36540,,1433,984133938,"""map""",,,-0.291001886129,-0.447412222624,0.579282462597,,-0.0951664723145,0.0878646888606,0.0574949184241,-0.989907793569
1434028000000,,36541,,1434,24133938,"""map""",,,-0.331678807735,-0.486167341471,0.626774668694,,-0.0942296937397,0.0872073050374,0.0575364330699,-0.99005315805
1434060000000,,36542,,1434,56133938,"""map""",,,-0.364284306765,-0.517237961292,0.666523993015,,-0.0934943556981,0.0865258346194,0.0576358574855,-0.99017685905
1434092000000,,36543,,1434,88133576,"""map""",,,-0.401492506266,-0.552881240845,0.707445085049,,-0.0930511200121,0.0861904072792,0.0576295354582,-0.990248255812
1434128000000,,36544,,1434,120133576,"""map""",,,-0.438421964645,-0.588169813156,0.749756038189,,-0.0920099127419,0.0856955305085,0.0576444132957,-0.99038763544
1434160000000,,36545,,1434,152133576,"""map""",,,-0.475103795528,-0.623199403286,0.793408930302,,-0.0912805391379,0.0852889938616,0.0576433174777,-0.990490305163
1434192000000,,36546,,1434,184133213,"""map""",,,-0.511544287205,-0.657977640629,0.838472723961,,-0.0908941091719,0.0850058052351,0.0576731995933,-0.990548425667
1434228000000,,36547,,1434,224133213,"""map""",,,-0.556805491447,-0.701128363609,0.896947026253,,-0.0899795959869,0.0844059821531,0.0577063691631,-0.990681230386
1434260000000,,36548,,1434,256133213,"""map""",,,-0.592779397964,-0.735441803932,0.945253014565,,-0.0892684342667,0.0840480995976,0.0576846213892,-0.990777325201
1434292000000,,36549,,1434,288132849,"""map""",,,-0.633177340031,-0.773855924606,0.99446618557,,-0.0889434465033,0.0838963011373,0.0576649809578,-0.990820567867
1434328000000,,36550,,1434,320132849,"""map""",,,-0.673034846783,-0.811753511429,1.04519355297,,-0.08813366906,0.0834962743674,0.057748684599,-0.990921720304
1434360000000,,36551,,1434,352132849,"""map""",,,-0.712427139282,-0.849204480648,1.09732985497,,-0.0873009778899,0.0832056993412,0.057835212079,-0.991014906986
1434392000000,,36552,,1434,384132486,"""map""",,,-0.751403510571,-0.886251986027,1.15089476109,,-0.0868636192197,0.0830543508314,0.0578286371706,-0.991066410435
1434428000000,,36553,,1434,424132486,"""map""",,,-0.799600541592,-0.9320089221,1.21981215477,,-0.0863628237803,0.0828069870262,0.0578059200192,-0.991132201665
1434460000000,,36554,,1434,456132486,"""map""",,,-0.837774515152,-0.968201518059,1.27639842033,,-0.0855552689247,0.0824178769486,0.05784241919,-0.991232511165
1434492000000,,36555,,1434,488144123,"""map""",,,-0.880614638329,-1.00808191299,1.33440244198,,-0.0849377662276,0.0821111835517,0.0578469289028,-0.991310777862
1434528000000,,36556,,1434,520144123,"""map""",,,-0.922717571259,-1.04729628563,1.39373242855,,-0.0828436528087,0.0805253713333,0.0579410849624,-0.991612549298
1434560000000,,36557,,1434,552144123,"""map""",,,-0.96414732933,-1.08586549759,1.45427393913,,-0.0794243327428,0.0775656921202,0.0580645752285,-0.992120924585
1434592000000,,36558,,1434,584143759,"""map""",,,-1.00486433506,-1.12378537655,1.51610255241,,-0.0773178157204,0.0755631232204,0.0581152778873,-0.992438838263
1434628000000,,36559,,1434,624143759,"""map""",,,-1.05471479893,-1.17022109032,1.59519231319,,-0.0718892493603,0.070153258701,0.0582557111865,-0.993235497993
1434660000000,,36560,,1434,656143759,"""map""",,,-1.09377014637,-1.20657360554,1.65985119343,,-0.0671029519098,0.0654413634445,0.058418903784,-0.993882283531
1434692000000,,36561,,1434,688143396,"""map""",,,-1.13669896126,-1.24610185623,1.72574722767,,-0.0640589327369,0.0624069114416,0.0585569347129,-0.994270076684
1434728000000,,36562,,1434,720143396,"""map""",,,-1.17834234238,-1.28451490402,1.79317009449,,-0.0593288498805,0.0575863709115,0.0588648174412,-0.994836066712
1434760000000,,36563,,1434,752143396,"""map""",,,-1.21870326996,-1.3218100071,1.86183094978,,-0.0554085376349,0.0536286890639,0.0591316491391,-0.995267524001
1434792000000,,36564,,1434,784143032,"""map""",,,-1.2577842474,-1.35797405243,1.93066084385,,-0.053186343977,0.051433555823,0.0594080481717,-0.995488120606
1434828000000,,36565,,1434,824143032,"""map""",,,-1.30482852459,-1.40161764622,2.01476860046,,-0.0507363345022,0.049048721181,0.0594784755555,-0.995732108712
1434860000000,,36566,,1434,856143032,"""map""",,,-1.34107756615,-1.43530678749,2.07923316956,,-0.0497876471378,0.0481478362454,0.0594259184355,-0.995827065562
1434892000000,,36567,,1434,888142668,"""map""",,,-1.38098883629,-1.47161078453,2.14073586464,,-0.0495537553422,0.0480622127824,0.0593128805877,-0.995849656272
1434928000000,,36568,,1434,920142668,"""map""",,,-1.41941511631,-1.50662779808,2.19938635826,,-0.0488894500104,0.0480453407486,0.0591386876628,-0.995893615435
1434960000000,,36569,,1434,952142668,"""map""",,,-1.45645999908,-1.54044401646,2.25565648079,,-0.0475626277271,0.0473343418329,0.0590009939088,-0.996000120521
1434992000000,,36570,,1434,984142303,"""map""",,,-1.49225473404,-1.57315766811,2.30984997749,,-0.0461934954204,0.0464017715221,0.0589513027744,-0.996111346055
1435028000000,,36571,,1435,24142303,"""map""",,,-1.53532791138,-1.61260819435,2.37508416176,,-0.0435351591154,0.0439703279605,0.0589381529576,-0.996342142197
1435060000000,,36572,,1435,56142303,"""map""",,,-1.56851768494,-1.64304566383,2.42539930344,,-0.0404355228542,0.0410966547012,0.0589081444015,-0.996597214924
1435092000000,,36573,,1435,88141939,"""map""",,,-1.60467934608,-1.67563271523,2.47390317917,,-0.0391639935525,0.0398366862307,0.0588616142807,-0.996701823402
1435128000000,,36574,,1435,120141939,"""map""",,,-1.6393699646,-1.70696878433,2.52092480659,,-0.0360893408647,0.036580703148,0.0587984783017,-0.996946443711
1435160000000,,36575,,1435,152141939,"""map""",,,-1.6727039814,-1.73714232445,2.56643366814,,-0.0330981726771,0.033375388984,0.0587601246695,-0.997164932974
1435192000000,,36576,,1435,184141574,"""map""",,,-1.7047162056,-1.76619338989,2.61061286926,,-0.0318608062258,0.0320395217463,0.0587135102551,-0.997251755482
1435228000000,,36577,,1435,224141574,"""map""",,,-1.74292910099,-1.8009595871,2.66404604912,,-0.029689674756,0.0297959183486,0.058726617925,-0.997387594774
1435260000000,,36578,,1435,256141574,"""map""",,,-1.77210140228,-1.82761359215,2.70533275604,,-0.0273713626634,0.0274734672934,0.0587723894024,-0.997517828536
1435292000000,,36579,,1435,288141209,"""map""",,,-1.80012965202,-1.85325407982,2.74540758133,,-0.0264654939761,0.0265864722654,0.0587919455402,-0.997565201594
1435328000000,,36580,,1435,320141209,"""map""",,,-1.82705891132,-1.87789750099,2.78427433968,,-0.0250307611801,0.0251984725659,0.0588837835231,-0.997632847286
1435360000000,,36581,,1435,352141209,"""map""",,,-1.85293626785,-1.90159642696,2.82196545601,,-0.0237988575819,0.0239994723826,0.059063539832,-0.997681948364
1435392000000,,36582,,1435,384140844,"""map""",,,-1.88214159012,-1.92728769779,2.86044478416,,-0.0232864461993,0.0233837812179,0.0591173192107,-0.997705466306
1435428000000,,36583,,1435,424140844,"""map""",,,-1.91674673557,-1.95783901215,2.90667891502,,-0.0226534588853,0.0225914358722,0.059261334992,-0.997729700744
1435460000000,,36584,,1435,456140844,"""map""",,,-1.94301271439,-1.98112118244,2.94225263596,,-0.0220197011823,0.0219052464761,0.0594640613334,-0.997747149539
1435492000000,,36585,,1435,488140479,"""map""",,,-1.96811938286,-2.00345635414,2.97660160065,,-0.0216132694086,0.0214853734797,0.0595961074097,-0.99775730693
1435528000000,,36586,,1435,520140479,"""map""",,,-1.99221205711,-2.02490735054,3.00974464417,,-0.0208874441247,0.0206559616143,0.0598254284125,-0.997776568039
1435560000000,,36587,,1435,552140479,"""map""",,,-2.01531863213,-2.04551458359,3.04167604446,,-0.0201826161003,0.0198050282879,0.0601287592812,-0.997790097178
1435592000000,,36588,,1435,584140114,"""map""",,,-2.04155826569,-2.06820273399,3.07382774353,,-0.0197641134733,0.0191310951383,0.0602797292926,-0.997802488351
1435628000000,,36589,,1435,624140114,"""map""",,,-2.07257962227,-2.09514546394,3.11226129532,,-0.0190619476357,0.0180890584313,0.0605517450529,-0.99781909421
1435660000000,,36590,,1435,656140114,"""map""",,,-2.09606051445,-2.11561179161,3.14162969589,,-0.018169756393,0.0167994443038,0.0608532214603,-0.9978399569
1435692000000,,36591,,1435,688139748,"""map""",,,-2.11842489243,-2.13520956039,3.16985917091,,-0.0176954750256,0.0162348559048,0.0610088697718,-0.997848344122
1435728000000,,36592,,1435,720139748,"""map""",,,-2.13975024223,-2.15398073196,3.19692182541,,-0.0166836928411,0.0151154221082,0.0612669349253,-0.997867520938
1435760000000,,36593,,1435,752139748,"""map""",,,-2.16006326675,-2.17197012901,3.22282552719,,-0.015897334887,0.0141583466978,0.0614970567181,-0.997880249287
1435792000000,,36594,,1435,784151382,"""map""",,,-2.18367505074,-2.19180870056,3.24878907204,,-0.0154511397843,0.0136702067551,0.0615792852196,-0.997888973684
1435828000000,,36595,,1435,824151382,"""map""",,,-2.21145892143,-2.21529912949,3.27991938591,,-0.0146377545872,0.0128422356204,0.0617843296376,-0.997899552543
1435860000000,,36596,,1435,856151382,"""map""",,,-2.23238182068,-2.23311519623,3.303845644,,-0.0140367718907,0.0121266693075,0.061913298994,-0.997909162025
1435892000000,,36597,,1435,888151016,"""map""",,,-2.25227403641,-2.25011396408,3.32684588432,,-0.0136669385633,0.0115642564926,0.0619598712616,-0.99791805501
1435928000000,,36598,,1435,920151016,"""map""",,,-2.27115726471,-2.26637244225,3.3488547802,,-0.0129243720903,0.0105626177869,0.0620911165479,-0.997930951945
1435960000000,,36599,,1435,952151016,"""map""",,,-2.28907847404,-2.28189206123,3.36996340752,,-0.0121281381911,0.00961782727735,0.0622055873884,-0.997943343119
1435992000000,,36600,,1435,984150650,"""map""",,,-2.30925989151,-2.2986266613,3.39116311073,,-0.0117587199114,0.00910689667329,0.0622606311726,-0.997949159384
1436028000000,,36601,,1436,24150650,"""map""",,,-2.33285665512,-2.31839871407,3.4166457653,,-0.0110030771316,0.00824891838187,0.0622975518119,-0.997962899257
1436060000000,,36602,,1436,56150650,"""map""",,,-2.35052442551,-2.33335161209,3.4361011982,,-0.0105306992871,0.0076941880649,0.0623874931866,-0.99796686106
1436092000000,,36603,,1436,88150284,"""map""",,,-2.36723899841,-2.34757447243,3.45464777946,,-0.0102039556794,0.00732481061501,0.0624226015114,-0.997970780717
1436128000000,,36604,,1436,120150284,"""map""",,,-2.38307881355,-2.36114430428,3.47238707542,,-0.00970901354815,0.00680380691415,0.0624837144418,-0.997975585458
1436160000000,,36605,,1436,152150284,"""map""",,,-2.39809894562,-2.37406992912,3.48939990997,,-0.00914516708187,0.00612612839548,0.0625162518088,-0.997983256184
1436192000000,,36606,,1436,184149917,"""map""",,,-2.41536903381,-2.38820099831,3.50686764717,,-0.00892643761508,0.00575830280572,0.0625439001414,-0.997985700702
1436228000000,,36607,,1436,224149917,"""map""",,,-2.43554520607,-2.40484237671,3.52776360512,,-0.00851577041235,0.00510542589641,0.0625924954578,-0.997989788946
1436260000000,,36608,,1436,256149917,"""map""",,,-2.45065116882,-2.41739487648,3.54364991188,,-0.00810177196224,0.00430479695348,0.0625759738932,-0.997998049728
1436292000000,,36609,,1436,288149550,"""map""",,,-2.46489882469,-2.42932248116,3.55873250961,,-0.00793008512846,0.00398262413855,0.0625855833746,-0.998000157071
1436328000000,,36610,,1436,320149550,"""map""",,,-2.47835206985,-2.44065451622,3.57306885719,,-0.00747101737394,0.00323895978946,0.0625899245,-0.998006099776
1436360000000,,36611,,1436,352149550,"""map""",,,-2.49108886719,-2.45141172409,3.58679080009,,-0.00715858756038,0.00249810693151,0.062626929433,-0.998008207119
1436392000000,,36612,,1436,384149183,"""map""",,,-2.50590991974,-2.46351861954,3.59964537621,,-0.00698638854362,0.00214588127333,0.0626819732172,-0.99800685842
1436428000000,,36613,,1436,424149183,"""map""",,,-2.52314376831,-2.47775602341,3.61482810974,,-0.00673164854604,0.00158225920609,0.0627603242085,-0.99800470893
1436460000000,,36614,,1436,456149183,"""map""",,,-2.53599047661,-2.48849987984,3.62637758255,,-0.0064420656171,0.000998719460212,0.0628186554469,-0.998003697406
1436492000000,,36615,,1436,488148815,"""map""",,,-2.54806089401,-2.49868702888,3.63757753372,,-0.00623251165094,0.000626965652464,0.062857852016,-0.998002938763
1436528000000,,36616,,1436,520148815,"""map""",,,-2.5593893528,-2.50834798813,3.64827942848,,-0.00570666978821,9.59054830589e-05,0.0629747673738,-0.997998808372
1436560000000,,36617,,1436,552148815,"""map""",,,-2.56999588013,-2.5175716877,3.65841078758,,-0.00533124936928,-0.000452509309765,0.06305733305,-0.997995647358
1436592000000,,36618,,1436,584148447,"""map""",,,-2.58255696297,-2.52744531631,3.66811108589,,-0.00511423277676,-0.000758532802355,0.0631127983026,-0.997993034253
1436628000000,,36619,,1436,624148447,"""map""",,,-2.59714031219,-2.53914666176,3.67732024193,,0.00145380828881,-0.00563595346795,0.0628586528061,-0.99800550972
1436660000000,,36620,,1436,656148447,"""map""",,,-2.6079993248,-2.54793357849,3.68047404289,,0.0224397444125,-0.0209797861411,0.0618704356491,-0.99761139454
1436692000000,,36621,,1436,688148079,"""map""",,,-2.61793279648,-2.55599546432,3.68020391464,,0.0364392021012,-0.031547942452,0.0611640123212,-0.996963302451
1436728000000,,36622,,1436,720148079,"""map""",,,-2.62661194801,-2.56297039986,3.67785835266,,0.0528531335445,-0.0453685480134,0.0600779301819,-0.995760473541
