rosbagTimestamp,header,seq,stamp,secs,nsecs,frame_id,pose,position,x,y,z,orientation,x,y,z,w
1600860000000,,40789,,1600,856138704,"""map""",,,0.00560241518542,-0.494395047426,-0.0120637547225,,-0.0107765698426,0.00457001175999,0.0589674450173,-0.998191335176
1600892000000,,40790,,1600,888150264,"""map""",,,0.00538503238931,-0.496878445148,-0.0120466500521,,-0.0107389455485,0.00454871871115,0.0589796254566,-0.998191124441
1600924000000,,40791,,1600,920150264,"""map""",,,0.00513715017587,-0.500624060631,-0.0121225789189,,-0.0107809932861,0.00453854452777,0.0590038598945,-0.998189227833
1600960000000,,40792,,1600,952150264,"""map""",,,0.00485962070525,-0.505501389503,-0.0123176164925,,-0.0108117851809,0.00457488729426,0.0589590156476,-0.998191419469
1600992000000,,40793,,1600,984149823,"""map""",,,0.00473075639457,-0.502856135368,-0.0121167134494,,-0.0107646182476,0.00457899331927,0.058917753883,-0.998194327602
1601024000000,,40794,,1601,16149823,"""map""",,,0.0045408657752,-0.501892566681,-0.01198398415,,-0.0106850910957,0.00455137659678,0.0588378434582,-0.99819997528
1601060000000,,40795,,1601,56149823,"""map""",,,0.00430980836973,-0.502874553204,-0.0119180371985,,-0.0106861990969,0.00462689551751,0.058836789787,-0.998199680252
1601092000000,,40796,,1601,88149382,"""map""",,,0.00412048911676,-0.505199968815,-0.011937815696,,-0.0106851905359,0.00463205949426,0.0588671776647,-0.998197952231
1601124000000,,40797,,1601,120149382,"""map""",,,0.00392255932093,-0.50877648592,-0.0119653902948,,-0.0107094875356,0.00467245395584,0.0588267166902,-0.998199890986
1601160000000,,40798,,1601,152149382,"""map""",,,0.00365624157712,-0.513506174088,-0.012069796212,,-0.0107762520949,0.00463223005729,0.0587902596662,-0.998201450419
1601192000000,,40799,,1601,184148941,"""map""",,,0.00344039918855,-0.510614514351,-0.0111760366708,,-0.0107869280892,0.00458853332428,0.0587683854518,-0.998202841265
1601224000000,,40800,,1601,216148941,"""map""",,,0.00319367297925,-0.509435415268,-0.0104028796777,,-0.0108004052025,0.00461259588206,0.0587902175194,-0.998201323979
1601260000000,,40801,,1601,256148941,"""map""",,,0.00285054650158,-0.51014149189,-0.00960395112634,,-0.0107604302338,0.00458194590357,0.0587658144941,-0.998203304881
1601292000000,,40802,,1601,288148500,"""map""",,,0.00258750794455,-0.51229506731,-0.00903892051429,,-0.0107501766958,0.00460355670014,0.058793926442,-0.998201661153
1601324000000,,40803,,1601,320148500,"""map""",,,0.00232596881688,-0.515755653381,-0.00862802192569,,-0.0108347897869,0.00461076315269,0.0587700713258,-0.998202166916
1601360000000,,40804,,1601,352148500,"""map""",,,0.00202658865601,-0.520396530628,-0.00847469735891,,-0.0108390574846,0.00479715067552,0.0587801865694,-0.998200565335
1601392000000,,40805,,1601,384148059,"""map""",,,0.00225086836144,-0.517334938049,-0.00804509781301,,-0.0108258856066,0.00477609404414,0.0587564157469,-0.998202251209
1601424000000,,40806,,1601,416148059,"""map""",,,0.0024164239876,-0.516016662121,-0.00767533760518,,-0.0108189929505,0.00479049015636,0.0587621055714,-0.998201871888
1601460000000,,40807,,1601,456148059,"""map""",,,0.00252552586608,-0.516613900661,-0.00740565638989,,-0.0108651348593,0.00478392282126,0.0587974246305,-0.998199343077
1601492000000,,40808,,1601,488147618,"""map""",,,0.00255841040052,-0.518746078014,-0.00720298010856,,-0.0108556228424,0.00478488561333,0.0587844012543,-0.998200228161
1601524000000,,40809,,1601,520147618,"""map""",,,0.00257818284445,-0.522206425667,-0.00710970209911,,-0.0108695382172,0.00474199428025,0.0588219119494,-0.998198120818
1601560000000,,40810,,1601,552147618,"""map""",,,0.00257481890731,-0.526881814003,-0.00711556524038,,-0.010889532287,0.00474566171461,0.0587720522277,-0.99820077607
1601592000000,,40811,,1601,584147177,"""map""",,,0.00289084156975,-0.52364128828,-0.00670288037509,,-0.0109156718941,0.00477581976036,0.058727713743,-0.998202967706
1601624000000,,40812,,1601,616147177,"""map""",,,0.00314899231307,-0.522180020809,-0.0065130777657,,-0.0108703976177,0.00471064295186,0.0587203801914,-0.998204147818
1601660000000,,40813,,1601,656147177,"""map""",,,0.00336973741651,-0.522599935532,-0.00647971360013,,-0.0108697226096,0.00474992315613,0.0587439824265,-0.998202630531
1601692000000,,40814,,1601,688146736,"""map""",,,0.00347955641337,-0.524598360062,-0.00647807121277,,-0.0108563264972,0.00474709009765,0.0587263650439,-0.998203810643
1601724000000,,40815,,1601,720146736,"""map""",,,0.00355011015199,-0.527928471565,-0.00647306023166,,-0.0108888391689,0.00471805190684,0.0587018777249,-0.998205032901
1601760000000,,40816,,1601,752146736,"""map""",,,0.003569327062,-0.532503187656,-0.0066098337993,,-0.0109406139381,0.00467742893033,0.0586979159211,-0.998204864314
1601792000000,,40817,,1601,784146294,"""map""",,,0.00385701702908,-0.529222548008,-0.00660049822181,,-0.0109012645866,0.00472031466577,0.0587144374857,-0.998204189964
1601824000000,,40818,,1601,816146294,"""map""",,,0.00407955888659,-0.52773886919,-0.00666012661532,,-0.0109350792008,0.00470636570528,0.0587013298159,-0.99820465358
1601860000000,,40819,,1601,856146294,"""map""",,,0.00430547678843,-0.528159916401,-0.0067678084597,,-0.010912752237,0.00467382932604,0.0587165448282,-0.998204105671
1601892000000,,40820,,1601,888145853,"""map""",,,0.00441829673946,-0.530154883862,-0.00704194791615,,-0.0109165658683,0.00464264263378,0.0587227825617,-0.99820385279
1601924000000,,40821,,1601,920145853,"""map""",,,0.00449930969626,-0.533494651318,-0.0073177004233,,-0.0109420064304,0.00460737263629,0.0587299053791,-0.998203389174
1601960000000,,40822,,1601,952145853,"""map""",,,0.00455605611205,-0.538078904152,-0.00759461568668,,-0.0109386534511,0.00457150533894,0.0587788800171,-0.998200691776
1601992000000,,40823,,1601,984145412,"""map""",,,0.00501608476043,-0.534838974476,-0.00756391277537,,-0.0109479316847,0.00457267820671,0.0588212375999,-0.998198036524
1602024000000,,40824,,1602,16145412,"""map""",,,0.00539729371667,-0.533401012421,-0.00758811738342,,-0.0108788500365,0.00453655210136,0.0588208161314,-0.998198963755
1602060000000,,40825,,1602,56145412,"""map""",,,0.00577427726239,-0.533905029297,-0.00749041838571,,-0.0108432270592,0.00450998476955,0.0587409478535,-0.998204232111
1602092000000,,40826,,1602,88144971,"""map""",,,0.00604577083141,-0.535980284214,-0.00740278605372,,-0.0108727087797,0.00454296731269,0.0587370703434,-0.99820397923
1602124000000,,40827,,1602,120144971,"""map""",,,0.00629052054137,-0.539378762245,-0.00729225529358,,-0.0108269699002,0.00451345562838,0.0587340357703,-0.998204737873
1602160000000,,40828,,1602,152144971,"""map""",,,0.00647964514792,-0.544052004814,-0.00715651642531,,-0.0108789399278,0.00454664989357,0.0587413693219,-0.998203642055
1602192000000,,40829,,1602,184144530,"""map""",,,0.00679134624079,-0.540679812431,-0.00693305302411,,-0.0108639642964,0.00456877336705,0.0587126673181,-0.998205370076
1602224000000,,40830,,1602,216144530,"""map""",,,0.00702782114968,-0.539129316807,-0.00689360825345,,-0.0108793475669,0.00457342170346,0.0586653364072,-0.998207941034
1602260000000,,40831,,1602,256144530,"""map""",,,0.00727139320225,-0.539508223534,-0.0071544139646,,-0.0109159491414,0.00454546813545,0.0586805514195,-0.998206803069
1602292000000,,40832,,1602,288144089,"""map""",,,0.00746357487515,-0.541494369507,-0.00749345589429,,-0.0109100308019,0.00452966767707,0.0586693403578,-0.998207561712
1602324000000,,40833,,1602,320144089,"""map""",,,0.00763240689412,-0.544838190079,-0.00792987179011,,-0.0109266271113,0.00460367128689,0.058637308753,-0.998208994705
1602360000000,,40834,,1602,352144089,"""map""",,,0.0077373967506,-0.549456000328,-0.0083235418424,,-0.010936943211,0.00465854977637,0.0585957519603,-0.998211017754
1602392000000,,40835,,1602,384143649,"""map""",,,0.00797042250633,-0.545972764492,-0.00875904317945,,-0.0108909455235,0.00466969070308,0.0586005145542,-0.998211228488
1602424000000,,40836,,1602,416143649,"""map""",,,0.00817734282464,-0.544368267059,-0.00917665380985,,-0.0108587420385,0.00470179672348,0.0585830236121,-0.998212450747
1602460000000,,40837,,1602,456143649,"""map""",,,0.00839840061963,-0.544684410095,-0.00983755663037,,-0.0106143683546,0.00466189649956,0.0585320680722,-0.998218224865
1602492000000,,40838,,1602,488143208,"""map""",,,0.00851500499994,-0.546686291695,-0.010254105553,,-0.0106288359189,0.0046682889911,0.058536577785,-0.99821776125
1602524000000,,40839,,1602,520143208,"""map""",,,0.00858263205737,-0.550096392632,-0.0106928003952,,-0.0106328497477,0.00467369761714,0.058538811568,-0.998217550515
1602560000000,,40840,,1602,552143208,"""map""",,,0.0086154229939,-0.554791808128,-0.011134210974,,-0.0106917107851,0.00469011085119,0.0585276426531,-0.998217592662
1602592000000,,40841,,1602,584142767,"""map""",,,0.00847590621561,-0.551262497902,-0.0112904952839,,-0.010707614635,0.00470602523777,0.0585257881918,-0.998217424075
1602624000000,,40842,,1602,616142767,"""map""",,,0.0083168707788,-0.549629807472,-0.0113877933472,,-0.0107280723201,0.00469534562148,0.058467583394,-0.998220669382
1602660000000,,40843,,1602,656142767,"""map""",,,0.00810005608946,-0.550010979176,-0.0114257317036,,-0.0107335836791,0.00467991921638,0.0584668247507,-0.998220669382
1602692000000,,40844,,1602,688142326,"""map""",,,0.00790256727487,-0.552057802677,-0.0114907231182,,-0.0107035662326,0.0046630970262,0.0584835570496,-0.998220121473
1602724000000,,40845,,1602,720142326,"""map""",,,0.00768373114988,-0.555497825146,-0.0114073297009,,-0.0107059346879,0.00462761431884,0.0584273753005,-0.998223535368
1602760000000,,40846,,1602,752142326,"""map""",,,0.00747838383541,-0.56020128727,-0.0113206915557,,-0.0107404914817,0.00461773187068,0.0584176815254,-0.998223788249
1602792000000,,40847,,1602,784141885,"""map""",,,0.00764671666548,-0.556704699993,-0.0109805706888,,-0.0107136396587,0.00464402788215,0.0584013285482,-0.998224884067
1602824000000,,40848,,1602,816141885,"""map""",,,0.00774441333488,-0.555097222328,-0.0106470901519,,-0.0107507493003,0.00458613194173,0.0583506258894,-0.998227707906
1602860000000,,40849,,1602,856141885,"""map""",,,0.00779833225533,-0.555499494076,-0.0104148685932,,-0.0107921450788,0.00462775755227,0.0582762367018,-0.998231458975
1602892000000,,40850,,1602,888141444,"""map""",,,0.00781518500298,-0.557537615299,-0.0103854797781,,-0.010774193814,0.00464481978192,0.0582442050969,-0.998233482024
1602924000000,,40851,,1602,920141444,"""map""",,,0.00780228385702,-0.560970008373,-0.0103954812512,,-0.0107998727693,0.00462691165185,0.0581905521587,-0.998236390157
1602960000000,,40852,,1602,952141444,"""map""",,,0.00773868430406,-0.56571161747,-0.0106631275266,,-0.010830122682,0.00480504892907,0.058203280507,-0.998234451402
1602992000000,,40853,,1602,984141004,"""map""",,,0.00787813123316,-0.562060475349,-0.0108387516811,,-0.0108471839238,0.00484523101004,0.058203828416,-0.99823407208
1603024000000,,40854,,1603,16141004,"""map""",,,0.00800179783255,-0.56033295393,-0.011002345942,,-0.0108347051639,0.00480828337042,0.0582654049617,-0.998230742479
1603060000000,,40855,,1603,56141004,"""map""",,,0.00814263708889,-0.560583174229,-0.0112024126574,,-0.0107960788944,0.00483078715335,0.0582819686732,-0.998230110276
1603092000000,,40856,,1603,88140563,"""map""",,,0.00822733063251,-0.562530994415,-0.0113631803542,,-0.0107967990128,0.00481197023185,0.0582721906043,-0.998230784626
1603124000000,,40857,,1603,120140563,"""map""",,,0.00827857106924,-0.565884411335,-0.0115087106824,,-0.0108009679288,0.00479167092666,0.0582328254478,-0.998233144849
1603160000000,,40858,,1603,152140563,"""map""",,,0.00829671509564,-0.570556163788,-0.0115483095869,,-0.0108044802759,0.00476371077322,0.058176011496,-0.998236516597
1603192000000,,40859,,1603,184140122,"""map""",,,0.00844081863761,-0.567124903202,-0.0110756214708,,-0.0108054898247,0.00474844110171,0.0581693944408,-0.998236980213
1603224000000,,40860,,1603,216140122,"""map""",,,0.00854753516614,-0.565574765205,-0.0105917509645,,-0.0107429751823,0.00475473316521,0.0581189446631,-0.998240562695
1603260000000,,40861,,1603,256140122,"""map""",,,0.00860760267824,-0.566060423851,-0.01010963507,,-0.0106846630418,0.00477247896407,0.0581163737054,-0.998241279191
1603292000000,,40862,,1603,288139682,"""map""",,,0.00863489508629,-0.568240821362,-0.00978200882673,,-0.0106826643592,0.00478147534059,0.0581346232908,-0.998240141226
1603324000000,,40863,,1603,320139682,"""map""",,,0.00863544270396,-0.571821689606,-0.00959729775786,,-0.0106743061123,0.00480341936069,0.0581432212479,-0.998239635464
1603360000000,,40864,,1603,352139682,"""map""",,,0.00858021061867,-0.576679050922,-0.00948532763869,,-0.0107072557282,0.00482196397403,0.0581188603694,-0.998240646988
1603392000000,,40865,,1603,384139241,"""map""",,,0.00870903301984,-0.573069632053,-0.00938331987709,,-0.0106783515512,0.00481131596788,0.0580817711427,-0.998243175799
1603424000000,,40866,,1603,416139241,"""map""",,,0.0087866820395,-0.571388781071,-0.009287847206,,-0.010672241246,0.00480239828743,0.0580706865216,-0.998243892296
1603456000000,,40867,,1603,456139241,"""map""",,,0.00880824960768,-0.571737289429,-0.00939349550754,,-0.0106588270237,0.00477512631299,0.0580438811259,-0.998245746757
1603492000000,,40868,,1603,488150801,"""map""",,,0.00876675080508,-0.573772192001,-0.00957350153476,,-0.0106584239944,0.0047580739615,0.0580268116523,-0.998246800428
1603524000000,,40869,,1603,520150801,"""map""",,,0.00866540987045,-0.577229917049,-0.00982914026827,,-0.0106408727955,0.00471486652706,0.057970967078,-0.998250467204
1603560000000,,40870,,1603,552150801,"""map""",,,0.00851952191442,-0.582015872002,-0.0101126376539,,-0.0106042409279,0.00469566303993,0.0579402841723,-0.998252743134
1603592000000,,40871,,1603,584150361,"""map""",,,0.00833882484585,-0.588040053844,-0.010510888882,,-0.0106326278182,0.00471052276748,0.0578798455915,-0.998255862001
1603624000000,,40872,,1603,616150361,"""map""",,,0.00813700351864,-0.595242440701,-0.011026496999,,-0.0106004572605,0.00477243451231,0.0578749565571,-0.998256199175
1603660000000,,40873,,1603,656150361,"""map""",,,0.00787546299398,-0.60571539402,-0.0116890491918,,-0.0106982083145,0.00480813091737,0.0578391738827,-0.998257084259
1603692000000,,40874,,1603,688149920,"""map""",,,0.00797022227198,-0.604023694992,-0.011780812405,,-0.0106709962676,0.00481182502279,0.0578215143532,-0.998258306518
1603724000000,,40875,,1603,720149920,"""map""",,,0.00804628431797,-0.604165196419,-0.0118640568107,,-0.0106649975857,0.00478352802382,0.0578016631875,-0.998259697364
1603760000000,,40876,,1603,752149920,"""map""",,,0.00806980207562,-0.605950772762,-0.0120984958485,,-0.0106517720363,0.00501672060973,0.0577802104416,-0.998259908098
1603792000000,,40877,,1603,784149480,"""map""",,,0.00808980036527,-0.609267413616,-0.0122673921287,,-0.0106604885314,0.00500058363511,0.0577629302338,-0.998260919622
1603824000000,,40878,,1603,816149480,"""map""",,,0.00810203701258,-0.613957345486,-0.012371881865,,-0.0106353364118,0.00501947563068,0.0577254616854,-0.998263237699
1603860000000,,40879,,1603,856149480,"""map""",,,0.00808446109295,-0.621615588665,-0.0125427087769,,-0.0105930460006,0.00497836137996,0.0577670184781,-0.998261467532
1603892000000,,40880,,1603,888149039,"""map""",,,0.00830777082592,-0.617861032486,-0.0117235062644,,-0.0105669817968,0.00497540484439,0.0578079852148,-0.998259444483
1603924000000,,40881,,1603,920149039,"""map""",,,0.00849643349648,-0.616066038609,-0.0110416775569,,-0.0106071523532,0.0050416840564,0.0577942031954,-0.99825948663
1603960000000,,40882,,1603,952149039,"""map""",,,0.0086359558627,-0.616086363792,-0.0104413907975,,-0.0105903933833,0.00500238244943,0.0577441327393,-0.998262774084
1603992000000,,40883,,1603,984148599,"""map""",,,0.00874927081168,-0.617768585682,-0.00985566433519,,-0.0105610904576,0.00502760766754,0.057751466291,-0.998262521203
1604024000000,,40884,,1604,16148599,"""map""",,,0.00888037215918,-0.620976388454,-0.00938113965094,,-0.0104981686701,0.00497726243381,0.0577509183819,-0.99826349058
1604060000000,,40885,,1604,56148599,"""map""",,,0.009078130126,-0.626911401749,-0.00891557522118,,-0.0104763163524,0.00492202158021,0.0578013681596,-0.998261003916
1604092000000,,40886,,1604,88148158,"""map""",,,0.00973282661289,-0.622050583363,-0.00813421513885,,-0.0104381612714,0.00489462514086,0.0578064257814,-0.998261256797
1604124000000,,40887,,1604,120148158,"""map""",,,0.0103149730712,-0.619239985943,-0.00746450992301,,-0.0103626430092,0.00491893366502,0.0577960998035,-0.998262479056
1604160000000,,40888,,1604,152148158,"""map""",,,0.0108338529244,-0.618323624134,-0.00683316029608,,-0.0103981813636,0.00488917338015,0.0577904942727,-0.99826268979
1604192000000,,40889,,1604,184147717,"""map""",,,0.0112699037418,-0.619127929211,-0.00629868498072,,-0.0103603957261,0.00487957015487,0.057747293753,-0.998265597923
1604224000000,,40890,,1604,216147717,"""map""",,,0.0116592589766,-0.621485829353,-0.0059070456773,,-0.0103124247099,0.0048548404915,0.0576545706862,-0.998271582775
1604260000000,,40891,,1604,256147717,"""map""",,,0.0120791988447,-0.626422643661,-0.00540381437168,,-0.0103001739711,0.00486132633173,0.0576699121391,-0.998270739838
1604292000000,,40892,,1604,288147277,"""map""",,,0.0124781671911,-0.621088325977,-0.00506522925571,,-0.0102738428921,0.00486519314044,0.0576947366329,-0.998269601873
1604324000000,,40893,,1604,320147277,"""map""",,,0.0128348646685,-0.617877662182,-0.00480762124062,,-0.0102487103641,0.00485569544691,0.0575808137013,-0.99827647181
1604360000000,,40894,,1604,352147277,"""map""",,,0.0131393121555,-0.616600513458,-0.00462501915172,,-0.010186532732,0.00487314605319,0.0575965766227,-0.998276134635
1604392000000,,40895,,1604,384146836,"""map""",,,0.0133685069159,-0.617050766945,-0.00454842112958,,-0.0101825338851,0.00491392329376,0.0576022243004,-0.998275628873
1604424000000,,40896,,1604,416146836,"""map""",,,0.0135586792603,-0.619067490101,-0.00454260502011,,-0.0102213565655,0.00489698668147,0.0576266694725,-0.998273858705
1604460000000,,40897,,1604,456146836,"""map""",,,0.0137402238324,-0.623631179333,-0.00454284762964,,-0.0102286308482,0.0049171038991,0.0575932891685,-0.998275628873
1604492000000,,40898,,1604,488146396,"""map""",,,0.0138954361901,-0.618085563183,-0.00441497983411,,-0.0102121089543,0.00494074597621,0.0576088835024,-0.998274785936
1604524000000,,40899,,1604,520146396,"""map""",,,0.0140303745866,-0.614666640759,-0.00440566847101,,-0.0101522120264,0.00497296032718,0.0575828788969,-0.998276766838
1604560000000,,40900,,1604,552146396,"""map""",,,0.0140908202156,-0.613170981407,-0.00455312989652,,-0.0101548814365,0.0052144765864,0.0575742809398,-0.998276008194
1604592000000,,40901,,1604,584145955,"""map""",,,0.0140946824104,-0.613422036171,-0.00466394424438,,-0.010124430997,0.0051987143236,0.0575570428788,-0.99827739904
1604624000000,,40902,,1604,616145955,"""map""",,,0.0140749998391,-0.615259945393,-0.0047942106612,,-0.0101130714336,0.00517780388911,0.0575146431492,-0.998280012145
1604660000000,,40903,,1604,656145955,"""map""",,,0.0140469670296,-0.619617938995,-0.00495596136898,,-0.0100926142423,0.00517163085753,0.0574759944891,-0.998282498809
1604692000000,,40904,,1604,688145515,"""map""",,,0.0141485147178,-0.613820314407,-0.0047747194767,,-0.0100746116111,0.00518434932761,0.0574940754871,-0.998281613725
1604724000000,,40905,,1604,720145515,"""map""",,,0.0142037039623,-0.610146343708,-0.00475420802832,,-0.0100266988762,0.00513920313814,0.0574887649842,-0.998282625249
1604760000000,,40906,,1604,752145515,"""map""",,,0.0142401149496,-0.608408153057,-0.00484760291874,,-0.00996946065707,0.00508474430614,0.0574556797081,-0.998285364795
1604792000000,,40907,,1604,784157074,"""map""",,,0.0142717864364,-0.608452796936,-0.00492240814492,,-0.00995131956687,0.0050850717674,0.0574484304502,-0.99828595485
1604824000000,,40908,,1604,816157074,"""map""",,,0.0142858093604,-0.610093533993,-0.00499013112858,,-0.00991606553909,0.00501623493316,0.0574312766828,-0.998287682871
1604860000000,,40909,,1604,856157074,"""map""",,,0.0142901744694,-0.614189267159,-0.00503145623952,,-0.00994291225841,0.00498328350625,0.0575238311622,-0.998282203781
1604892000000,,40910,,1604,888156633,"""map""",,,0.014209263958,-0.608498811722,-0.00510203884915,,-0.00994147975947,0.00496514669659,0.0575317547697,-0.998281866606
1604924000000,,40911,,1604,920156633,"""map""",,,0.0140985753387,-0.604924976826,-0.0052507808432,,-0.0099173844391,0.00494839645239,0.0575245476586,-0.998282583103
1604960000000,,40912,,1604,952156633,"""map""",,,0.0139936590567,-0.60325473547,-0.00538615463302,,-0.00989088971182,0.00499109005748,0.0575088690309,-0.998283594627
1604992000000,,40913,,1604,984156193,"""map""",,,0.0139089878649,-0.6033167243,-0.00558212725446,,-0.0099174414032,0.00496211887358,0.0575009875703,-0.998283889655
1605024000000,,40914,,1605,16156193,"""map""",,,0.0138083174825,-0.604966700077,-0.00576002942398,,-0.00986878747641,0.00493817485381,0.0575005239549,-0.998284521858
1605060000000,,40915,,1605,56156193,"""map""",,,0.0136741893366,-0.609052240849,-0.00595565978438,,-0.00986850874744,0.00485937950952,0.0574972786476,-0.998285069767
1605092000000,,40916,,1605,88155752,"""map""",,,0.0133510604501,-0.603312313557,-0.00562649406493,,-0.00985115017276,0.00483822771847,0.0574876691661,-0.998285912704
1605124000000,,40917,,1605,120155752,"""map""",,,0.0130428792909,-0.599693357944,-0.00535505870357,,-0.00980335646973,0.00478320945292,0.0574225101383,-0.99829038027
1605160000000,,40918,,1605,152155752,"""map""",,,0.0127487210557,-0.597957193851,-0.00510978419334,,-0.00979103641907,0.0047929598629,0.0574137857407,-0.998291012472
1605192000000,,40919,,1605,184155311,"""map""",,,0.0124793555588,-0.597943842411,-0.00483661238104,,-0.00976938561592,0.00483843285509,0.0574352806334,-0.998289748067
1605224000000,,40920,,1605,216155311,"""map""",,,0.012205789797,-0.599497199059,-0.00464963819832,,-0.00976989269519,0.00484281744442,0.0574172417823,-0.998290759591
1605260000000,,40921,,1605,256155311,"""map""",,,0.0118527151644,-0.603477597237,-0.00460480246693,,-0.00977477860153,0.00488610538593,0.0574030382943,-0.9982913075
1605292000000,,40922,,1605,288154870,"""map""",,,0.0118092587218,-0.597919881344,-0.00411448255181,,-0.00981192331059,0.00492655170788,0.0573813326673,-0.998292023997
1605324000000,,40923,,1605,320154870,"""map""",,,0.0117628313601,-0.594455897808,-0.00363875972107,,-0.00971440192395,0.00491199013636,0.0573849572963,-0.99829278264
1605360000000,,40924,,1605,352154870,"""map""",,,0.0116922091693,-0.592867493629,-0.0031783785671,,-0.00966542004199,0.00516819753573,0.0573280590508,-0.998295227157
1605392000000,,40925,,1605,384154429,"""map""",,,0.0116436304525,-0.593012273312,-0.0026952540502,,-0.00961985847557,0.00513083517771,0.0573333695537,-0.998295564332
1605424000000,,40926,,1605,416154429,"""map""",,,0.0115849897265,-0.594740748405,-0.00222587864846,,-0.00962636769412,0.00510227525485,0.0573199247091,-0.998296449416
1605460000000,,40927,,1605,456154429,"""map""",,,0.0114932004362,-0.598953187466,-0.00174605718348,,-0.00964911382143,0.00504705761495,0.0573314729456,-0.99829585936
1605492000000,,40928,,1605,488153988,"""map""",,,0.0117954974994,-0.593779206276,-0.001655646367,,-0.00965043272144,0.00505838276949,0.0572936250756,-0.998297966702
1605524000000,,40929,,1605,520153988,"""map""",,,0.0120862824842,-0.590657353401,-0.00154726835899,,-0.00964741724614,0.00507465211156,0.0572871344609,-0.998298219583
1605560000000,,40930,,1605,552153988,"""map""",,,0.0123286359012,-0.589383661747,-0.00136311410461,,-0.00958184382921,0.0050516710485,0.0572922763764,-0.998298725346
1605592000000,,40931,,1605,584153547,"""map""",,,0.0125207919627,-0.589818835258,-0.00112640543375,,-0.00958729509601,0.00505262346849,0.0572744061127,-0.998299652576
1605624000000,,40932,,1605,616153547,"""map""",,,0.0126768006012,-0.591823577881,-0.000927760032937,,-0.0096201530096,0.00500564240938,0.057269854253,-0.998299905457
1605660000000,,40933,,1605,656153547,"""map""",,,0.0128230955452,-0.596303582191,-0.000637884892058,,-0.0096238989754,0.00495675190048,0.0572709079242,-0.998300031898
1605692000000,,40934,,1605,688153105,"""map""",,,0.0129232471809,-0.591212928295,-8.80145234987e-05,,-0.00964662781591,0.00492072836344,0.0572613405896,-0.998300495513
1605724000000,,40935,,1605,720153105,"""map""",,,0.012982818298,-0.588164508343,0.000423667719588,,-0.00961354418619,0.00488262333184,0.0572571680516,-0.998301296303
1605760000000,,40936,,1605,752153105,"""map""",,,0.013029278256,-0.587024271488,0.000805832096376,,-0.00956927468409,0.00493360208539,0.0572306155371,-0.998302982177
1605792000000,,40937,,1605,784152664,"""map""",,,0.0130610028282,-0.587611913681,0.00110656640027,,-0.00958428192561,0.00493023659368,0.057188342248,-0.998305300254
1605824000000,,40938,,1605,816152664,"""map""",,,0.0130717502907,-0.589738845825,0.00138008373324,,-0.00960446203424,0.00487647334932,0.0571942849536,-0.998305005226
1605860000000,,40939,,1605,856152664,"""map""",,,0.013096713461,-0.594345390797,0.00153685035184,,-0.00957639322095,0.00478678518496,0.0572260636774,-0.998303909408
1605892000000,,40940,,1605,888152223,"""map""",,,0.0131616014987,-0.589376151562,0.00180848583113,,-0.00957736539728,0.00482397697996,0.0572268644675,-0.99830361438
1605924000000,,40941,,1605,920152223,"""map""",,,0.0132279349491,-0.586407840252,0.00211277417839,,-0.00958203579493,0.00480749097674,0.0571671002364,-0.998307070422
1605960000000,,40942,,1605,952152223,"""map""",,,0.0132792275399,-0.585302650928,0.00243106111884,,-0.00954796237282,0.00480551040414,0.0572097528471,-0.998304963079
1605992000000,,40943,,1605,984151781,"""map""",,,0.013310695067,-0.58588975668,0.0027026841417,,-0.0095342653056,0.00481247187813,0.0571845911785,-0.998306522513
1606024000000,,40944,,1606,16151781,"""map""",,,0.0133131174371,-0.587996184826,0.00289391377009,,-0.00953228819035,0.00481332551645,0.0571696711941,-0.99830736545
1606060000000,,40945,,1606,56151781,"""map""",,,0.0132992286235,-0.592559337616,0.00302833993919,,-0.00957270586562,0.00482881300155,0.0572033043792,-0.998305005226
1606092000000,,40946,,1606,88163340,"""map""",,,0.0133336512372,-0.587558031082,0.00334563245997,,-0.00959693948033,0.00483088560575,0.0571615789992,-0.998307196862
1606124000000,,40947,,1606,120163340,"""map""",,,0.013360477984,-0.584589838982,0.00344560481608,,-0.00956861811522,0.00483895672724,0.0571762882493,-0.998306564659
1606160000000,,40948,,1606,152163340,"""map""",,,0.0133340628818,-0.58346760273,0.00352300936356,,-0.0096357662767,0.00490103212038,0.0571632648731,-0.998306353925
1606192000000,,40949,,1606,184162898,"""map""",,,0.0132973585278,-0.584039092064,0.00349490321241,,-0.00964733163535,0.00490891226396,0.0571611153839,-0.998306311778
1606224000000,,40950,,1606,216162898,"""map""",,,0.0132542131469,-0.586161613464,0.00343794818036,,-0.00961945116579,0.00494030409284,0.0571586287198,-0.998306606806
1606260000000,,40951,,1606,256162898,"""map""",,,0.0132090300322,-0.59076243639,0.00332208792679,,-0.00955330777859,0.00491912842955,0.0571230989265,-0.998309346351
1606292000000,,40952,,1606,288162457,"""map""",,,0.0132960900664,-0.586013197899,0.00294999871403,,-0.00957200550353,0.0049421007669,0.0571352372189,-0.998308334827
1606324000000,,40953,,1606,320162457,"""map""",,,0.0133675243706,-0.58327460289,0.00254766549915,,-0.00956211432966,0.00493377659968,0.0571227196049,-0.998309219911
1606360000000,,40954,,1606,352162457,"""map""",,,0.01339464169,-0.582325935364,0.00216054962948,,-0.00957144211871,0.0049212153571,0.0571524752799,-0.998307534037
1606392000000,,40955,,1606,384162015,"""map""",,,0.0134037975222,-0.583061516285,0.00179092283361,,-0.00957130201336,0.00494663303484,0.0571806293747,-0.998305763869
1606424000000,,40956,,1606,416162015,"""map""",,,0.0133584197611,-0.585330545902,0.00128183292691,,-0.00954372068764,0.00522981392335,0.0571363751838,-0.998307112568
1606460000000,,40957,,1606,456162015,"""map""",,,0.0133078638464,-0.590120315552,0.000772078463342,,-0.00950627749328,0.00520682117113,0.0571451417283,-0.998307028275
1606492000000,,40958,,1606,488161573,"""map""",,,0.0132688814774,-0.585359036922,0.00033411453478,,-0.00952019780709,0.00519071580664,0.0571200222066,-0.998308461268
1606524000000,,40959,,1606,520161573,"""map""",,,0.0132295927033,-0.582581758499,-9.18928926694e-05,,-0.00943616291806,0.00510707209305,0.0570954505939,-0.998311116519
1606560000000,,40960,,1606,552161573,"""map""",,,0.0131780290976,-0.5816218853,-0.000654471630696,,-0.00938821659734,0.00514364139885,0.0570803620221,-0.998312212337
1606592000000,,40961,,1606,584161131,"""map""",,,0.0131055265665,-0.58232653141,-0.00122735532932,,-0.00937829628287,0.00515894465612,0.0570773695959,-0.998312423071
1606624000000,,40962,,1606,616161131,"""map""",,,0.0130400545895,-0.584563851357,-0.00187609437853,,-0.00932247788574,0.00515818617749,0.0570298700976,-0.998315668379
1606660000000,,40963,,1606,656161131,"""map""",,,0.0129278115928,-0.589294850826,-0.00273065967485,,-0.00932838914588,0.00510578167508,0.0569971641432,-0.998317775721
1606692000000,,40964,,1606,688160689,"""map""",,,0.01297901012,-0.584527373314,-0.00327330175787,,-0.00926080848529,0.00509141964255,0.0569744891387,-0.998319714476
1606724000000,,40965,,1606,720160689,"""map""",,,0.0130107942969,-0.581758499146,-0.00393479224294,,-0.00924413331516,0.00509940202516,0.0569600327696,-0.998320683854
1606760000000,,40966,,1606,752160689,"""map""",,,0.0130533101037,-0.580803871155,-0.00462782662362,,-0.00921827457724,0.00511308954349,0.0569941717169,-0.998318913686
1606792000000,,40967,,1606,784160246,"""map""",,,0.0130790313706,-0.581520676613,-0.00529600726441,,-0.00920702021624,0.00507532580259,0.0569898727384,-0.998319419448
1606824000000,,40968,,1606,824160246,"""map""",,,0.01306909509,-0.584559500217,-0.00618027616292,,-0.00919584092931,0.00507503324419,0.0569613814688,-0.998321189616
1606860000000,,40969,,1606,856160246,"""map""",,,0.0130054662004,-0.588534772396,-0.00685866642743,,-0.00917697741578,0.00508798566221,0.0569035559926,-0.998324561364
1606892000000,,40970,,1606,888159804,"""map""",,,0.0132534708828,-0.583793759346,-0.00752592133358,,-0.00915077672862,0.00509420084064,0.0569047361044,-0.998324729951
1606924000000,,40971,,1606,920159804,"""map""",,,0.0134972734377,-0.580974400043,-0.00820193998516,,-0.00910554558691,0.00511246985311,0.0568649916262,-0.998327300909
1606960000000,,40972,,1606,952159804,"""map""",,,0.013679638505,-0.579942584038,-0.00883181765676,,-0.00898818637014,0.00511891173548,0.056845856957,-0.998329408251
1606992000000,,40973,,1606,984159361,"""map""",,,0.0138015439734,-0.580568253994,-0.0093569457531,,-0.00901625946397,0.00507108625768,0.0568134881774,-0.998331262713
1607024000000,,40974,,1607,16159361,"""map""",,,0.0138741526753,-0.582648158073,-0.0098741305992,,-0.00901998007581,0.00508458921891,0.0568322856718,-0.998330082601
1607060000000,,40975,,1607,56159361,"""map""",,,0.0139139257371,-0.587165772915,-0.0105516016483,,-0.00899766694152,0.0050924051544,0.0567581915121,-0.998334465873
1607092000000,,40976,,1607,88158919,"""map""",,,0.01411035005,-0.582298994064,-0.0113796610385,,-0.00892729685103,0.00512724940286,0.0566970364349,-0.99833838553
1607124000000,,40977,,1607,120158919,"""map""",,,0.0142646152526,-0.579409837723,-0.0122771337628,,-0.00886959781541,0.00509224776226,0.0566867526039,-0.998339649935
1607160000000,,40978,,1607,152158919,"""map""",,,0.0143764074892,-0.578316569328,-0.0131338145584,,-0.00877265611257,0.00511167614234,0.0566940018618,-0.99833998711
1607192000000,,40979,,1607,184158476,"""map""",,,0.0144347799942,-0.578889429569,-0.0139641361311,,-0.00876771604095,0.00513705085005,0.0566637404246,-0.998341672984
1607224000000,,40980,,1607,216158476,"""map""",,,0.0144854672253,-0.580956637859,-0.014818395488,,-0.00879831284197,0.00512447446094,0.0566041447808,-0.998344791851
1607260000000,,40981,,1607,256158476,"""map""",,,0.0145002724603,-0.585426986217,-0.0157041158527,,-0.00878462680537,0.00515737287502,0.05657459984,-0.998346435578
1607292000000,,40982,,1607,288158033,"""map""",,,0.0144679676741,-0.58031642437,-0.0161442235112,,-0.00874269052646,0.00517638785378,0.0565553387302,-0.998347826424
1607324000000,,40983,,1607,320158033,"""map""",,,0.0144212050363,-0.577195167542,-0.0165793858469,,-0.008749778441,0.00515144679763,0.0565350239492,-0.998349006536
1607360000000,,40984,,1607,352158033,"""map""",,,0.0143688758835,-0.575878977776,-0.0169927049428,,-0.00872759915588,0.00511348911537,0.0564991569812,-0.9983514932
1607392000000,,40985,,1607,384157590,"""map""",,,0.0142747526988,-0.576208651066,-0.0175429955125,,-0.00877104597125,0.00513963991778,0.056563178044,-0.998347236368
1607424000000,,40986,,1607,416157590,"""map""",,,0.0141265792772,-0.578063070774,-0.0182254761457,,-0.00876496991035,0.00516016181101,0.0566465445104,-0.998342515921
1607460000000,,40987,,1607,456157590,"""map""",,,0.0138775408268,-0.582324385643,-0.0190348997712,,-0.00878043516957,0.00518349009166,0.0566803041361,-0.998340366432
1607492000000,,40988,,1607,488157147,"""map""",,,0.0137415695935,-0.577273368835,-0.0193146467209,,-0.0087621834439,0.00515379846007,0.0566851510236,-0.998340408579
1607524000000,,40989,,1607,520157147,"""map""",,,0.0135478004813,-0.574169754982,-0.0195337478071,,-0.0087761780086,0.00515552730404,0.0566705260672,-0.998341040781
1607560000000,,40990,,1607,552157147,"""map""",,,0.0133193004876,-0.572839856148,-0.0197213403881,,-0.00873675506481,0.00517094893469,0.0566705260672,-0.998341293663
1607592000000,,40991,,1607,584156704,"""map""",,,0.0130708813667,-0.573154866695,-0.0198679622263,,-0.00874792035767,0.00518450276848,0.0566334789874,-0.998343274564
1607624000000,,40992,,1607,616156704,"""map""",,,0.0128075107932,-0.574969291687,-0.0200243797153,,-0.00874027811329,0.0051382405107,0.0565965583481,-0.998345634788
1607660000000,,40993,,1607,656156704,"""map""",,,0.0124896010384,-0.579145133495,-0.0204459317029,,-0.00875578947063,0.0048798118407,0.0566156930173,-0.998345803375
1607692000000,,40994,,1607,688156260,"""map""",,,0.0125564001501,-0.574047029018,-0.0205046460032,,-0.00875082816095,0.00486829109844,0.0565589633592,-0.998349006536
1607724000000,,40995,,1607,720156260,"""map""",,,0.012564544566,-0.570860922337,-0.0206309910864,,-0.00866917654449,0.00489800199247,0.0565540321779,-0.998349975913
1607760000000,,40996,,1607,752156260,"""map""",,,0.0125488489866,-0.569456994534,-0.0208982098848,,-0.00863572363594,0.00512383023978,0.0565452656334,-0.998349554445
1607792000000,,40997,,1607,784155817,"""map""",,,0.0125715136528,-0.569686174393,-0.0210678149015,,-0.00862855850706,0.0051028715669,0.0565045517778,-0.998351998962
1607824000000,,40998,,1607,816155817,"""map""",,,0.012542408891,-0.571384549141,-0.021324923262,,-0.00855706493964,0.00509749191682,0.056496965345,-0.99835309478
1607860000000,,40999,,1607,856155817,"""map""",,,0.0125072598457,-0.575430333614,-0.0215543750674,,-0.00852986128919,0.00508423064142,0.05645022449,-0.998356087206
1607892000000,,41000,,1607,888155374,"""map""",,,0.0127388900146,-0.570514917374,-0.0212782584131,,-0.00853430103163,0.00506298484314,0.056474711809,-0.998354780654
1607924000000,,41001,,1607,920155374,"""map""",,,0.0129202902317,-0.567533731461,-0.0211428832263,,-0.00847886277931,0.00503169278376,0.0564463048331,-0.99835697229
1607960000000,,41002,,1607,952155374,"""map""",,,0.013050345704,-0.566283643246,-0.0211860090494,,-0.00842813246168,0.00498800757528,0.0564059281523,-0.99835992257
1607992000000,,41003,,1607,984154930,"""map""",,,0.013126861304,-0.56662684679,-0.0213124603033,,-0.00843350206897,0.0049947367477,0.0563776054701,-0.998361439856
1608024000000,,41004,,1608,16154930,"""map""",,,0.0131538957357,-0.568420469761,-0.0215342193842,,-0.00837121890503,0.00502641207999,0.0564162541301,-0.998359627542
1608060000000,,41005,,1608,56154930,"""map""",,,0.0131444046274,-0.57249122858,-0.0220211688429,,-0.00836047080012,0.00499753161059,0.0564164648644,-0.998359838276
1608092000000,,41006,,1608,88154487,"""map""",,,0.0132889039814,-0.567560136318,-0.0219900272787,,-0.00835252990581,0.00497228713005,0.0563739808411,-0.998362451381
1608124000000,,41007,,1608,120154487,"""map""",,,0.0134182916954,-0.564513862133,-0.0222565159202,,-0.00834635555714,0.00494414340733,0.0563857398118,-0.998361987765
1608160000000,,41008,,1608,152154487,"""map""",,,0.0135355722159,-0.563194155693,-0.0225807055831,,-0.00829494660939,0.0049345144988,0.0563438879912,-0.998364811604
1608192000000,,41009,,1608,184154043,"""map""",,,0.0136320777237,-0.563460171223,-0.0229314733297,,-0.00831046257655,0.00490840913596,0.0563765517988,-0.998362914996
1608224000000,,41010,,1608,216154043,"""map""",,,0.0137172006071,-0.565183699131,-0.0232243984938,,-0.00832419586371,0.00490623198782,0.0563701454779,-0.998363252171
1608260000000,,41011,,1608,256154043,"""map""",,,0.0138040455058,-0.569169640541,-0.0235935226083,,-0.00829760219012,0.0048976699214,0.0562397852754,-0.998370796457
1608292000000,,41012,,1608,288153600,"""map""",,,0.0140128135681,-0.564269900322,-0.0233462713659,,-0.00828002892993,0.00492949276766,0.0561962897278,-0.998373240974
1608324000000,,41013,,1608,320153600,"""map""",,,0.0141606833786,-0.561271727085,-0.0232453197241,,-0.00829792454766,0.00490902750925,0.0561901362879,-0.998373578149
1608360000000,,41014,,1608,352153600,"""map""",,,0.0142982797697,-0.559977471828,-0.0232429672033,,-0.00825586775511,0.0049683276312,0.0561852472534,-0.998373915323
1608392000000,,41015,,1608,384153156,"""map""",,,0.0144282644615,-0.560243487358,-0.0233598649502,,-0.00824914862549,0.00499231906617,0.0562250760253,-0.998371597247
1608424000000,,41016,,1608,416153156,"""map""",,,0.0145588126034,-0.561945915222,-0.0235459245741,,-0.008235451229,0.00500010931843,0.0562219571585,-0.998371850128
1608460000000,,41017,,1608,456153156,"""map""",,,0.0147292511538,-0.565886199474,-0.0237915944308,,-0.00820163282824,0.00495016744321,0.0561865116589,-0.998374336792
1608492000000,,41018,,1608,488152712,"""map""",,,0.014979599975,-0.561065018177,-0.0238614231348,,-0.0081872839666,0.00495195917818,0.0561906841969,-0.998374210351
1608524000000,,41019,,1608,520152712,"""map""",,,0.0152430441231,-0.558106541634,-0.0237745065242,,-0.00819698103448,0.00494127034227,0.0561259044907,-0.998377877127
1608560000000,,41020,,1608,552152712,"""map""",,,0.0155085399747,-0.556867241859,-0.0238094814122,,-0.00819984175182,0.00494852618566,0.0561342495668,-0.998377287071
1608592000000,,41021,,1608,584152268,"""map""",,,0.0157868433744,-0.557159841061,-0.0238675735891,,-0.00821950720792,0.00494557590627,0.0561192452887,-0.998378045714
1608624000000,,41022,,1608,616152268,"""map""",,,0.0160662736744,-0.558823466301,-0.0240236651152,,-0.00822510335451,0.00499846641452,0.0561066012341,-0.998378467183
1608660000000,,41023,,1608,656152268,"""map""",,,0.0163901261985,-0.562691926956,-0.024227000773,,-0.00822274527126,0.00495808627628,0.0561015436123,-0.998378888651
1608692000000,,41024,,1608,688151825,"""map""",,,0.0166344866157,-0.567101478577,-0.0243762116879,,-0.00822446884688,0.00495269724194,0.0560878458865,-0.998379689442
1608724000000,,41025,,1608,720151825,"""map""",,,0.0168803445995,-0.572581529617,-0.0245712660253,,-0.00828076732296,0.0049513608905,0.0559694132422,-0.998385927175
1608760000000,,41026,,1608,752151825,"""map""",,,0.0170910190791,-0.579061627388,-0.0249745640904,,-0.00827456152878,0.00517219555944,0.0559474547341,-0.998386053616
1608792000000,,41027,,1608,784151381,"""map""",,,0.0173694659024,-0.576194047928,-0.0245957151055,,-0.00825624312548,0.00517563217396,0.0559018939909,-0.998388708867
1608824000000,,41028,,1608,816151381,"""map""",,,0.0176812261343,-0.575072467327,-0.0242823474109,,-0.00825399847652,0.00521229104181,0.0558584405901,-0.998391026944
1608860000000,,41029,,1608,856151381,"""map""",,,0.0181001499295,-0.575883865356,-0.0239352285862,,-0.00825999666454,0.00519402680379,0.055809213071,-0.998393808636
1608892000000,,41030,,1608,888150937,"""map""",,,0.0184364486486,-0.578099489212,-0.0237402208149,,-0.00823775086642,0.0051946894642,0.0557607020484,-0.998396716768
1608924000000,,41031,,1608,920150937,"""map""",,,0.0187851302326,-0.581549406052,-0.0237673670053,,-0.00824358425367,0.00522643130949,0.0556946579368,-0.998400130663
1608960000000,,41032,,1608,952150937,"""map""",,,0.0191418435425,-0.586154162884,-0.0238818731159,,-0.00822392670011,0.00520713332122,0.0557324636599,-0.998398318349
1608992000000,,41033,,1608,984150493,"""map""",,,0.0194694660604,-0.581628143787,-0.023212691769,,-0.00821153420956,0.0052385761873,0.0556691169466,-0.998401816537
1609024000000,,41034,,1609,16150493,"""map""",,,0.0197848100215,-0.578952312469,-0.022645842284,,-0.00813911209438,0.00520483039108,0.0556399934743,-0.998404218907
1609060000000,,41035,,1609,56150493,"""map""",,,0.0202085636556,-0.577934026718,-0.0221583619714,,-0.00809125220763,0.00517981442549,0.055609732037,-0.998406410544
1609092000000,,41036,,1609,88150049,"""map""",,,0.0205802358687,-0.578755259514,-0.0220373664051,,-0.00805596459408,0.00514411489235,0.0555709990833,-0.998408981501
1609124000000,,41037,,1609,120150049,"""map""",,,0.0209705419838,-0.580892205238,-0.0219307094812,,-0.0080408440829,0.00506286136605,0.0555366072549,-0.998411510312
1609160000000,,41038,,1609,152150049,"""map""",,,0.0213666148484,-0.584218561649,-0.0218636877835,,-0.00804869508589,0.00507164124607,0.0554950083154,-0.998413659801
1609192000000,,41039,,1609,184149605,"""map""",,,0.0217286385596,-0.578927993774,-0.0214846227318,,-0.00803615491673,0.00507675171608,0.0555049549716,-0.998413238333
1609224000000,,41040,,1609,216149605,"""map""",,,0.0221054647118,-0.575492620468,-0.021150669083,,-0.00800479058209,0.00511712889087,0.0554969470704,-0.998413659801
1609260000000,,41041,,1609,256149605,"""map""",,,0.022614268586,-0.573522150517,-0.0210650227964,,-0.00796729421025,0.00503956831753,0.0555101811808,-0.998413659801
1609292000000,,41042,,1609,288149161,"""map""",,,0.0230651274323,-0.573662221432,-0.0211744196713,,-0.00793815081696,0.00503807226904,0.0555375344855,-0.998412353249
1609324000000,,41043,,1609,320149161,"""map""",,,0.0235417708755,-0.575178086758,-0.0214778054506,,-0.00806958247132,0.00520681573814,0.0555213079489,-0.998411383872
1609360000000,,41044,,1609,352149161,"""map""",,,0.0240545757115,-0.577898263931,-0.0217678509653,,-0.00812196524176,0.00520124099424,0.0555147330405,-0.998411299578
1609392000000,,41045,,1609,384148717,"""map""",,,0.024440696463,-0.572151482105,-0.021563667804,,-0.00807134111443,0.00516339361818,0.0555195799281,-0.998411594606
1609424000000,,41046,,1609,416148717,"""map""",,,0.0248333290219,-0.568276405334,-0.0214457847178,,-0.00805770265767,0.00512296161957,0.0555041541815,-0.998412859011
1609460000000,,41047,,1609,456148717,"""map""",,,0.0253335386515,-0.565770566463,-0.0213049650192,,-0.00799438492032,0.00527859280897,0.0554315351615,-0.998416525787
1609492000000,,41048,,1609,488148273,"""map""",,,0.0256512593478,-0.565499722958,-0.0208797939122,,-0.00796008413571,0.00581533012594,0.0553887139634,-0.998416188612
1609524000000,,41049,,1609,520148273,"""map""",,,0.0259315874428,-0.566599905491,-0.0202733520418,,-0.00779812147304,0.00765823949903,0.0553586632605,-0.998406789865
1609560000000,,41050,,1609,552148273,"""map""",,,0.0263844281435,-0.56884431839,-0.0199144184589,,-0.00443806512383,0.00595319888823,0.0557177544098,-0.998419012451
1609592000000,,41051,,1609,584147829,"""map""",,,0.0266448613256,-0.562813639641,-0.0187725350261,,-0.00204985083145,0.00442429561671,0.0559143694581,-0.998423690751
1609624000000,,41052,,1609,616147829,"""map""",,,0.0269159618765,-0.558588564396,-0.0172288548201,,0.00143148264218,0.0041240850965,0.0558725597843,-0.998428411198
1609660000000,,41053,,1609,656147829,"""map""",,,0.0273927580565,-0.555536210537,-0.0150317614898,,0.00517856393179,0.00393997391508,0.0557959368138,-0.998420993353
1609692000000,,41054,,1609,688147385,"""map""",,,0.027865672484,-0.554813086987,-0.0134009802714,,0.00720607240604,0.00383517305976,0.0557439697495,-0.998411763193
1609724000000,,41055,,1609,720147385,"""map""",,,0.0283849649131,-0.555301368237,-0.0107888821512,,0.00542985225064,0.0117925617728,0.0547357749863,-0.998416525787
1609760000000,,41056,,1609,752147385,"""map""",,,0.028795434162,-0.556832969189,-0.00555958971381,,-0.0114943069651,0.0352512157969,0.0527166037679,-0.997920963142
1609792000000,,41057,,1609,784146941,"""map""",,,0.0268843993545,-0.551397562027,0.00384023762308,,-0.0163210246427,0.0422189354269,0.05175447551,-0.997633521636
1609824000000,,41058,,1609,816146941,"""map""",,,0.0240046195686,-0.54813760519,0.0152362454683,,-0.0274784676528,0.0579487899332,0.0493398825589,-0.996720873778
1609860000000,,41059,,1609,856146941,"""map""",,,0.01918014884,-0.546862661839,0.0301563497633,,-0.0398927415392,0.0734510185302,0.0473143050194,-0.995376810779
1609892000000,,41060,,1609,888146497,"""map""",,,0.0141327027231,-0.548094928265,0.0418119505048,,-0.0465169999152,0.0817329730443,0.0461865817938,-0.994496236673
1609924000000,,41061,,1609,920146497,"""map""",,,0.00781156821176,-0.551345646381,0.0534694865346,,-0.053746680648,0.0909091954388,0.0446484747043,-0.993404886178
1609960000000,,41062,,1609,952146497,"""map""",,,2.31219019042e-05,-0.55659776926,0.0658383518457,,-0.0576581268266,0.0953542154512,0.0436394791509,-0.992813565893
1609992000000,,41063,,1609,984146053,"""map""",,,-0.00857801362872,-0.554480195045,0.0774655863643,,-0.0591723182138,0.0967705892713,0.0432853613297,-0.992602915944
1610024000000,,41064,,1610,16146053,"""map""",,,-0.0188768412918,-0.555131137371,0.090841986239,,-0.0614299576182,0.0980802485882,0.0428692876412,-0.992355261062
1610060000000,,41065,,1610,56146053,"""map""",,,-0.0340848639607,-0.559600114822,0.109779432416,,-0.0634960659379,0.0984453285412,0.0428114621651,-0.992191478409
1610092000000,,41066,,1610,88145610,"""map""",,,-0.047946549952,-0.56592464447,0.126653045416,,-0.0643015488478,0.0984186245614,0.0429705665182,-0.992135380954
1610124000000,,41067,,1610,120145610,"""map""",,,-0.0631910860538,-0.574447453022,0.144892692566,,-0.064677490834,0.0972315559389,0.0432512223824,-0.992215839287
1610160000000,,41068,,1610,152145610,"""map""",,,-0.0797036588192,-0.585022568703,0.164266675711,,-0.0645243845042,0.0949856320413,0.0436278887676,-0.992426868558
1610192000000,,41069,,1610,184145166,"""map""",,,-0.0962310880423,-0.587643861771,0.184743538499,,-0.0645745287172,0.0941061959003,0.0439554119273,-0.99249291267
1610224000000,,41070,,1610,216145166,"""map""",,,-0.114047318697,-0.592978000641,0.206668168306,,-0.06517952302,0.0934396671987,0.045039723899,-0.992467666707
1610260000000,,41071,,1610,256145166,"""map""",,,-0.137996941805,-0.603162944317,0.236120223999,,-0.0656925805582,0.0932481163576,0.046238548858,-0.992396775708
1610292000000,,41072,,1610,288144722,"""map""",,,-0.158402964473,-0.613894045353,0.261175602674,,-0.0657825100791,0.0929416363291,0.047003387718,-0.992383668038
1610324000000,,41073,,1610,320144722,"""map""",,,-0.179884970188,-0.626679301262,0.287578731775,,-0.0658998890522,0.0922868323539,0.0482312940025,-0.99237802036
1610360000000,,41074,,1610,352144722,"""map""",,,-0.202401161194,-0.641412734985,0.315478593111,,-0.0665950644399,0.092266607135,0.0493463731735,-0.992278680239
1610392000000,,41075,,1610,384144278,"""map""",,,-0.225457176566,-0.647856354713,0.344722807407,,-0.0673507100185,0.0920944003803,0.050173378635,-0.992202225855
1610424000000,,41076,,1610,416144278,"""map""",,,-0.249412834644,-0.65691113472,0.375380069017,,-0.0682717477332,0.0910827785515,0.0515678492648,-0.992161174825
1610460000000,,41077,,1610,456144278,"""map""",,,-0.280551761389,-0.671577215195,0.415455073118,,-0.0686407723679,0.0898518508647,0.0527872840328,-0.992183807683
1610492000000,,41078,,1610,488143834,"""map""",,,-0.306336402893,-0.685757339001,0.449005752802,,-0.0687127335019,0.0894725233012,0.0533778035273,-0.992181489606
1610524000000,,41079,,1610,520143834,"""map""",,,-0.332836270332,-0.701960265636,0.483990103006,,-0.0687864061931,0.0890330370384,0.0544397355224,-0.992158224545
1610560000000,,41080,,1610,552143834,"""map""",,,-0.359980404377,-0.720005452633,0.520342886448,,-0.0690754077919,0.0880174659181,0.0555854133054,-0.992165178775
1610592000000,,41081,,1610,584143390,"""map""",,,-0.388205587864,-0.729425311089,0.5573772192,,-0.0691345431131,0.0876407646301,0.0559541139362,-0.992173776733
1610624000000,,41082,,1610,616143390,"""map""",,,-0.41696536541,-0.74133259058,0.595874428749,,-0.0690980683084,0.0871616886471,0.0568915862876,-0.992165136629
1610660000000,,41083,,1610,656143390,"""map""",,,-0.453581243753,-0.759370565414,0.646158993244,,-0.0691280070588,0.0867754825862,0.0575621426475,-0.992158224545
1610692000000,,41084,,1610,688142947,"""map""",,,-0.483406454325,-0.776104032993,0.688020288944,,-0.0692011357923,0.0863159620823,0.0578967886246,-0.992173818879
1610724000000,,41085,,1610,720142947,"""map""",,,-0.513686835766,-0.794726073742,0.731181263924,,-0.0693507412994,0.0854736836566,0.0585312251353,-0.992198980548
1610760000000,,41086,,1610,752142947,"""map""",,,-0.544350802898,-0.815109372139,0.775673925877,,-0.0694370725331,0.0849701934531,0.0590309181712,-0.992206566981
1610792000000,,41087,,1610,784142503,"""map""",,,-0.576335608959,-0.826889872551,0.820924818516,,-0.0695491278324,0.084643568548,0.0593062213857,-0.992210275903
1610824000000,,41088,,1610,816142503,"""map""",,,-0.608576893806,-0.841026484966,0.867547750473,,-0.0696909704169,0.0840764326519,0.059726509759,-0.992223341426
1610860000000,,41089,,1610,856142503,"""map""",,,-0.649225234985,-0.861723124981,0.927833497524,,-0.0697177461781,0.0836553625862,0.0600491017375,-0.992237587061
1610892000000,,41090,,1610,888142059,"""map""",,,-0.682009279728,-0.880494892597,0.977848172188,,-0.0697983566357,0.0833740066892,0.0601870905196,-0.992247196543
1610924000000,,41091,,1610,920142059,"""map""",,,-0.715014278889,-0.901077926159,1.02933752537,,-0.0701953108015,0.0826230084592,0.0604700223136,-0.992264856072
1610960000000,,41092,,1610,952142059,"""map""",,,-0.748204410076,-0.923326075077,1.08220458031,,-0.0705531026425,0.0820749446706,0.06070945856,-0.992270293016
1610992000000,,41093,,1610,984141616,"""map""",,,-0.782866835594,-0.936932981014,1.1368573904,,-0.0706720976838,0.081793262794,0.0608581104947,-0.99227598284
1611024000000,,41094,,1611,16141616,"""map""",,,-0.817533433437,-0.952834486961,1.19280219078,,-0.0707944792902,0.0813156254014,0.0610160768829,-0.992296803383
1611060000000,,41095,,1611,56141616,"""map""",,,-0.860866546631,-0.975648343563,1.26459157467,,-0.0710439728284,0.0806744717368,0.0611667518663,-0.992322049346
1611092000000,,41096,,1611,88141172,"""map""",,,-0.895545482635,-0.996024131775,1.32356107235,,-0.0712001766222,0.080355644328,0.0612056112607,-0.992334356225
1611124000000,,41097,,1611,120141172,"""map""",,,-0.930209636688,-1.01814293861,1.38389253616,,-0.0716340484638,0.0798286384878,0.0612376007187,-0.992343670679
1611160000000,,41098,,1611,152141172,"""map""",,,-0.964853703976,-1.04189634323,1.44549942017,,-0.0720251205101,0.0788859274149,0.0613444851265,-0.992384131654
1611192000000,,41099,,1611,184140729,"""map""",,,-1.00115156174,-1.05736541748,1.5084425211,,-0.0718178054306,0.0782185584105,0.0613519029719,-0.992451566611
1611224000000,,41100,,1611,216140729,"""map""",,,-1.03727281094,-1.07505881786,1.57269763947,,-0.0706214075374,0.076551531026,0.06143644955,-0.992662132266
1611260000000,,41101,,1611,256140729,"""map""",,,-1.08208835125,-1.0999121666,1.65501463413,,-0.0684297565976,0.0737063490776,0.0615920557147,-0.993021307709
1611292000000,,41102,,1611,288140285,"""map""",,,-1.11764013767,-1.121717453,1.72236382961,,-0.0672100691131,0.0718984387726,0.061675717209,-0.993231915511
1611324000000,,41103,,1611,320140285,"""map""",,,-1.15285897255,-1.14502966404,1.79110968113,,-0.0645403067933,0.0679559084701,0.0619067240857,-0.99367205505
1611360000000,,41104,,1611,352140285,"""map""",,,-1.18769395351,-1.16969001293,1.86106932163,,-0.0615619957097,0.0636979217657,0.0620944040021,-0.994131329259
1611392000000,,41105,,1611,384139842,"""map""",,,-1.22393763065,-1.18588793278,1.93072164059,,-0.0596678792122,0.0627778615781,0.0749419013931,-0.993419595428
1611424000000,,41106,,1611,416139842,"""map""",,,-1.25944936275,-1.20385825634,1.99937188625,,-0.0586878108849,0.0606338369063,0.0749553462378,-0.99361014133
1611460000000,,41107,,1611,456139842,"""map""",,,-1.30274355412,-1.22846722603,2.08208322525,,-0.0596672397449,0.0599377823823,0.0745316018228,-0.993625819957
1611492000000,,41108,,1611,488139399,"""map""",,,-1.33653736115,-1.24962317944,2.14507174492,,-0.0606647103372,0.0600503333392,0.0741571270738,-0.993586665535
1611524000000,,41109,,1611,520139399,"""map""",,,-1.36958134174,-1.2719963789,2.2053425312,,-0.0625587066915,0.0602922022902,0.0733002394968,-0.993518176906
1611560000000,,41110,,1611,552139399,"""map""",,,-1.40198516846,-1.2954877615,2.26313018799,,-0.0635578178211,0.0598077568645,0.0720478037464,-0.993575665208
1611592000000,,41111,,1611,584138955,"""map""",,,-1.4357945919,-1.31040680408,2.31934523582,,-0.063422208525,0.0594062572599,0.0715597853875,-0.993643732368
1611624000000,,41112,,1611,616138955,"""map""",,,-1.46886658669,-1.32714760303,2.37364554405,,-0.0620709724946,0.0575816123512,0.0703017441063,-0.9939261584
1611660000000,,41113,,1611,656138955,"""map""",,,-1.50917935371,-1.35039615631,2.4389193058,,-0.0595395802541,0.0545819682945,0.0691001796021,-0.994334434922
1611692000000,,41114,,1611,688138512,"""map""",,,-1.5406370163,-1.37067377567,2.48936533928,,-0.058371186966,0.0530594855026,0.0685620907872,-0.994523379243
1611724000000,,41115,,1611,720138512,"""map""",,,-1.57139325142,-1.3922522068,2.53819203377,,-0.0561858224921,0.050193423742,0.0676432473428,-0.994860933353
1611760000000,,41116,,1611,752138512,"""map""",,,-1.60139977932,-1.41496312618,2.58537077904,,-0.05359260527,0.0470245556433,0.0666864295879,-0.995223311957
1611792000000,,41117,,1611,784138069,"""map""",,,-1.63312137127,-1.42960250378,2.63127565384,,-0.0519796555849,0.0453033102896,0.0661678969106,-0.995423383046
1611824000000,,41118,,1611,816138069,"""map""",,,-1.66390573978,-1.44589757919,2.67555809021,,-0.0495935025369,0.0430743202054,0.0655063599764,-0.995687812374
1611860000000,,41119,,1611,856138069,"""map""",,,-1.70107507706,-1.46833860874,2.72885990143,,-0.0471626665854,0.0407455705065,0.064873525046,-0.995945203178
1611892000000,,41120,,1611,888137626,"""map""",,,-1.72979056835,-1.48774933815,2.76982998848,,-0.0462582264972,0.0397637441946,0.0646274717444,-0.996043321041
1611924000000,,41121,,1611,920137626,"""map""",,,-1.75765752792,-1.50829088688,2.8093829155,,-0.0448631378233,0.0382076683889,0.0642353374659,-0.996193448116
1611960000000,,41122,,1611,952137626,"""map""",,,-1.78465044498,-1.52980363369,2.84756135941,,-0.0433035634999,0.0365524760371,0.0639647125516,-0.996341931463
1611992000000,,41123,,1611,984137183,"""map""",,,-1.81345820427,-1.54367017746,2.88457083702,,-0.0427626916759,0.0360295824781,0.0638444254459,-0.996392086213
1612024000000,,41124,,1612,16137183,"""map""",,,-1.84125435352,-1.55903494358,2.9203813076,,-0.0412228308823,0.0346512903112,0.0635448034999,-0.99652505952
1612060000000,,41125,,1612,56137183,"""map""",,,-1.87468266487,-1.58013153076,2.96319794655,,-0.0401933588753,0.0337010774285,0.0633422035991,-0.996612598524
1612092000000,,41126,,1612,88136741,"""map""",,,-1.90042757988,-1.59832489491,2.99625110626,,-0.0397980981567,0.033173000795,0.0632826501021,-0.996649898485
1612124000000,,41127,,1612,120136741,"""map""",,,-1.92532980442,-1.61753869057,3.02820420265,,-0.0391908532781,0.0320456710497,0.0631911914409,-0.996716659093
1612160000000,,41128,,1612,152136741,"""map""",,,-1.94940149784,-1.63763225079,3.059040308,,-0.038399143168,0.0307471292813,0.0631554509133,-0.996790668959
1612192000000,,41129,,1612,184136298,"""map""",,,-1.97508966923,-1.65038752556,3.08953022957,,-0.0378165686838,0.0299955874228,0.0631171815749,-0.996838210604
1612224000000,,41130,,1612,216136298,"""map""",,,-1.99978983402,-1.66457438469,3.11894750595,,-0.0370367196189,0.0290446761536,0.0630993956048,-0.996896794724
1612260000000,,41131,,1612,256136298,"""map""",,,-2.0293610096,-1.68406832218,3.15404343605,,-0.0360440095419,0.0276944587268,0.0630477657154,-0.996974892834
1612292000000,,41132,,1612,288135855,"""map""",,,-2.05199599266,-1.70089673996,3.18105483055,,-0.0357168390327,0.0272116194912,0.0630692184613,-0.99699862151
1612324000000,,41133,,1612,320135855,"""map""",,,-2.07376909256,-1.71870720387,3.20712637901,,-0.0351246343229,0.0262918165475,0.0630749504327,-0.997043971519
1612360000000,,41134,,1612,352135855,"""map""",,,-2.09475183487,-1.73740386963,3.23232769966,,-0.034623014715,0.0253673027056,0.0630635707836,-0.997086118367
1612392000000,,41135,,1612,384135413,"""map""",,,-2.11724257469,-1.74923157692,3.25650477409,,-0.0344108356258,0.0250682247173,0.0630521911345,-0.997101796995
1612424000000,,41136,,1612,416135413,"""map""",,,-2.13878464699,-1.76243567467,3.27986550331,,-0.0334502842528,0.0243923562082,0.0630846442078,-0.997149170052
1612460000000,,41137,,1612,456135413,"""map""",,,-2.16449213028,-1.78067553043,3.30801653862,,-0.032638928443,0.0239476094919,0.0631999579854,-0.997179600077
1612492000000,,41138,,1612,488134970,"""map""",,,-2.18413162231,-1.79645049572,3.32949185371,,-0.0321499156819,0.0234699842824,0.0633248390975,-0.997198861187
1612524000000,,41139,,1612,520134970,"""map""",,,-2.20300078392,-1.81313979626,3.35022878647,,-0.0314563705211,0.0227123344236,0.0634995799314,-0.99722743675
1612560000000,,41140,,1612,552134970,"""map""",,,-2.22110271454,-1.83063590527,3.37026834488,,-0.0307670769237,0.0220448630155,0.0636722555698,-0.997252935593
1612592000000,,41141,,1612,584146528,"""map""",,,-2.24109482765,-1.84119701385,3.39004468918,,-0.0304674388433,0.0216900026854,0.0637298703117,-0.997266211851
1612624000000,,41142,,1612,616146528,"""map""",,,-2.2601852417,-1.85305809975,3.40914487839,,-0.029781643105,0.0210635352218,0.0638553414797,-0.99729230075
1612660000000,,41143,,1612,656146528,"""map""",,,-2.28284668922,-1.86947107315,3.43221545219,,-0.0290330995997,0.020599845802,0.0639307000448,-0.997319190439
1612692000000,,41144,,1612,688146086,"""map""",,,-2.30007100105,-1.88378190994,3.45004606247,,-0.0288050018433,0.0203453990213,0.0639623101812,-0.997329052802
1612724000000,,41145,,1612,720146086,"""map""",,,-2.31652665138,-1.89899730682,3.46722793579,,-0.02867789518,0.0197035153601,0.064036657222,-0.997340853919
1612760000000,,41146,,1612,752146086,"""map""",,,-2.3322622776,-1.91501688957,3.48372507095,,-0.028336615684,0.0189875042827,0.0640782983083,-0.997361758756
1612792000000,,41147,,1612,784145644,"""map""",,,-2.34970021248,-1.92461645603,3.49898099899,,-0.0280378837609,0.0187424312246,0.0641030806553,-0.997373306993
1612824000000,,41148,,1612,816145644,"""map""",,,-2.36625695229,-1.93548727036,3.51365113258,,-0.0274144498826,0.0184255583759,0.0640400289699,-0.997400533857
1612860000000,,41149,,1612,856145644,"""map""",,,-2.38581371307,-1.95067977905,3.53127503395,,-0.0268174025657,0.0179989535729,0.0640102732948,-0.997426496316
1612892000000,,41150,,1612,888145202,"""map""",,,-2.40063142776,-1.96394538879,3.54483914375,,-0.0264599689729,0.0177539769916,0.0640026447152,-0.997440952685
1612924000000,,41151,,1612,920145202,"""map""",,,-2.41478300095,-1.97804141045,3.55795192719,,-0.0260266160643,0.0174488328205,0.0639830042838,-0.997458907242
