rosbagTimestamp,header,seq,stamp,secs,nsecs,frame_id,pose,position,x,y,z,orientation,x,y,z,w
1005632000000,,24114,,1005,624132957,"""map""",,,0.166164875031,0.100435294211,-0.0331978686154,,0.00726185596205,-0.00766929864275,0.0492804976493,-0.998729213256
1005664000000,,24115,,1005,656132957,"""map""",,,0.166677609086,0.101475670934,-0.0335220135748,,0.00724630490682,-0.00767617666681,0.0492963870112,-0.99872849676
1005696000000,,24116,,1005,688132647,"""map""",,,0.165890425444,0.101046480238,-0.033187776804,,0.0072412174447,-0.00767570601328,0.0492707617273,-0.998729761165
1005732000000,,24117,,1005,728132647,"""map""",,,0.164856016636,0.100461617112,-0.0325508601964,,0.00718935692064,-0.00766824221388,0.0492815091737,-0.998729634725
1005764000000,,24118,,1005,760132647,"""map""",,,0.164496570826,0.100496739149,-0.0321045182645,,0.00713076405492,-0.0076229101708,0.0492224614389,-0.998733301501
1005796000000,,24119,,1005,792132336,"""map""",,,0.164495542645,0.10096333921,-0.0318740792572,,0.00713223260917,-0.00761261975432,0.0492782217195,-0.998730646249
1005832000000,,24120,,1005,824132336,"""map""",,,0.164832919836,0.101788453758,-0.0317130722106,,0.00711958332742,-0.00752455519029,0.0493167017922,-0.998729508284
1005864000000,,24121,,1005,856132336,"""map""",,,0.16548833251,0.102922618389,-0.031700219959,,0.00711827831858,-0.00754764880272,0.049308398863,-0.998729719018
1005896000000,,24122,,1005,888132024,"""map""",,,0.164638340473,0.102492541075,-0.0313824787736,,0.00715006389534,-0.00753601732208,0.0493116441704,-0.998729423991
1005932000000,,24123,,1005,928132024,"""map""",,,0.163443312049,0.101863510907,-0.0308516118675,,0.00715345208625,-0.00753293733,0.0492965555986,-0.998730182634
1005964000000,,24124,,1005,960132024,"""map""",,,0.162961304188,0.101871401072,-0.03057323955,,0.0073452754824,-0.00756012608088,0.0493531166693,-0.998725799362
1005996000000,,24125,,1005,992131713,"""map""",,,0.162835076451,0.102302096784,-0.0305354483426,,0.0073175552861,-0.00755944456963,0.0493680788005,-0.998725251453
1006032000000,,24126,,1006,24131713,"""map""",,,0.163015082479,0.103102445602,-0.0304948929697,,0.0073345523713,-0.00755567500941,0.0493588064938,-0.998725588627
1006064000000,,24127,,1006,56131713,"""map""",,,0.163494214416,0.104259647429,-0.0303659830242,,0.0073410026707,-0.00751452599989,0.0494383797438,-0.998721963998
1006096000000,,24128,,1006,88131401,"""map""",,,0.162529885769,0.103834748268,-0.0299600586295,,0.0073310068397,-0.00751896108107,0.0494935921154,-0.9987192666
1006132000000,,24129,,1006,128131401,"""map""",,,0.161199629307,0.103186622262,-0.0295226722956,,0.00731981137727,-0.00751785493209,0.0494720972226,-0.998720362418
1006164000000,,24130,,1006,160131401,"""map""",,,0.160554096103,0.103208675981,-0.0294124409556,,0.00732079153845,-0.00755375326335,0.0495103665611,-0.998718255076
1006196000000,,24131,,1006,192131089,"""map""",,,0.160263165832,0.103663422167,-0.0295422337949,,0.00734667291384,-0.00755101577615,0.049511504526,-0.998717960048
1006232000000,,24132,,1006,224131089,"""map""",,,0.160275816917,0.104501739144,-0.0298729334027,,0.00736829663435,-0.00755516221933,0.0495342638242,-0.998716695642
1006264000000,,24133,,1006,256131089,"""map""",,,0.160594642162,0.105694890022,-0.0302783418447,,0.0073249554948,-0.00746555902779,0.0495641880866,-0.99871618988
1006296000000,,24134,,1006,288130776,"""map""",,,0.159474343061,0.105276696384,-0.0298712346703,,0.00732095044318,-0.00747338232046,0.0495613221009,-0.998716358467
1006332000000,,24135,,1006,328130776,"""map""",,,0.157981082797,0.104657188058,-0.0291404183954,,0.00730944004213,-0.00742414462483,0.0495573181503,-0.99871699067
1006364000000,,24136,,1006,360130776,"""map""",,,0.157242596149,0.104690991342,-0.0286125149578,,0.00728852704035,-0.00736058875675,0.0496060399072,-0.998715220503
1006396000000,,24137,,1006,392130464,"""map""",,,0.156849935651,0.105143763125,-0.0281430725008,,0.00730277035738,-0.00737266087826,0.0496021202503,-0.998715178356
1006432000000,,24138,,1006,424130464,"""map""",,,0.156789779663,0.106010265648,-0.0277595128864,,0.00734039325979,-0.00743414233886,0.0496451100358,-0.99871231237
1006464000000,,24139,,1006,456130464,"""map""",,,0.157043129206,0.107238702476,-0.0275971926749,,0.00733843051419,-0.00742703165823,0.0496024574251,-0.998714504006
1006496000000,,24140,,1006,488130151,"""map""",,,0.155901610851,0.106735192239,-0.0271902326494,,0.00733138466418,-0.00740528067399,0.0495943652302,-0.998715094062
1006532000000,,24141,,1006,528130151,"""map""",,,0.154352590442,0.105966828763,-0.0266275908798,,0.00733258231997,-0.00735878569276,0.0496052812639,-0.998714883328
1006556000000,,24142,,1006,560130151,"""map""",,,0.153543934226,0.105915851891,-0.0263694692403,,0.00751329447021,-0.00733172646421,0.0495818054693,-0.998714925475
1006596000000,,24143,,1006,592129838,"""map""",,,0.153088182211,0.106295920908,-0.0261438023299,,0.00749589112479,-0.00729610380585,0.0495698357643,-0.998715936999
1006632000000,,24144,,1006,624129838,"""map""",,,0.152956023812,0.107056811452,-0.0260386746377,,0.00747588127564,-0.00734360261985,0.0495253286923,-0.998717960048
1006664000000,,24145,,1006,656129838,"""map""",,,0.153071343899,0.108193874359,-0.0259544644505,,0.00746527102776,-0.00733879897498,0.0495555058358,-0.998716527055
1006696000000,,24146,,1006,688129525,"""map""",,,0.151933059096,0.107682272792,-0.025482673198,,0.00741293808547,-0.00730943551978,0.0495361182855,-0.998718128635
1006732000000,,24147,,1006,728129525,"""map""",,,0.150417730212,0.106920138001,-0.0249479562044,,0.0074124429166,-0.00729434030598,0.0495258766013,-0.998718760838
1006764000000,,24148,,1006,760129525,"""map""",,,0.149616122246,0.106859199703,-0.0246091000736,,0.00741233120841,-0.00732868842604,0.0495022322193,-0.998719645922
1006796000000,,24149,,1006,792129211,"""map""",,,0.149177029729,0.107234187424,-0.0243867225945,,0.00740493232967,-0.007295268082,0.04947534253,-0.998721331796
1006832000000,,24150,,1006,824129211,"""map""",,,0.149065390229,0.10803642869,-0.0242582466453,,0.00742212660779,-0.00728848407546,0.049456418595,-0.998722132586
1006864000000,,24151,,1006,856129211,"""map""",,,0.149234160781,0.10921177268,-0.0240943673998,,0.00746172201821,-0.00720936940912,0.0494312569264,-0.998723692019
1006896000000,,24152,,1006,888128897,"""map""",,,0.148235544562,0.108697019517,-0.0239133853465,,0.00748441709803,-0.00721543165087,0.0494240919622,-0.998723776313
1006932000000,,24153,,1006,928128897,"""map""",,,0.146920695901,0.107921116054,-0.0236177500337,,0.00747825625981,-0.00724835178663,0.0493765924639,-0.998725925802
1006964000000,,24154,,1006,960128897,"""map""",,,0.146246269345,0.107823118567,-0.0233928542584,,0.00746311203075,-0.00722957702227,0.0493796691838,-0.998726052243
1006996000000,,24155,,1006,992128583,"""map""",,,0.145917639136,0.108160592616,-0.0233000069857,,0.00746949534382,-0.00719065897632,0.0493672358635,-0.998726937326
1007032000000,,24156,,1007,24128583,"""map""",,,0.145886465907,0.108895920217,-0.0231979265809,,0.00743834179487,-0.00724340224843,0.0493807228551,-0.998726094389
1007064000000,,24157,,1007,56128583,"""map""",,,0.146160468459,0.110021352768,-0.0231409519911,,0.00741237834837,-0.00723701272034,0.0493925239726,-0.998725757215
1007096000000,,24158,,1007,88128269,"""map""",,,0.145195767283,0.109425209463,-0.0228331051767,,0.00743739122703,-0.00725128333867,0.0494465562324,-0.998722806935
1007132000000,,24159,,1007,128128269,"""map""",,,0.143899008632,0.108589202166,-0.0222951602191,,0.00738015546204,-0.00726587702967,0.049408834803,-0.998724956425
1007164000000,,24160,,1007,160128269,"""map""",,,0.143240958452,0.108462639153,-0.0218496285379,,0.00736279906621,-0.00729267300248,0.049443605953,-0.99872314411
1007196000000,,24161,,1007,192127955,"""map""",,,0.14291369915,0.108790062368,-0.0215333979577,,0.00737830721315,-0.00731975424596,0.0494127544599,-0.998724408516
1007232000000,,24162,,1007,224127955,"""map""",,,0.142865180969,0.109505303204,-0.0212037209421,,0.00763770046307,-0.00728743767911,0.0494687254748,-0.99871994095
1007264000000,,24163,,1007,256127955,"""map""",,,0.143065065145,0.110609643161,-0.0210037808865,,0.00762287080219,-0.00728205397486,0.0494577251473,-0.998720657446
1007296000000,,24164,,1007,288127640,"""map""",,,0.14349372685,0.112068802118,-0.0208715349436,,0.00762724530756,-0.00730602059093,0.0494527096723,-0.998720615299
1007332000000,,24165,,1007,328127640,"""map""",,,0.144346043468,0.114370204508,-0.0207236912102,,0.00764396698739,-0.00724338387092,0.0495002091706,-0.998718634397
1007364000000,,24166,,1007,360127640,"""map""",,,0.14526990056,0.116573989391,-0.0206811279058,,0.00768817065561,-0.00729007514986,0.0494830554032,-0.998718760838
1007396000000,,24167,,1007,392127325,"""map""",,,0.144838809967,0.116760574281,-0.0202705673873,,0.00770095094656,-0.00729592508305,0.0494897146053,-0.998718339369
1007432000000,,24168,,1007,424127325,"""map""",,,0.144253715873,0.116668246686,-0.0197981167585,,0.00765930883126,-0.00730341771435,0.049543493984,-0.998715979146
1007464000000,,24169,,1007,456127325,"""map""",,,0.14402037859,0.117054060102,-0.019282868132,,0.00768938414735,-0.00724888537232,0.0495871159722,-0.99871391395
1007496000000,,24170,,1007,488127010,"""map""",,,0.144101694226,0.117907308042,-0.0187175646424,,0.00771194442104,-0.0072215308946,0.0495850929235,-0.998714082538
1007532000000,,24171,,1007,528127010,"""map""",,,0.144556671381,0.119503155351,-0.0181967094541,,0.00764028467403,-0.00724224037012,0.0495951660203,-0.998713956097
1007564000000,,24172,,1007,560127010,"""map""",,,0.145169362426,0.121224649251,-0.0178883634508,,0.00769863922896,-0.00722816766499,0.0495852615109,-0.998714082538
1007596000000,,24173,,1007,592126695,"""map""",,,0.144408136606,0.120861262083,-0.0172019414604,,0.00768861729285,-0.00720163642965,0.0495873688533,-0.998714251125
1007632000000,,24174,,1007,624126695,"""map""",,,0.143477991223,0.120244562626,-0.0165220759809,,0.00762513331416,-0.00720308814986,0.0495353596422,-0.998717285698
1007664000000,,24175,,1007,656126695,"""map""",,,0.142874360085,0.120157495141,-0.015933053568,,0.00756988802568,-0.0072714213519,0.0495779701061,-0.998715136209
1007696000000,,24176,,1007,688126380,"""map""",,,0.142560422421,0.120528280735,-0.0154948849231,,0.00753433734418,-0.00729846363836,0.0495514597384,-0.998716527055
1007732000000,,24177,,1007,728126380,"""map""",,,0.142554447055,0.121598243713,-0.0150764277205,,0.00753872422813,-0.00726941953094,0.0495003356111,-0.998719182306
1007764000000,,24178,,1007,760126380,"""map""",,,0.142856389284,0.122922874987,-0.014915427193,,0.00735995524208,-0.00722115398077,0.0495659161074,-0.99871766502
1007796000000,,24179,,1007,792126064,"""map""",,,0.142077714205,0.122375525534,-0.0144676761702,,0.00733045985675,-0.00724247946293,0.0495335894746,-0.998719308747
1007832000000,,24180,,1007,824126064,"""map""",,,0.141237080097,0.121658362448,-0.0139127830043,,0.00736015572001,-0.0072865853656,0.0495700043517,-0.998717032817
1007864000000,,24181,,1007,856126064,"""map""",,,0.140710949898,0.121489688754,-0.0134176760912,,0.00736239915992,-0.00730259151109,0.0495819740567,-0.998716274174
1007896000000,,24182,,1007,888125748,"""map""",,,0.140475749969,0.121835201979,-0.0130010135472,,0.00736294837832,-0.00723874036041,0.049585219364,-0.998716569202
1007932000000,,24183,,1007,928125748,"""map""",,,0.140556052327,0.122907087207,-0.0125961918384,,0.00742584796049,-0.00721256912253,0.0495550422205,-0.998717749313
1007964000000,,24184,,1007,960125748,"""map""",,,0.140883147717,0.124231375754,-0.0123080620542,,0.00741786618497,-0.00717257856483,0.0495390264181,-0.998718929425
1007996000000,,24185,,1007,992125433,"""map""",,,0.140014648438,0.123510241508,-0.0118574891239,,0.00741029349935,-0.00717260037911,0.0495168571758,-0.998720109537
1008032000000,,24186,,1008,24125433,"""map""",,,0.139002636075,0.122607268393,-0.0113790715113,,0.0074009494422,-0.00717367443434,0.0495105772953,-0.998720488859
1008064000000,,24187,,1008,56125433,"""map""",,,0.138325765729,0.122341237962,-0.0108287455514,,0.00742444254419,-0.00714853365399,0.0494695262649,-0.998722511907
1008096000000,,24188,,1008,88125116,"""map""",,,0.137987881899,0.122612342238,-0.0102852880955,,0.00741683797062,-0.00717582343999,0.049515677064,-0.998720025243
1008132000000,,24189,,1008,128125116,"""map""",,,0.137995645404,0.123609393835,-0.0097234537825,,0.00741676074598,-0.00723888781264,0.0495102822674,-0.998719856656
1008164000000,,24190,,1008,160125116,"""map""",,,0.138301253319,0.124881185591,-0.00926523376256,,0.00744960481985,-0.00720841976736,0.0495053510861,-0.99872006739
1008196000000,,24191,,1008,192124800,"""map""",,,0.13742403686,0.124429129064,-0.00893418677151,,0.00748853254846,-0.00720187794056,0.0494906839828,-0.998720573152
1008232000000,,24192,,1008,224124800,"""map""",,,0.136444121599,0.123852960765,-0.008634400554,,0.00746225569651,-0.00719285153852,0.0494676718035,-0.998722006145
1008264000000,,24193,,1008,256124800,"""map""",,,0.135805115104,0.123864389956,-0.00840175617486,,0.00751867529333,-0.00716670654982,0.0494470619946,-0.998722722642
1008296000000,,24194,,1008,288124484,"""map""",,,0.135476991534,0.124396786094,-0.00820067618042,,0.00753546998928,-0.00715247227492,0.0494950672551,-0.998720404565
1008332000000,,24195,,1008,328124484,"""map""",,,0.135496810079,0.125719472766,-0.00805795285851,,0.00750730122128,-0.00713095517688,0.0495617857163,-0.998717412139
1008364000000,,24196,,1008,360124484,"""map""",,,0.135827496648,0.127281829715,-0.00809623580426,,0.00772342540368,-0.00713090735009,0.0495598469612,-0.998715894852
1008396000000,,24197,,1008,392124167,"""map""",,,0.135183542967,0.126928925514,-0.00791542138904,,0.00769602058847,-0.00717184788912,0.0495867787974,-0.998714419712
1008432000000,,24198,,1008,424124167,"""map""",,,0.134455859661,0.126409858465,-0.00768803758547,,0.00771630264802,-0.00717445420248,0.049588843993,-0.998714208978
1008464000000,,24199,,1008,456124167,"""map""",,,0.134051069617,0.126488357782,-0.00746282795444,,0.00777347433354,-0.00712963022649,0.0495611956604,-0.99871538909
1008496000000,,24200,,1008,488123850,"""map""",,,0.133951812983,0.127085134387,-0.00731347268447,,0.00779030547581,-0.00710662983927,0.0496117297317,-0.99871298672
1008532000000,,24201,,1008,528123850,"""map""",,,0.134232416749,0.128492593765,-0.00714550958946,,0.00776369315717,-0.00709864354654,0.0496629381527,-0.998710668643
1008556000000,,24202,,1008,560123850,"""map""",,,0.134745359421,0.130115017295,-0.00706642493606,,0.00772197584432,-0.00713849191008,0.049686498241,-0.998709530678
1008596000000,,24203,,1008,592123533,"""map""",,,0.134157299995,0.129829913378,-0.00691292574629,,0.00771002501076,-0.00713503543634,0.0496830421994,-0.998709783559
1008632000000,,24204,,1008,624123533,"""map""",,,0.133486896753,0.129393965006,-0.0067113195546,,0.00772266377638,-0.00717162023851,0.0496702717043,-0.998710078587
1008664000000,,24205,,1008,656123533,"""map""",,,0.133155182004,0.129567593336,-0.00653158826753,,0.00764551180933,-0.00716858650918,0.0496649612014,-0.998711005818
1008696000000,,24206,,1008,688123216,"""map""",,,0.133134976029,0.130294844508,-0.00632542138919,,0.00767090034647,-0.00716114726115,0.0496723368999,-0.998710457909
1008732000000,,24207,,1008,728123216,"""map""",,,0.133509069681,0.131917193532,-0.00617817370221,,0.00770684479643,-0.00716949388061,0.0496587234678,-0.99871083723
1008764000000,,24208,,1008,760122899,"""map""",,,0.134068578482,0.133704930544,-0.00615872535855,,0.00772714192019,-0.0071735326106,0.0496988051208,-0.998708603447
1008796000000,,24209,,1008,792122899,"""map""",,,0.133155226707,0.133394807577,-0.00599295832217,,0.00774065582972,-0.00716981389209,0.0496977093027,-0.998708603447
1008832000000,,24210,,1008,824122899,"""map""",,,0.132048383355,0.132851868868,-0.00578316906467,,0.0077009927024,-0.00713139208,0.0496368914003,-0.998712185929
1008864000000,,24211,,1008,856122899,"""map""",,,0.131260514259,0.132909014821,-0.00566271692514,,0.0076901701408,-0.00714259001198,0.0495876217344,-0.998714672594
1008896000000,,24212,,1008,888122581,"""map""",,,0.130773484707,0.133508756757,-0.00558172352612,,0.00766553477277,-0.00712302782389,0.0495965990131,-0.998714546153
1008932000000,,24213,,1008,928122581,"""map""",,,0.130549833179,0.134963110089,-0.00547765009105,,0.00773792289059,-0.00711551555973,0.0496173774095,-0.99871298672
1008964000000,,24214,,1008,960122581,"""map""",,,0.130674511194,0.136673226953,-0.00535455811769,,0.00782352649438,-0.00706172360695,0.0495826062594,-0.998714461859
1008996000000,,24215,,1008,992122264,"""map""",,,0.129787802696,0.136276394129,-0.00515378685668,,0.0078495893811,-0.0070726208722,0.0495670962192,-0.998714967621
1009032000000,,24216,,1009,24122264,"""map""",,,0.128811538219,0.135680750012,-0.0049041681923,,0.00779104650302,-0.00707706036768,0.0495409230263,-0.998716695642
1009064000000,,24217,,1009,56122264,"""map""",,,0.128190875053,0.135718405247,-0.00466530397534,,0.00780925546446,-0.00706527484937,0.0495514175915,-0.99871606344
1009096000000,,24218,,1009,88121946,"""map""",,,0.127877339721,0.13628308475,-0.00442412309349,,0.00759636300691,-0.00705505242761,0.0495600576955,-0.998717369992
1009132000000,,24219,,1009,128121946,"""map""",,,0.127853676677,0.13771726191,-0.00393138639629,,0.00759251698351,-0.00704256127886,0.0495863151821,-0.998716232027
1009164000000,,24220,,1009,160121946,"""map""",,,0.128111734986,0.139392092824,-0.0036052048672,,0.00760634246691,-0.00709862975827,0.0495483408716,-0.998717538579
1009196000000,,24221,,1009,192121628,"""map""",,,0.127367243171,0.139002680779,-0.00326619390398,,0.0076391428196,-0.00706478758817,0.0495539464024,-0.998717243551
1009232000000,,24222,,1009,224121628,"""map""",,,0.126524582505,0.13840149343,-0.00299083604477,,0.00767129222161,-0.00706319465132,0.0495365819009,-0.998717917901
1009264000000,,24223,,1009,256121628,"""map""",,,0.126001760364,0.138381958008,-0.0027023316361,,0.00760832310126,-0.00701834554774,0.0495518812069,-0.998717960048
1009296000000,,24224,,1009,288121310,"""map""",,,0.125739723444,0.138892561197,-0.00240427302197,,0.00764364240726,-0.00702898211168,0.0495366661946,-0.998718339369
1009332000000,,24225,,1009,328121310,"""map""",,,0.125739991665,0.140221327543,-0.00201369076967,,0.00763349335148,-0.00704940577888,0.0495896447831,-0.998715684118
1009364000000,,24226,,1009,360132992,"""map""",,,0.125973343849,0.141823858023,-0.00162095332053,,0.00769958037138,-0.00702394041841,0.0496071357253,-0.998714461859
1009396000000,,24227,,1009,392132992,"""map""",,,0.125060126185,0.14127252996,-0.00102910050191,,0.00773788623847,-0.00701448538621,0.0496143849832,-0.998713871803
1009432000000,,24228,,1009,424132992,"""map""",,,0.124026015401,0.140539720654,-0.000306747970171,,0.00772126461625,-0.00696975436789,0.0496285041775,-0.998713576775
1009464000000,,24229,,1009,456132992,"""map""",,,0.123297281563,0.140453904867,0.000339410180459,,0.00774511466995,-0.00698290134465,0.0496373971625,-0.998712860279
1009492000000,,24230,,1009,488132673,"""map""",,,0.122883446515,0.140975907445,0.000953502254561,,0.00774576374788,-0.00700417521339,0.0496134156057,-0.99871391395
1009532000000,,24231,,1009,528132673,"""map""",,,0.122750155628,0.142397895455,0.0017582133878,,0.00770235648634,-0.00699580902281,0.0496220135628,-0.99871391395
1009564000000,,24232,,1009,560132673,"""map""",,,0.122937180102,0.144124165177,0.00236712186597,,0.00771533382615,-0.0070330970682,0.0496462901475,-0.99871231237
1009596000000,,24233,,1009,592132355,"""map""",,,0.122225545347,0.143712610006,0.00303440610878,,0.00774640743397,-0.00702917129917,0.049650884154,-0.998711848755
1009632000000,,24234,,1009,624132355,"""map""",,,0.121462225914,0.143112719059,0.00375023763627,,0.00764120696562,-0.00704791804452,0.0496527807622,-0.998712480957
1009664000000,,24235,,1009,656132355,"""map""",,,0.120979681611,0.143150880933,0.00442402344197,,0.00760988434565,-0.00707025416613,0.0496110553822,-0.9987145883
1009696000000,,24236,,1009,688132036,"""map""",,,0.120826810598,0.143782988191,0.00506803905591,,0.00767186643126,-0.0070225914723,0.0496173774095,-0.998714166831
1009732000000,,24237,,1009,728132036,"""map""",,,0.121031008661,0.145323783159,0.00570634519681,,0.00758890622513,-0.00708619837243,0.0496131627246,-0.9987145883
1009764000000,,24238,,1009,760132036,"""map""",,,0.121471762657,0.147130951285,0.00618742825463,,0.00783383658488,-0.00710816688215,0.0496173352626,-0.998712354517
1009796000000,,24239,,1009,792131717,"""map""",,,0.120866574347,0.146784111857,0.00671776616946,,0.00785126278385,-0.00711279797292,0.0496191054302,-0.998712017342
1009832000000,,24240,,1009,824131717,"""map""",,,0.120186038315,0.146295562387,0.007175010629,,0.00784916173876,-0.00711908999527,0.0496046490612,-0.998712733839
1009864000000,,24241,,1009,864131717,"""map""",,,0.11975376308,0.146637246013,0.00774089246988,,0.00785789827831,-0.00708028826474,0.0495726596032,-0.998714546153
1009896000000,,24242,,1009,888131397,"""map""",,,0.119699679315,0.14730989933,0.00805702153593,,0.00786720828666,-0.00704629073988,0.0496143006895,-0.998712691692
1009932000000,,24243,,1009,928131397,"""map""",,,0.119901739061,0.149126708508,0.00867738295346,,0.00784726554217,-0.00710548668832,0.0496501255107,-0.998710584349
1009964000000,,24244,,1009,960131397,"""map""",,,0.120350897312,0.151144504547,0.0092237573117,,0.00781762610022,-0.00704292989915,0.0496043118864,-0.998713576775
1009996000000,,24245,,1009,992131078,"""map""",,,0.119936980307,0.150829806924,0.00963187776506,,0.00779868640133,-0.00705672109707,0.0496443513925,-0.99871163802
1010032000000,,24246,,1010,24131078,"""map""",,,0.119449585676,0.150283589959,0.0100655388087,,0.00780852657916,-0.00706397673467,0.0496222664439,-0.998712565251
1010064000000,,24247,,1010,56131078,"""map""",,,0.119225516915,0.15037882328,0.0104990741238,,0.00778120797155,-0.00703895685897,0.0495831120216,-0.998714883328
1010096000000,,24248,,1010,88130758,"""map""",,,0.119257844985,0.151083573699,0.0109467543662,,0.00781019261445,-0.0070430864681,0.0496006872574,-0.998713745363
1010132000000,,24249,,1010,128130758,"""map""",,,0.119622603059,0.152742996812,0.0114044426009,,0.007823486282,-0.00710173351969,0.0496437191898,-0.998711090111
1010164000000,,24250,,1010,160130758,"""map""",,,0.120151281357,0.154625117779,0.0117616495118,,0.00779688369748,-0.0071091527027,0.0496749500045,-0.998709699265
1010196000000,,24251,,1010,192130438,"""map""",,,0.119707472622,0.154153436422,0.0120503082871,,0.00780640660092,-0.00710566601822,0.0496798390389,-0.998709446384
1010232000000,,24252,,1010,224130438,"""map""",,,0.119198441505,0.153464883566,0.0124083077535,,0.00781918075917,-0.00707136140582,0.0496813984723,-0.998709488531
1010264000000,,24253,,1010,256130438,"""map""",,,0.119025059044,0.153453662992,0.0127633670345,,0.00778171811716,-0.00709407265085,0.0497146944827,-0.998707971245
1010296000000,,24254,,1010,288130118,"""map""",,,0.119112029672,0.154062852263,0.0131616238505,,0.00780102707431,-0.00712474853895,0.0496473016719,-0.998710963671
1010332000000,,24255,,1010,328130118,"""map""",,,0.119561508298,0.155619174242,0.013721938245,,0.00782462008985,-0.00705699747997,0.049611940466,-0.998713028866
1010364000000,,24256,,1010,360130118,"""map""",,,0.120188117027,0.157472476363,0.0141163682565,,0.00783312403972,-0.00704678263147,0.0495807939449,-0.998714504006
1010396000000,,24257,,1010,392129797,"""map""",,,0.120063535869,0.156818076968,0.0143392765895,,0.00780554662411,-0.00705451151561,0.0495637666181,-0.998715599824
1010432000000,,24258,,1010,424129797,"""map""",,,0.119907014072,0.155943259597,0.0144909592345,,0.00798129836501,-0.00704318911873,0.0495960511041,-0.998712649545
1010464000000,,24259,,1010,456129797,"""map""",,,0.120024420321,0.155756235123,0.0148542737588,,0.00790286859524,-0.00708011346234,0.0495946602581,-0.99871311316
1010496000000,,24260,,1010,488129477,"""map""",,,0.120407387614,0.156218379736,0.0152543000877,,0.00788420017553,-0.00707630970926,0.0495766214069,-0.998714208978
1010532000000,,24261,,1010,528129477,"""map""",,,0.121192663908,0.157616406679,0.0158607196063,,0.00783592059013,-0.00706104106673,0.0495536513745,-0.998715768412
1010564000000,,24262,,1010,560129477,"""map""",,,0.12201268971,0.159313291311,0.0164342932403,,0.00781081366308,-0.00710322932122,0.0495751462672,-0.9987145883
1010596000000,,24263,,1010,592129156,"""map""",,,0.121832415462,0.158706441522,0.016989229247,,0.00783270512309,-0.00709912119711,0.0495638930587,-0.998715051915
1010632000000,,24264,,1010,624129156,"""map""",,,0.121537476778,0.157919660211,0.0176070705056,,0.00777909075095,-0.00707895355966,0.0495715637851,-0.998715220503
1010664000000,,24265,,1010,656129156,"""map""",,,0.121536292136,0.157841473818,0.0182140953839,,0.0077389332625,-0.00709487529313,0.0496073886064,-0.998713618922
1010696000000,,24266,,1010,688128835,"""map""",,,0.121820919216,0.158391475677,0.018900949508,,0.00769423632386,-0.0070947464242,0.049611097529,-0.99871378751
1010732000000,,24267,,1010,728128835,"""map""",,,0.122527964413,0.159904614091,0.0197766311467,,0.00774423547187,-0.00705965804094,0.049627787681,-0.998712860279
1010764000000,,24268,,1010,760128835,"""map""",,,0.123365841806,0.161694139242,0.0204649213701,,0.00776640123625,-0.00709353178001,0.0496329717434,-0.998712143783
1010796000000,,24269,,1010,792128513,"""map""",,,0.123213656247,0.161081805825,0.0208114031702,,0.00771660321185,-0.00706647634324,0.0496505469792,-0.998711848755
1010832000000,,24270,,1010,824128513,"""map""",,,0.122938133776,0.160233601928,0.0210805535316,,0.00771518917273,-0.00705239483009,0.0496438456303,-0.99871231237
1010864000000,,24271,,1010,856128513,"""map""",,,0.122927814722,0.160073250532,0.0214738957584,,0.00775589315023,-0.00708923446841,0.0496727162215,-0.998710331468
1010896000000,,24272,,1010,888128192,"""map""",,,0.123167403042,0.160590335727,0.0219723507762,,0.00772573411667,-0.00708314194389,0.0496660148726,-0.998710963671
1010932000000,,24273,,1010,928128192,"""map""",,,0.123827852309,0.162065863609,0.0227234996855,,0.00769605598523,-0.00709992182259,0.0496090744803,-0.998713871803
1010964000000,,24274,,1010,960128192,"""map""",,,0.124624103308,0.163861379027,0.0234930124134,,0.00771411883211,-0.0070727117925,0.0496674057186,-0.998711005818
1010996000000,,24275,,1010,992127870,"""map""",,,0.124324925244,0.163041710854,0.0243864227086,,0.00776348439857,-0.00704359515258,0.0496910079538,-0.998709657119
1011032000000,,24276,,1011,24127870,"""map""",,,0.123899810016,0.161940202117,0.0253737736493,,0.00778735268571,-0.00704698138844,0.049668965152,-0.998710542202
1011064000000,,24277,,1011,56127870,"""map""",,,0.123765200377,0.161534264684,0.0263715647161,,0.00779212515776,-0.007018884587,0.0496521485595,-0.99871151158
1011096000000,,24278,,1011,88127549,"""map""",,,0.123909778893,0.161801189184,0.0272530000657,,0.00803836202865,-0.00706501908715,0.0496100860047,-0.998711342993
1011132000000,,24279,,1011,128127549,"""map""",,,0.124391317368,0.163003236055,0.0285203959793,,0.00801468788866,-0.00708802414592,0.0496035110963,-0.998711680167
1011164000000,,24280,,1011,160127549,"""map""",,,0.125008836389,0.164618521929,0.0295505579561,,0.00805034506915,-0.00710214502769,0.0496040590053,-0.998711300846
1011196000000,,24281,,1011,188127227,"""map""",,,0.1247542575,0.1642113626,0.0299463048577,,0.00805126637292,-0.00709688786688,0.0495844185739,-0.99871231237
1011232000000,,24282,,1011,228127227,"""map""",,,0.124056182802,0.16284173727,0.0305644571781,,0.00799264162953,-0.00714423305995,0.0495481301373,-0.998714208978
1011264000000,,24283,,1011,260127227,"""map""",,,0.123841874301,0.162587210536,0.0310438703746,,0.00797332318523,-0.00713609151535,0.0495652417578,-0.998713618922
1011296000000,,24284,,1011,292126904,"""map""",,,0.123922102153,0.163010105491,0.0315456464887,,0.00796949407818,-0.00714401808632,0.0495263823635,-0.998715557677
1011332000000,,24285,,1011,324126904,"""map""",,,0.124240145087,0.164032027125,0.0321857333183,,0.00801596694673,-0.00711330945621,0.049539321446,-0.998714672594
1011364000000,,24286,,1011,356126904,"""map""",,,0.124825812876,0.165623664856,0.0329563245177,,0.00805424698652,-0.00716585192369,0.0495066154916,-0.998715684118
1011396000000,,24287,,1011,388126582,"""map""",,,0.124195851386,0.164895027876,0.0338224954903,,0.0080645198281,-0.00719928141275,0.0495235585247,-0.998714504006
1011432000000,,24288,,1011,428126582,"""map""",,,0.123270012438,0.163878023624,0.0349069200456,,0.00805350328398,-0.0072375735533,0.0495667590444,-0.998712185929
1011464000000,,24289,,1011,460126582,"""map""",,,0.12290456146,0.163892477751,0.0358827114105,,0.00804234400034,-0.00725285795974,0.0495761156448,-0.998711680167
1011496000000,,24290,,1011,492126259,"""map""",,,0.122819259763,0.164615124464,0.036806050688,,0.00802938335051,-0.00727996282851,0.0495794030989,-0.998711427286
1011532000000,,24291,,1011,524126259,"""map""",,,0.122995868325,0.165948361158,0.03768369928,,0.00801414133787,-0.00733510078453,0.0496041854459,-0.998709825706
1011564000000,,24292,,1011,556126259,"""map""",,,0.123446047306,0.167850792408,0.0387618988752,,0.00801842241224,-0.00739289674966,0.0496136684868,-0.998708940622
1011596000000,,24293,,1011,588125937,"""map""",,,0.123114407063,0.167274087667,0.0396931432188,,0.00804071686033,-0.00740922066861,0.0495815947351,-0.998710247174
1011632000000,,24294,,1011,628125937,"""map""",,,0.122709274292,0.166344702244,0.0408044420183,,0.0080265095446,-0.00731520541408,0.0496351633795,-0.99870843486
1011664000000,,24295,,1011,660125937,"""map""",,,0.122695460916,0.16639764607,0.0417961962521,,0.00803868368648,-0.00732579715584,0.0496585548804,-0.998707044014
1011696000000,,24296,,1011,692125614,"""map""",,,0.122950419784,0.167142748833,0.0427291914821,,0.00803412758746,-0.00729410301387,0.0496782374587,-0.998706327518
1011732000000,,24297,,1011,724125614,"""map""",,,0.123476646841,0.168533340096,0.0434893891215,,0.00818308615695,-0.00723857083664,0.0497176869089,-0.998703545826
1011764000000,,24298,,1011,756125614,"""map""",,,0.124247834086,0.170498549938,0.0443694964051,,0.0081996283834,-0.00715259694563,0.0497189513144,-0.998704051588
1011796000000,,24299,,1011,788125291,"""map""",,,0.12410466373,0.169993564487,0.0449343323708,,0.00821237331874,-0.00716173807847,0.0497104797978,-0.998704262322
1011832000000,,24300,,1011,828125291,"""map""",,,0.123875327408,0.169200390577,0.0456001870334,,0.00816158295008,-0.0071119989938,0.0497209322162,-0.998704515203
1011864000000,,24301,,1011,860125291,"""map""",,,0.124056555331,0.169387608767,0.0461143366992,,0.00813465292488,-0.00716555792473,0.0497604659601,-0.998702407861
1011896000000,,24302,,1011,892124968,"""map""",,,0.124495327473,0.170253887773,0.0465871840715,,0.00814593654996,-0.00716089267195,0.0497539331986,-0.998702702889
1011932000000,,24303,,1011,924124968,"""map""",,,0.125164836645,0.171755641699,0.0470465384424,,0.00817446580934,-0.00712531962052,0.0497776618743,-0.99870148063
1011964000000,,24304,,1011,956124968,"""map""",,,0.126047432423,0.173847824335,0.0474987924099,,0.00815163999815,-0.00712252541617,0.0497804857132,-0.998701522777
1011996000000,,24305,,1011,988124644,"""map""",,,0.125948309898,0.173458918929,0.0477755740285,,0.00813193346534,-0.00710461061833,0.0497747958886,-0.998702070686
1012032000000,,24306,,1012,28124644,"""map""",,,0.125713899732,0.17282807827,0.0480554662645,,0.00810912345921,-0.0070925454244,0.0497591594078,-0.998703124357
1012064000000,,24307,,1012,60124644,"""map""",,,0.125826433301,0.173162490129,0.0483142696321,,0.00816001306229,-0.00711676282245,0.049786934181,-0.998701227749
1012096000000,,24308,,1012,92124321,"""map""",,,0.126207143068,0.174190625548,0.0486880429089,,0.00812537773708,-0.00709811399444,0.0497707076443,-0.998702450007
1012132000000,,24309,,1012,124124321,"""map""",,,0.126806512475,0.175871983171,0.0490754693747,,0.00812795680317,-0.00710090601736,0.0497740372454,-0.998702239273
1012164000000,,24310,,1012,164124321,"""map""",,,0.127869337797,0.17876689136,0.0495682917535,,0.00810173528954,-0.00710751475845,0.0498057738223,-0.998700764134
1012196000000,,24311,,1012,188123997,"""map""",,,0.127470374107,0.177617028356,0.0495194345713,,0.00810463510796,-0.00712234559236,0.0498464455311,-0.998698698938
1012232000000,,24312,,1012,228123997,"""map""",,,0.127197608352,0.176833361387,0.0496155619621,,0.00813597042549,-0.00708200533723,0.0498883394985,-0.998696591596
1012264000000,,24313,,1012,260123997,"""map""",,,0.127311304212,0.177081212401,0.0499154813588,,0.00813380488419,-0.00707339577329,0.049934953913,-0.998694315666
1012296000000,,24314,,1012,292123673,"""map""",,,0.12771050632,0.178025245667,0.0502594597638,,0.00811183221741,-0.00712261506054,0.0499442683665,-0.998693683463
1012332000000,,24315,,1012,324123673,"""map""",,,0.12835162878,0.17962141335,0.0505920276046,,0.00809325706407,-0.00713515136075,0.0499607899311,-0.99869292482
1012364000000,,24316,,1012,356123673,"""map""",,,0.129247277975,0.181813284755,0.0509651191533,,0.00827889689192,-0.00709829385941,0.0499597784068,-0.998691744708
1012396000000,,24317,,1012,388123350,"""map""",,,0.130348965526,0.184522792697,0.0517002828419,,0.00828970566524,-0.00711529542065,0.0499637402105,-0.998691323239
1012432000000,,24318,,1012,428123350,"""map""",,,0.131939634681,0.188648864627,0.0528404787183,,0.0082949853812,-0.00713749018157,0.0499142176635,-0.998693557022
1012464000000,,24319,,1012,460123350,"""map""",,,0.133400678635,0.192458614707,0.0537141114473,,0.00828419286569,-0.00708460012607,0.0499086121327,-0.998694357813
1012496000000,,24320,,1012,492123025,"""map""",,,0.133476108313,0.193071290851,0.0543302185833,,0.00828301209539,-0.00709490437198,0.0499312449903,-0.998693135554
1012532000000,,24321,,1012,524123025,"""map""",,,0.133320212364,0.193262338638,0.0550267733634,,0.00829180963263,-0.00705316512137,0.0499330573048,-0.998693261994
1012564000000,,24322,,1012,556123025,"""map""",,,0.133442416787,0.194194659591,0.0558010935783,,0.00825886849548,-0.00703885042171,0.0499147655725,-0.998694610694
1012596000000,,24323,,1012,588122701,"""map""",,,0.133811458945,0.195808663964,0.056658513844,,0.00826481642831,-0.00702096044277,0.0498796151009,-0.998696380861
1012632000000,,24324,,1012,628122701,"""map""",,,0.13464216888,0.198703065515,0.0575783737004,,0.00823139714669,-0.00699225790387,0.0498821860586,-0.998696760183
1012664000000,,24325,,1012,660122701,"""map""",,,0.135564669967,0.201648145914,0.0583489015698,,0.00819746798698,-0.00706726311872,0.0498783085486,-0.998696675889
1012696000000,,24326,,1012,692122377,"""map""",,,0.13518063724,0.201360180974,0.0584967769682,,0.00820851733485,-0.00704526217568,0.0498861057156,-0.998696296568
1012732000000,,24327,,1012,724122377,"""map""",,,0.134639367461,0.20063918829,0.0584020502865,,0.00821436265822,-0.00705750706994,0.0499188538168,-0.998694568547
1012764000000,,24328,,1012,756122377,"""map""",,,0.134423062205,0.200720861554,0.0583093240857,,0.00820364538142,-0.0070506148666,0.0499167886213,-0.998694779281
1012796000000,,24329,,1012,788122052,"""map""",,,0.134479761124,0.201556608081,0.0583915673196,,0.00822460734702,-0.00704704111019,0.0499211297467,-0.998694484253
1012832000000,,24330,,1012,828122052,"""map""",,,0.134911432862,0.203633606434,0.058440245688,,0.00829420846332,-0.00696257664435,0.0499569545679,-0.998692714085
1012864000000,,24331,,1012,860122052,"""map""",,,0.135505512357,0.206011995673,0.0584429018199,,0.00841754907521,-0.00695210529276,0.0500212285119,-0.998688541547
1012896000000,,24332,,1012,892121728,"""map""",,,0.134947627783,0.205364733934,0.0581798553467,,0.00842129372392,-0.00695895267392,0.0500564632772,-0.998686687086
1012932000000,,24333,,1012,924121728,"""map""",,,0.134291097522,0.204387143254,0.0578830987215,,0.00836063535393,-0.00694818794075,0.0500433977542,-0.998687867198
1012964000000,,24334,,1012,956121728,"""map""",,,0.133980900049,0.204249978065,0.0576921440661,,0.00826886544806,-0.00687934015821,0.0500952383779,-0.998686518499
1012996000000,,24335,,1012,988121403,"""map""",,,0.133978098631,0.204869881272,0.0576466582716,,0.00821276420606,-0.00679745393528,0.0500725633734,-0.998688710135
1013032000000,,24336,,1013,28121403,"""map""",,,0.134355351329,0.206614643335,0.0577655285597,,0.00818445041422,-0.00681806670765,0.0500837744351,-0.998688204373
1013060000000,,24337,,1013,60121403,"""map""",,,0.13491345942,0.208742454648,0.0579545609653,,0.00827663503849,-0.00687238321171,0.0500736170446,-0.998687656464
1013096000000,,24338,,1013,92121078,"""map""",,,0.134336978197,0.207741335034,0.057539075613,,0.00829694578588,-0.00690738230045,0.0500832686729,-0.99868677138
1013132000000,,24339,,1013,124121078,"""map""",,,0.133694142103,0.206409156322,0.0569504871964,,0.00797647786037,-0.00672119374039,0.0500437770758,-0.998692545498
1013164000000,,24340,,1013,156121078,"""map""",,,0.133352205157,0.205949857831,0.0565572194755,,0.00796083446486,-0.00671653289163,0.0500452943624,-0.998692714085
1013196000000,,24341,,1013,188120753,"""map""",,,0.133266419172,0.206319391727,0.0561126843095,,0.00791312484973,-0.00670539496953,0.0500686437165,-0.998691955442
1013228000000,,24342,,1013,228120753,"""map""",,,0.133490338922,0.20784303546,0.0558190606534,,0.0079829484306,-0.00669835702206,0.0500407003559,-0.998692840526
1013264000000,,24343,,1013,260120753,"""map""",,,0.133804649115,0.209795683622,0.0562771297991,,0.00614561464516,-0.00655251826602,0.0498099042134,-0.998718297223
1013296000000,,24344,,1013,292120428,"""map""",,,0.133001148701,0.208713158965,0.0573699697852,,0.00470352342718,-0.00627552711965,0.0496178831716,-0.998737516185
1013332000000,,24345,,1013,324120428,"""map""",,,0.131955623627,0.207269743085,0.0596240721643,,-0.000374983474652,-0.00423248596768,0.0489662086,-0.998791464152
1013364000000,,24346,,1013,356120428,"""map""",,,0.131048098207,0.206568211317,0.0631328597665,,-0.00715848383962,5.95472407731e-05,0.0482796785846,-0.998808280744
1013396000000,,24347,,1013,388120103,"""map""",,,0.130279660225,0.206507951021,0.0676564127207,,-0.0109495625701,0.00296519707523,0.0479976318743,-0.998783076929
1013432000000,,24348,,1013,428120103,"""map""",,,0.129538029432,0.207164615393,0.0744376629591,,-0.0197917339824,0.0106813936976,0.0475027435791,-0.998617945576
1013464000000,,24349,,1013,460120103,"""map""",,,0.129099294543,0.208177760243,0.0806697160006,,-0.028468308122,0.0192455806314,0.0473298150597,-0.998288146487
1013496000000,,24350,,1013,492119778,"""map""",,,0.127580597997,0.205944493413,0.086344756186,,-0.033042396931,0.0240522686778,0.0473883991791,-0.99804015443
1013532000000,,24351,,1013,524119778,"""map""",,,0.125796064734,0.203152358532,0.092332907021,,-0.0428406755287,0.0345960137316,0.0477277234565,-0.997341401829
1013564000000,,24352,,1013,556119778,"""map""",,,0.124109335244,0.200930714607,0.099112868309,,-0.0535158825299,0.046511233041,0.0483251550341,-0.996311965054
1013596000000,,24353,,1013,588119453,"""map""",,,0.122389800847,0.199118569493,0.106803707778,,-0.0580192097438,0.0517460405427,0.0486290759587,-0.995786857468
1013632000000,,24354,,1013,628119453,"""map""",,,0.119244992733,0.196546852589,0.117244124413,,-0.0699210922098,0.0653943995075,0.0491565859147,-0.994192273601
1013664000000,,24355,,1013,660119453,"""map""",,,0.115370348096,0.193650126457,0.126145854592,,-0.0819168529942,0.0768185466225,0.0487724595374,-0.992476643986
1013696000000,,24356,,1013,692119127,"""map""",,,0.108837611973,0.186041623354,0.134811848402,,-0.0861011178635,0.0801219644191,0.0483494737657,-0.991881783366
1013732000000,,24357,,1013,724119127,"""map""",,,0.100376091897,0.176356375217,0.144758969545,,-0.0927227799278,0.0846458889296,0.0471792665168,-0.990965047264
1013764000000,,24358,,1013,756119127,"""map""",,,0.0903130024672,0.165746405721,0.156530126929,,-0.0974234966383,0.0876710477993,0.045999576227,-0.990306292022
1013796000000,,24359,,1013,788118802,"""map""",,,0.0786982402205,0.154155313969,0.169948279858,,-0.0987414713967,0.0885022672871,0.0455172476926,-0.990124049049
1013832000000,,24360,,1013,828118802,"""map""",,,0.0620815642178,0.13816010952,0.188930407166,,-0.100981257001,0.0894044660191,0.044360316701,-0.989869650671
1013864000000,,24361,,1013,860118802,"""map""",,,0.0472347922623,0.124185726047,0.205672308803,,-0.102239680896,0.0890450344022,0.0431899408647,-0.98982459569
1013896000000,,24362,,1013,892118476,"""map""",,,0.0309436768293,0.106814242899,0.222834393382,,-0.10269166831,0.0887039564209,0.0426662241251,-0.989831170599
1013932000000,,24363,,1013,924118476,"""map""",,,0.0133959846571,0.0878762453794,0.241148367524,,-0.103382300399,0.0883381711666,0.0417763777125,-0.98982994834
1013964000000,,24364,,1013,956118476,"""map""",,,-0.00531715201214,0.0682079792023,0.260951399803,,-0.103938499846,0.0880424813898,0.041134101888,-0.989824932865
1013996000000,,24365,,1013,988118150,"""map""",,,-0.0251896064728,0.0477667078376,0.282239586115,,-0.104127171531,0.0878461389789,0.0408165253845,-0.989835680311
1014032000000,,24366,,1014,28118150,"""map""",,,-0.0515374727547,0.0211156457663,0.310768038034,,-0.104504343678,0.0875381508834,0.0404230845536,-0.989839347087
1014064000000,,24367,,1014,60118150,"""map""",,,-0.0738049894571,-0.00107844686136,0.335240662098,,-0.104840115108,0.0874527106604,0.0402514625865,-0.989818357957
1014096000000,,24368,,1014,92117824,"""map""",,,-0.0972126349807,-0.0265976861119,0.360707551241,,-0.10494759023,0.0874182128064,0.0403183917819,-0.989807315482
1014132000000,,24369,,1014,124117824,"""map""",,,-0.121609352529,-0.0534220226109,0.387687683105,,-0.104790877052,0.0867898144903,0.0405564371823,-0.989869524231
1014164000000,,24370,,1014,156117824,"""map""",,,-0.1468821913,-0.0806669518352,0.416217327118,,-0.103970619038,0.0857064047247,0.0406382442153,-0.99004700461
1014196000000,,24371,,1014,188117498,"""map""",,,-0.172942444682,-0.108344711363,0.446194797754,,-0.103694362251,0.0853268565488,0.0407090930676,-0.990105883757
1014232000000,,24372,,1014,228117498,"""map""",,,-0.206566646695,-0.143592596054,0.485698163509,,-0.102996453245,0.0846266281491,0.04088037786,-0.990231734247
1014264000000,,24373,,1014,260117498,"""map""",,,-0.234216570854,-0.172269746661,0.518941044807,,-0.102252025313,0.0840826269215,0.0410300834659,-0.990349071073
1014296000000,,24374,,1014,292117172,"""map""",,,-0.263120532036,-0.204596176744,0.552662611008,,-0.101771573631,0.0836540764488,0.0411121012331,-0.990431426015
1014332000000,,24375,,1014,324117172,"""map""",,,-0.292744666338,-0.238023504615,0.587573349476,,-0.100735684437,0.0827242155548,0.0412192806689,-0.990610929443
1014364000000,,24376,,1014,356117172,"""map""",,,-0.322829335928,-0.27141687274,0.62398570776,,-0.0995002799645,0.0821577158127,0.0413420122917,-0.990777830963
1014396000000,,24377,,1014,388116846,"""map""",,,-0.353356093168,-0.304798305035,0.6618719697,,-0.0990103235091,0.0818488209014,0.0413836112312,-0.990850702864
1014432000000,,24378,,1014,428116846,"""map""",,,-0.392062604427,-0.346530407667,0.711461126804,,-0.0981725119908,0.0811070949781,0.0414674834597,-0.990991557632
1014464000000,,24379,,1014,460116846,"""map""",,,-0.423441499472,-0.379912167788,0.752915620804,,-0.0972285424393,0.0805632597038,0.0415986865992,-0.991123519415
1014496000000,,24380,,1014,492116520,"""map""",,,-0.455920159817,-0.417020916939,0.79526412487,,-0.09682073546,0.0804011991443,0.0416067787941,-0.991176287269
1014532000000,,24381,,1014,524116520,"""map""",,,-0.488889366388,-0.455047667027,0.839085459709,,-0.0959508864099,0.0798075831736,0.0416682710461,-0.991306226003
1014564000000,,24382,,1014,556128194,"""map""",,,-0.522077322006,-0.492726653814,0.88438975811,,-0.0952116333212,0.0793206685353,0.0417259700817,-0.991414164082
1014596000000,,24383,,1014,588128194,"""map""",,,-0.555449068546,-0.53010559082,0.931213080883,,-0.0948210617688,0.0791596010609,0.0417476335618,-0.991463560188
1014632000000,,24384,,1014,628128194,"""map""",,,-0.597390592098,-0.576477646828,0.991952717304,,-0.0937613405076,0.0789077018597,0.0417412693877,-0.991584648084
1014664000000,,24385,,1014,660128194,"""map""",,,-0.630923748016,-0.613044977188,1.03928864002,,-0.0929059530949,0.0773186774259,0.04171475902,-0.99179146267
1014696000000,,24386,,1014,692127868,"""map""",,,-0.665468931198,-0.653065443039,1.07893776894,,-0.0923650641487,0.0742420391441,0.0417379397866,-0.992076038191
1014732000000,,24387,,1014,724127868,"""map""",,,-0.700003027916,-0.693389117718,1.11014103889,,-0.0909903939766,0.0621872166308,0.0419015538526,-0.993024595163
1014764000000,,24388,,1014,756127868,"""map""",,,-0.734049499035,-0.732630968094,1.13276600838,,-0.0893045490121,0.0473412552949,0.0421852864367,-0.993983857436
1014792000000,,24389,,1014,788127541,"""map""",,,-0.767583489418,-0.77085185051,1.14668059349,,-0.0873216056442,0.037435742273,0.0422585376594,-0.994579223818
1014832000000,,24390,,1014,828127541,"""map""",,,-0.808777689934,-0.817306816578,1.15231192112,,-0.0765679557846,0.0135126931985,0.0417961867313,-0.996096341777
1014864000000,,24391,,1014,860127541,"""map""",,,-0.840757608414,-0.853418290615,1.14947378635,,-0.0550980008075,-0.00646301375326,0.0405545405742,-0.99763613474
1014896000000,,24392,,1014,892127214,"""map""",,,-0.873105347157,-0.892753720284,1.14702010155,,-0.0389779112651,-0.016589415774,0.0396775068035,-0.998314235386
1014932000000,,24393,,1014,924127214,"""map""",,,-0.903965353966,-0.931580722332,1.14497280121,,-0.00560313506703,-0.0333631331311,0.0379296348489,-0.998707591923
1014964000000,,24394,,1014,956127214,"""map""",,,-0.932340860367,-0.967907071114,1.14391028881,,0.0234972170734,-0.0443746611175,0.0365302751846,-0.998070331574
1014996000000,,24395,,1014,988126887,"""map""",,,-0.95811009407,-1.00134885311,1.14403283596,,0.0335064350502,-0.0474058835358,0.0360310879109,-0.997663193017
1015032000000,,24396,,1015,28126887,"""map""",,,-0.986726284027,-1.03890585899,1.14572644234,,0.0484762970079,-0.0512083964923,0.0353612901943,-0.996883813494
1015064000000,,24397,,1015,60126887,"""map""",,,-1.00635135174,-1.06495201588,1.15198612213,,0.0471945864846,-0.0458654021463,0.0351185243469,-0.997213991905
1015096000000,,24398,,1015,92126560,"""map""",,,-1.024928689,-1.09152138233,1.16972839832,,0.0395217821831,-0.0381562030533,0.0351449925678,-0.997871229861
1015132000000,,24399,,1015,124126560,"""map""",,,-1.04129803181,-1.11562359333,1.20065248013,,0.0263228035361,-0.0231459324753,0.0353467073848,-0.998760275484
1015164000000,,24400,,1015,156126560,"""map""",,,-1.0553869009,-1.13627898693,1.24574220181,,0.018482487573,-0.0133973043469,0.0360017537043,-0.999091043951
1015196000000,,24401,,1015,188126233,"""map""",,,-1.06772232056,-1.15402078629,1.30514979362,,0.0156487096398,-0.00992033191968,0.0363911905845,-0.999165896754
1015232000000,,24402,,1015,228126233,"""map""",,,-1.08128488064,-1.17282509804,1.39788305759,,0.00940912785501,-0.00296778416733,0.0374746174724,-0.999248926045
1015264000000,,24403,,1015,260126233,"""map""",,,-1.09117805958,-1.18582606316,1.48153650761,,-0.00431508061988,0.00933663790975,0.0378912390699,-0.999228990586
1015296000000,,24404,,1015,292125906,"""map""",,,-1.10370707512,-1.20329356194,1.56305480003,,-0.0157730576601,0.0201606288838,0.0378543184306,-0.998955373245
1015332000000,,24405,,1015,324125906,"""map""",,,-1.11686003208,-1.22142350674,1.64224123955,,-0.0395213081134,0.0439914552207,0.0376405917618,-0.997540039926
1015364000000,,24406,,1015,356125906,"""map""",,,-1.12979447842,-1.23858821392,1.7180891037,,-0.054131727012,0.0584920384443,0.0377138851314,-0.996105487643
1015396000000,,24407,,1015,388125578,"""map""",,,-1.14266681671,-1.2550034523,1.78947675228,,-0.0613517559518,0.0660154512657,0.0378990783837,-0.99520936135
1015432000000,,24408,,1015,428125578,"""map""",,,-1.15893948078,-1.27473008633,1.87279689312,,-0.0694147495207,0.0750713485236,0.0383882347075,-0.994018291411
1015464000000,,24409,,1015,460125578,"""map""",,,-1.17232608795,-1.29017424583,1.93582701683,,-0.0733076942206,0.0790237341093,0.0388844717019,-0.993412978373
1015496000000,,24410,,1015,492125251,"""map""",,,-1.18831896782,-1.30951762199,1.99690854549,,-0.0744392959441,0.0798377046701,0.0391746106071,-0.993252314586
1015532000000,,24411,,1015,524125251,"""map""",,,-1.2054361105,-1.32977819443,2.05636048317,,-0.0756020305238,0.080513394549,0.0385291316221,-0.993135188494
1015560000000,,24412,,1015,556125251,"""map""",,,-1.2229578495,-1.3496825695,2.11456632614,,-0.0758893236935,0.0802245208725,0.0387118382104,-0.993129582963
1015600000000,,24413,,1015,596124923,"""map""",,,-1.24541342258,-1.37421393394,2.1854865551,,-0.0759510311249,0.0793368827242,0.0387989978931,-0.993192718942
1015632000000,,24414,,1015,628124923,"""map""",,,-1.26383256912,-1.39358973503,2.24064826965,,-0.07591686847,0.0780065200852,0.0388081437593,-0.993300319846
1015664000000,,24415,,1015,660124923,"""map""",,,-1.28263056278,-1.4128228426,2.29445743561,,-0.0767058864501,0.0780272062852,0.0385516380392,-0.993248057754
1015696000000,,24416,,1015,692124595,"""map""",,,-1.30331361294,-1.43554913998,2.34848117828,,-0.0790022628419,0.0797653685773,0.0382905383127,-0.992940090732
1015732000000,,24417,,1015,724124595,"""map""",,,-1.32479953766,-1.45914530754,2.4014775753,,-0.0887323590339,0.0875828704184,0.0370795329144,-0.991504442631
1015764000000,,24418,,1015,756124595,"""map""",,,-1.34674930573,-1.48256552219,2.45260477066,,-0.0973195853943,0.0958468391764,0.0358491399659,-0.989978347394
1015796000000,,24419,,1015,788124267,"""map""",,,-1.36921226978,-1.50595128536,2.50190925598,,-0.100001040131,0.0990483890692,0.0353839651988,-0.989412610246
1015832000000,,24420,,1015,828124267,"""map""",,,-1.39809441566,-1.53530287743,2.56060838699,,-0.101821640712,0.102035479498,0.0347361681372,-0.98894621322
1015864000000,,24421,,1015,860124267,"""map""",,,-1.42164599895,-1.55869960785,2.60359716415,,-0.0993897305919,0.0982165062213,0.0344481787213,-0.989590090625
1015896000000,,24422,,1015,892123939,"""map""",,,-1.44647061825,-1.58492457867,2.64064860344,,-0.0981127540158,0.0940730398307,0.0341998494899,-0.990128558762
1015932000000,,24423,,1015,924123939,"""map""",,,-1.47140026093,-1.6114398241,2.67024469376,,-0.0945700627979,0.0748755359118,0.0332993820715,-0.99213984852
1015964000000,,24424,,1015,956123939,"""map""",,,-1.49594891071,-1.63716006279,2.69174599648,,-0.0918591551112,0.050543961386,0.0323577371821,-0.993961941074
1015996000000,,24425,,1015,988123610,"""map""",,,-1.52009367943,-1.66215121746,2.70517802238,,-0.090332018056,0.0334870988664,0.0317741297707,-0.994841335069
1016032000000,,24426,,1016,28123610,"""map""",,,-1.54939353466,-1.6927857399,2.71377038956,,-0.0827971177489,-0.0177507326721,0.029446485768,-0.995973188685
1016064000000,,24427,,1016,60123610,"""map""",,,-1.57103693485,-1.7172511816,2.71905469894,,-0.0508256274575,-0.0615824831117,0.0252320116512,-0.996487675265
1016096000000,,24428,,1016,92123282,"""map""",,,-1.59157109261,-1.74475169182,2.72948551178,,-0.0383656268746,-0.0665140766363,0.0240082357578,-0.996758595207
1016132000000,,24429,,1016,124123282,"""map""",,,-1.60884952545,-1.77217745781,2.74777698517,,-0.0216180629541,-0.0581490256592,0.0232189938726,-0.997803752757
1016164000000,,24430,,1016,156123282,"""map""",,,-1.62238752842,-1.79811751842,2.77855324745,,-0.0145953034912,-0.0388564308768,0.0249036455544,-0.998827879029
1016196000000,,24431,,1016,188122953,"""map""",,,-1.63325226307,-1.82248055935,2.82075500488,,-0.01336801558,-0.0284231161637,0.0257454445597,-0.999174958326
1016232000000,,24432,,1016,228122953,"""map""",,,-1.64487743378,-1.85089814663,2.88197255135,,-0.0164249372038,0.0128082433639,0.0280928554344,-0.999388389967
1016264000000,,24433,,1016,260122953,"""map""",,,-1.65395188332,-1.87231981754,2.93042492867,,-0.0246430120774,0.0573069250405,0.0296370316701,-0.997612321771
1016296000000,,24434,,1016,292122624,"""map""",,,-1.66575658321,-1.89596688747,2.97361683846,,-0.0299594392562,0.0820905284678,0.0301250078822,-0.995718916748
1016332000000,,24435,,1016,324122624,"""map""",,,-1.67873799801,-1.91958940029,3.01189160347,,-0.0398977952098,0.125632614154,0.0306899863865,-0.990799072975
1016364000000,,24436,,1016,356122624,"""map""",,,-1.69268786907,-1.9423160553,3.0459010601,,-0.04927988652,0.157533287204,0.0315572420883,-0.985778329646
1016396000000,,24437,,1016,388122296,"""map""",,,-1.70835459232,-1.96427500248,3.07654905319,,-0.0508925039694,0.162403761212,0.0320329114206,-0.984890295548
1016432000000,,24438,,1016,428122296,"""map""",,,-1.73082566261,-1.99088191986,3.11182761192,,-0.0502785719005,0.16055977337,0.0336595690389,-0.985169855594
1016464000000,,24439,,1016,460122296,"""map""",,,-1.75098598003,-2.01157426834,3.1380314827,,-0.0458384382884,0.143447715601,0.0352523827378,-0.987967057636
1016496000000,,24440,,1016,492121967,"""map""",,,-1.77423155308,-2.03483057022,3.16449427605,,-0.0418367557072,0.127117305382,0.0362311168539,-0.990342454018
1016532000000,,24441,,1016,524121967,"""map""",,,-1.79898786545,-2.05820465088,3.19060301781,,-0.0353389260228,0.100693504661,0.0374453254127,-0.993584347459
1016564000000,,24442,,1016,556121967,"""map""",,,-1.82423257828,-2.08057641983,3.21616959572,,-0.0285732517992,0.0726202672676,0.0385429557884,-0.996204996352
1016596000000,,24443,,1016,588121638,"""map""",,,-1.84947109222,-2.10196471214,3.24097824097,,-0.0251620847611,0.0576206161314,0.0390724887931,-0.997256307341
1016632000000,,24444,,1016,628121638,"""map""",,,-1.88053631783,-2.12729358673,3.27081823349,,-0.0207963587759,0.0388703446051,0.0397884373088,-0.998235252192
1016664000000,,24445,,1016,660121638,"""map""",,,-1.9047191143,-2.14647340775,3.29375815392,,-0.0169776462007,0.0242075771804,0.0404535145783,-0.99874388036
1016696000000,,24446,,1016,692121308,"""map""",,,-1.92913353443,-2.16787862778,3.31622123718,,-0.0156405991703,0.0192390263026,0.0407921223592,-0.998860037074
1016732000000,,24447,,1016,724121308,"""map""",,,-1.95295023918,-2.18910741806,3.33784413338,,-0.013811381205,0.0129987770418,0.0413216132171,-0.998965867811
1016764000000,,24448,,1016,756121308,"""map""",,,-1.97580659389,-2.20911812782,3.35859251022,,-0.012667580315,0.0107357665072,0.0418193253511,-0.998987236263
1016796000000,,24449,,1016,788120979,"""map""",,,-1.99773108959,-2.22801327705,3.3784661293,,-0.0122981692793,0.0105922688357,0.0420523974234,-0.998983611634
1016832000000,,24450,,1016,828120979,"""map""",,,-2.02395224571,-2.25013828278,3.40223455429,,-0.0117078336113,0.011368374641,0.0425143268831,-0.998962622503
1016864000000,,24451,,1016,860120979,"""map""",,,-2.04406356812,-2.26672315598,3.42043352127,,-0.0111688252933,0.0126842415733,0.0430549445089,-0.998929790108
1016896000000,,24452,,1016,892120650,"""map""",,,-2.06498742104,-2.28547525406,3.43822717667,,-0.0109603917583,0.013406864026,0.0432779856312,-0.998913015663
1016932000000,,24453,,1016,924120650,"""map""",,,-2.08563566208,-2.30408906937,3.45544910431,,-0.0105887779736,0.0148570841527,0.043771314493,-0.998875041352
1016964000000,,24454,,1016,956120650,"""map""",,,-2.10555458069,-2.32154893875,3.47184348106,,-0.0102758624835,0.0155493423529,0.0441844379022,-0.998849500362
1016996000000,,24455,,1016,988120320,"""map""",,,-2.12481760979,-2.33793497086,3.4874727726,,-0.0100442732888,0.0156829611982,0.0443876278588,-0.998840860258
1017032000000,,24456,,1017,28120320,"""map""",,,-2.1480717659,-2.35705590248,3.5059800148,,-0.00956245216299,0.0155631755742,0.0448130581477,-0.998828384791
1017064000000,,24457,,1017,60120320,"""map""",,,-2.16603398323,-2.37132954597,3.52001595497,,-0.0090592599508,0.0149708658264,0.0451876593373,-0.998825265924
1017096000000,,24458,,1017,92119991,"""map""",,,-2.18433117867,-2.38765311241,3.53420639038,,-0.00875619941459,0.0144621359135,0.0453511891095,-0.998828047616
1017132000000,,24459,,1017,124119991,"""map""",,,-2.20226478577,-2.40385317802,3.54810333252,,-0.00826813742711,0.0132404767468,0.0457568103795,-0.998830660721
1017164000000,,24460,,1017,156131661,"""map""",,,-2.21955513954,-2.41897916794,3.5614631176,,-0.00770777367346,0.0122001795852,0.046062712206,-0.998834369643
1017196000000,,24461,,1017,188131661,"""map""",,,-2.23618650436,-2.4331176281,3.5742328167,,-0.00737194857234,0.0116467641346,0.0461764665502,-0.998838205007
1017232000000,,24462,,1017,228131661,"""map""",,,-2.25612092018,-2.44957017899,3.58942294121,,-0.00664369778673,0.0105366273401,0.0464514325899,-0.998842925454
1017264000000,,24463,,1017,260131661,"""map""",,,-2.27142167091,-2.46181726456,3.6010890007,,-0.00619453618798,0.00997789183777,0.0466676037759,-0.998841450314
1017296000000,,24464,,1017,292131331,"""map""",,,-2.28721547127,-2.47600269318,3.612844944,,-0.00595632829173,0.00988173297971,0.0467305711675,-0.998840944552
1017332000000,,24465,,1017,324131331,"""map""",,,-2.30272221565,-2.49005889893,3.62433838844,,-0.00537330023493,0.00949881058638,0.046940209592,-0.99883816286
1017364000000,,24466,,1017,356131331,"""map""",,,-2.31764698029,-2.50309824944,3.63533830643,,-0.00496082466898,0.00904742854017,0.0471052566508,-0.998836645573
1017396000000,,24467,,1017,388131001,"""map""",,,-2.33208441734,-2.51521682739,3.64591932297,,-0.00475375670834,0.00889149359712,0.0472118460307,-0.998833990322
1017432000000,,24468,,1017,428131001,"""map""",,,-2.34940433502,-2.52920556068,3.65871691704,,-0.0043536961881,0.00854539816513,0.0473909701369,-0.998830365693
1017464000000,,24469,,1017,460131001,"""map""",,,-2.36271452904,-2.5395591259,3.6684923172,,-0.00399303786749,0.00774747386449,0.0475222154231,-0.998832220154
1017496000000,,24470,,1017,492130671,"""map""",,,-2.37659716606,-2.55199170113,3.67824840546,,-0.00388522079601,0.00744565122731,0.0475768798856,-0.998832346595
1017532000000,,24471,,1017,524130671,"""map""",,,-2.39025187492,-2.56440544128,3.68776726723,,-0.00349060808521,0.0069745795235,0.0476588133591,-0.998833273825
1017564000000,,24472,,1017,556130671,"""map""",,,-2.40334415436,-2.57591366768,3.69693875313,,-0.00312925104888,0.00654804073959,0.0477622838722,-0.998832388741
1017596000000,,24473,,1017,588130340,"""map""",,,-2.41593813896,-2.58658337593,3.70570611954,,-0.00286899211906,0.00612323820827,0.0477975186376,-0.998834158909
1017632000000,,24474,,1017,628130340,"""map""",,,-2.43105101585,-2.59882760048,3.71631646156,,-0.00234461617641,0.00563673384319,0.0478894409142,-0.998834032469
1017664000000,,24475,,1017,660130340,"""map""",,,-2.44267463684,-2.60785079002,3.72364473343,,0.000563130793035,0.00279202769314,0.0479047823671,-0.998847856635
1017696000000,,24476,,1017,692130010,"""map""",,,-2.45393610001,-2.61624932289,3.72818589211,,0.00843596486079,-0.00572618098026,0.0475429938194,-0.998817173729
1017732000000,,24477,,1017,724130010,"""map""",,,-2.46465682983,-2.62389206886,3.72955441475,,0.0260541056054,-0.0257344825102,0.0466465303516,-0.998240014786
1017764000000,,24478,,1017,756130010,"""map""",,,-2.47447180748,-2.6305539608,3.72859621048,,0.0428679264297,-0.0467755543673,0.0454885035419,-0.996947960998
1017796000000,,24479,,1017,788129679,"""map""",,,-2.48381233215,-2.63849186897,3.727175951,,0.0477908936798,-0.0543352719242,0.0450052477769,-0.996362541272
1017832000000,,24480,,1017,828129679,"""map""",,,-2.49353885651,-2.64717745781,3.72543764114,,0.0512085473813,-0.0626262129366,0.0442329489248,-0.995740538082
1017864000000,,24481,,1017,860129679,"""map""",,,-2.49899768829,-2.65202045441,3.72738146782,,0.0427136393297,-0.0549895938448,0.04364390457,-0.996617782586
