rosbagTimestamp,header,seq,stamp,secs,nsecs,frame_id,pose,position,x,y,z,orientation,x,y,z,w
173808000000,,239,,173,804000241,"""map""",,,0.0613198541105,-0.0522308051586,-0.0181427802891,,0.00491982467573,-0.0140656302165,0.0417885581517,-0.999015390358
173840000000,,240,,173,836000241,"""map""",,,0.0607785135508,-0.052133128047,-0.0180924180895,,0.00491749145254,-0.0140471955801,0.0417971982556,-0.999015263917
173872000000,,241,,173,868000240,"""map""",,,0.0604974776506,-0.0521970279515,-0.0181744415313,,0.00485846610829,-0.0140502090798,0.0417640286859,-0.999016907644
173908000000,,242,,173,900000240,"""map""",,,0.0604526400566,-0.0524651259184,-0.0181431118399,,0.00475883853167,-0.0140712182959,0.0417564001063,-0.999017455553
173940000000,,243,,173,932000240,"""map""",,,0.0606148168445,-0.0528771355748,-0.0179289095104,,0.00474773909326,-0.0140812904049,0.0417325871369,-0.999018340637
173972000000,,244,,173,964000240,"""map""",,,0.0610102675855,-0.0534243248403,-0.0177346300334,,0.0048617841848,-0.0140754033463,0.0416934327146,-0.999019478602
174008000000,,245,,174,4000240,"""map""",,,0.0611591339111,-0.0536433532834,-0.0176296513528,,0.00484389350615,-0.0140648633414,0.0416989539518,-0.999019520749
174040000000,,246,,174,36000240,"""map""",,,0.0607983618975,-0.0532265380025,-0.0176715292037,,0.00482400381564,-0.0141357467674,0.0417225140401,-0.999017624141
174072000000,,247,,174,68000240,"""map""",,,0.0606899484992,-0.0530219748616,-0.0177049823105,,0.00480570714431,-0.0141094929027,0.0416911567848,-0.999019394308
174108000000,,248,,174,100000240,"""map""",,,0.0608059391379,-0.053020928055,-0.0177022367716,,0.00477030609646,-0.0140655446057,0.0417150119011,-0.999019141427
174140000000,,249,,174,132000240,"""map""",,,0.061144977808,-0.0531515777111,-0.0177560914308,,0.00478428403292,-0.0140598076952,0.0416968466093,-0.999019942217
174172000000,,250,,174,164000240,"""map""",,,0.0616475231946,-0.0534083805978,-0.017898324877,,0.00500633602139,-0.0140503299227,0.0416797771357,-0.999019731483
174208000000,,251,,174,204000240,"""map""",,,0.0619269907475,-0.0533941462636,-0.0178767517209,,0.00492898634693,-0.0141381267472,0.0416739187238,-0.99901909928
174240000000,,252,,174,236000240,"""map""",,,0.06172195822,-0.0529315210879,-0.0176532249898,,0.00495741077426,-0.0141384359339,0.0416758153319,-0.999018888546
174272000000,,253,,174,268000239,"""map""",,,0.0617514923215,-0.0526934638619,-0.0174399912357,,0.0049835279909,-0.0141509621089,0.0415881920339,-0.999022218147
174308000000,,254,,174,300000239,"""map""",,,0.0620003826916,-0.0526612922549,-0.0172529648989,,0.00497887570322,-0.0141616940795,0.0415454551295,-0.999023819727
174340000000,,255,,174,340000239,"""map""",,,0.0626163706183,-0.0528558157384,-0.0170395821333,,0.00496923922144,-0.0141640075464,0.0414927715689,-0.999026095657
174372000000,,256,,174,364000239,"""map""",,,0.0631287768483,-0.0531015172601,-0.0169326793402,,0.00491420992526,-0.01421169012,0.0414757442421,-0.999026348538
174408000000,,257,,174,404000239,"""map""",,,0.0636285915971,-0.0531243719161,-0.0169685166329,,0.00488032682251,-0.0142752735801,0.04145905409,-0.999026348538
174440000000,,258,,174,436000239,"""map""",,,0.0635429248214,-0.0527000539005,-0.0169810242951,,0.00488234954196,-0.0142569373961,0.0414702230049,-0.999026137804
174472000000,,259,,174,468000239,"""map""",,,0.0636985823512,-0.0524870827794,-0.0170174185187,,0.00487601302671,-0.0142445238321,0.0414370534351,-0.999027697237
174508000000,,260,,174,500000239,"""map""",,,0.0640766471624,-0.0524968281388,-0.016982646659,,0.00489096923103,-0.014180108301,0.0414272332194,-0.999028919496
174540000000,,261,,174,532000239,"""map""",,,0.0646572038531,-0.0526831187308,-0.0168273169547,,0.00487096297815,-0.0141989792232,0.0414054432987,-0.999029720286
174572000000,,262,,174,564000239,"""map""",,,0.0654436200857,-0.0530117489398,-0.0166135560721,,0.00479624781099,-0.014182516269,0.0414723724942,-0.99902752865
174608000000,,263,,174,604000239,"""map""",,,0.065953373909,-0.0531822554767,-0.0162620712072,,0.00482706473052,-0.0141530217069,0.0415093774272,-0.999026264245
174640000000,,264,,174,636000239,"""map""",,,0.065757535398,-0.0530145391822,-0.0158524084836,,0.0048345164909,-0.0141601646099,0.0415055842108,-0.999026264245
174672000000,,265,,174,668000239,"""map""",,,0.0658207386732,-0.0530373342335,-0.0155118657276,,0.00481412268457,-0.0141825050738,0.0414486859653,-0.999028371587
174708000000,,266,,174,700000239,"""map""",,,0.0661101713777,-0.0532402805984,-0.0153094707057,,0.00480457082576,-0.0141884244011,0.0414349039458,-0.999028919496
174740000000,,267,,174,732000239,"""map""",,,0.0666152313352,-0.0535795539618,-0.0151962451637,,0.00501529881214,-0.0141698899952,0.041451551951,-0.999027444356
174772000000,,268,,174,764000238,"""map""",,,0.06733751297,-0.0540802814066,-0.0149345397949,,0.00500990335699,-0.0141627875927,0.0414867445695,-0.999026137804
174808000000,,269,,174,804000238,"""map""",,,0.0678317323327,-0.0544824525714,-0.0144752999768,,0.00497787273994,-0.014146704948,0.0415124541471,-0.999025463454
174840000000,,270,,174,836000238,"""map""",,,0.0676693245769,-0.0544926263392,-0.0139555837959,,0.0049602951992,-0.0141795962827,0.0415169638599,-0.999024915545
174872000000,,271,,174,868000238,"""map""",,,0.067803658545,-0.0546996742487,-0.0135536929592,,0.00492985858913,-0.0142115646673,0.0415232015935,-0.99902432549
174908000000,,272,,174,900000238,"""map""",,,0.06814712286,-0.0550795607269,-0.0131808668375,,0.00492299392118,-0.0142065491923,0.0415109790074,-0.999024915545
174940000000,,273,,174,932000238,"""map""",,,0.068693511188,-0.0556383095682,-0.012830122374,,0.00491678055375,-0.0141992531777,0.0414995150646,-0.999025589895
174972000000,,274,,174,964000238,"""map""",,,0.0694377720356,-0.0563702769578,-0.0126425242051,,0.00487986946335,-0.0141472950038,0.0415412404446,-0.999024746958
175008000000,,275,,175,4000238,"""map""",,,0.0698844492435,-0.0567506030202,-0.0124160153791,,0.00489310028106,-0.014111365474,0.0414594755585,-0.999028624468
175040000000,,276,,175,36000238,"""map""",,,0.0696377307177,-0.0564070567489,-0.0120047852397,,0.00489878384943,-0.0141350622103,0.0414344824774,-0.999029256671
175072000000,,277,,175,68000238,"""map""",,,0.0696573629975,-0.0562825277448,-0.0116226999089,,0.0048991141095,-0.0141433773226,0.0414969441069,-0.999026559273
175108000000,,278,,175,100000238,"""map""",,,0.0699378401041,-0.05634919554,-0.0113331098109,,0.00487074960973,-0.0141499993169,0.0415462137728,-0.999024494077
175140000000,,279,,175,132000238,"""map""",,,0.0704474598169,-0.0566000640392,-0.011107897386,,0.00491544403767,-0.0141788656276,0.0415384587526,-0.999024241196
175172000000,,280,,175,164000237,"""map""",,,0.071166947484,-0.0570260025561,-0.0109290359542,,0.00484644207339,-0.0141657787018,0.0415076915532,-0.999026011363
175208000000,,281,,175,204000237,"""map""",,,0.0714355632663,-0.0571325570345,-0.0106053389609,,0.00481696068213,-0.0141438159132,0.0414945417365,-0.999027022888
175240000000,,282,,175,236000237,"""map""",,,0.0708655193448,-0.0567284338176,-0.0101676424965,,0.00477233770627,-0.0141574859801,0.0414990935961,-0.9990268543
175272000000,,283,,175,268000237,"""map""",,,0.0705383643508,-0.0565636791289,-0.00968369934708,,0.00480063602232,-0.0141322815062,0.0414917178976,-0.999027402209
175308000000,,284,,175,300000237,"""map""",,,0.0704846978188,-0.0566037781537,-0.00923524238169,,0.00478067883101,-0.0140846404208,0.0414944152959,-0.999028076559
175340000000,,285,,175,332000237,"""map""",,,0.0706830471754,-0.0568402223289,-0.00884166453034,,0.00477611149557,-0.014088360868,0.0414800010738,-0.999028582321
175372000000,,286,,175,364000237,"""map""",,,0.0711055472493,-0.057225741446,-0.00875573977828,,0.00502165409591,-0.0141143769981,0.0414862388073,-0.999026812154
175408000000,,287,,175,404000237,"""map""",,,0.0711077004671,-0.0573159120977,-0.00843053031713,,0.00497833339182,-0.0141408521337,0.0415318416974,-0.999024789105
175440000000,,288,,175,436000237,"""map""",,,0.0704717263579,-0.0568667426705,-0.00823584198952,,0.00497113582962,-0.0141356624737,0.0415096303083,-0.999025758482
175472000000,,289,,175,468000237,"""map""",,,0.0701039656997,-0.0566469095647,-0.0082714818418,,0.00494393135599,-0.0141470776842,0.0415499648423,-0.999024030462
175508000000,,290,,175,500000237,"""map""",,,0.0699984505773,-0.0566283017397,-0.00824161246419,,0.00498537520824,-0.0141520822932,0.0415200405798,-0.999025041986
175540000000,,291,,175,532000237,"""map""",,,0.0701344609261,-0.0568040721118,-0.00813213456422,,0.00498940451281,-0.0141435090315,0.0415516928631,-0.999023819727
175572000000,,292,,175,564000236,"""map""",,,0.070507645607,-0.0572054982185,-0.00794419646263,,0.00500960075579,-0.0141268439042,0.0415542638208,-0.999023861874
175608000000,,293,,175,604000236,"""map""",,,0.0704318135977,-0.0573331937194,-0.0077575831674,,0.00492748585327,-0.0141238524657,0.0415626510437,-0.999023988315
175640000000,,294,,175,636000236,"""map""",,,0.0696598514915,-0.0569331683218,-0.00757675524801,,0.00495556717891,-0.0141138152596,0.0415643790645,-0.999023861874
175672000000,,295,,175,668000236,"""map""",,,0.0691612511873,-0.0567795448005,-0.00748553359881,,0.00495340517729,-0.0141502992839,0.0415555703731,-0.999023735434
175708000000,,296,,175,700000236,"""map""",,,0.0689153671265,-0.0568329915404,-0.00742082949728,,0.00498686681155,-0.0141500743909,0.0415169217131,-0.99902512628
175740000000,,297,,175,732000236,"""map""",,,0.0689235553145,-0.0570584386587,-0.00753505062312,,0.00498078614084,-0.0141302149935,0.0415256461107,-0.999025168427
175772000000,,298,,175,764000236,"""map""",,,0.0691410005093,-0.0574605129659,-0.0077376072295,,0.00494422012776,-0.0141353710677,0.0415528729748,-0.999024156902
175808000000,,299,,175,804000236,"""map""",,,0.0690724104643,-0.0575150027871,-0.00787096749991,,0.00489306109766,-0.0141157866126,0.0415207992231,-0.999025969217
175840000000,,300,,175,836000236,"""map""",,,0.0686129778624,-0.0570524521172,-0.00783085078001,,0.00488372622926,-0.0140906348222,0.0414993464772,-0.999027275769
175872000000,,301,,175,868000236,"""map""",,,0.0684058442712,-0.0568110197783,-0.00789095181972,,0.00484494816518,-0.0141182057758,0.0415266154882,-0.999025884923
175908000000,,302,,175,900000236,"""map""",,,0.0684290677309,-0.0567817911506,-0.00798075925559,,0.00488488263341,-0.0140970859242,0.0415511871009,-0.999024999839
175940000000,,303,,175,932000236,"""map""",,,0.0686652138829,-0.0569673068821,-0.00808074139059,,0.00487104397912,-0.014091992741,0.0415702796233,-0.999024367636
175972000000,,304,,175,964000235,"""map""",,,0.0690972134471,-0.0573497265577,-0.0081970859319,,0.00486416087193,-0.0141389588182,0.0415164159509,-0.999025969217
176008000000,,305,,176,4000235,"""map""",,,0.0691303610802,-0.0573773086071,-0.00816534273326,,0.00486590173433,-0.0140944191482,0.0414314479043,-0.999030099608
176040000000,,306,,176,36000235,"""map""",,,0.068593904376,-0.0568319000304,-0.00804381910712,,0.00486229752024,-0.0140599081233,0.0414173708569,-0.999031195426
176072000000,,307,,176,68000235,"""map""",,,0.0682859793305,-0.0564974918962,-0.00790944043547,,0.00484661658769,-0.0142624563283,0.0413821782384,-0.999029888874
176108000000,,308,,176,100000235,"""map""",,,0.0681923031807,-0.0564291216433,-0.0078219641,,0.00486613749327,-0.0142879087443,0.0414597705865,-0.999026137804
176140000000,,309,,176,132000235,"""map""",,,0.0682942271233,-0.0565608926117,-0.00776036968455,,0.0048406850773,-0.0142117293034,0.0414300992051,-0.999028666615
176172000000,,310,,176,164000235,"""map""",,,0.0686077326536,-0.0569095090032,-0.00779209984466,,0.00481576575312,-0.014212980538,0.0414605713766,-0.999027444356
176208000000,,311,,176,204000235,"""map""",,,0.0685972347856,-0.0571097284555,-0.00761416414753,,0.00477339532875,-0.014167087559,0.0414096158367,-0.999030436783
176240000000,,312,,176,236000235,"""map""",,,0.0680671408772,-0.0568876899779,-0.00698891282082,,0.00479887342795,-0.0141811972044,0.041356131486,-0.999032333391
176272000000,,313,,176,268000234,"""map""",,,0.0677841380239,-0.0568983890116,-0.00636787293479,,0.00472571275511,-0.0142018626603,0.0413154597772,-0.999034061412
176308000000,,314,,176,300000234,"""map""",,,0.0677599832416,-0.0571406520903,-0.00580331869423,,0.00473003774616,-0.0141803799507,0.0413308433769,-0.99903368209
176340000000,,315,,176,332000234,"""map""",,,0.0679530054331,-0.0575925782323,-0.0051135472022,,0.00471433804509,-0.0141679387278,0.0413740017497,-0.999032164803
176372000000,,316,,176,364000234,"""map""",,,0.0683427080512,-0.0582349635661,-0.00455977302045,,0.00469633409679,-0.0141700111674,0.0413378819006,-0.999033724237
176408000000,,317,,176,404000234,"""map""",,,0.0683655440807,-0.0585552789271,-0.00397433014587,,0.00470637426636,-0.0142385761874,0.041334973768,-0.999032839153
176440000000,,318,,176,436000234,"""map""",,,0.0678406879306,-0.0581998154521,-0.00338435498998,,0.00469132718289,-0.0142325696029,0.0413124252041,-0.999033892824
176472000000,,319,,176,468000234,"""map""",,,0.0675767660141,-0.0580719746649,-0.00309769040905,,0.0046831872435,-0.0141630210467,0.041262649776,-0.999036969544
176508000000,,320,,176,500000234,"""map""",,,0.0675162374973,-0.0581439509988,-0.00279994728044,,0.0046860769368,-0.0142001089563,0.0412129164947,-0.999038486831
176540000000,,321,,176,532000234,"""map""",,,0.0676714256406,-0.0584516115487,-0.00250809313729,,0.00470877630745,-0.0141928814303,0.0412236639411,-0.999038107509
176572000000,,322,,176,564000234,"""map""",,,0.068020708859,-0.0590325519443,-0.00249434355646,,0.00450576942615,-0.0141609183141,0.0411902414902,-0.999040847054
176608000000,,323,,176,604000234,"""map""",,,0.0680639222264,-0.0592642500997,-0.00242018979043,,0.00452420472111,-0.0141603546,0.0412299438215,-0.999039076887
176640000000,,324,,176,636000234,"""map""",,,0.0675601661205,-0.0588427074254,-0.00240002153441,,0.00454095381285,-0.0141419604641,0.0412307446117,-0.999039287621
176672000000,,325,,176,668000233,"""map""",,,0.0672917291522,-0.0586556307971,-0.00251043192111,,0.00479931234786,-0.0141294484477,0.0411720340517,-0.999040678467
176708000000,,326,,176,700000233,"""map""",,,0.0672312825918,-0.0587144121528,-0.00259831431322,,0.00486556587663,-0.0140859529,0.0412226102699,-0.999038908299
176740000000,,327,,176,732000233,"""map""",,,0.0673644393682,-0.0589810274541,-0.00279646809213,,0.00490351252827,-0.0140613127987,0.0411950040841,-0.999040130558
176772000000,,328,,176,764000233,"""map""",,,0.0676812380552,-0.0594331249595,-0.00302863051184,,0.00494402454004,-0.0140733802975,0.041176670205,-0.999040594173
176808000000,,329,,176,804000233,"""map""",,,0.068318657577,-0.0602040700614,-0.0032726880163,,0.00495864159394,-0.0140704603112,0.0411912108678,-0.999039877677
176840000000,,330,,176,836000233,"""map""",,,0.0690122917295,-0.0609797425568,-0.00342808454297,,0.00492932747298,-0.0140412219229,0.0411695895345,-0.999041352816
176872000000,,331,,176,868000233,"""map""",,,0.069853104651,-0.0619161650538,-0.00359867908992,,0.00490725569526,-0.0140070803414,0.0412194914031,-0.999039919823
176908000000,,332,,176,900000233,"""map""",,,0.0700164735317,-0.0622714348137,-0.00385630107485,,0.00492290501767,-0.0140316799422,0.0411553438997,-0.99904211146
176940000000,,333,,176,932000233,"""map""",,,0.0696008205414,-0.0620915517211,-0.00415808195248,,0.00497989315449,-0.0140258001276,0.0411739306599,-0.999041142082
176972000000,,334,,176,964000233,"""map""",,,0.0694219246507,-0.0621287561953,-0.00455940933898,,0.00497308775554,-0.0139955584467,0.0411570297736,-0.999042280047
177008000000,,335,,177,4000233,"""map""",,,0.069497205317,-0.0624329783022,-0.0048617599532,,0.0049372938859,-0.0139857138648,0.0411850995747,-0.99904143711
177040000000,,336,,177,36000233,"""map""",,,0.0697844624519,-0.0628620460629,-0.00509936409071,,0.00492331726653,-0.0139982416863,0.0412104298307,-0.999040299145
177072000000,,337,,177,68000232,"""map""",,,0.070260129869,-0.0634766891599,-0.00543368794024,,0.00493311509172,-0.0140368798096,0.0412477719385,-0.999038191803
177108000000,,338,,177,100000232,"""map""",,,0.0702230483294,-0.0634943321347,-0.00551424594596,,0.00493433998451,-0.0140042686856,0.0412535460567,-0.999038402537
177140000000,,339,,177,132000232,"""map""",,,0.0697157382965,-0.0629734918475,-0.00536062149331,,0.00495386451208,-0.0140291340091,0.0412295223531,-0.999038908299
177172000000,,340,,177,164000232,"""map""",,,0.0694388076663,-0.0626905858517,-0.00532305659726,,0.00491208578995,-0.0140133875514,0.0411454393903,-0.999042827956
177208000000,,341,,177,204000232,"""map""",,,0.0694204643369,-0.0626216754317,-0.0053124409169,,0.00491536369524,-0.0140513753621,0.0411671028704,-0.999041394963
177240000000,,342,,177,236000232,"""map""",,,0.0696483030915,-0.0627602264285,-0.00542079517618,,0.00485544536463,-0.0140591356506,0.041150244131,-0.999042322194
177272000000,,343,,177,268000232,"""map""",,,0.0700663328171,-0.0630577281117,-0.00551055977121,,0.0048102250889,-0.0140972278405,0.0411837930224,-0.999040552026
177308000000,,344,,177,300000232,"""map""",,,0.0698670074344,-0.0628202855587,-0.00560316350311,,0.00483502192381,-0.0141508149242,0.0411826129107,-0.999039709089
177340000000,,345,,177,332000232,"""map""",,,0.0691322386265,-0.0620908439159,-0.00563826737925,,0.00481952307881,-0.0141581109388,0.0412019583141,-0.999038908299
177372000000,,346,,177,364000231,"""map""",,,0.0686776340008,-0.0615844912827,-0.0056487666443,,0.00482519479339,-0.0141678834101,0.0411614130459,-0.999040425586
177408000000,,347,,177,404000231,"""map""",,,0.0684604346752,-0.061219714582,-0.00548189552501,,0.00482196759603,-0.0141425785081,0.0411966899581,-0.999039371914
177440000000,,348,,177,436000231,"""map""",,,0.0685457661748,-0.0611653961241,-0.00523450644687,,0.00481978254535,-0.0141182439714,0.0411419412018,-0.999041942872
177472000000,,349,,177,468000231,"""map""",,,0.0688347667456,-0.0612901933491,-0.00508638750762,,0.00476285038482,-0.0141288369891,0.0411147564846,-0.999043165131
177508000000,,350,,177,500000231,"""map""",,,0.0685890689492,-0.0609206929803,-0.00509787304327,,0.00476805749624,-0.0141358669517,0.0411129441701,-0.999043122984
177540000000,,351,,177,532000231,"""map""",,,0.0679026097059,-0.0601273030043,-0.00531380996108,,0.00478991821046,-0.0141253490081,0.0410492181351,-0.999045820382
177572000000,,352,,177,564000231,"""map""",,,0.0674679875374,-0.0595672987401,-0.00555110117421,,0.00474447402959,-0.0140798666317,0.0410342981508,-0.999047337669
177608000000,,353,,177,604000231,"""map""",,,0.0672420412302,-0.0591802373528,-0.00578574137762,,0.00479481712305,-0.0141109670546,0.0410121710553,-0.999047548403
177640000000,,354,,177,636000231,"""map""",,,0.0673060193658,-0.059123814106,-0.00596586847678,,0.00479618327363,-0.014084757971,0.0410254894594,-0.999047379816
177672000000,,355,,177,668000231,"""map""",,,0.067577123642,-0.0592308342457,-0.00625545531511,,0.00478109766532,-0.014056071443,0.0410560880714,-0.999046536879
177708000000,,356,,177,700000231,"""map""",,,0.0672532767057,-0.0588667169213,-0.00645902520046,,0.00500796065069,-0.0140714803966,0.0410456777998,-0.999045651795
177740000000,,357,,177,732000231,"""map""",,,0.0664091482759,-0.058083537966,-0.00661874003708,,0.00496142888357,-0.0140473885336,0.0410691114476,-0.99904531462
177772000000,,358,,177,764000230,"""map""",,,0.0658468306065,-0.0575607083738,-0.00689046131447,,0.00500675156297,-0.0139932334553,0.0410301256127,-0.999047379816
177808000000,,359,,177,804000230,"""map""",,,0.0655089393258,-0.0572338923812,-0.00752447172999,,0.00498404494834,-0.0140328910056,0.0410768664677,-0.999044977445
177840000000,,360,,177,836000230,"""map""",,,0.0655184537172,-0.0571695975959,-0.00805796775967,,0.00497659285868,-0.0140592973232,0.0410210218935,-0.999047042641
177872000000,,361,,177,868000230,"""map""",,,0.0657157078385,-0.0572971850634,-0.00860169902444,,0.00500572983117,-0.0140609604774,0.0410590804977,-0.999045230326
177908000000,,362,,177,900000230,"""map""",,,0.0654026716948,-0.0568428188562,-0.00905598700047,,0.00498346279499,-0.013986363519,0.0410536435542,-0.999046621172
177940000000,,363,,177,932000230,"""map""",,,0.0646721571684,-0.0558835268021,-0.00942680891603,,0.00498561195499,-0.0139828985871,0.0410362790526,-0.999047379816
177972000000,,364,,177,964000230,"""map""",,,0.0642102584243,-0.055199932307,-0.00982319470495,,0.00501167286608,-0.0140008547909,0.0409959445186,-0.999048602074
178008000000,,365,,178,4000230,"""map""",,,0.0639720335603,-0.0546691305935,-0.0103124426678,,0.00497889348392,-0.0140620885641,0.0409809402405,-0.999048602074
178040000000,,366,,178,36000230,"""map""",,,0.0640502870083,-0.0544831156731,-0.010798051022,,0.00497607985251,-0.0140351794477,0.0409882316453,-0.999048728515
178072000000,,367,,178,68000230,"""map""",,,0.0643340051174,-0.0544730685651,-0.0114618483931,,0.00501516348124,-0.0140605870827,0.0410934301792,-0.99904383948
178108000000,,368,,178,100000230,"""map""",,,0.0642518848181,-0.0539929792285,-0.0118617890403,,0.00496209500134,-0.0140586381202,0.0410832727887,-0.999044555977
178140000000,,369,,178,132000230,"""map""",,,0.0638493970037,-0.0531123802066,-0.0119814332575,,0.00497845094201,-0.0140618567565,0.0410543179038,-0.999045609648
178172000000,,370,,178,164000229,"""map""",,,0.0636844560504,-0.0524696558714,-0.0121019752696,,0.00487391753808,-0.0140656605096,0.0410407466186,-0.999046621172
178208000000,,371,,178,204000229,"""map""",,,0.0637917891145,-0.0519478358328,-0.0122678093612,,0.00486323232417,-0.014109852468,0.0410227920611,-0.99904678976
178240000000,,372,,178,236000229,"""map""",,,0.0640633255243,-0.0517644770443,-0.01253926754,,0.00485693235813,-0.0140845330781,0.0410616936023,-0.999045567501
178272000000,,373,,178,268000229,"""map""",,,0.0645177438855,-0.0517429895699,-0.0128486119211,,0.00483135942853,-0.0140697648882,0.0410835256698,-0.999044977445
178308000000,,374,,178,300000229,"""map""",,,0.0643829107285,-0.0514016970992,-0.0129171367735,,0.00480585828027,-0.0140857566538,0.0410946945847,-0.999044429536
178340000000,,375,,178,332000229,"""map""",,,0.0637537464499,-0.0507588684559,-0.0126324044541,,0.00482571734845,-0.0141172706426,0.0411102046249,-0.999043249425
178372000000,,376,,178,364000229,"""map""",,,0.0633496791124,-0.0503270104527,-0.012513213791,,0.00482555863923,-0.0141027714682,0.0410940623819,-0.999044134508
178408000000,,377,,178,404000229,"""map""",,,0.0631225481629,-0.0500781014562,-0.0126331364736,,0.00483758036922,-0.0140463230086,0.0410719774333,-0.999045736089
178440000000,,378,,178,436000229,"""map""",,,0.0631595626473,-0.0501014739275,-0.0129511151463,,0.00483636667169,-0.0140049552183,0.0410710502027,-0.999046410438
178472000000,,379,,178,468000228,"""map""",,,0.06340431422,-0.050325743854,-0.0132986772805,,0.00481209140404,-0.0140169183378,0.0411077179609,-0.999044808858
178508000000,,380,,178,500000228,"""map""",,,0.0631542652845,-0.0501641854644,-0.0135572841391,,0.00500309993367,-0.0140097583126,0.0411260939868,-0.999043291571
178540000000,,381,,178,532000228,"""map""",,,0.0624717846513,-0.0496782287955,-0.0136774275452,,0.00502294023334,-0.0140245535028,0.0411207834839,-0.999043122984
178572000000,,382,,178,564000228,"""map""",,,0.0620400197804,-0.0494085252285,-0.0138519797474,,0.00498894155603,-0.014029106021,0.041123523029,-0.999043165131
178608000000,,383,,178,604000228,"""map""",,,0.0618357211351,-0.0493296310306,-0.0140100000426,,0.00493356849962,-0.014012548895,0.0411063692617,-0.999044303096
178640000000,,384,,178,636000228,"""map""",,,0.0619118064642,-0.0494823791087,-0.0141668822616,,0.00494036599603,-0.0139975828125,0.0411035454229,-0.999044682417
178672000000,,385,,178,668000228,"""map""",,,0.0621897429228,-0.049846727401,-0.0144098624587,,0.00492098733606,-0.013970435303,0.0410620307771,-0.999046831907
178708000000,,386,,178,700000228,"""map""",,,0.0621097832918,-0.0498299188912,-0.0146345607936,,0.00489492477862,-0.0139977280216,0.041099330738,-0.999045019592
178740000000,,387,,178,732000228,"""map""",,,0.0616961047053,-0.0494734048843,-0.0147251393646,,0.00489711509765,-0.013973705635,0.0411191397568,-0.99904451383
178772000000,,388,,178,764000227,"""map""",,,0.0614951588213,-0.0493312999606,-0.0148631324992,,0.004861702196,-0.0139156197045,0.0411239444975,-0.999045356767
178808000000,,389,,178,804000227,"""map""",,,0.0615652315319,-0.0494207255542,-0.0150302369148,,0.00488036896936,-0.0139063872398,0.0411038825976,-0.999046199704
178840000000,,390,,178,836000227,"""map""",,,0.0618134737015,-0.0496800616384,-0.015013365075,,0.00485887572298,-0.0139025370593,0.0411169481207,-0.999045862529
178872000000,,391,,178,868000227,"""map""",,,0.0622353218496,-0.0500543825328,-0.0149863017723,,0.00482850463808,-0.013933437614,0.0410210640403,-0.999049529305
178908000000,,392,,178,900000227,"""map""",,,0.0621398575604,-0.0500633753836,-0.0149953691289,,0.00478141376668,-0.0139373569416,0.0409452418598,-0.999052774612
178940000000,,393,,178,932000227,"""map""",,,0.0616176575422,-0.0497605279088,-0.015047554858,,0.0048187150447,-0.013933441236,0.040975250416,-0.999051425913
178972000000,,394,,178,964000227,"""map""",,,0.0613216757774,-0.0496387034655,-0.0151485390961,,0.00483751122205,-0.0139375953347,0.0409981783016,-0.999050330095
179008000000,,395,,179,4000227,"""map""",,,0.0612485967577,-0.0497220158577,-0.0152057614177,,0.00478930115425,-0.0139303625404,0.0410152056284,-0.999049908627
179040000000,,396,,179,36000227,"""map""",,,0.0613763816655,-0.0499666817486,-0.0153211690485,,0.00476185170207,-0.0139819107703,0.0410079985173,-0.999049613599
179072000000,,397,,179,68000227,"""map""",,,0.0616938956082,-0.0503644421697,-0.0154761299491,,0.00472353725332,-0.013994243004,0.0409859135687,-0.999050625123
179108000000,,398,,179,100000227,"""map""",,,0.0615280866623,-0.0504206456244,-0.015457239002,,0.00444191563357,-0.0139588004679,0.0409857028344,-0.999052353144
179140000000,,399,,179,132000227,"""map""",,,0.0609608106315,-0.0501260757446,-0.0151963159442,,0.00445585866716,-0.0139693131431,0.0409827947019,-0.999052310997
179172000000,,400,,179,164000226,"""map""",,,0.0606405697763,-0.0500141754746,-0.0149265499786,,0.00449910627282,-0.0139800767238,0.0409720472555,-0.999052353144
179208000000,,401,,179,204000226,"""map""",,,0.0605391971767,-0.0501016825438,-0.0145410653204,,0.00447985866321,-0.0139733763627,0.0409398049164,-0.999053912577
179240000000,,402,,179,236000226,"""map""",,,0.0606585666537,-0.0503515265882,-0.0143122933805,,0.00448154914697,-0.0139760665171,0.0409706564095,-0.999052563878
179272000000,,403,,179,268000226,"""map""",,,0.0609490536153,-0.0507218278944,-0.0141928903759,,0.00448844213233,-0.0139890615758,0.0410098951255,-0.999050751564
179308000000,,404,,179,300000226,"""map""",,,0.0607392042875,-0.0507885180414,-0.0140176480636,,0.00446433808625,-0.013920380652,0.0410410416465,-0.999050540829
179340000000,,405,,179,332000226,"""map""",,,0.0601299777627,-0.0506092272699,-0.0138745708391,,0.00448636936349,-0.0139330125235,0.0410442026602,-0.999050161508
179372000000,,406,,179,364000226,"""map""",,,0.0597656853497,-0.0506054274738,-0.0137863084674,,0.00445682178851,-0.0139276032389,0.0410098529786,-0.999051805235
179408000000,,407,,179,404000226,"""map""",,,0.0596162676811,-0.0508056543767,-0.0136284194887,,0.00441355640215,-0.0139124425565,0.0409713729059,-0.999053786137
179440000000,,408,,179,436000226,"""map""",,,0.0597459413111,-0.0511228404939,-0.0136462245136,,0.00463034991272,-0.0138982502638,0.0409487821951,-0.99905387043
179472000000,,409,,179,468000225,"""map""",,,0.0600734613836,-0.0515449233353,-0.013624984771,,0.00456829789791,-0.0138808923477,0.0409728901925,-0.999053364668
179508000000,,410,,179,500000225,"""map""",,,0.060075096786,-0.0515727475286,-0.0135096702725,,0.00457544771564,-0.0138718156287,0.0409808980937,-0.999053196081
179540000000,,411,,179,532000225,"""map""",,,0.0598051436245,-0.0512764193118,-0.0132663892582,,0.00457626793282,-0.0138692054876,0.0410288190604,-0.999051299473
179572000000,,412,,179,564000225,"""map""",,,0.0597871690989,-0.051159273833,-0.0130040859804,,0.00453657152842,-0.0138485397024,0.0410016343432,-0.999052858906
179608000000,,413,,179,604000225,"""map""",,,0.0600561462343,-0.0512032210827,-0.0127409948036,,0.00452035552846,-0.0138996928056,0.0410410837934,-0.999050582976
179640000000,,414,,179,636000225,"""map""",,,0.060469482094,-0.0513631664217,-0.0125255268067,,0.00451345496983,-0.0139261415994,0.0410584061481,-0.999049529305
179672000000,,415,,179,668000225,"""map""",,,0.0610528439283,-0.0516270138323,-0.0123258279637,,0.00449731601958,-0.014000435298,0.0410488809603,-0.999048939249
179708000000,,416,,179,700000225,"""map""",,,0.0611524432898,-0.0514709539711,-0.012034852989,,0.00446947637977,-0.0139999035233,0.0410707551747,-0.999048222753
179740000000,,417,,179,732000225,"""map""",,,0.0608627833426,-0.0509614348412,-0.0117850312963,,0.00446071049383,-0.0140102709895,0.0410454670656,-0.999049149983
179772000000,,418,,179,764000224,"""map""",,,0.0608316548169,-0.0506530962884,-0.011634266004,,0.00449203679753,-0.0140362736194,0.0410318114867,-0.999049149983
179808000000,,419,,179,804000224,"""map""",,,0.0610984489322,-0.0505147725344,-0.0115771722049,,0.00452848130914,-0.0140569104287,0.0410265431306,-0.999048939249
179840000000,,420,,179,836000224,"""map""",,,0.0615353547037,-0.0505646280944,-0.011712831445,,0.00455107959321,-0.0140942291581,0.0409935421482,-0.999049655746
179872000000,,421,,179,868000224,"""map""",,,0.0621486119926,-0.0507786870003,-0.0118537005037,,0.00455522875288,-0.0141774490983,0.0409624799209,-0.999049697892
179908000000,,422,,179,900000224,"""map""",,,0.0622640512884,-0.0506730563939,-0.0119238691404,,0.00450181881765,-0.0141920799817,0.0408931905019,-0.999052648172
179940000000,,423,,179,932000224,"""map""",,,0.0619207136333,-0.0502903424203,-0.0119322128594,,0.0045001543464,-0.0142037530123,0.0408845082511,-0.999052816759
179972000000,,424,,179,964000224,"""map""",,,0.0618057958782,-0.0500929318368,-0.0119274370372,,0.0045351500601,-0.014179253181,0.0408869527684,-0.999052901053
180008000000,,425,,180,4000224,"""map""",,,0.0619510821998,-0.0501096695662,-0.0119379926473,,0.00459878949645,-0.0141708511409,0.0408946234948,-0.999052395291
180040000000,,426,,180,36000224,"""map""",,,0.0622724927962,-0.0502880439162,-0.0119275944307,,0.00462789255389,-0.0141895491951,0.0408924318587,-0.99905214241
180072000000,,427,,180,68000224,"""map""",,,0.0627749338746,-0.0505933314562,-0.0118815135211,,0.0046476159619,-0.0141883993764,0.0409385826578,-0.999050161508
180108000000,,428,,180,100000224,"""map""",,,0.0628125667572,-0.050566598773,-0.0116758504882,,0.00465518165048,-0.0142341810613,0.040957169418,-0.999048686368
180140000000,,429,,180,132000224,"""map""",,,0.0624346770346,-0.0502630285919,-0.0115137770772,,0.004712376241,-0.0142000750413,0.0409599089631,-0.999048812809
180172000000,,430,,180,164000223,"""map""",,,0.0623165927827,-0.0501552671194,-0.0114468503743,,0.00468122050033,-0.0142051102726,0.0409259386032,-0.999050245801
180208000000,,431,,180,204000223,"""map""",,,0.0624726302922,-0.0502286739647,-0.0115581881255,,0.00465328668866,-0.0141541162079,0.0408943284668,-0.999052437438
180240000000,,432,,180,236000223,"""map""",,,0.0628478080034,-0.0504223182797,-0.0116710616276,,0.00462628274184,-0.0141464109078,0.0409065510529,-0.999052100263
180272000000,,433,,180,268000223,"""map""",,,0.0633960291743,-0.0507652722299,-0.0117506189272,,0.00466976577716,-0.0141149120655,0.0408992175013,-0.999052690319
180308000000,,434,,180,300000223,"""map""",,,0.0636158213019,-0.0506850033998,-0.0115723405033,,0.0047323502252,-0.0141019002138,0.0409205016598,-0.999051720941
180340000000,,435,,180,332000223,"""map""",,,0.0635915100574,-0.0502406023443,-0.0113176936284,,0.00474877037396,-0.0141441576978,0.0409665260183,-0.999049107836
180372000000,,436,,180,364000223,"""map""",,,0.0637952461839,-0.049939148128,-0.0112321209162,,0.00474334396722,-0.0141584626016,0.0410020558116,-0.999047548403
180408000000,,437,,180,404000223,"""map""",,,0.06433031708,-0.0497842729092,-0.0112301288173,,0.0049841450471,-0.0141384069579,0.0409859557155,-0.999047295522
180440000000,,438,,180,436000223,"""map""",,,0.0649891644716,-0.0498569719493,-0.0111790969968,,0.00500706305452,-0.0141208850642,0.0409849441911,-0.999047464109
180472000000,,439,,180,468000222,"""map""",,,0.0658041015267,-0.0500386022031,-0.0112344222143,,0.00503251151922,-0.0141677329327,0.0410220755647,-0.999045146033
180504000000,,440,,180,500000222,"""map""",,,0.0660933330655,-0.0498312599957,-0.0112284179777,,0.00497685693503,-0.0141776818938,0.0409881052048,-0.999046663319
180540000000,,441,,180,532000222,"""map""",,,0.0659237131476,-0.0492571741343,-0.0110883926973,,0.00498402585055,-0.0141677918724,0.040963575739,-0.999047759137
180572000000,,442,,180,564000222,"""map""",,,0.0660114064813,-0.0488634668291,-0.0111012691632,,0.00495592476857,-0.0142051231142,0.0409914348058,-0.999046283998
180604000000,,443,,180,596000222,"""map""",,,0.0663252025843,-0.0486604869366,-0.0112025281414,,0.00493210159172,-0.0142167658518,0.0410140255166,-0.999045272473
180640000000,,444,,180,636000222,"""map""",,,0.0669753327966,-0.0486213937402,-0.0115347523242,,0.00485977694114,-0.0142739650521,0.0410420531709,-0.999043628746
180672000000,,445,,180,668000222,"""map""",,,0.0676825270057,-0.0487120598555,-0.0118004605174,,0.00487048158211,-0.0142832854326,0.04106734128,-0.999042448634
180704000000,,446,,180,700000222,"""map""",,,0.0678614452481,-0.0484188459814,-0.0120793608949,,0.00486125701992,-0.0142719555036,0.0410554980156,-0.999043080837
180740000000,,447,,180,732000222,"""map""",,,0.0676032230258,-0.0478287935257,-0.0123064424843,,0.00491466497951,-0.0142491422047,0.0410855487185,-0.999041942872
180772000000,,448,,180,764000221,"""map""",,,0.0676112398505,-0.0473998710513,-0.0125513635576,,0.00494066332887,-0.0142568837247,0.0410592912319,-0.999042827956
180804000000,,449,,180,796000221,"""map""",,,0.0678379759192,-0.047138620168,-0.0127160297707,,0.00490740518486,-0.0142360845842,0.041065107497,-0.999042996543
180840000000,,450,,180,836000221,"""map""",,,0.0684001296759,-0.0470171049237,-0.0128855369985,,0.00492170449103,-0.0142788916236,0.0410713452306,-0.999042069313
180872000000,,451,,180,868000221,"""map""",,,0.0690284147859,-0.0470700599253,-0.0131366960704,,0.00475956194282,-0.0141780312517,0.0410501032189,-0.99904518818
180904000000,,452,,180,900000221,"""map""",,,0.0692104175687,-0.046753000468,-0.0134711014107,,0.00474475094756,-0.0141616983601,0.0410454249188,-0.999045651795
180940000000,,453,,180,932000221,"""map""",,,0.0689853578806,-0.0461290925741,-0.0138080148026,,0.00476133112264,-0.0141265274735,0.0410897212565,-0.999044260949
180972000000,,454,,180,964000221,"""map""",,,0.0690012946725,-0.0457020364702,-0.0141885466874,,0.00472159915684,-0.0141272011645,0.0411378529575,-0.999042490781
181004000000,,455,,180,996000221,"""map""",,,0.0692504644394,-0.0454442724586,-0.0147102829069,,0.00467857479777,-0.0141217039643,0.0411402553279,-0.999042701516
181040000000,,456,,181,36000221,"""map""",,,0.0699055418372,-0.0453073605895,-0.0153852887452,,0.00466024256503,-0.0141184122295,0.0412022954889,-0.999040256998
181072000000,,457,,181,68000220,"""map""",,,0.0706401541829,-0.0453168302774,-0.0158731583506,,0.00474935713712,-0.0141034102564,0.0412159510678,-0.999039414061
181104000000,,458,,181,100000220,"""map""",,,0.0706611573696,-0.0449602156878,-0.0162138491869,,0.00474216089201,-0.0141765123188,0.0411910844272,-0.999039498355
181140000000,,459,,181,132000220,"""map""",,,0.0700277909636,-0.0443180352449,-0.0160152427852,,0.00451050567825,-0.0141444902628,0.0410387235698,-0.999047295522
181172000000,,460,,181,164000220,"""map""",,,0.0695009306073,-0.0438577607274,-0.0149487936869,,0.00263212436088,-0.0132502108578,0.0406326386844,-0.999082825315
181204000000,,461,,181,196000220,"""map""",,,0.0690487921238,-0.0436246953905,-0.0127288522199,,0.00100601432236,-0.0120624458245,0.0403227329073,-0.999113466074
181240000000,,462,,181,236000220,"""map""",,,0.0685805901885,-0.043622456491,-0.0084899617359,,-0.00392076540656,-0.0074246354257,0.0395314258266,-0.999183050521
181272000000,,463,,181,268000220,"""map""",,,0.0682606622577,-0.0438499711454,-0.00399585906416,,-0.00910996425592,-0.00192443498117,0.0388418190912,-0.999202016603
181304000000,,464,,181,300000220,"""map""",,,0.0673238933086,-0.043833874166,0.00118546909653,,-0.0130328598893,0.00244377635106,0.0383197882256,-0.999177571431
181340000000,,465,,181,332000220,"""map""",,,0.065785497427,-0.0436172708869,0.00690743466839,,-0.0192206119164,0.0102046107665,0.0375477001077,-0.999057916528
181372000000,,466,,181,364000219,"""map""",,,0.06438998878,-0.0437002032995,0.0130287483335,,-0.0269111226688,0.0197444587186,0.0366415428647,-0.998770980783
181404000000,,467,,181,396000219,"""map""",,,0.0630699023604,-0.0440197922289,0.0195082295686,,-0.0310345148118,0.024866193799,0.0361631339873,-0.998554388129
181440000000,,468,,181,436000219,"""map""",,,0.061433237046,-0.0448769405484,0.0282159261405,,-0.040994359402,0.0370350462573,0.0349835279911,-0.997859723771
181472000000,,469,,181,468000219,"""map""",,,0.0598965100944,-0.0461229905486,0.0350408516824,,-0.0495446736019,0.0470344715126,0.0339368110084,-0.997086455542
181504000000,,470,,181,500000219,"""map""",,,0.0568004772067,-0.0477513261139,0.0394008345902,,-0.0493822398329,0.0491453014047,0.0332729138506,-0.997015143074
181540000000,,471,,181,532000219,"""map""",,,0.0523124746978,-0.0496525019407,0.0398701354861,,-0.0346576890589,0.0421282107135,0.0315992203494,-0.99801086237
181572000000,,472,,181,564000219,"""map""",,,0.0474216081202,-0.0520980805159,0.0368948355317,,-0.0121174369251,0.0268045639112,0.0299433128183,-0.999118692283
181604000000,,473,,181,596000219,"""map""",,,0.0422787852585,-0.0548510663211,0.0322487950325,,-0.00160630398317,0.018773297535,0.0292850211914,-0.999393531883
181640000000,,474,,181,636000219,"""map""",,,0.0358126051724,-0.0581424459815,0.0264352876693,,0.01499574926,0.00426130387535,0.0281927856122,-0.999480986593
181672000000,,475,,181,668000218,"""map""",,,0.0309673957527,-0.0603580549359,0.0230586510152,,0.0203922001332,-0.00388594140834,0.0272327646968,-0.999413551636
181704000000,,476,,181,700000218,"""map""",,,0.0258402321488,-0.0617176145315,0.0240634158254,,0.0105640996767,0.00196274975919,0.0264643433548,-0.999592001392
181740000000,,477,,181,732000218,"""map""",,,0.0199748761952,-0.062873788178,0.0362434946001,,-0.0215723036597,0.0281468320472,0.0252553188584,-0.999051847382
181772000000,,478,,181,764000218,"""map""",,,0.0131467757747,-0.0652080923319,0.0592574737966,,-0.0452795493452,0.0513591703397,0.0250223310798,-0.997339420927
181804000000,,479,,181,796000218,"""map""",,,0.00516077503562,-0.068886116147,0.0874879807234,,-0.0517249684355,0.0570936320232,0.0252382072379,-0.996708566898
181840000000,,480,,181,836000218,"""map""",,,-0.00616584019735,-0.0750979855657,0.122337125242,,-0.0666643823409,0.0694627839217,0.0260695116779,-0.99501316777
181872000000,,481,,181,868000218,"""map""",,,-0.0162040349096,-0.0812318846583,0.147255793214,,-0.078385890454,0.080092149969,0.0271202326113,-0.99333049699
181904000000,,482,,181,900000218,"""map""",,,-0.0272421818227,-0.0885575786233,0.170289680362,,-0.0826027791243,0.0841349056419,0.0276536009792,-0.992639667996
181940000000,,483,,181,932000218,"""map""",,,-0.0395420789719,-0.0973362475634,0.192893743515,,-0.0883346714965,0.0889081047244,0.0286410173461,-0.991701647736
181972000000,,484,,181,964000217,"""map""",,,-0.0533690415323,-0.107788048685,0.216667696834,,-0.0907350469451,0.0901184708612,0.0293341222699,-0.991355327081
182004000000,,485,,181,996000217,"""map""",,,-0.0688715577126,-0.119431510568,0.241565510631,,-0.0917740206998,0.0904197879626,0.0297011370267,-0.991221300103
182040000000,,486,,182,36000217,"""map""",,,-0.0904789343476,-0.134435385466,0.272580176592,,-0.0933445299078,0.0907418408401,0.0304065909771,-0.991023799971
182072000000,,487,,182,68000217,"""map""",,,-0.1092980057,-0.148402169347,0.299460560083,,-0.0944662309085,0.0909895752412,0.031029816426,-0.990875485211
182104000000,,488,,182,100000217,"""map""",,,-0.129394561052,-0.164046108723,0.327846318483,,-0.0949959389214,0.0910902576414,0.0314016359236,-0.990803835569
182140000000,,489,,182,132000217,"""map""",,,-0.150665208697,-0.181249961257,0.357404351234,,-0.0957979499846,0.0905787226582,0.0321422824925,-0.990749845456
182172000000,,490,,182,164000217,"""map""",,,-0.173044934869,-0.19995342195,0.388246238232,,-0.0959621518015,0.0894533408875,0.0330495355535,-0.990806322233
182204000000,,491,,182,196000217,"""map""",,,-0.196476012468,-0.219420477748,0.420216232538,,-0.0958468446094,0.089013637305,0.033530726123,-0.990840924795
182240000000,,492,,182,236000217,"""map""",,,-0.227087363601,-0.243343070149,0.461239516735,,-0.095310120628,0.0880354771104,0.0343092627087,-0.990953456881
182272000000,,493,,182,268000216,"""map""",,,-0.252589315176,-0.264102995396,0.495930254459,,-0.0945473311586,0.0867777677357,0.0348803946528,-0.991117450268
182304000000,,494,,182,300000216,"""map""",,,-0.278899878263,-0.286203712225,0.532369792461,,-0.0941214323153,0.0862109397091,0.0351942622337,-0.991196391316
182340000000,,495,,182,332000216,"""map""",,,-0.305976182222,-0.309566140175,0.570500552654,,-0.0934056303258,0.0854551634094,0.0356545901131,-0.991313053792
182372000000,,496,,182,364000216,"""map""",,,-0.333741694689,-0.334103494883,0.610159873962,,-0.0927907170256,0.0846263785607,0.0359974547258,-0.991429505535
182404000000,,497,,182,396000216,"""map""",,,-0.362402588129,-0.359356075525,0.651354551315,,-0.0924008879821,0.0842043223246,0.0361964721444,-0.991494580269
182440000000,,498,,182,436000216,"""map""",,,-0.399846166372,-0.390986263752,0.704542219639,,-0.0916384768465,0.0834432934739,0.0365549732379,-0.991616553248
182472000000,,499,,182,468000216,"""map""",,,-0.430295288563,-0.417491286993,0.748812317848,,-0.090839682444,0.0826843192821,0.0369538510122,-0.991738863403
182504000000,,500,,182,500000216,"""map""",,,-0.461173534393,-0.445004045963,0.794678449631,,-0.0905061039674,0.0823401553612,0.0371119016941,-0.991792052726
182540000000,,501,,182,532000216,"""map""",,,-0.492402642965,-0.473423480988,0.842257499695,,-0.0899118386718,0.0818439763187,0.0373544146604,-0.99187811659
182572000000,,502,,182,564000215,"""map""",,,-0.523968100548,-0.502709388733,0.891367793083,,-0.0891961331591,0.0813435029075,0.0375645167002,-0.991975939426
182604000000,,503,,182,596000215,"""map""",,,-0.556432843208,-0.532554507256,0.941883563995,,-0.0888471203749,0.0811274739671,0.0376717804297,-0.992020825819
182640000000,,504,,182,636000215,"""map""",,,-0.599431812763,-0.570125520229,1.00659656525,,-0.0881858053702,0.0805770881506,0.0378325285099,-0.992118606508
182672000000,,505,,182,668000215,"""map""",,,-0.633931279182,-0.600986242294,1.06015229225,,-0.0875906398442,0.0801798534448,0.0379663026071,-0.992198432639
182704000000,,506,,182,700000215,"""map""",,,-0.668519973755,-0.632500469685,1.11515724659,,-0.0873737571008,0.0800131155731,0.0380365192567,-0.992228356901
182740000000,,507,,182,732000215,"""map""",,,-0.703155696392,-0.664624035358,1.17171359062,,-0.0867973521908,0.0794539157968,0.0381898073448,-0.992317918954
182772000000,,508,,182,764000215,"""map""",,,-0.737842142582,-0.69731926918,1.22968709469,,-0.0863892663179,0.079046533908,0.0383199146661,-0.99238109708
182804000000,,509,,182,796000215,"""map""",,,-0.773309350014,-0.730617582798,1.28920269012,,-0.0860972815125,0.0788602994968,0.03833163149,-0.992420799412
182840000000,,510,,182,836000215,"""map""",,,-0.820204377174,-0.773168921471,1.36585080624,,-0.085564466322,0.0785157542786,0.0384430677575,-0.992489920243
182872000000,,511,,182,868000214,"""map""",,,-0.857479035854,-0.807671844959,1.4288790226,,-0.0851119441706,0.0782367019702,0.038548645613,-0.992546776342
182904000000,,512,,182,900000214,"""map""",,,-0.894566476345,-0.842529475689,1.49336099625,,-0.0848574193524,0.0780700849413,0.0385835432035,-0.992580325233
182940000000,,513,,182,932000214,"""map""",,,-0.9314853549,-0.877687096596,1.55916285515,,-0.0845085017279,0.0777557692209,0.0386211803393,-0.992633303822
182972000000,,514,,182,964000214,"""map""",,,-0.968212723732,-0.913138389587,1.62657272816,,-0.0840994919171,0.0773616813701,0.0386381233724,-0.992698125675
183004000000,,515,,182,996000214,"""map""",,,-1.00557935238,-0.948957443237,1.69531488419,,-0.0839175070936,0.0772236662463,0.0386272494854,-0.992724678189
183040000000,,516,,183,36000214,"""map""",,,-1.05491864681,-0.994383811951,1.78262400627,,-0.0835357679401,0.0770084690476,0.038661051258,-0.992772304128
183072000000,,517,,183,68000214,"""map""",,,-1.09386646748,-1.03088104725,1.8535438776,,-0.082092726854,0.0779236735397,0.0522248764863,-0.992200244953
183104000000,,518,,183,100000214,"""map""",,,-1.1323184967,-1.06743454933,1.9239423275,,-0.0819654148894,0.0777821623677,0.0522619235661,-0.992219927532
183140000000,,519,,183,132000214,"""map""",,,-1.17022538185,-1.10393035412,1.99253678322,,-0.0817489521329,0.0775655135723,0.0522108415857,-0.992257438227
183172000000,,520,,183,164000213,"""map""",,,-1.20757985115,-1.14030766487,2.05844116211,,-0.0816669300851,0.0769233473955,0.0516461159625,-0.992343712826
183204000000,,521,,183,196000213,"""map""",,,-1.24537420273,-1.17673504353,2.12113952637,,-0.081699119576,0.0766544085198,0.0513096576709,-0.992379326913
183240000000,,522,,183,236000213,"""map""",,,-1.29517161846,-1.22282636166,2.19515323639,,-0.0816901199068,0.0761025706126,0.050245449746,-0.992477023308
183272000000,,523,,183,268000213,"""map""",,,-1.33423841,-1.259567976,2.25182271004,,-0.081721475845,0.0756192950913,0.0489209428847,-0.992577501394
183304000000,,524,,183,300000213,"""map""",,,-1.37267899513,-1.29623126984,2.30671310425,,-0.0817483326071,0.0754372957798,0.0482478998608,-0.992622050613
183340000000,,525,,183,332000213,"""map""",,,-1.4105489254,-1.33283126354,2.36000347137,,-0.0818024715511,0.0751488519682,0.0468814147384,-0.992704995611
183372000000,,526,,183,364000213,"""map""",,,-1.44792187214,-1.36939609051,2.41194677353,,-0.0816709612007,0.0748837394007,0.0455213780838,-0.992799193818
183404000000,,527,,183,396000213,"""map""",,,-1.48585891724,-1.40625762939,2.46337771416,,-0.0815837672736,0.0747669320442,0.0447535889444,-0.992850065064
183440000000,,528,,183,436000213,"""map""",,,-1.53625750542,-1.45339155197,2.52834272385,,-0.0815604475541,0.0746229603853,0.0436639664699,-0.992911304435
183472000000,,529,,183,468000212,"""map""",,,-1.57574856281,-1.49091541767,2.57802057266,,-0.0814631123709,0.0746411648605,0.0425912027347,-0.992964451611
183504000000,,530,,183,500000212,"""map""",,,-1.61457431316,-1.52831685543,2.62587594986,,-0.0813310379771,0.074645945235,0.0421557836428,-0.992993575083
183540000000,,531,,183,532000212,"""map""",,,-1.6527312994,-1.56558263302,2.67196273804,,-0.0811533057047,0.0746733713089,0.0413047123308,-0.993041833225
183572000000,,532,,183,564000212,"""map""",,,-1.69027090073,-1.6027135849,2.71639657021,,-0.0809519675752,0.0746733107228,0.040511466495,-0.993090934303
183604000000,,533,,183,596000212,"""map""",,,-1.72840499878,-1.64002299309,2.75997138023,,-0.080896564555,0.0747117180263,0.0401629542046,-0.993106655078
183640000000,,534,,183,636000212,"""map""",,,-1.77952325344,-1.68782925606,2.81729149818,,-0.0948127038511,0.0870936422309,0.038236211025,-0.990940602092
183672000000,,535,,183,668000212,"""map""",,,-1.82006669044,-1.72647249699,2.86352849007,,-0.120560232046,0.110733074625,0.0348826284358,-0.985893812011
183704000000,,536,,183,700000212,"""map""",,,-1.86074900627,-1.76582360268,2.90851330757,,-0.134510631132,0.12456029362,0.0327160275412,-0.982507649908
183740000000,,537,,183,732000212,"""map""",,,-1.90192461014,-1.80613303185,2.95104193687,,-0.157067330744,0.149778690522,0.0287583963192,-0.975740341177
183772000000,,538,,183,764000211,"""map""",,,-1.94382548332,-1.84755170345,2.99042248726,,-0.172220558082,0.168427067103,0.0255320972126,-0.970216785945
183804000000,,539,,183,796000211,"""map""",,,-1.98767244816,-1.89045035839,3.0263941288,,-0.176559123222,0.173883682437,0.0241544431753,-0.968508110559
183840000000,,540,,183,836000211,"""map""",,,-2.04751729965,-1.94669032097,3.0672121048,,-0.177268039799,0.176408166711,0.0219813095192,-0.967973730667
183872000000,,541,,183,868000211,"""map""",,,-2.09645748138,-1.99325084686,3.09695410728,,-0.167200098585,0.166888655107,0.020554385816,-0.971478241121
183904000000,,542,,183,900000211,"""map""",,,-2.14623761177,-2.04109048843,3.12481760979,,-0.161474414477,0.160901561427,0.02026559561,-0.973460828875
183940000000,,543,,183,932000211,"""map""",,,-2.19661164284,-2.08999872208,3.15146350861,,-0.143745832443,0.141733232841,0.019991556801,-0.9792084789
183972000000,,544,,183,964000211,"""map""",,,-2.24727201462,-2.13965344429,3.17723703384,,-0.12397650906,0.119884461001,0.0201823555842,-0.98480975292
184004000000,,545,,183,996000211,"""map""",,,-2.29847073555,-2.1896033287,3.20313072205,,-0.114287298274,0.109074266535,0.0204597661411,-0.987229824962
184040000000,,546,,184,36000211,"""map""",,,-2.36398220062,-2.25169038773,3.23669958115,,-0.0963651774184,0.0890038694436,0.0213977864016,-0.991127818393
184072000000,,547,,184,68000210,"""map""",,,-2.41521549225,-2.30100250244,3.26295781136,,-0.0813088302099,0.0726220183374,0.0226955300141,-0.993780583185
184104000000,,548,,184,100000210,"""map""",,,-2.46518397331,-2.34973812103,3.28855109215,,-0.075028623473,0.0661566282263,0.0234035549222,-0.994709204698
184140000000,,549,,184,132000210,"""map""",,,-2.5137822628,-2.39774608612,3.31316876411,,-0.0653661328016,0.056639710794,0.0249060900716,-0.995941241374
184172000000,,550,,184,164000210,"""map""",,,-2.56096363068,-2.44493675232,3.33674311638,,-0.0585024394963,0.0506065527487,0.0266797137507,-0.996646695325
184204000000,,551,,184,196000210,"""map""",,,-2.60762739182,-2.49151420593,3.35962057114,,-0.0568065148496,0.0493579721179,0.027292823956,-0.9967907954
184240000000,,552,,184,236000210,"""map""",,,-2.66714668274,-2.54943203926,3.38740634918,,-0.0537749924642,0.0477218574713,0.0286524391421,-0.997000475971
184272000000,,553,,184,268000210,"""map""",,,-2.71302843094,-2.59467411041,3.40834999084,,-0.0517464035654,0.0472895024223,0.0299846588767,-0.997089279381
184304000000,,554,,184,300000210,"""map""",,,-2.75754022598,-2.63896346092,3.42826080322,,-0.050789189202,0.0472566240938,0.0307156959641,-0.997117812797
184340000000,,555,,184,332000210,"""map""",,,-2.80071759224,-2.68231630325,3.44723153114,,-0.0495450120937,0.0469591221671,0.0317478722841,-0.997162151282
184372000000,,556,,184,364000209,"""map""",,,-2.84263968468,-2.72477197647,3.46544933319,,-0.0479913095178,0.0461367645481,0.0328584838892,-0.997240502273
184404000000,,557,,184,396000209,"""map""",,,-2.88432979584,-2.7667734623,3.48326945305,,-0.0473946685228,0.0457080570125,0.0332853893178,-0.997274599074
184440000000,,558,,184,436000209,"""map""",,,-2.93820953369,-2.81939983368,3.50573992729,,-0.045976880396,0.0444548939821,0.0342431343033,-0.997365214798
184472000000,,559,,184,468000209,"""map""",,,-2.97978186607,-2.86044621468,3.52288889885,,-0.0444051486824,0.0430128889511,0.0350873778259,-0.997470286891
184504000000,,560,,184,500000209,"""map""",,,-3.02003192902,-2.90058231354,3.53919625282,,-0.043495328903,0.0421942506681,0.0354675845463,-0.997531863437
184540000000,,561,,184,532000209,"""map""",,,-3.05901503563,-2.93984031677,3.55469369888,,-0.0416274013623,0.0403579970602,0.0362199900859,-0.997660579912
184572000000,,562,,184,564000209,"""map""",,,-3.09681725502,-2.97824215889,3.56951451302,,-0.0398286149446,0.038358846665,0.036959456543,-0.997785713906
184604000000,,563,,184,596000209,"""map""",,,-3.13451313972,-3.01623344421,3.58377528191,,-0.0388958698726,0.037358984877,0.0372326524151,-0.997850282877
184640000000,,564,,184,636000209,"""map""",,,-3.18368291855,-3.06391239166,3.60144615173,,-0.0371256874179,0.0353786246498,0.0377655150208,-0.997969853487
184672000000,,565,,184,668000208,"""map""",,,-3.22149062157,-3.1010158062,3.61491703987,,-0.0353248398381,0.0336874056329,0.0382461155344,-0.998075431342
184704000000,,566,,184,700000208,"""map""",,,-3.25804543495,-3.13721203804,3.62774467468,,-0.0344383815547,0.0328240005231,0.0384575662733,-0.998127061232
184740000000,,567,,184,732000208,"""map""",,,-3.29334688187,-3.17251968384,3.64034771919,,-0.0326864606215,0.0309976698228,0.0388669807598,-0.998228466549
184772000000,,568,,184,764000208,"""map""",,,-3.3274834156,-3.20696640015,3.65234184265,,-0.0310645602464,0.0291304328072,0.0391961054998,-0.99832367628
184804000000,,569,,184,796000208,"""map""",,,-3.36161661148,-3.24088978767,3.66399216652,,-0.0301292789549,0.028036211634,0.0394318328235,-0.998374378939
184840000000,,570,,184,836000208,"""map""",,,-3.40661144257,-3.28322267532,3.67863035202,,-0.0288892324847,0.0265165667574,0.0397343629021,-0.998440549491
184872000000,,571,,184,868000208,"""map""",,,-3.44110012054,-3.3161175251,3.68969511986,,-0.0273703823067,0.0247894932025,0.0400246282478,-0.99851611879
184904000000,,572,,184,900000208,"""map""",,,-3.47435355186,-3.34814786911,3.70016407967,,-0.0267317302057,0.0239402403788,0.0401683068544,-0.998548361129
184940000000,,573,,184,932000208,"""map""",,,-3.5063855648,-3.37936735153,3.71016597748,,-0.0253217246756,0.0223082022873,0.0403607915115,-0.998615163884
184972000000,,574,,184,964000207,"""map""",,,-3.5372877121,-3.40977358818,3.71963620186,,-0.0241367607613,0.0207605331315,0.0406049903518,-0.998668016032
185004000000,,575,,184,996000207,"""map""",,,-3.56804800034,-3.4396033287,3.72885084152,,-0.0234469735848,0.0199438865751,0.0407414197004,-0.998695453631
185040000000,,576,,185,36000207,"""map""",,,-3.60832715034,-3.47653055191,3.74035167694,,-0.0221035683071,0.0181592633918,0.0409274558898,-0.998752604757
185072000000,,577,,185,68000207,"""map""",,,-3.63909387589,-3.50516414642,3.74911570549,,-0.0210101926228,0.0168800322886,0.041056214512,-0.998793276466
185104000000,,578,,185,100000207,"""map""",,,-3.66863203049,-3.53302025795,3.75750112534,,-0.0202893158893,0.0159995395129,0.0411474202922,-0.99881890175
185140000000,,579,,185,132000207,"""map""",,,-3.69701623917,-3.56013703346,3.76561594009,,-0.019330927835,0.0146095552175,0.0412656422022,-0.99885434725
185172000000,,580,,185,164000206,"""map""",,,-3.72430610657,-3.58651590347,3.77336478233,,-0.0183499161427,0.0131217494038,0.0414647017677,-0.998885325183
185204000000,,581,,185,196000206,"""map""",,,-3.75145697594,-3.61242437363,3.78098464012,,-0.0177184289237,0.0123267001439,0.0415569190723,-0.99890302686
185240000000,,582,,185,236000206,"""map""",,,-3.78711223602,-3.64460015297,3.79090547562,,-0.0168459972267,0.0111052052841,0.0416094761924,-0.998930211577
185272000000,,583,,185,268000206,"""map""",,,-3.81425952911,-3.66951012611,3.798422575,,-0.0159790385284,0.00997613928619,0.0416681446055,-0.998953898106
185304000000,,584,,185,300000206,"""map""",,,-3.84028148651,-3.6937251091,3.80556917191,,-0.0155831857783,0.00944032804744,0.0417076783494,-0.998963760468
185340000000,,585,,185,332000206,"""map""",,,-3.86520648003,-3.71722841263,3.81241893768,,-0.0148532998267,0.00813109678454,0.0417346523325,-0.998985255361
185372000000,,586,,185,364000206,"""map""",,,-3.88909006119,-3.74005484581,3.81905508041,,-0.0140567606098,0.00677878419848,0.0417894432355,-0.999004558618
185404000000,,587,,185,396000206,"""map""",,,-3.91277933121,-3.76227545738,3.82564210892,,-0.0137796592395,0.00631222945144,0.0418241722387,-0.999010037708
185440000000,,588,,185,436000206,"""map""",,,-3.94375920296,-3.78926730156,3.83429288864,,-0.0131588549295,0.0052150544592,0.0419246081787,-0.999020532273
185472000000,,589,,185,468000205,"""map""",,,-3.96727752686,-3.81019067764,3.84073805809,,-0.0109414763021,0.00295805911131,0.0418706602126,-0.999058801612
185504000000,,590,,185,500000205,"""map""",,,-3.98976802826,-3.83054995537,3.84727215767,,-0.00370182454698,-0.00252382539946,0.0412734815161,-0.999137911246
185540000000,,591,,185,532000205,"""map""",,,-4.0110039711,-3.85008716583,3.8535964489,,0.0375421322785,-0.0338778414758,0.0375798581531,-0.998013391181
185572000000,,592,,185,564000205,"""map""",,,-4.03045606613,-3.86813235283,3.85906887054,,0.0834257116527,-0.0710687140162,0.0330703139498,-0.993426296777
185604000000,,593,,185,596000205,"""map""",,,-4.04826021194,-3.8839943409,3.86332893372,,0.101301481512,-0.0869791539389,0.0310281726989,-0.990560437518
185640000000,,594,,185,636000205,"""map""",,,-4.06909894943,-3.90004873276,3.86716485023,,0.1247684681,-0.110464494162,0.0277423200953,-0.9856271489
185672000000,,595,,185,668000205,"""map""",,,-4.08232688904,-3.90973711014,3.86922693253,,0.129712477822,-0.117838259165,0.0252512727609,-0.984200815253
185704000000,,596,,185,700000205,"""map""",,,-4.09215831757,-3.91637563705,3.87193775177,,0.116530184965,-0.108312567615,0.0235659045827,-0.98698217008
185740000000,,597,,185,732000205,"""map""",,,-4.09898090363,-3.92036056519,3.87636852264,,0.0743970315454,-0.0779487477865,0.0211372345841,-0.993952921649
185772000000,,598,,185,764000204,"""map""",,,-4.10385894775,-3.92283892632,3.88250470161,,0.0222142788585,-0.0372699286684,0.018702031824,-0.998883217841
185804000000,,599,,185,796000204,"""map""",,,-4.108710289,-3.92501664162,3.89010715485,,-0.0010571088151,-0.0167443647113,0.0179723855826,-0.999697747835
185840000000,,600,,185,836000204,"""map""",,,-4.11761283875,-3.92876625061,3.90061736107,,-0.0391489530545,0.0205683370814,0.017507084375,-0.998868297856
185872000000,,601,,185,868000204,"""map""",,,-4.12494325638,-3.93273711205,3.90778613091,,-0.0650139043446,0.0452410501747,0.0182111896262,-0.996692003187
185904000000,,602,,185,900000204,"""map""",,,-4.13298082352,-3.93788290024,3.91353273392,,-0.0744980707121,0.0543596914131,0.0190498697647,-0.99555627206
185936000000,,603,,185,932000204,"""map""",,,-4.1418428421,-3.94431352615,3.91811037064,,-0.0802632360455,0.0620299298606,0.0206108204462,-0.994628282749
185972000000,,604,,185,964000204,"""map""",,,-4.15147781372,-3.95205950737,3.921656847,,-0.0773921986519,0.0597549213447,0.0224701708151,-0.994954752238
186004000000,,605,,186,4000204,"""map""",,,-4.16568994522,-3.96294879913,3.92538499832,,-0.0735300366272,0.0547624519658,0.023331273077,-0.995515010295
186040000000,,606,,186,36000204,"""map""",,,-4.17897796631,-3.97228646278,3.92877197266,,-0.0617338818355,0.0427816412941,0.0253041670558,-0.996854268553
186072000000,,607,,186,68000203,"""map""",,,-4.19246053696,-3.98253154755,3.93233728409,,-0.0511900014508,0.0332074927221,0.0269390011627,-0.997773111998
186104000000,,608,,186,100000203,"""map""",,,-4.20595932007,-3.99347186089,3.93554115295,,-0.0456102703971,0.0268630321268,0.0278024215013,-0.998211017754
186140000000,,609,,186,132000203,"""map""",,,-4.21939516068,-4.00486946106,3.93851184845,,-0.0354906388724,0.014472153034,0.0295820300328,-0.998827288973
186172000000,,610,,186,164000203,"""map""",,,-4.23257923126,-4.01654243469,3.94140219688,,-0.0272130570939,0.00692796856641,0.031290241803,-0.999115826298
186204000000,,611,,186,196000203,"""map""",,,-4.24566411972,-4.02810192108,3.94419836998,,-0.0232665427617,0.00362448738487,0.0322483661102,-0.999202522365
186240000000,,612,,186,236000203,"""map""",,,-4.26259231567,-4.0417342186,3.94732737541,,-0.0186820008757,-0.00188683340686,0.0336910105879,-0.999255922422
