rosbagTimestamp,header,seq,stamp,secs,nsecs,frame_id,pose,position,x,y,z,orientation,x,y,z,w
373280000000,,4917,,373,268097745,"""map""",,,-0.397615045309,-0.266931653023,0.929436922073,,-0.0894039079026,0.0802700002855,0.0526417931117,-0.991358909563
373304000000,,4918,,373,300097745,"""map""",,,-0.432444959879,-0.297445684671,0.976277589798,,-0.088936745319,0.0794230557426,0.0526544793131,-0.991468449223
373336000000,,4919,,373,332097607,"""map""",,,-0.467157125473,-0.328515708447,1.02462136745,,-0.0886190450091,0.0789146146014,0.0527218299771,-0.991533945425
373372000000,,4920,,373,364097607,"""map""",,,-0.505256772041,-0.35888749361,1.07243227959,,-0.088364987099,0.0785945376044,0.0527340104163,-0.991581444924
373404000000,,4921,,373,396097607,"""map""",,,-0.544104099274,-0.389473289251,1.12117254734,,-0.0878870168122,0.0779966147526,0.0527595935533,-0.991669742571
373436000000,,4922,,373,428097468,"""map""",,,-0.582508444786,-0.420639753342,1.17160069942,,-0.0875617267768,0.0775507017539,0.0527523442954,-0.991733890075
373472000000,,4923,,373,468097468,"""map""",,,-0.629943549633,-0.460331678391,1.23690092564,,-0.0873352655036,0.0772062523539,0.0527708889087,-0.991779745846
373504000000,,4924,,373,500097468,"""map""",,,-0.667448401451,-0.492657840252,1.29095959663,,-0.0870634769412,0.0767297657678,0.0528324654544,-0.991837360588
373536000000,,4925,,373,532097329,"""map""",,,-0.704597115517,-0.525474727154,1.34665560722,,-0.0867071678131,0.076215089198,0.052828967266,-0.991908378028
373572000000,,4926,,373,564097329,"""map""",,,-0.745001554489,-0.557409107685,1.40225338936,,-0.0865247974118,0.0759427477874,0.0528841796375,-0.991942264094
373604000000,,4927,,373,596097329,"""map""",,,-0.785930097103,-0.589488983154,1.45888149738,,-0.0862775188881,0.0755219776888,0.0529025978103,-0.991994989801
373636000000,,4928,,373,628097190,"""map""",,,-0.82619279623,-0.622107207775,1.51719200611,,-0.0858887879676,0.075078171374,0.0528858655115,-0.992063225549
373672000000,,4929,,373,668097190,"""map""",,,-0.875657975674,-0.663553714752,1.59236645699,,-0.0857617636224,0.0748610456277,0.0528880992944,-0.992090578854
373704000000,,4930,,373,700097190,"""map""",,,-0.914603292942,-0.697201490402,1.65443062782,,-0.0856252075039,0.0745915484709,0.0529128816414,-0.992121346053
373736000000,,4931,,373,732097050,"""map""",,,-0.953003227711,-0.731247365475,1.71830391884,,-0.0853268018896,0.0741559772551,0.0529097206277,-0.992179803732
373772000000,,4932,,373,764097050,"""map""",,,-0.99520021677,-0.764710128307,1.78198516369,,-0.0851444640862,0.0739676019157,0.0528914710423,-0.992210528784
373804000000,,4933,,373,804097050,"""map""",,,-1.0484610796,-0.806644141674,1.86256229877,,-0.0849612477845,0.0736341505383,0.052885149015,-0.992251326934
373836000000,,4934,,373,828096909,"""map""",,,-1.07967746258,-0.831976354122,1.91089165211,,-0.0848156014469,0.0733773576928,0.052925230668,-0.992280703287
373872000000,,4935,,373,868096909,"""map""",,,-1.13050556183,-0.874312996864,1.98969328403,,-0.0847370225991,0.0732108631532,0.0529444496309,-0.992298742138
373904000000,,4936,,373,900096909,"""map""",,,-1.17012286186,-0.908265411854,2.05024170876,,-0.0828382392436,0.0749300482505,0.0768373716112,-0.990767083517
373936000000,,4937,,373,932096769,"""map""",,,-1.20888745785,-0.942233800888,2.1081392765,,-0.0828860324527,0.0744089353959,0.0763562231886,-0.990839576096
373972000000,,4938,,373,964096769,"""map""",,,-1.25140345097,-0.975556969643,2.16222667694,,-0.0829423959601,0.0738432588344,0.0756900922479,-0.990928295212
374004000000,,4939,,373,996096769,"""map""",,,-1.29429662228,-1.00878083706,2.21424627304,,-0.0832817271522,0.0728858124988,0.074136222237,-0.991088116062
374036000000,,4940,,374,28096627,"""map""",,,-1.33605861664,-1.04216003418,2.26488041878,,-0.0837666776815,0.0719001152623,0.0718076510036,-0.991290715963
374072000000,,4941,,374,68096627,"""map""",,,-1.38676738739,-1.08410215378,2.32662415504,,-0.0839761955923,0.0714072651624,0.0705144592507,-0.991401435734
374104000000,,4942,,374,100096627,"""map""",,,-1.42623305321,-1.11788773537,2.37482643127,,-0.0843868257519,0.0703930710587,0.0677210082783,-0.991633791309
374136000000,,4943,,374,132096485,"""map""",,,-1.46481001377,-1.15186309814,2.42184519768,,-0.0847381526615,0.0697473378755,0.0650384035174,-0.991829057659
374172000000,,4944,,374,164096485,"""map""",,,-1.50727689266,-1.18540847301,2.46957707405,,-0.0848630350907,0.069540332312,0.0637259085079,-0.991918029656
374204000000,,4945,,374,196096485,"""map""",,,-1.55009460449,-1.21897208691,2.51674199104,,-0.0850967005116,0.0691690258206,0.0612507505354,-0.992079915701
374236000000,,4946,,374,228096343,"""map""",,,-1.59172582626,-1.25272858143,2.56249928474,,-0.0851957482398,0.0689994348047,0.0590490834629,-0.992216724371
374272000000,,4947,,374,268096343,"""map""",,,-1.64218509197,-1.2952221632,2.61740493774,,-0.0851898575591,0.0689066913231,0.0580605291311,-0.99228200984
374304000000,,4948,,374,300096343,"""map""",,,-1.68137252331,-1.32945001125,2.65960907936,,-0.0852641953803,0.0686990746303,0.0563189370569,-0.992390411534
374336000000,,4949,,374,332096201,"""map""",,,-1.71963441372,-1.36387479305,2.70060110092,,-0.0865075926073,0.0693564054407,0.0547885006938,-0.992322723695
374372000000,,4950,,374,364096201,"""map""",,,-1.76161158085,-1.39789068699,2.74328112602,,-0.096285768146,0.0766395059869,0.0530828598814,-0.990978112787
374404000000,,4951,,374,396096201,"""map""",,,-1.80427730083,-1.43250644207,2.78727459908,,-0.125142178937,0.0988224651271,0.0491204660655,-0.985982109658
374436000000,,4952,,374,428096057,"""map""",,,-1.84661889076,-1.46835720539,2.83099365234,,-0.156902588592,0.126106650296,0.0441000599114,-0.978536658135
374472000000,,4953,,374,468096057,"""map""",,,-1.89972305298,-1.51527667046,2.88323450089,,-0.172320054608,0.141160196715,0.0413804080707,-0.973995503795
374504000000,,4954,,374,500096057,"""map""",,,-1.94260346889,-1.5546592474,2.92175841331,,-0.190238713495,0.159314414339,0.0377472232885,-0.967989282854
374536000000,,4955,,374,532095914,"""map""",,,-1.98612141609,-1.59580981731,2.95686292648,,-0.20141449697,0.170573250812,0.0343769084005,-0.963927001007
374572000000,,4956,,374,564095914,"""map""",,,-2.03494668007,-1.637981534,2.98858809471,,-0.20273813587,0.172198964078,0.0326374658156,-0.96342077521
374604000000,,4957,,374,596095914,"""map""",,,-2.08580088615,-1.68200349808,3.01765155792,,-0.197344720887,0.167492814046,0.0306922201695,-0.965432191408
374636000000,,4958,,374,628095770,"""map""",,,-2.13711977005,-1.72813260555,3.04463028908,,-0.183041998184,0.153851333249,0.029472363933,-0.97054464628
374672000000,,4959,,374,668095770,"""map""",,,-2.2017147541,-1.78837811947,3.076608181,,-0.171524622404,0.142703018983,0.0291592128486,-0.974353625567
374704000000,,4960,,374,700095770,"""map""",,,-2.25340080261,-1.83825516701,3.1013982296,,-0.149832583829,0.121508089315,0.0292307360505,-0.980781146405
374736000000,,4961,,374,732095626,"""map""",,,-2.30470585823,-1.88916122913,3.12583756447,,-0.129986297995,0.102133234421,0.0298392101024,-0.985790088617
374772000000,,4962,,374,764095626,"""map""",,,-2.35826706886,-1.93882572651,3.15177345276,,-0.119650792288,0.0919990484039,0.0303754023092,-0.988077566673
374804000000,,4963,,374,796095626,"""map""",,,-2.4114716053,-1.98823308945,3.17782974243,,-0.101164223056,0.0742715913289,0.0317874903217,-0.991584184469
374836000000,,4964,,374,828095481,"""map""",,,-2.46305298805,-2.0376291275,3.20334935188,,-0.0863073088075,0.0610431628185,0.0336055367791,-0.993828672739
374872000000,,4965,,374,868095481,"""map""",,,-2.52514123917,-2.09897232056,3.23424005508,,-0.0795021798653,0.0552543392737,0.0348199560721,-0.994692936015
374904000000,,4966,,374,900095481,"""map""",,,-2.57288146019,-2.1474943161,3.257822752,,-0.0722197892301,0.0495142704129,0.0365998174847,-0.995486392585
374936000000,,4967,,374,932095335,"""map""",,,-2.61890435219,-2.19542264938,3.28043699265,,-0.0672442721039,0.0463221392295,0.03858118298,-0.995913635188
374972000000,,4968,,374,964095335,"""map""",,,-2.66729736328,-2.24202156067,3.30188298225,,-0.0656469552776,0.0455820655944,0.0395596642151,-0.996015967737
375004000000,,4969,,374,996095335,"""map""",,,-2.71510577202,-2.28780078888,3.3224067688,,-0.0636009378337,0.0451603850579,0.04128907585,-0.996097774769
375036000000,,4970,,375,28095190,"""map""",,,-2.76105690002,-2.33299946785,3.34215712547,,-0.0620968208604,0.0453272352115,0.0429138790069,-0.996116445823
375072000000,,4971,,375,68095190,"""map""",,,-2.81604218483,-2.38868975639,3.36583781242,,-0.0613266826928,0.0453119773938,0.0438378643668,-0.996124580165
375104000000,,4972,,375,100095190,"""map""",,,-2.85824799538,-2.43260097504,3.38402152061,,-0.0601251787747,0.0449626774843,0.0451238490086,-0.996156274595
375136000000,,4973,,375,132095044,"""map""",,,-2.89893627167,-2.47592878342,3.40159869194,,-0.058737981769,0.0441337194383,0.046464455966,-0.996214437246
375172000000,,4974,,375,172095044,"""map""",,,-2.95358133316,-2.52930021286,3.42357444763,,-0.0578379042089,0.0434706336074,0.0472391571885,-0.996259829402
375204000000,,4975,,375,196095044,"""map""",,,-2.98589730263,-2.56091094017,3.43640398979,,-0.0564032386565,0.0424463993342,0.0483361553616,-0.996333586387
375236000000,,4976,,375,228094897,"""map""",,,-3.02746319771,-2.60255002975,3.45289373398,,-0.054377557067,0.0410317390468,0.049505646114,-0.996448057227
375272000000,,4977,,375,268094897,"""map""",,,-3.07710146904,-2.65376138687,3.47251391411,,-0.0535929796525,0.0404352169191,0.049938831423,-0.996493322943
375304000000,,4978,,375,300094897,"""map""",,,-3.11508536339,-2.6940536499,3.48754239082,,-0.0517029266216,0.0386386324273,0.0508640390416,-0.996617656146
375336000000,,4979,,375,332094750,"""map""",,,-3.15162181854,-2.73374342918,3.50217652321,,-0.0497238331048,0.0368384654533,0.0517678782079,-0.996740008447
375372000000,,4980,,375,364094750,"""map""",,,-3.19112920761,-2.77279114723,3.51677417755,,-0.0485946782034,0.0357156720919,0.0522212518573,-0.996812880348
375404000000,,4981,,375,396094750,"""map""",,,-3.23034477234,-2.81121563911,3.53094577789,,-0.0468365270276,0.0341577197636,0.052781678502,-0.996922167126
375436000000,,4982,,375,428094603,"""map""",,,-3.26784825325,-2.84900355339,3.54462766647,,-0.0449338701133,0.0324577430925,0.0534216362497,-0.997032423282
375472000000,,4983,,375,468094603,"""map""",,,-3.31248426437,-2.89536643028,3.56101822853,,-0.0440588350252,0.0316343234059,0.0536807972212,-0.997084053172
375504000000,,4984,,375,500094603,"""map""",,,-3.34649419785,-2.93170571327,3.57352423668,,-0.0423373562174,0.0298422196508,0.0541632100493,-0.997187818713
375536000000,,4985,,375,532094455,"""map""",,,-3.37906599045,-2.96740937233,3.58532190323,,-0.0407018471024,0.0281707342494,0.0546273732919,-0.997279150933
375572000000,,4986,,375,564094455,"""map""",,,-3.41482520103,-3.00228261948,3.59697914124,,-0.0398568864249,0.0271729978315,0.0548779784532,-0.997327198341
375604000000,,4987,,375,596094455,"""map""",,,-3.4503698349,-3.03645825386,3.60823559761,,-0.0386528082563,0.0259824553867,0.0552430966018,-0.997386161782
375636000000,,4988,,375,628094307,"""map""",,,-3.48422312737,-3.07000756264,3.61902403831,,-0.0372626701908,0.024747940608,0.055595823577,-0.997450857194
375672000000,,4989,,375,668094307,"""map""",,,-3.52428722382,-3.11111998558,3.63186693192,,-0.0366127868602,0.0240585288019,0.0557472150569,-0.997483310267
375704000000,,4990,,375,700094307,"""map""",,,-3.55463385582,-3.14335036278,3.64182019234,,-0.035443167033,0.0226247219915,0.0559744287172,-0.9975464041
375736000000,,4991,,375,732094158,"""map""",,,-3.58355617523,-3.1749985218,3.65130472183,,-0.034168763555,0.0211974597964,0.0562645676223,-0.99760591545
375772000000,,4992,,375,764094158,"""map""",,,-3.61572480202,-3.20554423332,3.66057801247,,-0.0334543454967,0.0204495929456,0.0564056331243,-0.99763773632
375804000000,,4993,,375,796094158,"""map""",,,-3.64768195152,-3.23536777496,3.66958904266,,-0.0324197496842,0.0194609609055,0.0566419505039,-0.997678323736
375836000000,,4994,,375,828094009,"""map""",,,-3.67797088623,-3.26465606689,3.67824482918,,-0.031138389342,0.0186098329587,0.0568317377628,-0.997724558828
375872000000,,4995,,375,868094009,"""map""",,,-3.71359968185,-3.30054187775,3.68857836723,,-0.0306979850681,0.0182425350277,0.0569237443331,-0.997739773841
375904000000,,4996,,375,900094009,"""map""",,,-3.74047613144,-3.32870841026,3.69653439522,,-0.0297393536816,0.0171312872686,0.0571362065964,-0.997776315158
375936000000,,4997,,375,932093860,"""map""",,,-3.7659842968,-3.35638165474,3.70421767235,,-0.0288307209698,0.016035826797,0.0572806016994,-0.997812898623
375972000000,,4998,,375,964093860,"""map""",,,-3.79487109184,-3.38269758224,3.71181678772,,-0.0282103219939,0.015381188775,0.0573870646387,-0.997834814984
376004000000,,4999,,375,996093860,"""map""",,,-3.82362341881,-3.40828537941,3.71912574768,,-0.0273194238857,0.0144996038033,0.0575459582576,-0.997863727722
376036000000,,5000,,376,28093710,"""map""",,,-3.85073447227,-3.43347907066,3.72619748116,,-0.0262593489862,0.0137145766029,0.0576709658103,-0.997896012208
376072000000,,5001,,376,68093710,"""map""",,,-3.88252925873,-3.46438956261,3.73458504677,,-0.0256887372921,0.0132419616,0.0577373049499,-0.99791337671
376104000000,,5002,,376,100093710,"""map""",,,-3.90639281273,-3.48864197731,3.74104833603,,-0.0250323653225,0.0123674256887,0.0577593898985,-0.997940097812
376136000000,,5003,,376,132093560,"""map""",,,-3.92895913124,-3.51250076294,3.74725008011,,-0.0243121421944,0.0111850768547,0.0578756309067,-0.997965048746
376172000000,,5004,,376,164093560,"""map""",,,-3.9550216198,-3.53537392616,3.75366806984,,-0.0239890266731,0.0105657282573,0.057898643086,-0.997978282856
376204000000,,5005,,376,196093560,"""map""",,,-3.98100733757,-3.55770516396,3.7600851059,,-0.0233112697876,0.00958936358431,0.0579455525284,-0.99800150577
376236000000,,5006,,376,228093410,"""map""",,,-4.00537347794,-3.57976102829,3.76636838913,,-0.0225223097594,0.00860752113811,0.0580272331208,-0.9980238436
376272000000,,5007,,376,268093410,"""map""",,,-4.03372764587,-3.60688900948,3.77403044701,,-0.0222742689705,0.00824447740466,0.0580806331778,-0.998029364837
376304000000,,5008,,376,300093410,"""map""",,,-4.05484199524,-3.62820887566,3.77991771698,,-0.021595320778,0.00725873835061,0.0581470566111,-0.998048078037
376336000000,,5009,,376,332093259,"""map""",,,-4.07467222214,-3.64919924736,3.78552007675,,-0.0208638391731,0.00632611749657,0.0582139858065,-0.998066116889
376372000000,,5010,,376,364093259,"""map""",,,-4.09810590744,-3.66905355453,3.79116034508,,-0.0204906505615,0.0058564112848,0.0582728649539,-0.998073239706
376404000000,,5011,,376,396093259,"""map""",,,-4.12153434753,-3.68837952614,3.79679870605,,-0.0197102390996,0.0052427446094,0.0583299739336,-0.998089044774
376436000000,,5012,,376,428093107,"""map""",,,-4.14339828491,-3.70746588707,3.80233645439,,-0.019116633007,0.00462907529983,0.058396650248,-0.998099750074
376472000000,,5013,,376,468093107,"""map""",,,-4.16871547699,-3.73093652725,3.80896997452,,-0.0187394753476,0.0041839268713,0.0584135932811,-0.998107842269
376504000000,,5014,,376,500093107,"""map""",,,-4.18749284744,-3.7494301796,3.81398677826,,-0.0182400865592,0.00325504457443,0.058521278479,-0.998114206443
376536000000,,5015,,376,532092956,"""map""",,,-4.20503664017,-3.76767516136,3.81887197495,,-0.0178168591017,0.00216506319312,0.0584446133616,-0.998129337161
376572000000,,5016,,376,564092956,"""map""",,,-4.22618055344,-3.7846224308,3.82379126549,,-0.0175982519596,0.0016469671309,0.0584768135538,-0.998132287441
376604000000,,5017,,376,596092956,"""map""",,,-4.24733400345,-3.80110430717,3.82860422134,,-0.0169546807781,0.000770630758875,0.0584714609041,-0.998144805055
376636000000,,5018,,376,628092804,"""map""",,,-4.26694965363,-3.81744241714,3.83324766159,,-0.0165323258921,4.10872503976e-05,0.0584425060191,-0.998153866627
376672000000,,5019,,376,668092804,"""map""",,,-4.2894949913,-3.83764886856,3.83881664276,,-0.0162444978196,-0.00035257682704,0.0584670776318,-0.998157111935
376704000000,,5020,,376,700092804,"""map""",,,-4.30607700348,-3.8536529541,3.84303283691,,-0.015664422841,-0.00107576406393,0.0584496288365,-0.998166890003
376736000000,,5021,,376,732092651,"""map""",,,-4.32146501541,-3.86947369576,3.8469748497,,-0.0151604900955,-0.00195348140379,0.0584267852447,-0.998174729317
376772000000,,5022,,376,764092651,"""map""",,,-4.34034633636,-3.88360619545,3.85116314888,,-0.0149235767331,-0.00235042503288,0.0584354253486,-0.998176878807
376804000000,,5023,,376,796092651,"""map""",,,-4.35927009583,-3.89716649055,3.85533356667,,-0.0144291342726,-0.00296906371931,0.0584755070015,-0.998180208408
376836000000,,5024,,376,828092498,"""map""",,,-4.37675094604,-3.91066455841,3.85923790932,,-0.0140081863669,-0.00369308961263,0.0585168109131,-0.998181304226
376872000000,,5025,,376,868092498,"""map""",,,-4.39669942856,-3.92742466927,3.86375808716,,-0.0138329075021,-0.00411171120983,0.0585060213199,-0.998182821512
376904000000,,5026,,376,900092498,"""map""",,,-4.41123628616,-3.94070839882,3.867218256,,-0.0136442002562,-0.00496176836326,0.0584777829313,-0.998183158687
376936000000,,5027,,376,932092345,"""map""",,,-4.42461109161,-3.95390343666,3.87052297592,,-0.0135648858143,-0.00604895751586,0.0584521155006,-0.998179744792
376972000000,,5028,,376,964092345,"""map""",,,-4.44138288498,-3.96554422379,3.87382221222,,-0.0135296964885,-0.0065920519276,0.058440609411,-0.998177426716
377004000000,,5029,,376,996092345,"""map""",,,-4.45819568634,-3.97671198845,3.87694001198,,-0.0134140010844,-0.00717293131831,0.0583772205508,-0.998178691121
377036000000,,5030,,377,28092192,"""map""",,,-4.47359895706,-3.98792886734,3.87989974022,,-0.013353512125,-0.00763079920474,0.0584242985806,-0.998173422765
377072000000,,5031,,377,68092192,"""map""",,,-4.49100494385,-4.00202322006,3.88345146179,,-0.013323180882,-0.00788946626785,0.0584440654525,-0.998170598926
377104000000,,5032,,377,100092192,"""map""",,,-4.50358819962,-4.01333713531,3.88625860214,,-0.0132086575226,-0.00864489963048,0.0584760127637,-0.998164024018
377136000000,,5033,,377,132092038,"""map""",,,-4.51507091522,-4.02461338043,3.88902282715,,-0.0130083123135,-0.00943717361924,0.0584527477033,-0.998160820857
377172000000,,5034,,377,164092038,"""map""",,,-4.52980947495,-4.03440570831,3.89180040359,,-0.0128962621179,-0.00980142792213,0.0585093509209,-0.998155468207
377204000000,,5035,,377,196092038,"""map""",,,-4.54457426071,-4.04380464554,3.89462614059,,-0.0127071926726,-0.0103594271717,0.0585508655667,-0.998149778383
377236000000,,5036,,377,228091883,"""map""",,,-4.55797100067,-4.0533285141,3.89728617668,,-0.0126170635304,-0.0107937854308,0.0586278678589,-0.998141812629
377272000000,,5037,,377,268091883,"""map""",,,-4.57294559479,-4.06534099579,3.90022063255,,-0.012530272221,-0.0110466801044,0.0586317875158,-0.99813991602
377304000000,,5038,,377,300091883,"""map""",,,-4.58362865448,-4.07501792908,3.90250444412,,-0.0124049521066,-0.0115361964051,0.0586472975561,-0.998135026986
377336000000,,5039,,377,332091729,"""map""",,,-4.59329938889,-4.08472633362,3.90474009514,,-0.0123214264886,-0.0121448954632,0.0587122037028,-0.99812508033
377372000000,,5040,,377,364091729,"""map""",,,-4.60611343384,-4.09314775467,3.9065952301,,-0.0123132686244,-0.012515953498,0.0587387140705,-0.998118969037
377404000000,,5041,,377,396091729,"""map""",,,-4.61898612976,-4.10127735138,3.90831518173,,-0.0122563823048,-0.0129193290593,0.0587976353647,-0.998111045429
377436000000,,5042,,377,428091574,"""map""",,,-4.63062763214,-4.10955810547,3.91020345688,,-0.012174686216,-0.0132865252657,0.0587650558508,-0.998109233115
377472000000,,5043,,377,468091574,"""map""",,,-4.64352846146,-4.12012910843,3.91239237785,,-0.0121530555396,-0.0136181196711,0.0587827153803,-0.998103964759
377504000000,,5044,,377,500091574,"""map""",,,-4.65262699127,-4.12872362137,3.9141304493,,-0.0120808425123,-0.0143400395391,0.0587544769918,-0.998096378326
377536000000,,5045,,377,532091418,"""map""",,,-4.66071939468,-4.13744544983,3.91585588455,,-0.0119114415688,-0.0149969952262,0.0587209702473,-0.998090688501
377572000000,,5046,,377,564091418,"""map""",,,-4.67183685303,-4.14477872849,3.91784262657,,-0.0117904004297,-0.0153333409067,0.058764718676,-0.998084450768
377604000000,,5047,,377,596091418,"""map""",,,-4.6830124855,-4.15181589127,3.9197204113,,-0.0114671439798,-0.0157898814967,0.0587369439028,-0.998082722747
377636000000,,5048,,377,628091262,"""map""",,,-4.69302177429,-4.15908622742,3.92144846916,,-0.0110810520118,-0.0159688085334,0.0586972837184,-0.998086642404
377672000000,,5049,,377,668091262,"""map""",,,-4.70398139954,-4.16839265823,3.92357397079,,-0.0109607359302,-0.0160606623214,0.0587161655065,-0.998085377998
377704000000,,5050,,377,700091262,"""map""",,,-4.71160840988,-4.17601060867,3.9251666069,,-0.0106815728217,-0.0165950720128,0.0587376603993,-0.998078381622
377736000000,,5051,,377,732091106,"""map""",,,-4.71829128265,-4.1837553978,3.92665410042,,-0.0105885790932,-0.0171947656908,0.0587503887475,-0.998068434965
377772000000,,5052,,377,764091106,"""map""",,,-4.72775411606,-4.19006109238,3.92888855934,,-0.0104459795118,-0.0174828825351,0.0587800601289,-0.998063208756
377804000000,,5053,,377,796091106,"""map""",,,-4.73723316193,-4.19604539871,3.93130755424,,-0.0102294938708,-0.0178774912946,0.0587335300081,-0.998061185707
377836000000,,5054,,377,828090950,"""map""",,,-4.74561929703,-4.20221233368,3.93367433548,,-0.0100936028823,-0.018132178444,0.058704912298,-0.998059710568
377872000000,,5055,,377,868090950,"""map""",,,-4.75468683243,-4.21018314362,3.93664360046,,-0.0101536018846,-0.0182254754322,0.0586997282356,-0.998057645372
377904000000,,5056,,377,900090950,"""map""",,,-4.76089906693,-4.21675300598,3.93893575668,,-0.0103360282622,-0.0185826920346,0.0587091269828,-0.998048668093
377936000000,,5057,,377,932090793,"""map""",,,-4.76624202728,-4.22344875336,3.9410905838,,-0.0105158510841,-0.0192446471446,0.058699896823,-0.99803480178
377972000000,,5058,,377,964090793,"""map""",,,-4.77438163757,-4.22874116898,3.94298601151,,-0.0105778672082,-0.0195873329624,0.0587266600718,-0.998025908795
378004000000,,5059,,377,996090793,"""map""",,,-4.78263425827,-4.23378562927,3.94463324547,,-0.0105808013533,-0.0198257079643,0.0587648451166,-0.998018912418
378036000000,,5060,,378,28090636,"""map""",,,-4.78982782364,-4.23907756805,3.94619131088,,-0.0104133967052,-0.0200003934805,0.0587654773193,-0.998017100104
378072000000,,5061,,378,68090636,"""map""",,,-4.79743528366,-4.24598455429,3.9480099678,,-0.0103416318174,-0.0202925468733,0.0587383347488,-0.998013559769
378104000000,,5062,,378,100090636,"""map""",,,-4.8025302887,-4.25171041489,3.94941353798,,-0.0103112330736,-0.0206470364429,0.0587503887475,-0.998005889042
378136000000,,5063,,378,132090478,"""map""",,,-4.80682897568,-4.25762271881,3.9508459568,,-0.0104012636811,-0.0208694404234,0.0586825323214,-0.998004371756
378172000000,,5064,,378,164090478,"""map""",,,-4.81361436844,-4.26224803925,3.95212650299,,-0.0104956913903,-0.0211069349513,0.0586945020264,-0.99799762826
378204000000,,5065,,378,196090478,"""map""",,,-4.82048988342,-4.26667690277,3.95332527161,,-0.0104799492131,-0.0213299764029,0.0586582135898,-0.997995225889
378236000000,,5066,,378,228090320,"""map""",,,-4.82639503479,-4.27138185501,3.95467638969,,-0.010366169515,-0.0214326425038,0.058666221491,-0.997993708603
378272000000,,5067,,378,268090320,"""map""",,,-4.8325214386,-4.27764511108,3.95635128021,,-0.0102616242573,-0.021521066592,0.05870769399,-0.997990505442
378304000000,,5068,,378,300090320,"""map""",,,-4.83650016785,-4.28289461136,3.95763921738,,-0.0101451112702,-0.0219607326375,0.0587441931608,-0.99797996873
378336000000,,5069,,378,332090162,"""map""",,,-4.83979415894,-4.28834676743,3.95892882347,,-0.0100574892893,-0.0224243914351,0.0587364381407,-0.997970949305
378372000000,,5070,,378,364090162,"""map""",,,-4.84523582458,-4.29240512848,3.96026301384,,-0.00999786335242,-0.0225606113666,0.0587127094649,-0.997969895634
378404000000,,5071,,378,396090162,"""map""",,,-4.85073947906,-4.29623889923,3.96139264107,,-0.00982765264617,-0.0226941964615,0.0586762102941,-0.99797073857
378436000000,,5072,,378,428090004,"""map""",,,-4.85538816452,-4.30038166046,3.96257615089,,-0.00961349463072,-0.0231745434354,0.0587093377171,-0.99795978039
378472000000,,5073,,378,468090004,"""map""",,,-4.86008071899,-4.30593299866,3.96403121948,,-0.00958809852031,-0.0233849405032,0.0586898658731,-0.997956324348
378504000000,,5074,,378,500090004,"""map""",,,-4.86302900314,-4.3106045723,3.96519327164,,-0.00951518183821,-0.0235951189341,0.0586759995599,-0.997952910454
378536000000,,5075,,378,532089845,"""map""",,,-4.86525774002,-4.31548690796,3.96626448631,,-0.00948274786265,-0.0239385518707,0.0587230354428,-0.997942205154
378572000000,,5076,,378,564089845,"""map""",,,-4.86684989929,-4.32057523727,3.96720409393,,-0.00948641858973,-0.0243023963943,0.058771124997,-0.997930614771
378604000000,,5077,,378,596089845,"""map""",,,-4.86787843704,-4.32584428787,3.96795701981,,-0.00957658123541,-0.0243009923774,0.0587768991152,-0.997929392512
378636000000,,5078,,378,628089686,"""map""",,,-4.86832237244,-4.33127784729,3.96859407425,,-0.00950981535901,-0.0238711182302,0.0587546877261,-0.997941741539
378672000000,,5079,,378,668089686,"""map""",,,-4.8710436821,-4.33661794662,3.96951818466,,-0.00937335308316,-0.0237884142596,0.0587842326669,-0.997943216678
378704000000,,5080,,378,700089686,"""map""",,,-4.87401914597,-4.34029006958,3.97003746033,,-0.00919562048153,-0.0235225302072,0.0587906389878,-0.997950803111
378736000000,,5081,,378,732089526,"""map""",,,-4.87632989883,-4.34422636032,3.97055983543,,-0.00888412102672,-0.0228043373719,0.0588306363471,-0.997967956878
378772000000,,5082,,378,764089526,"""map""",,,-4.87801742554,-4.34838676453,3.97109603882,,-0.00881008745313,-0.0226539547822,0.0588659554061,-0.997969979927
378804000000,,5083,,378,796089526,"""map""",,,-4.87912797928,-4.35273075104,3.9715924263,,-0.00879384050158,-0.0229230433122,0.0589384479856,-0.997959696096
378836000000,,5084,,378,828089366,"""map""",,,-4.87975311279,-4.35723829269,3.97204494476,,-0.00889817173234,-0.0230943313972,0.058958088417,-0.99795362695
378872000000,,5085,,378,868089366,"""map""",,,-4.88236284256,-4.36143922806,3.97192168236,,-0.00897608479163,-0.0229026060419,0.0589771809394,-0.997956282201
378904000000,,5086,,378,900089366,"""map""",,,-4.8850479126,-4.36423158646,3.97148513794,,-0.00906569030865,-0.0228639586989,0.0590109827119,-0.997954343446
378936000000,,5087,,378,932089206,"""map""",,,-4.887134552,-4.3672990799,3.97110509872,,-0.00922326683852,-0.023284257609,0.0589702267094,-0.997945534755
378972000000,,5088,,378,964089206,"""map""",,,-4.88865852356,-4.37065172195,3.9708609581,,-0.00928089277569,-0.0232252908752,0.0589694680661,-0.997946461986
379004000000,,5089,,378,996089206,"""map""",,,-4.88964986801,-4.37426567078,3.97076845169,,-0.0095066148327,-0.0229926014173,0.058985357428,-0.997948780062
379036000000,,5090,,379,28089046,"""map""",,,-4.89013433456,-4.37814331055,3.97066307068,,-0.00959193256644,-0.0237172670866,0.0589907100777,-0.997930699064
379072000000,,5091,,379,68089046,"""map""",,,-4.89223909378,-4.38197517395,3.97052741051,,-0.00959125953395,-0.0239521132777,0.0589769702051,-0.997925894324
379104000000,,5092,,379,100089046,"""map""",,,-4.89439916611,-4.38468551636,3.97048592567,,-0.00953716405388,-0.0237754573964,0.0589985493916,-0.997929350365
379136000000,,5093,,379,132088885,"""map""",,,-4.89596414566,-4.38773393631,3.97048544884,,-0.00934200175477,-0.0236152611765,0.0590766475018,-0.997930404036
379172000000,,5094,,379,164088885,"""map""",,,-4.89700746536,-4.39106845856,3.97039818764,,-0.00919389904619,-0.0239209614883,0.0591068667922,-0.997922691163
379204000000,,5095,,379,196088885,"""map""",,,-4.89761209488,-4.39466667175,3.97027659416,,-0.00902321221225,-0.0242908949144,0.0590567541893,-0.997918265744
379236000000,,5096,,379,228088724,"""map""",,,-4.89779472351,-4.39845848083,3.97022628784,,-0.0089153419633,-0.0239991234774,0.0589910051057,-0.997930151155
379272000000,,5097,,379,268088724,"""map""",,,-4.89913415909,-4.40173196793,3.97022271156,,-0.00880118327284,-0.0240903700874,0.0589655062623,-0.997930530477
379304000000,,5098,,379,300088724,"""map""",,,-4.90055799484,-4.40378856659,3.9701821804,,-0.00872364755956,-0.0249153643539,0.0589268154554,-0.997913250269
379336000000,,5099,,379,332088562,"""map""",,,-4.90148496628,-4.40617227554,3.97017621994,,-0.00881740388262,-0.0247023166445,0.0589427048173,-0.997916748458
379372000000,,5100,,379,364088562,"""map""",,,-4.90190696716,-4.408867836,3.97030162811,,-0.00890861163843,-0.0243481388958,0.0589550538439,-0.997923955569
379404000000,,5101,,379,396088562,"""map""",,,-4.90189409256,-4.41185903549,3.97031140327,,-0.00910310090506,-0.0246382593617,0.0588666297557,-0.997920246646
379436000000,,5102,,379,428088401,"""map""",,,-4.90153408051,-4.41506385803,3.97019720078,,-0.00932087367132,-0.0251814031643,0.0589115582962,-0.997902039207
379472000000,,5103,,379,468088401,"""map""",,,-4.90215063095,-4.41785764694,3.97037434578,,-0.00933127933309,-0.0247873610823,0.0589351183845,-0.99791042643
379504000000,,5104,,379,500088401,"""map""",,,-4.90289306641,-4.41961860657,3.97065734863,,-0.00932816441756,-0.0241889640784,0.0589429576984,-0.997924672065
379536000000,,5105,,379,532088238,"""map""",,,-4.90320968628,-4.42166042328,3.97076821327,,-0.00936151969689,-0.0250224351299,0.0589963999023,-0.997900648361
379572000000,,5106,,379,564088238,"""map""",,,-4.90320158005,-4.42400121689,3.97084355354,,-0.00952252197529,-0.0251836059957,0.059014565194,-0.997894031306
379604000000,,5107,,379,596088238,"""map""",,,-4.90286159515,-4.42658424377,3.97110390663,,-0.00990649886302,-0.0243726156781,0.0590258184025,-0.997909752081
379636000000,,5108,,379,628088076,"""map""",,,-4.90215873718,-4.42942380905,3.97156953812,,-0.0103066825311,-0.0246238879449,0.0590042813629,-0.997900774802
379672000000,,5109,,379,668088076,"""map""",,,-4.9020409584,-4.4321513176,3.97168254852,,-0.0104572060493,-0.0253609954956,0.0590131322011,-0.99788020714
379704000000,,5110,,379,700088076,"""map""",,,-4.90218734741,-4.43404865265,3.97168803215,,-0.0105901102092,-0.025471549972,0.0589862003649,-0.997877636182
379736000000,,5111,,379,732087913,"""map""",,,-4.90193128586,-4.43620204926,3.97181200981,,-0.0105626554886,-0.0244828099306,0.0589402181532,-0.997905326662
379772000000,,5112,,379,764087913,"""map""",,,-4.90133476257,-4.43863153458,3.97177481651,,-0.0106863176349,-0.0248185695065,0.0589768437646,-0.997893651985
379804000000,,5113,,379,796087913,"""map""",,,-4.90052986145,-4.44132089615,3.97164988518,,-0.0109582879556,-0.0261240450901,0.0589865796866,-0.997856773492
379836000000,,5114,,379,828087750,"""map""",,,-4.89952802658,-4.44424295425,3.97170352936,,-0.0110583755255,-0.0250235704606,0.0590291058567,-0.997881345105
379872000000,,5115,,379,868087750,"""map""",,,-4.89853286743,-4.44727659225,3.97179985046,,-0.0110786455255,-0.0244847704176,0.058987844092,-0.997896897292
379904000000,,5116,,379,900087750,"""map""",,,-4.89780950546,-4.44950199127,3.97164201736,,-0.0108909359746,-0.0257742749797,0.0590274621296,-0.997864191337
379936000000,,5117,,379,932087587,"""map""",,,-4.89693880081,-4.45199346542,3.97163581848,,-0.0016934919833,-0.0272216273921,0.0588958375217,-0.997891544642
379972000000,,5118,,379,964087587,"""map""",,,-4.89579296112,-4.45456933975,3.9718208313,,0.00801056963942,-0.02748671263,0.0587648029697,-0.997861241058
380004000000,,5119,,379,996087587,"""map""",,,-4.89426231384,-4.45694446564,3.97190451622,,0.0281260045481,-0.0294910870531,0.0586584664709,-0.99744596816
380036000000,,5120,,380,28087424,"""map""",,,-4.89245843887,-4.45879364014,3.9714922905,,0.0423850035589,-0.0334052664795,0.058510994648,-0.996827041689
380072000000,,5121,,380,68087424,"""map""",,,-4.8902130127,-4.45914173126,3.97023367882,,0.0468155332872,-0.0339598554563,0.0583599403429,-0.996618836258
380104000000,,5122,,380,100087424,"""map""",,,-4.88810777664,-4.45799684525,3.96936130524,,0.0500204079654,-0.032519916938,0.0579868564399,-0.99653294098
380136000000,,5123,,380,132087260,"""map""",,,-4.88552904129,-4.45601320267,3.96897268295,,0.0364986235599,-0.0319312578318,0.0581282169698,-0.997130583292
380172000000,,5124,,380,164087260,"""map""",,,-4.88275098801,-4.453540802,3.96897149086,,0.0220990414722,-0.0311809497564,0.058326517892,-0.997565749503
380204000000,,5125,,380,196087260,"""map""",,,-4.87983512878,-4.45095777512,3.96951985359,,0.000636285703613,-0.0267663070851,0.0584904691328,-0.99792888675
380236000000,,5126,,380,228087096,"""map""",,,-4.87669372559,-4.44862174988,3.97039294243,,-0.0176365259079,-0.0219975854467,0.0586283736211,-0.99788168228
380272000000,,5127,,380,268087096,"""map""",,,-4.87321519852,-4.44628047943,3.97096395493,,-0.0255667024094,-0.0220905883949,0.0586241167894,-0.997708163704
380304000000,,5128,,380,300087096,"""map""",,,-4.87089204788,-4.44512653351,3.9710752964,,-0.0333735124511,-0.0222172903826,0.0587422965526,-0.99746775808
380336000000,,5129,,380,332086931,"""map""",,,-4.86862134933,-4.44478654861,3.97140359879,,-0.0367209086732,-0.0186689169134,0.0589195661974,-0.997412461415
380372000000,,5130,,380,364086931,"""map""",,,-4.86626720428,-4.44528245926,3.97169733047,,-0.0367559965831,-0.0183234964895,0.0589295550005,-0.997416971128
380404000000,,5131,,380,396086931,"""map""",,,-4.86403179169,-4.44656276703,3.97147798538,,-0.0348766488517,-0.0219244586889,0.0590231631511,-0.997406307975
380436000000,,5132,,380,428086766,"""map""",,,-4.86205053329,-4.44851112366,3.97129249573,,-0.03104513022,-0.0215328472947,0.0590215615708,-0.997541515065
380472000000,,5133,,380,468086766,"""map""",,,-4.85940408707,-4.45059967041,3.97191119194,,-0.0290408213633,-0.0199455808455,0.0590442365753,-0.997633479489
380504000000,,5134,,380,500086766,"""map""",,,-4.85714817047,-4.45232057571,3.97232532501,,-0.0256034682907,-0.0212511463204,0.059057976448,-0.997699902922
380536000000,,5135,,380,532086601,"""map""",,,-4.85513973236,-4.45452594757,3.97245073318,,-0.0221814275304,-0.0250357026614,0.0590856247806,-0.997692400783
380572000000,,5136,,380,564086601,"""map""",,,-4.85325717926,-4.45711755753,3.97286534309,,-0.0205682116287,-0.023930178148,0.0590474818827,-0.997756337552
380604000000,,5137,,380,596086601,"""map""",,,-4.85116672516,-4.46008729935,3.97372317314,,-0.0179364912026,-0.0205284481351,0.058950839159,-0.99788863651
380636000000,,5138,,380,628086436,"""map""",,,-4.8490524292,-4.46335983276,3.97414779663,,-0.016292047038,-0.0245862234796,0.0589353712656,-0.99782604844
380672000000,,5139,,380,668086436,"""map""",,,-4.84660959244,-4.46683502197,3.9738881588,,-0.0155978565036,-0.026005497859,0.0589281641545,-0.997801561121
380704000000,,5140,,380,700086436,"""map""",,,-4.84458017349,-4.46943998337,3.97417473793,,-0.0142346785917,-0.0218982835204,0.0588288661794,-0.997926400086
380736000000,,5141,,380,732086270,"""map""",,,-4.84233045578,-4.47232818604,3.97466444969,,-0.0134741337712,-0.021272776544,0.0588104058598,-0.997951603901
380772000000,,5142,,380,764086270,"""map""",,,-4.8402557373,-4.4754524231,3.97454977036,,-0.0132365984136,-0.0243818372768,0.0588681891891,-0.997880249287
380804000000,,5143,,380,796086270,"""map""",,,-4.83852100372,-4.47871923447,3.9745194912,,-0.0127821618733,-0.0251549303336,0.0589047726536,-0.99786482354
380836000000,,5144,,380,828086104,"""map""",,,-4.83667087555,-4.48214101791,3.97526526451,,-0.012373751338,-0.0193375954335,0.0588021029306,-0.998005678308
380872000000,,5145,,380,868086104,"""map""",,,-4.83346891403,-4.48597717285,3.97560071945,,-0.0122832185903,-0.020244143852,0.0587776577585,-0.997990252561
380904000000,,5146,,380,900086104,"""map""",,,-4.83101224899,-4.4888548851,3.97507333755,,-0.0122175791543,-0.0263293832189,0.0588802010409,-0.997843033619
380936000000,,5147,,380,932085938,"""map""",,,-4.8288359642,-4.49184274673,3.97514200211,,-0.0118618567894,-0.0213924202517,0.0587948115258,-0.997970401396
380972000000,,5148,,380,964085938,"""map""",,,-4.8264040947,-4.49500513077,3.97587203979,,-0.0117442061667,-0.0183224256962,0.058737449665,-0.998036192626
381004000000,,5149,,380,996085938,"""map""",,,-4.82402658463,-4.49834728241,3.97585964203,,-0.011775689204,-0.0229996465264,0.0587231618834,-0.997939887077
381036000000,,5150,,381,28085772,"""map""",,,-4.82221841812,-4.50180053711,3.9754960537,,-0.0117699374762,-0.0246101816581,0.0587086212206,-0.997902334235
381072000000,,5151,,381,68085772,"""map""",,,-4.8193655014,-4.50575113297,3.97612380981,,-0.0115780991805,-0.0200485877432,0.0586200706919,-0.998011873895
381104000000,,5152,,381,100085772,"""map""",,,-4.81643247604,-4.50888109207,3.97674608231,,-0.0114877659718,-0.0176769970899,0.058488741112,-0.998065484686
381136000000,,5153,,381,132085605,"""map""",,,-4.81394147873,-4.51214170456,3.97629666328,,-0.0113776800499,-0.0265659817971,0.0586255076354,-0.997861704673
381172000000,,5154,,381,164085605,"""map""",,,-4.81210517883,-4.51543140411,3.97617745399,,-0.0111977893979,-0.0259107010357,0.0585952040513,-0.997882651657
381204000000,,5155,,381,196085605,"""map""",,,-4.81005096436,-4.51885080338,3.97731876373,,-0.0109583213767,-0.0163932526519,0.058430873489,-0.998096715501
381236000000,,5156,,381,228085438,"""map""",,,-4.80778837204,-4.52239990234,3.97806692123,,-0.0110286445459,-0.0217499710654,0.058426953832,-0.997993835043
381272000000,,5157,,381,268085438,"""map""",,,-4.80503320694,-4.52671194077,3.97708725929,,-0.011071246778,-0.027061599101,0.0584465942635,-0.997862252582
381304000000,,5158,,381,300085438,"""map""",,,-4.80283498764,-4.53009033203,3.97725939751,,-0.0108600015049,-0.0206481974568,0.0583022413073,-0.998026414557
381336000000,,5159,,381,332085271,"""map""",,,-4.80026578903,-4.53360700607,3.9784014225,,-0.00759686177206,-0.016176489599,0.057902815624,-0.99816225385
381372000000,,5160,,381,364085271,"""map""",,,-4.79792022705,-4.53722429276,3.97818851471,,0.000425438191403,-0.0262939146703,0.0575887373089,-0.997994003631
381404000000,,5161,,381,396085271,"""map""",,,-4.7964758873,-4.54062414169,3.97753000259,,0.0168337397377,-0.0360621251135,0.0568824404215,-0.997587370836
381436000000,,5162,,381,428085103,"""map""",,,-4.79480838776,-4.54343175888,3.97816061974,,0.0312590136224,-0.0294444390117,0.0557908370451,-0.99751858718
381472000000,,5163,,381,468085103,"""map""",,,-4.79028320312,-4.54584980011,3.97754669189,,0.0369962069486,-0.0322835551067,0.055522656648,-0.997249395258
381504000000,,5164,,381,500085103,"""map""",,,-4.78636741638,-4.5469121933,3.97471380234,,0.0424377995661,-0.0468451886989,0.0555085796006,-0.996455432926
381536000000,,5165,,381,532084936,"""map""",,,-4.78278541565,-4.54698038101,3.97331786156,,0.0372470193867,-0.039517622569,0.0549304934264,-0.997012445676
381572000000,,5166,,381,564084936,"""map""",,,-4.77824735641,-4.5461192131,3.97412967682,,0.0284189533392,-0.0297608355681,0.0544827253079,-0.997666480471
381604000000,,5167,,381,596084936,"""map""",,,-4.7735209465,-4.54489850998,3.97417235374,,0.00520358426023,-0.0293529461061,0.0544099798473,-0.998073619028
381636000000,,5168,,381,628084768,"""map""",,,-4.76985216141,-4.54370164871,3.97331666946,,-0.0118506137883,-0.0271594107412,0.0547825158413,-0.998058572603
381672000000,,5169,,381,668084768,"""map""",,,-4.7643494606,-4.5425567627,3.9747300148,,-0.0193406609582,-0.0165509287866,0.0548870821725,-0.998168027968
381704000000,,5170,,381,700084768,"""map""",,,-4.75901937485,-4.54228496552,3.97671699524,,-0.0285159992567,-0.00442654388766,0.0547860983234,-0.998081036873
381736000000,,5171,,381,732084599,"""map""",,,-4.75475978851,-4.54260015488,3.97669744492,,-0.0334058884748,-0.017446080763,0.0547968879167,-0.997786093227
381768000000,,5172,,381,764084599,"""map""",,,-4.75202322006,-4.54341077805,3.97722005844,,-0.0339501241441,-0.013829987845,0.0549790044491,-0.997814373762
381804000000,,5173,,381,796084599,"""map""",,,-4.74915218353,-4.54492378235,3.97969436646,,-0.0325241118666,0.000661149710056,0.0551987159704,-0.997945324021
381836000000,,5174,,381,828084431,"""map""",,,-4.74634695053,-4.54707860947,3.98116183281,,-0.0302787523416,-0.0106160292039,0.0552930406173,-0.997954596327
381872000000,,5175,,381,868084431,"""map""",,,-4.74356412888,-4.55003023148,3.98046398163,,-0.0280605376919,-0.0188997601418,0.0553770392864,-0.997892176845
381904000000,,5176,,381,900084431,"""map""",,,-4.74136257172,-4.55266571045,3.98170351982,,-0.0238374672644,-0.00865716815002,0.0554671071017,-0.998138440881
381936000000,,5177,,381,932084262,"""map""",,,-4.73880577087,-4.55575227737,3.98378157616,,-0.0205337075185,-0.00519030800295,0.0556714350233,-0.998224504745
381972000000,,5178,,381,964084262,"""map""",,,-4.73705244064,-4.55904865265,3.98326253891,,-0.0189124343247,-0.0183719032975,0.055805335561,-0.998093470193
382004000000,,5179,,381,996084262,"""map""",,,-4.73684453964,-4.56239175797,3.98294997215,,-0.0159028679779,-0.0193207864142,0.0559944063234,-0.998117493897
382036000000,,5180,,382,28084093,"""map""",,,-4.73624134064,-4.56587076187,3.98494076729,,-0.013670548622,-0.00561958320393,0.0559920882467,-0.998321863965
382072000000,,5181,,382,68084093,"""map""",,,-4.7334485054,-4.57039070129,3.98556470871,,-0.012916890078,-0.0119914021665,0.0561144826948,-0.998268758936
382104000000,,5182,,382,100084093,"""map""",,,-4.73194980621,-4.5739364624,3.98409247398,,-0.0120344965371,-0.027291034032,0.056339504719,-0.997966102417
382136000000,,5183,,382,132083923,"""map""",,,-4.730905056,-4.57744550705,3.98465538025,,-0.0109445324425,-0.0129574168659,0.056324205413,-0.998268506055
382172000000,,5184,,382,164083923,"""map""",,,-4.72919225693,-4.58107709885,3.98662734032,,-0.0105734095204,-0.00738654405891,0.0563453209841,-0.998328059552
382204000000,,5185,,382,196083923,"""map""",,,-4.72807502747,-4.58476257324,3.98604750633,,-0.0102891342956,-0.0239548956283,0.0565470779479,-0.99805954198
382236000000,,5186,,382,228083754,"""map""",,,-4.72852659225,-4.58836078644,3.98538684845,,-0.0097227577013,-0.0225175056772,0.0566167888354,-0.998094692452
382272000000,,5187,,382,268083754,"""map""",,,-4.72574996948,-4.59278440475,3.98798346519,,-0.00954939725898,-0.0121472814214,0.05648111813,-0.998284142536
382304000000,,5188,,382,300083754,"""map""",,,-4.72211503983,-4.59639978409,3.98909020424,,-0.0094178825457,-0.0147045738058,0.0563872570984,-0.998256283469
382336000000,,5189,,382,332083584,"""map""",,,-4.7201628685,-4.59994029999,3.9884417057,,-0.00932654571516,-0.0286774625163,0.0565424839414,-0.997944691818
382372000000,,5190,,382,364083584,"""map""",,,-4.71882247925,-4.60337924957,3.98953151703,,-0.00924122370089,-0.0192321440186,0.0564727309071,-0.998176120163
382404000000,,5191,,382,396083584,"""map""",,,-4.71677875519,-4.60690021515,3.99210977554,,-0.00894910191823,-0.00817301050829,0.0562513335119,-0.99834306383
382436000000,,5192,,382,428083414,"""map""",,,-4.71531105042,-4.61046361923,3.99224162102,,-0.0090225826437,-0.027105313944,0.0565113795672,-0.997993160694
382472000000,,5193,,382,468083414,"""map""",,,-4.71338605881,-4.61460876465,3.99246191978,,-0.00892350857374,-0.0284478280464,0.0565476680038,-0.997954680621
382504000000,,5194,,382,500083414,"""map""",,,-4.71024417877,-4.61780548096,3.99526405334,,-0.00860404838597,-0.0101933090726,0.0563305695871,-0.998323086224
382536000000,,5195,,382,532083244,"""map""",,,-4.70715618134,-4.62106561661,3.99679255486,,-0.00851510001404,-0.0185753663855,0.056381525127,-0.998200228161
382572000000,,5196,,382,564083244,"""map""",,,-4.70570516586,-4.62422418594,3.99624752998,,-0.0084144260102,-0.0279446117973,0.0565332116348,-0.997974110318
382604000000,,5197,,382,596083244,"""map""",,,-4.70502853394,-4.62726068497,3.99727368355,,-0.00824412903462,-0.0159332868073,0.0563748237781,-0.998248486302
382636000000,,5198,,382,628083073,"""map""",,,-4.70362710953,-4.63033294678,3.99995112419,,-0.00831538869526,-0.00952187540806,0.056263556098,-0.99833598316
382672000000,,5199,,382,668083073,"""map""",,,-4.70062303543,-4.63424491882,3.99889039993,,-0.0084601000231,-0.0221044204637,0.056382915973,-0.998128620665
382704000000,,5200,,382,700083073,"""map""",,,-4.69899654388,-4.63726806641,3.99749112129,,-0.00851044245801,-0.026066012831,0.0565513769265,-0.998023127103
382736000000,,5201,,382,732082903,"""map""",,,-4.6968998909,-4.64028692245,3.99858736992,,-0.00815171394035,-0.00758616690635,0.0563384931946,-0.998349638739
382772000000,,5202,,382,764082903,"""map""",,,-4.6947388649,-4.64333248138,3.99889087677,,-0.0081052525346,-0.0124551431586,0.0564106485993,-0.998297123765
382804000000,,5203,,382,796082903,"""map""",,,-4.69411325455,-4.64629888535,3.9970741272,,-0.00791172869421,-0.0286975033428,0.056607137207,-0.997952699719
382836000000,,5204,,382,828082732,"""map""",,,-4.69439506531,-4.64909172058,3.99682998657,,-0.00759819071488,-0.0143603647745,0.0564877351852,-0.99827111916
382872000000,,5205,,382,868082732,"""map""",,,-4.69106960297,-4.65260982513,3.99862980843,,-0.00770217434219,-0.00753936677721,0.0564029778729,-0.998349975913
382904000000,,5206,,382,900082732,"""map""",,,-4.68793487549,-4.65543222427,3.99727797508,,-0.00789315971472,-0.0233770623352,0.0565949989147,-0.998092290082
382936000000,,5207,,382,932082560,"""map""",,,-4.6866440773,-4.6580953598,3.99619221687,,-0.00792447877443,-0.0238917636005,0.056657502691,-0.998076316426
382972000000,,5208,,382,964082560,"""map""",,,-4.6849603653,-4.66075897217,3.99760270119,,-0.00797792888088,-0.0116633678527,0.0565138240844,-0.998301844212
383004000000,,5209,,382,996082560,"""map""",,,-4.68313217163,-4.66353750229,3.99849367142,,-0.00802434441489,-0.0141941227867,0.0564966281702,-0.99826964402
383036000000,,5210,,383,28082389,"""map""",,,-4.68274641037,-4.66626739502,3.9970729351,,-0.00790914127284,-0.0291092181252,0.056688101303,-0.997936136008
383072000000,,5211,,383,68082389,"""map""",,,-4.68049478531,-4.66973257065,3.99743795395,,-0.00773307939863,-0.0224031764238,0.0566857832264,-0.998110750401
383104000000,,5212,,383,100082389,"""map""",,,-4.67666769028,-4.67264413834,3.99936723709,,-0.0072945258406,-0.00804438240138,0.0564479485602,-0.998346562019
383136000000,,5213,,383,132082217,"""map""",,,-4.67372989655,-4.67555570602,3.99862909317,,-0.00709357604655,-0.026516702253,0.0567183205934,-0.998012801125
383172000000,,5214,,383,164082217,"""map""",,,-4.67263698578,-4.67829370499,3.99780631065,,-0.00698362940677,-0.0276502773051,0.0567962501163,-0.99797836715
383204000000,,5215,,383,196082217,"""map""",,,-4.6712346077,-4.68098115921,3.99947547913,,-0.00679533786714,-0.0102501120761,0.0565575303663,-0.998323634133
383236000000,,5216,,383,228082045,"""map""",,,-4.66962957382,-4.6837272644,4.00087547302,,-0.00698832680474,-0.0167739478477,0.0566485675591,-0.998228803724
383272000000,,5217,,383,268082045,"""map""",,,-4.66693019867,-4.68726110458,3.9988026619,,-0.00688674302166,-0.0265964730663,0.0567652721827,-0.998009513671
383304000000,,5218,,383,300082045,"""map""",,,-4.6643652916,-4.69001245499,3.99865174294,,-0.00665915662515,-0.0178663052576,0.0567486241775,-0.998206465894
383336000000,,5219,,383,332081873,"""map""",,,-4.66133260727,-4.69277095795,4.00012922287,,-0.00658035107342,-0.00796575124047,0.0566475560348,-0.998340830047
383372000000,,5220,,383,364081873,"""map""",,,-4.65911722183,-4.6955037117,3.99914431572,,-0.00643964332576,-0.0179285159816,0.0568396613703,-0.99820157686
383404000000,,5221,,383,396081873,"""map""",,,-4.65881586075,-4.69808959961,3.99785780907,,-0.00636633876094,-0.0238446118137,0.0570573919897,-0.998065864008
383436000000,,5222,,383,428081701,"""map""",,,-4.65832805634,-4.70057916641,3.99900650978,,-0.00626223122951,-0.00682981666456,0.056858374571,-0.998339312761
383472000000,,5223,,383,468081701,"""map""",,,-4.65468835831,-4.70414304733,3.99945902824,,-0.00638873454257,-0.00843054520413,0.0569197825293,-0.998322749049
383504000000,,5224,,383,500081701,"""map""",,,-4.65222978592,-4.70708608627,3.99716591835,,-0.00622998185221,-0.0272782273169,0.0572353781309,-0.997968546934
383536000000,,5225,,383,532081528,"""map""",,,-4.65071153641,-4.70982885361,3.99661159515,,-0.00604626802009,-0.0139364695529,0.0571001288941,-0.998252911721
383572000000,,5226,,383,564081528,"""map""",,,-4.64865398407,-4.7125287056,3.99787259102,,-0.00608224911188,-0.00626104684751,0.0569536685955,-0.998338680558
383604000000,,5227,,383,596081528,"""map""",,,-4.64724206924,-4.71518850327,3.99677610397,,-0.00609550179532,-0.0213979727697,0.0571056501312,-0.998120191295
383636000000,,5228,,383,628081355,"""map""",,,-4.64769506454,-4.7176990509,3.99516844749,,-0.00604675172103,-0.0226452053599,0.0571681960544,-0.998089424096
383672000000,,5229,,383,668081355,"""map""",,,-4.64797735214,-4.72067260742,3.99640393257,,-0.0059800253573,-0.0100718060469,0.0570190805044,-0.998304373023
383704000000,,5230,,383,700081355,"""map""",,,-4.64804410934,-4.72305202484,3.99681425095,,-0.00600217336156,-0.0112169150121,0.0569605806787,-0.998295437891
383736000000,,5231,,383,732081182,"""map""",,,-4.64965295792,-4.72534370422,3.99527478218,,-0.00576317652899,-0.0269646890083,0.0571649086002,-0.997983972681
383772000000,,5232,,383,764081182,"""map""",,,-4.64896392822,-4.72768831253,3.99473071098,,-0.0056468334464,-0.0189300502257,0.0570756415751,-0.998174476436
383804000000,,5233,,383,796081182,"""map""",,,-4.64673137665,-4.73007011414,3.99598908424,,-0.00559544343181,-0.00651058947806,0.056973013999,-0.998338806999
383836000000,,5234,,383,828081009,"""map""",,,-4.64515161514,-4.73245334625,3.99491500854,,-0.00550179823814,-0.0251802197598,0.0572379490887,-0.99802784755
383872000000,,5235,,383,868081009,"""map""",,,-4.64569330215,-4.73522901535,3.99328184128,,-0.00545164217132,-0.0281171926052,0.0573009586272,-0.997946040517
383904000000,,5236,,383,900081009,"""map""",,,-4.64581632614,-4.73734807968,3.99470686913,,-0.00522573819139,-0.00925501148262,0.0570471503055,-0.998314909735
383936000000,,5237,,383,932080836,"""map""",,,-4.64579200745,-4.73945522308,3.9954354763,,-0.00522895798013,-0.0168003515312,0.0571098226692,-0.998212872215
383972000000,,5238,,383,964080836,"""map""",,,-4.64382266998,-4.74168539047,3.9932243824,,-0.0050175908763,-0.0270111084936,0.0572094156723,-0.997984141268
384004000000,,5239,,383,996080836,"""map""",,,-4.64195489883,-4.74378633499,3.99218392372,,-0.004975676494,-0.0192554001886,0.0572622256734,-0.998161115885
384036000000,,5240,,384,28080662,"""map""",,,-4.63960123062,-4.74584627151,3.9932050705,,-0.00508675023271,-0.00882868376222,0.0570908565874,-0.998317059225
384072000000,,5241,,384,68080662,"""map""",,,-4.63767147064,-4.74839353561,3.99149942398,,-0.00507928859416,-0.0185952020754,0.0572082777074,-0.998176204457
384104000000,,5242,,384,100080662,"""map""",,,-4.63812971115,-4.75025033951,3.98993110657,,-0.00518692901108,-0.0271294120632,0.05732940775,-0.997973225235
384136000000,,5243,,384,132080488,"""map""",,,-4.63825035095,-4.75198698044,3.99084687233,,-0.00515261703122,-0.00832105081978,0.0571837060947,-0.998315752672
384172000000,,5244,,384,164080488,"""map""",,,-4.63447761536,-4.75353622437,3.99183487892,,-0.00531120673182,-0.00919352845027,0.0572298568938,-0.998304583758
384204000000,,5245,,384,204080488,"""map""",,,-4.63076686859,-4.75529670715,3.99019789696,,-0.00523790759999,-0.0279429733386,0.0574992174026,-0.997940730014
384236000000,,5246,,384,228080314,"""map""",,,-4.62941741943,-4.75626516342,3.99037861824,,-0.00538713740749,-0.0150177034875,0.0573568032015,-0.998226274913
384272000000,,5247,,384,268080314,"""map""",,,-4.62659597397,-4.75790691376,3.99281787872,,-0.00542078944344,-0.00667058426568,0.0572485700945,-0.998322959783
384304000000,,5248,,384,300080314,"""map""",,,-4.62522268295,-4.75922679901,3.9922015667,,-0.00551222365625,-0.0228183321012,0.0574185904814,-0.998074209084
384336000000,,5249,,384,332080140,"""map""",,,-4.62578439713,-4.76041126251,3.9914624691,,-0.0055819082019,-0.0227808530162,0.0575008611297,-0.998069910105
384372000000,,5250,,384,364080140,"""map""",,,-4.62288331985,-4.76178646088,3.99300336838,,-0.00560881204996,-0.0120181801091,0.057332189442,-0.998267073062
384404000000,,5251,,384,396080140,"""map""",,,-4.61898040771,-4.76329517365,3.99442005157,,-0.00589832467928,-0.0123362050814,0.0573430633289,-0.998260919622
384436000000,,5252,,384,428079966,"""map""",,,-4.61675214767,-4.76472091675,3.99334955215,,-0.0058551402939,-0.0265091612598,0.0576388499117,-0.9979683362
384472000000,,5253,,384,468079966,"""map""",,,-4.6157374382,-4.76628017426,3.99366188049,,-0.00584669972894,-0.0207244253007,0.057635983926,-0.998105397751
384504000000,,5254,,384,500079966,"""map""",,,-4.61447715759,-4.76758527756,3.99549031258,,-0.00583602612187,-0.00526329638409,0.0574869526697,-0.998315373351
384536000000,,5255,,384,532079791,"""map""",,,-4.61401414871,-4.76892805099,3.99451637268,,-0.00588621437505,-0.0226045099435,0.0577111739038,-0.998060047742
384572000000,,5256,,384,564079791,"""map""",,,-4.61251688004,-4.77039670944,3.99237322807,,-0.0058663750632,-0.0251053893474,0.0578099239698,-0.99799467798
384604000000,,5257,,384,596079791,"""map""",,,-4.61015367508,-4.77189302444,3.99253773689,,-0.00551777436327,-0.00805208181566,0.0576140675648,-0.998291265353
384636000000,,5258,,384,628079616,"""map""",,,-4.60780620575,-4.77346992493,3.99279904366,,-0.0055921758986,-0.0135110135808,0.0577242394268,-0.99822551627
384672000000,,5259,,384,668079616,"""map""",,,-4.60714530945,-4.77535820007,3.99017620087,,-0.00550585487231,-0.0251543415948,0.0579472384023,-0.99798759731
384704000000,,5260,,384,700079616,"""map""",,,-4.60780191422,-4.77667999268,3.98991131783,,-0.00523064056135,-0.0169662184779,0.0579196743634,-0.998163433962
384736000000,,5261,,384,732079441,"""map""",,,-4.60789680481,-4.77803325653,3.99150681496,,-0.00505833807078,-0.00577120509204,0.0578528294616,-0.998295690772
384772000000,,5262,,384,764079441,"""map""",,,-4.60460805893,-4.77985620499,3.99009156227,,-0.00492669000223,-0.0178148485654,0.0580156005906,-0.998144552174
384804000000,,5263,,384,796079441,"""map""",,,-4.60224246979,-4.78166055679,3.98811364174,,-0.00485722145917,-0.0246274730612,0.0581300714311,-0.997993413575
384836000000,,5264,,384,828079266,"""map""",,,-4.60014057159,-4.78331613541,3.98867034912,,-0.00468446045699,-0.00621274749548,0.057891941737,-0.998292571906
384872000000,,5265,,384,868079266,"""map""",,,-4.59756994247,-4.78538799286,3.98931884766,,-0.00478970064381,-0.00694716538577,0.0579081682737,-0.998286292025
384904000000,,5266,,384,900079266,"""map""",,,-4.59742164612,-4.78692817688,3.98738336563,,-0.00458200517257,-0.0257201011329,0.0581813641458,-0.997964205809
384936000000,,5267,,384,932079091,"""map""",,,-4.59828329086,-4.78833055496,3.98722028732,,-0.00447669271049,-0.0129190752521,0.058100905812,-0.998217129047
384972000000,,5268,,384,972079091,"""map""",,,-4.59308671951,-4.79051399231,3.99017572403,,-0.00447587212287,-0.00482006641919,0.0579776262801,-0.998296238682
385004000000,,5269,,384,996079091,"""map""",,,-4.58997678757,-4.79185342789,3.99002027512,,-0.00449772530499,-0.0187830795551,0.058079748094,-0.99812508033
385036000000,,5270,,385,28078915,"""map""",,,-4.58791637421,-4.79345798492,3.98917222023,,-0.00438850833252,-0.0212490139532,0.0581288913194,-0.998073324
385072000000,,5271,,385,68078915,"""map""",,,-4.58567237854,-4.79530906677,3.99142098427,,-0.00426555247525,-0.0104065531106,0.0579704613158,-0.99825493477
385104000000,,5272,,385,100078915,"""map""",,,-4.58397006989,-4.79680299759,3.99288201332,,-0.00453733099488,-0.008019775927,0.0580118495211,-0.99827339509
385136000000,,5273,,385,132078739,"""map""",,,-4.5840344429,-4.79818487167,3.9921104908,,-0.00432570294279,-0.0241385821308,0.0582427299572,-0.998001210742
385172000000,,5274,,385,164078739,"""map""",,,-4.58207893372,-4.79952812195,3.99257493019,,-0.00431262095614,-0.0161533499913,0.0581959048085,-0.99816520413
385204000000,,5275,,385,196078739,"""map""",,,-4.57881355286,-4.80092287064,3.99515223503,,-0.00432548233038,-0.00219427754459,0.0579836532794,-0.998305806016
385236000000,,5276,,385,228078563,"""map""",,,-4.57633876801,-4.80228948593,3.99533677101,,-0.00420153437581,-0.0218019621665,0.0582527187603,-0.998054947974
385272000000,,5277,,385,268078563,"""map""",,,-4.57611560822,-4.80378293991,3.99463033676,,-0.00421544086018,-0.0226725836892,0.0582842867498,-0.998033663815
385304000000,,5278,,385,300078563,"""map""",,,-4.57600402832,-4.8048915863,3.99658274651,,-0.00414593379227,-0.00512966823684,0.0580169914366,-0.998293878458
385336000000,,5279,,385,332078387,"""map""",,,-4.5759601593,-4.80605888367,3.99785971642,,-0.00433409148273,-0.0101421168684,0.0580358732247,-0.998253586071
385372000000,,5280,,385,364078387,"""map""",,,-4.57385015488,-4.80759811401,3.99604511261,,-0.00421666707006,-0.0205661724456,0.0581652640496,-0.998086263082
385404000000,,5281,,385,396078387,"""map""",,,-4.57204246521,-4.80909872055,3.99550271034,,-0.00407003983045,-0.0133768180151,0.0581095037691,-0.998212324306
385436000000,,5282,,385,428078211,"""map""",,,-4.56995391846,-4.81053209305,3.99710512161,,-0.00413078545759,-0.00269740176206,0.0578950606038,-0.998310526463
385472000000,,5283,,385,468078211,"""map""",,,-4.56853199005,-4.81225156784,3.99607396126,,-0.00404633387452,-0.0128418977871,0.0580060754028,-0.998225474123
385504000000,,5284,,385,500078211,"""map""",,,-4.56959295273,-4.81341314316,3.99509549141,,-0.00387477842038,-0.0219484007331,0.0581480259886,-0.998059162659
385536000000,,5285,,385,532078034,"""map""",,,-4.57042312622,-4.814473629,3.99665689468,,-0.00380899245821,-0.00318889048588,0.0579584916108,-0.9983066911
385572000000,,5286,,385,564078034,"""map""",,,-4.56677627563,-4.81585597992,3.99766373634,,-0.00398703860934,-0.00592758340018,0.0579941899915,-0.998291391794
385604000000,,5287,,385,596078034,"""map""",,,-4.56361627579,-4.81722831726,3.9960463047,,-0.00383038856928,-0.023187321833,0.0582103190307,-0.99802772111
385636000000,,5288,,385,628077858,"""map""",,,-4.56207847595,-4.81839752197,3.99563860893,,-0.00389349557239,-0.00999684129135,0.0580986298821,-0.998253206749
385672000000,,5289,,385,668077858,"""map""",,,-4.55983638763,-4.81979942322,3.99782276154,,-0.00398559236329,-0.00216398449722,0.0579155861191,-0.99831124296
385704000000,,5290,,385,700077858,"""map""",,,-4.55905437469,-4.82090997696,3.99676084518,,-0.0040283799756,-0.0167436811421,0.0579829789298,-0.99816908164
385736000000,,5291,,385,732077681,"""map""",,,-4.56026124954,-4.82185268402,3.99569368362,,-0.00416602894866,-0.0179811415903,0.0581112317899,-0.998139536699
385772000000,,5292,,385,764077681,"""map""",,,-4.55737686157,-4.82254505157,3.99772882462,,-0.00409779204847,-0.00692920053855,0.0579917033275,-0.998284606151
385804000000,,5293,,385,796077681,"""map""",,,-4.55344343185,-4.82321310043,3.99948453903,,-0.00427519990533,-0.00592898807562,0.0579887109012,-0.998290464563
385836000000,,5294,,385,828077504,"""map""",,,-4.55136966705,-4.82382822037,3.99873328209,,-0.00395536846309,-0.0217787412286,0.058162945973,-0.99806169147
385872000000,,5295,,385,868077504,"""map""",,,-4.5507144928,-4.82437753677,3.99978137016,,-0.00401846427095,-0.015190554628,0.0580977026515,-0.998187289078
385904000000,,5296,,385,900077504,"""map""",,,-4.54985952377,-4.82483386993,4.00231361389,,-0.00436050932494,0.000656830645901,0.0579221188806,-0.998311453694
