rosbagTimestamp,header,seq,stamp,secs,nsecs,frame_id,pose,position,x,y,z,orientation,x,y,z,w
2049388000000,,23351,,2049,380225182,"""map""",,,-0.0649276152253,-0.004852514714,0.0192312970757,,0.00844718617109,-0.00820767839031,0.0517843154788,-0.998588822104
2049420000000,,23352,,2049,411225182,"""map""",,,-0.0650872066617,-0.00453310133889,0.0195591766387,,0.00843827944923,-0.00819458445725,0.0517860013527,-0.998588990691
2049452000000,,23353,,2049,444225182,"""map""",,,-0.0652626752853,-0.00424615945667,0.0198166631162,,0.00846758490621,-0.00815139951622,0.0517770662208,-0.998589496453
2049488000000,,23354,,2049,484224505,"""map""",,,-0.0655004158616,-0.00387960905209,0.0200696140528,,0.00842550631995,-0.0081595999388,0.0517967487991,-0.998588779957
2049520000000,,23355,,2049,516224505,"""map""",,,-0.0657291337848,-0.00358497258276,0.020156878978,,0.00845219217949,-0.00812115115727,0.0518433210667,-0.99858646188
2049552000000,,23356,,2049,547224505,"""map""",,,-0.0659998804331,-0.00326387770474,0.0202350988984,,0.00844897794722,-0.00815774832773,0.0518419302207,-0.998586251146
2049588000000,,23357,,2049,580223826,"""map""",,,-0.0663132593036,-0.0028856517747,0.0202475301921,,0.0083777252939,-0.0081039657695,0.0517939671071,-0.998589791481
2049620000000,,23358,,2049,612223826,"""map""",,,-0.0666951909661,-0.00227592419833,0.0202592276037,,0.00834949532242,-0.00809030440774,0.0518219104677,-0.99858873781
2049652000000,,23359,,2049,643223826,"""map""",,,-0.0670580938458,-0.00167043984402,0.0202192794532,,0.00837476123652,-0.00810762920115,0.0518719809237,-0.998585787531
2049688000000,,23360,,2049,684223147,"""map""",,,-0.0675093457103,-0.000940152909607,0.0200903788209,,0.00836531840798,-0.0081082093377,0.0518606434214,-0.998586419734
2049720000000,,23361,,2049,716223147,"""map""",,,-0.0678958147764,-0.000356969365384,0.0197900831699,,0.00840077697557,-0.00802587293785,0.0518324471798,-0.998588232048
2049752000000,,23362,,2049,748223147,"""map""",,,-0.0682261288166,0.000222073489567,0.0195545125753,,0.00842421648851,-0.00796193688894,0.0518662068054,-0.998586841202
2049788000000,,23363,,2049,780222468,"""map""",,,-0.0685224756598,0.000795498373918,0.019579058513,,0.00845374196109,-0.00799817498802,0.0519073842764,-0.998584101657
2049820000000,,23364,,2049,812222468,"""map""",,,-0.0689080506563,0.00113813695498,0.0196499489248,,0.00842639758792,-0.00801496289273,0.0519067099269,-0.998584270244
2049852000000,,23365,,2049,844222468,"""map""",,,-0.0693168416619,0.00147681089584,0.0197898130864,,0.00842883803039,-0.00803651322668,0.0519010622492,-0.998584354538
2049888000000,,23366,,2049,884221789,"""map""",,,-0.0698091909289,0.00192295236047,0.0201585814357,,0.00845128431415,-0.0080733293632,0.0519596885154,-0.99858085635
2049920000000,,23367,,2049,916221789,"""map""",,,-0.0701904520392,0.00228836247697,0.0204646568745,,0.00843119771884,-0.00808535142246,0.0519553895369,-0.998581109231
2049952000000,,23368,,2049,947221789,"""map""",,,-0.0706060305238,0.00268679414876,0.0207285303622,,0.00844871564071,-0.00807448348303,0.0519484774537,-0.998581446405
2049988000000,,23369,,2049,980221112,"""map""",,,-0.0710004344583,0.00307617243379,0.0209086276591,,0.00848007952261,-0.00807704254583,0.0519827849884,-0.998579339063
2050020000000,,23370,,2050,12221112,"""map""",,,-0.0712808892131,0.00323266047053,0.020631885156,,0.00846629579505,-0.00805631854117,0.0520089581814,-0.998578285392
2050052000000,,23371,,2050,43221112,"""map""",,,-0.0715831369162,0.00345474644564,0.0202216021717,,0.00847735870482,-0.00805815256705,0.0520358057239,-0.998576725958
2050088000000,,23372,,2050,83220433,"""map""",,,-0.0719647184014,0.00384182808921,0.0198863577098,,0.00848240509022,-0.00805363301725,0.052053844575,-0.998575798728
2050120000000,,23373,,2050,116220433,"""map""",,,-0.0722567886114,0.00421547982842,0.0196034833789,,0.00844988953746,-0.00808847191503,0.0520851175366,-0.998574197147
2050152000000,,23374,,2050,148220433,"""map""",,,-0.0725590214133,0.00460795545951,0.019276054576,,0.00844834745259,-0.00805582632031,0.0521035357094,-0.998573480651
2050188000000,,23375,,2050,179219754,"""map""",,,-0.0728591755033,0.00502438331023,0.0190954227,,0.00844117501798,-0.00808695528703,0.0520930411441,-0.998573859973
2050220000000,,23376,,2050,212219754,"""map""",,,-0.0730277374387,0.00533514842391,0.0187966171652,,0.00843498424686,-0.00784055340959,0.0520889528998,-0.998576093756
2050252000000,,23377,,2050,244219754,"""map""",,,-0.0731829330325,0.00567159056664,0.0186145454645,,0.00841969407815,-0.00789760188554,0.0520955278082,-0.998575419406
2050288000000,,23378,,2050,284219075,"""map""",,,-0.0734345093369,0.00615857169032,0.0184318199754,,0.00837902699973,-0.00792811025638,0.0521386440342,-0.998573269917
2050320000000,,23379,,2050,315219075,"""map""",,,-0.0736473426223,0.00660259369761,0.0183679889888,,0.00839193350485,-0.00793544740944,0.0521818024071,-0.9985708254
2050352000000,,23380,,2050,348219075,"""map""",,,-0.0738941952586,0.00707075698301,0.0181427467614,,0.00832857314732,-0.00794937083076,0.0522332215623,-0.99856854947
2050388000000,,23381,,2050,380218396,"""map""",,,-0.0741499364376,0.00759650440887,0.0178976505995,,0.00832671193591,-0.00797750269968,0.0523312129851,-0.99856319682
2050420000000,,23382,,2050,411218396,"""map""",,,-0.0743990764022,0.00806088093668,0.0175138507038,,0.00835606779212,-0.00799406056657,0.0523481138713,-0.998561974561
2050452000000,,23383,,2050,444218396,"""map""",,,-0.0746489912271,0.00850992184132,0.0172109436244,,0.00836499594755,-0.00799586273535,0.0523891649018,-0.998559698632
2050488000000,,23384,,2050,484229718,"""map""",,,-0.0750089138746,0.00911131501198,0.0168959386647,,0.00836483127026,-0.00800603860625,0.052436959428,-0.998557169821
2050520000000,,23385,,2050,516229718,"""map""",,,-0.0753128826618,0.00968109723181,0.016674015671,,0.00834363100416,-0.0080011288997,0.0524557569224,-0.998556326884
2050552000000,,23386,,2050,547229718,"""map""",,,-0.075615182519,0.0103033408523,0.016531387344,,0.00842166783894,-0.00807079437843,0.0524274763871,-0.998556621912
2050588000000,,23387,,2050,580229039,"""map""",,,-0.0759343281388,0.0109605230391,0.0164484735578,,0.00842639351317,-0.00810637557936,0.0524398254137,-0.998555652534
2050620000000,,23388,,2050,612229039,"""map""",,,-0.0761382132769,0.0113306753337,0.0164956580848,,0.00844395887083,-0.00814681482196,0.0524543660764,-0.998554430276
2050652000000,,23389,,2050,643229039,"""map""",,,-0.0763378441334,0.0116400364786,0.0166788380593,,0.00849233072449,-0.00819427568219,0.0524526802025,-0.998553755926
2050688000000,,23390,,2050,684228360,"""map""",,,-0.076646566391,0.0121231181547,0.0169218163937,,0.00847961495033,-0.00819385481051,0.0524641019984,-0.998553208017
2050720000000,,23391,,2050,716228360,"""map""",,,-0.0769403576851,0.0125770131126,0.0171289034188,,0.00848698918767,-0.0081808052366,0.0524606459568,-0.998553460898
2050752000000,,23392,,2050,748228360,"""map""",,,-0.0772488117218,0.0131138181314,0.0173848047853,,0.00854467077185,-0.00821090236697,0.0524673473058,-0.998552407227
2050788000000,,23393,,2050,788227681,"""map""",,,-0.0776751860976,0.0138393305242,0.0177813880146,,0.00859537165048,-0.00816026075735,0.0524908652472,-0.998551142821
2050820000000,,23394,,2050,812227681,"""map""",,,-0.0776460394263,0.0142072634771,0.01834894903,,0.00857484313065,-0.00818272012968,0.0524366222532,-0.99855396666
2050852000000,,23395,,2050,844227681,"""map""",,,-0.0776090845466,0.014760912396,0.0191438049078,,0.00854909665399,-0.00811824074039,0.0524158860037,-0.998555736828
2050888000000,,23396,,2050,884227002,"""map""",,,-0.0776304677129,0.0155519312248,0.0200640447438,,0.00857441552947,-0.00813943222933,0.052443070721,-0.998553924513
2050920000000,,23397,,2050,916227002,"""map""",,,-0.0776924267411,0.0162430852652,0.0206805747002,,0.00848530958019,-0.00810427346413,0.0524492663077,-0.998554725303
2050952000000,,23398,,2050,947227002,"""map""",,,-0.0777840465307,0.0169975254685,0.0212449897081,,0.00844304920478,-0.00810330302677,0.0524232617022,-0.998556453324
2050988000000,,23399,,2050,980226326,"""map""",,,-0.0778747648001,0.0178023744375,0.021768797189,,0.00842154825138,-0.0081280743122,0.0524266755969,-0.99855624259
2051020000000,,23400,,2051,12226326,"""map""",,,-0.0778920948505,0.0182547792792,0.0222991406918,,0.00843990929544,-0.00812939057804,0.052468105949,-0.998553924513
2051052000000,,23401,,2051,43226326,"""map""",,,-0.0779112279415,0.0186708196998,0.0228585395962,,0.00839707175722,-0.00811903352508,0.0524539446079,-0.998555104625
2051088000000,,23402,,2051,83225647,"""map""",,,-0.0780273973942,0.019346550107,0.0236478634179,,0.00845985160776,-0.00808902021508,0.0524246946951,-0.998556284737
2051120000000,,23403,,2051,116225647,"""map""",,,-0.07815079391,0.0199770145118,0.0242712944746,,0.00842039931758,-0.00805888279001,0.0524709719347,-0.998554430276
2051152000000,,23404,,2051,148225647,"""map""",,,-0.0783222913742,0.0207298193127,0.0248996447772,,0.00844986130236,-0.00796990813804,0.0524747651511,-0.998554683157
2051188000000,,23405,,2051,179224968,"""map""",,,-0.0785188898444,0.0215640924871,0.0254584252834,,0.00842462338669,-0.00792951814222,0.0524586229081,-0.998556158296
2051220000000,,23406,,2051,212224968,"""map""",,,-0.0786493495107,0.0221232324839,0.0258517824113,,0.00843732996182,-0.00792236178021,0.0524525537619,-0.998556411177
2051252000000,,23407,,2051,252224968,"""map""",,,-0.0787035599351,0.0224989857525,0.0262663308531,,0.00840805080546,-0.00791201367935,0.0524584964676,-0.998556369031
2051288000000,,23408,,2051,284224289,"""map""",,,-0.0787789896131,0.0229184571654,0.0265833344311,,0.00838136096379,-0.00786501370767,0.0525136666923,-0.998554050954
2051320000000,,23409,,2051,315224289,"""map""",,,-0.0788617506623,0.0234260428697,0.0271310638636,,0.0083868974092,-0.00790499190737,0.0525121915526,-0.99855384022
2051352000000,,23410,,2051,348224289,"""map""",,,-0.0789735838771,0.0240067858249,0.0275836288929,,0.00838849287733,-0.00788791932622,0.0525208316565,-0.998553460898
2051388000000,,23411,,2051,380223611,"""map""",,,-0.079151712358,0.0246621146798,0.0279507301748,,0.00840351458625,-0.00788228187654,0.0525108007066,-0.998553882366
2051420000000,,23412,,2051,411223611,"""map""",,,-0.0792842507362,0.0252356156707,0.0285132825375,,0.00836880204669,-0.00785259929993,0.0525379011302,-0.998552997283
2051452000000,,23413,,2051,444223611,"""map""",,,-0.0794179588556,0.0257549565285,0.0291529428214,,0.00834234592658,-0.00783444824925,0.0525266900685,-0.998554008807
2051488000000,,23414,,2051,484222935,"""map""",,,-0.0796045735478,0.0265647508204,0.0299678742886,,0.00831680259032,-0.00783979402545,0.0525372689274,-0.998553629485
2051520000000,,23415,,2051,516222935,"""map""",,,-0.0798169672489,0.0273090917617,0.0305960997939,,0.00831878682608,-0.0078634087318,0.0525569515057,-0.998552322933
2051552000000,,23416,,2051,547222935,"""map""",,,-0.0801036953926,0.0281247608364,0.03124595806,,0.00830321792841,-0.00790962102252,0.0525133716643,-0.998554430276
2051588000000,,23417,,2051,580222256,"""map""",,,-0.0803913548589,0.0290156975389,0.0319683030248,,0.00827825861823,-0.00791234655302,0.0525008119035,-0.998555273212
2051620000000,,23418,,2051,612222256,"""map""",,,-0.080728597939,0.0295761805028,0.0324197001755,,0.00828764053141,-0.00789608153265,0.0525197358385,-0.998554303835
2051652000000,,23419,,2051,643222256,"""map""",,,-0.0810966417193,0.0298652276397,0.0327105335891,,0.00826538923856,-0.00794238682219,0.0525074289587,-0.998554725303
2051688000000,,23420,,2051,684221577,"""map""",,,-0.0816414654255,0.030424522236,0.0326958782971,,0.00830246879288,-0.007731602983,0.0525570779462,-0.998553545192
2051720000000,,23421,,2051,716221577,"""map""",,,-0.0820748880506,0.0309788901359,0.0328853130341,,0.00827079389276,-0.00772171845631,0.0525213795655,-0.998555694681
2051752000000,,23422,,2051,748221577,"""map""",,,-0.0825348943472,0.0316287912428,0.0329289324582,,0.00827425672557,-0.00772661123621,0.0525329699489,-0.998555062478
2051788000000,,23423,,2051,780220898,"""map""",,,-0.0830099135637,0.0323784798384,0.0328221656382,,0.00826129926557,-0.00774107676314,0.0525174177618,-0.998555863268
2051820000000,,23424,,2051,812220898,"""map""",,,-0.0833722278476,0.0328261442482,0.0327377803624,,0.00826549223904,-0.00774469017627,0.0525711971405,-0.998552997283
2051852000000,,23425,,2051,844220898,"""map""",,,-0.0836281627417,0.0330083854496,0.0326809994876,,0.00828197711038,-0.00771397942647,0.0525744845947,-0.998552912989
2051888000000,,23426,,2051,884220220,"""map""",,,-0.0840015485883,0.0334637016058,0.0326464101672,,0.00835078906398,-0.00773887177091,0.0526104780033,-0.998550215591
2051920000000,,23427,,2051,916220220,"""map""",,,-0.0843126475811,0.0339514687657,0.0327289961278,,0.00831811959702,-0.00777467459264,0.0526326893925,-0.998549077626
2051952000000,,23428,,2051,947220220,"""map""",,,-0.0846415758133,0.0345542319119,0.0329302661121,,0.00831150674002,-0.00778497529888,0.0526047881788,-0.998550510619
2051988000000,,23429,,2051,980219544,"""map""",,,-0.0849933996797,0.0352542251348,0.0331908650696,,0.00836768766591,-0.00785231624927,0.0525679518332,-0.998551437849
2052020000000,,23430,,2052,12219544,"""map""",,,-0.0852981284261,0.0357986725867,0.0334501266479,,0.00842258350392,-0.00787996633115,0.0525940407324,-0.998549372654
2052052000000,,23431,,2052,43219544,"""map""",,,-0.0853717848659,0.0357379168272,0.0337413921952,,0.00844255827014,-0.00788810746415,0.052593029208,-0.998549204066
2052088000000,,23432,,2052,83218865,"""map""",,,-0.0854637175798,0.0358996465802,0.0341897942126,,0.00845108020651,-0.00788738006059,0.05260971936,-0.998548276836
2052120000000,,23433,,2052,116218865,"""map""",,,-0.08554276824,0.0361743159592,0.0346439927816,,0.00848758847346,-0.00791063734191,0.0526420459928,-0.998546043053
2052152000000,,23434,,2052,148218865,"""map""",,,-0.085661187768,0.0365740582347,0.0352500528097,,0.00850350765507,-0.00786470170163,0.0526358504061,-0.998546590962
2052188000000,,23435,,2052,179218187,"""map""",,,-0.0858313515782,0.0371074005961,0.0358227044344,,0.00849153356666,-0.0078821364411,0.0526458392092,-0.998546043053
2052220000000,,23436,,2052,212218187,"""map""",,,-0.0859214514494,0.0375447720289,0.0364753752947,,0.00850513146119,-0.00786358365769,0.0526847828972,-0.998544020004
2052252000000,,23437,,2052,244218187,"""map""",,,-0.0857703611255,0.0374538898468,0.0372980982065,,0.00845848335807,-0.00788145863417,0.0526854993936,-0.998544230738
2052288000000,,23438,,2052,284217508,"""map""",,,-0.0856320485473,0.0376034229994,0.0380449220538,,0.00847069662162,-0.00784723813025,0.0527146650128,-0.998542882039
2052320000000,,23439,,2052,315217508,"""map""",,,-0.0855776444077,0.0378955677152,0.038493219763,,0.00850107180183,-0.00784294262964,0.0527181210544,-0.998542460571
2052352000000,,23440,,2052,348217508,"""map""",,,-0.0855922326446,0.0383248254657,0.0389271192253,,0.00846285506463,-0.00786936351762,0.0528016139613,-0.998538203739
2052388000000,,23441,,2052,380216830,"""map""",,,-0.0856550186872,0.0388939939439,0.0394184701145,,0.00845874549994,-0.00789067031358,0.0528233617351,-0.99853685504
2052420000000,,23442,,2052,411216830,"""map""",,,-0.0856867954135,0.0393244586885,0.039797026664,,0.00844480754949,-0.00790600701257,0.0528583436194,-0.998535000578
2052452000000,,23443,,2052,444216830,"""map""",,,-0.0855472683907,0.0391928553581,0.0397889576852,,0.00838090539504,-0.00790036818406,0.0528998161183,-0.998533398998
2052488000000,,23444,,2052,484216155,"""map""",,,-0.0854827836156,0.0392432510853,0.0398440472782,,0.00838734145342,-0.00790167265784,0.0528811029176,-0.998534326229
2052520000000,,23445,,2052,516216155,"""map""",,,-0.0854988321662,0.0394661128521,0.0399536713958,,0.00840327981513,-0.00790548009465,0.0529361467017,-0.998531291656
2052552000000,,23446,,2052,547216155,"""map""",,,-0.0855484977365,0.0398164242506,0.040142506361,,0.00837103218709,-0.00789586536541,0.052982255354,-0.998529184313
2052588000000,,23447,,2052,580215477,"""map""",,,-0.0856797844172,0.0403076224029,0.0403865948319,,0.00839007943453,-0.00788744044089,0.0530355711174,-0.998526276181
2052620000000,,23448,,2052,612215477,"""map""",,,-0.0857370793819,0.0407714955509,0.0406558178365,,0.00836471909132,-0.00793632531101,0.0530279846846,-0.998526529062
2052652000000,,23449,,2052,643215477,"""map""",,,-0.0856002569199,0.04088768363,0.0407935604453,,0.00843115250564,-0.00793541444105,0.0530668019321,-0.99852387381
2052688000000,,23450,,2052,684214798,"""map""",,,-0.0855458155274,0.0412644036114,0.0410000011325,,0.00844749869162,-0.00797315056425,0.0530194288744,-0.998525981153
2052720000000,,23451,,2052,716214798,"""map""",,,-0.0856029987335,0.0417292378843,0.0412610135972,,0.00848880651327,-0.00799305840588,0.053037341285,-0.998524506013
2052752000000,,23452,,2052,748214798,"""map""",,,-0.0857137814164,0.042305149138,0.0415843240917,,0.0084536541483,-0.00794028717651,0.0530277739504,-0.998525728272
2052788000000,,23453,,2052,780214120,"""map""",,,-0.0858679488301,0.0430126897991,0.0419961512089,,0.00843205973302,-0.00796244794006,0.0529938035905,-0.998527498439
2052820000000,,23454,,2052,812214120,"""map""",,,-0.0860701650381,0.0438276082277,0.0424129404128,,0.00842520344093,-0.00794690581634,0.0530035395125,-0.998527203411
2052852000000,,23455,,2052,844214120,"""map""",,,-0.0859765037894,0.0437217727304,0.0427518635988,,0.00846488776515,-0.00798661166674,0.053022884916,-0.998525475391
2052888000000,,23456,,2052,884213442,"""map""",,,-0.0859587490559,0.0438204035163,0.0430702976882,,0.0084660256889,-0.00797235948766,0.0529841098153,-0.998527667027
2052920000000,,23457,,2052,916213442,"""map""",,,-0.0860146358609,0.0440910346806,0.0432186089456,,0.00844710200087,-0.00798404445445,0.0529764812358,-0.998528130642
2052952000000,,23458,,2052,947213442,"""map""",,,-0.0861372798681,0.0444888621569,0.0432065092027,,0.00845752031905,-0.00799309007776,0.0530118845885,-0.998526107593
2052988000000,,23459,,2052,980212768,"""map""",,,-0.0863409936428,0.0450298115611,0.0431913100183,,0.00838298905045,-0.00800706027631,0.0530221684196,-0.998526107593
2053020000000,,23460,,2053,12212768,"""map""",,,-0.086562924087,0.045689817518,0.0432134494185,,0.00835677070606,-0.00801781994692,0.053071564526,-0.998523578782
2053052000000,,23461,,2053,43212768,"""map""",,,-0.0865601301193,0.0454664453864,0.0428116694093,,0.00831525080221,-0.00801327466243,0.0530647367366,-0.998524337426
2053088000000,,23462,,2053,83224093,"""map""",,,-0.0866471156478,0.0454359091818,0.0423095561564,,0.00831718724205,-0.00805429112958,0.0530636409185,-0.998524084545
2053120000000,,23463,,2053,116224093,"""map""",,,-0.0867649391294,0.0455961637199,0.0419669561088,,0.00832969352703,-0.00804130410711,0.0530370462571,-0.998525475391
2053152000000,,23464,,2053,148224093,"""map""",,,-0.0869187191129,0.0458889380097,0.0416834764183,,0.00838409083657,-0.00807012311578,0.0530490581089,-0.998524084545
2053188000000,,23465,,2053,179223415,"""map""",,,-0.0871123448014,0.0463028736413,0.0414517708123,,0.00832964208853,-0.00808148197957,0.0530074591694,-0.998526655502
2053220000000,,23466,,2053,212223415,"""map""",,,-0.0873271748424,0.0468287505209,0.0412898659706,,0.00832813123309,-0.00809791677066,0.0530044667432,-0.998526697649
2053252000000,,23467,,2053,244223415,"""map""",,,-0.0873439013958,0.0464656688273,0.040923640132,,0.00835164057232,-0.00803103437304,0.053059889849,-0.998524126691
2053284000000,,23468,,2053,284222738,"""map""",,,-0.0874107256532,0.0463123433292,0.0406301245093,,0.00834494430655,-0.00804862559915,0.0530464028574,-0.998524801041
2053320000000,,23469,,2053,315222738,"""map""",,,-0.0874890312552,0.0463998839259,0.0404927022755,,0.00832654410995,-0.00800727605254,0.0530514604793,-0.998524969628
2053352000000,,23470,,2053,348222738,"""map""",,,-0.087580807507,0.0466510280967,0.0403529666364,,0.00837042459746,-0.00804736262397,0.0530832813499,-0.998522651552
2053388000000,,23471,,2053,380222060,"""map""",,,-0.0876890346408,0.0470549911261,0.0403218753636,,0.00836554440194,-0.00805159876297,0.0531100445987,-0.998521176412
2053420000000,,23472,,2053,411222060,"""map""",,,-0.0878134518862,0.0475770533085,0.0403119362891,,0.00835094840088,-0.00806770019677,0.0531110561231,-0.998521092118
2053452000000,,23473,,2053,444222060,"""map""",,,-0.0875685960054,0.0472372807562,0.0403920076787,,0.00837268838537,-0.00809229013551,0.0530489316684,-0.998524042398
2053484000000,,23474,,2053,484221386,"""map""",,,-0.087308421731,0.0470725670457,0.0405802763999,,0.00837758499306,-0.00811693188318,0.0530338009497,-0.998524590307
2053520000000,,23475,,2053,516221386,"""map""",,,-0.0871545821428,0.0471658855677,0.0407367236912,,0.00840317026008,-0.00814484677199,0.0530171950914,-0.998525011775
2053552000000,,23476,,2053,547221386,"""map""",,,-0.0870596021414,0.0474177785218,0.0406560376287,,0.00845178157699,-0.00791439419427,0.0530574874786,-0.998524337426
2053588000000,,23477,,2053,580220708,"""map""",,,-0.0869916975498,0.0478585846722,0.0406507179141,,0.00844570905576,-0.00786754607883,0.0530893083492,-0.998523115167
2053620000000,,23478,,2053,612220708,"""map""",,,-0.0869683325291,0.0484113432467,0.0407334379852,,0.00846679976681,-0.00786569145286,0.0530806260984,-0.998523368048
2053652000000,,23479,,2053,643220708,"""map""",,,-0.0867441520095,0.0482877492905,0.0412037298083,,0.00844299560543,-0.00784555093922,0.0529939721779,-0.998528341376
2053688000000,,23480,,2053,684220031,"""map""",,,-0.08646312356,0.0480659417808,0.041707854718,,0.00837620890257,-0.00784405843041,0.053059046912,-0.998525475391
2053720000000,,23481,,2053,716220031,"""map""",,,-0.0862735435367,0.0480681471527,0.0419576466084,,0.00840781049845,-0.00782459907817,0.0530279846846,-0.998527034824
2053752000000,,23482,,2053,748220031,"""map""",,,-0.0861096382141,0.0482263602316,0.0420349426568,,0.00843987305491,-0.00790274657929,0.0530220841259,-0.998526444768
2053784000000,,23483,,2053,780219353,"""map""",,,-0.0859789326787,0.0485447794199,0.0422152727842,,0.00845155837156,-0.00788211032569,0.0530123482039,-0.998526992677
2053820000000,,23484,,2053,812219353,"""map""",,,-0.0859005302191,0.0489925965667,0.0424107126892,,0.0084349265419,-0.00787190383248,0.0529982290096,-0.998527962055
2053852000000,,23485,,2053,844219353,"""map""",,,-0.0856263265014,0.0487900823355,0.0424813590944,,0.00843435650989,-0.00788764277869,0.0530034552188,-0.998527540586
2053888000000,,23486,,2053,884218676,"""map""",,,-0.0852904692292,0.0484843142331,0.042441803962,,0.00846848829551,-0.00792302826841,0.0530075013163,-0.998526781943
2053920000000,,23487,,2053,916218676,"""map""",,,-0.0850968658924,0.0484418794513,0.042469356209,,0.00850373954506,-0.00791381191745,0.0530646524429,-0.998523578782
2053952000000,,23488,,2053,947218676,"""map""",,,-0.0849201306701,0.0485546030104,0.0425073988736,,0.00854361108113,-0.0079242624014,0.0531437199307,-0.998518942629
2053988000000,,23489,,2053,980218001,"""map""",,,-0.0847708210349,0.0487902797759,0.0425479151309,,0.00857998708354,-0.00796336350214,0.0531417390288,-0.99851839472
2054020000000,,23490,,2054,12218001,"""map""",,,-0.0846573486924,0.049149710685,0.04259410128,,0.00856294991973,-0.00796850076669,0.0531460801542,-0.998518268279
2054052000000,,23491,,2054,43218001,"""map""",,,-0.0844312757254,0.0488543771207,0.0423222444952,,0.00851873729942,-0.00790455271993,0.053145026483,-0.998519237657
2054088000000,,23492,,2054,83217324,"""map""",,,-0.0841666832566,0.0484656095505,0.0417898856103,,0.00855782214234,-0.00786474611222,0.0531423290847,-0.998519321951
2054120000000,,23493,,2054,116217324,"""map""",,,-0.0839846357703,0.0483965836465,0.041339520365,,0.0085980866237,-0.0078513370759,0.0531368078475,-0.998519364098
2054152000000,,23494,,2054,148217324,"""map""",,,-0.0837873667479,0.048502638936,0.0409157723188,,0.00859059144054,-0.00787651813037,0.053168670865,-0.99851759393
2054188000000,,23495,,2054,179216647,"""map""",,,-0.0836073607206,0.0487751401961,0.040318634361,,0.00857663723226,-0.00793583025017,0.0531910508415,-0.998516034497
2054220000000,,23496,,2054,212216647,"""map""",,,-0.0834877118468,0.0491965673864,0.0396700464189,,0.00860280340757,-0.00791384188122,0.0532121664126,-0.998514812238
2054252000000,,23497,,2054,244216647,"""map""",,,-0.083301320672,0.0490736849606,0.0385589785874,,0.00859401543981,-0.00793914877943,0.0532417535003,-0.998513126364
2054288000000,,23498,,2054,284215970,"""map""",,,-0.0830695107579,0.0488884933293,0.0370349772274,,0.0085820037732,-0.00772974461156,0.0532268756628,-0.998515697322
2054320000000,,23499,,2054,315215970,"""map""",,,-0.0828737467527,0.0489313453436,0.0360953174531,,0.0085731321497,-0.0077486603559,0.0532804864541,-0.998512747042
2054352000000,,23500,,2054,348215970,"""map""",,,-0.0826958790421,0.0491439364851,0.035223133862,,0.00854907008583,-0.00778008231319,0.053290517404,-0.998512156986
2054388000000,,23501,,2054,380215293,"""map""",,,-0.0825477614999,0.0494791157544,0.0344174914062,,0.00858457460748,-0.00784651784719,0.0533348980355,-0.998508995973
2054420000000,,23502,,2054,411215293,"""map""",,,-0.0824108198285,0.0499183535576,0.03356744349,,0.00859354093791,-0.00783011128091,0.0533699642135,-0.998507141511
2054452000000,,23503,,2054,444215293,"""map""",,,-0.0821535736322,0.0499320067465,0.032756395638,,0.00861694902592,-0.00781991622991,0.0533767920029,-0.998506720043
2054484000000,,23504,,2054,484214619,"""map""",,,-0.0817113146186,0.0495285280049,0.0319400578737,,0.00864519811577,-0.00781145376834,0.0534123639431,-0.998504612701
2054520000000,,23505,,2054,516214619,"""map""",,,-0.0813905820251,0.0493998005986,0.031482052058,,0.00866421140701,-0.00779518397352,0.0534103408943,-0.998504696994
2054552000000,,23506,,2054,547214619,"""map""",,,-0.0811394676566,0.0494601279497,0.0312054138631,,0.00871471773719,-0.00782631872309,0.0533938614766,-0.998504907729
2054588000000,,23507,,2054,580213942,"""map""",,,-0.0809303671122,0.0496843978763,0.031021239236,,0.00868288604174,-0.00779974674031,0.0533660867034,-0.998506804337
2054620000000,,23508,,2054,612213942,"""map""",,,-0.0807190909982,0.0500586554408,0.0309604872018,,0.00867999643076,-0.00783865083334,0.0534013214688,-0.998504696994
2054652000000,,23509,,2054,643213942,"""map""",,,-0.0805859789252,0.0500368028879,0.0312201883644,,0.00868623050118,-0.00790621326048,0.0534113102719,-0.998503559029
2054684000000,,23510,,2054,684213266,"""map""",,,-0.0805261731148,0.0496273860335,0.0315579846501,,0.00869090365649,-0.00788082756331,0.0534668176713,-0.99850073519
2054720000000,,23511,,2054,716213266,"""map""",,,-0.0804912149906,0.0495213530958,0.0316588766873,,0.00868591193028,-0.00786243569113,0.0534830020612,-0.998500060841
2054752000000,,23512,,2054,748213266,"""map""",,,-0.0804719775915,0.0495784431696,0.0316150672734,,0.00869662694333,-0.00786499825245,0.0534887340326,-0.998499639372
2054788000000,,23513,,2054,780212589,"""map""",,,-0.0804660096765,0.0497806593776,0.0314577408135,,0.00874413730759,-0.00782042894797,0.0535077001144,-0.998498543554
2054820000000,,23514,,2054,812212589,"""map""",,,-0.0804421678185,0.0501180402935,0.0316876284778,,0.0087661212931,-0.00775115751551,0.0535173517427,-0.998498417114
2054852000000,,23515,,2054,844212589,"""map""",,,-0.0802744850516,0.0500422045588,0.0319053158164,,0.00873646674579,-0.00771192567311,0.0535297429162,-0.998498248526
2054888000000,,23516,,2054,884211913,"""map""",,,-0.0799415782094,0.049553964287,0.0321662016213,,0.00872607199117,-0.00772115875522,0.0535341261884,-0.998498079939
2054920000000,,23517,,2054,916211913,"""map""",,,-0.079741731286,0.0493912473321,0.0323151946068,,0.00869729705353,-0.00769480956628,0.05352367377,-0.998499091463
2054952000000,,23518,,2054,947211913,"""map""",,,-0.0795816034079,0.0494014434516,0.0325315482914,,0.00869628429439,-0.00771518748521,0.0535184475608,-0.998499175757
2054988000000,,23519,,2054,980211239,"""map""",,,-0.0794033184648,0.04956144467,0.0326499342918,,0.00865350166232,-0.00770653779121,0.0535224936582,-0.998499428638
2055020000000,,23520,,2055,12211239,"""map""",,,-0.079222895205,0.0498505905271,0.0326750278473,,0.00867080631867,-0.00762509089978,0.0535288156855,-0.998499597226
2055052000000,,23521,,2055,43211239,"""map""",,,-0.0789595171809,0.0497544109821,0.0329148285091,,0.00868600746039,-0.00753006626116,0.0535595407381,-0.998498543554
2055088000000,,23522,,2055,83210563,"""map""",,,-0.0785849019885,0.0492962040007,0.0333978682756,,0.00865302162453,-0.00753148674167,0.0535396895724,-0.998499850107
2055120000000,,23523,,2055,116210563,"""map""",,,-0.0782736465335,0.0491506457329,0.0338270813227,,0.0086678846448,-0.00756467112869,0.0535406589499,-0.998499386491
2055152000000,,23524,,2055,148210563,"""map""",,,-0.0779265090823,0.0491887107491,0.0341358743608,,0.00868435422556,-0.00763555747692,0.0535282256296,-0.998499428638
2055188000000,,23525,,2055,179209887,"""map""",,,-0.077577367425,0.0494019985199,0.0343361832201,,0.0086637494792,-0.00767782175215,0.0535652727095,-0.998497279149
2055220000000,,23526,,2055,212209887,"""map""",,,-0.077231362462,0.049731310457,0.0344594568014,,0.00866778808571,-0.00768119572262,0.0535433563482,-0.998498374967
2055252000000,,23527,,2055,244209887,"""map""",,,-0.0768736302853,0.0498734563589,0.0346940010786,,0.00870409138069,-0.00768463690578,0.0535345055101,-0.998498543554
2055288000000,,23528,,2055,284209211,"""map""",,,-0.0764038935304,0.0491450987756,0.0349844098091,,0.00870915221292,-0.00764393169352,0.053526455462,-0.998499260051
2055320000000,,23529,,2055,315209211,"""map""",,,-0.0760498940945,0.0487783253193,0.0351000651717,,0.00870529911016,-0.00762928628105,0.0535416704743,-0.998498543554
2055352000000,,23530,,2055,348209211,"""map""",,,-0.0757122039795,0.0485986806452,0.0351887382567,,0.00871941060767,-0.00760701541708,0.0535523757738,-0.998498037792
2055388000000,,23531,,2055,380208535,"""map""",,,-0.0753830224276,0.0485996305943,0.0354869440198,,0.00876319550333,-0.0076103454297,0.0535254017908,-0.998499049317
2055420000000,,23532,,2055,411208535,"""map""",,,-0.0750702321529,0.0487538799644,0.0358655117452,,0.00874580680023,-0.0076201556026,0.0534883125641,-0.998501156659
2055452000000,,23533,,2055,444208535,"""map""",,,-0.0747774094343,0.0487977191806,0.0361817106605,,0.00873558890596,-0.00761859345271,0.0534760056843,-0.998501915302
2055492000000,,23534,,2055,484207863,"""map""",,,-0.0744510963559,0.0481653138995,0.0366640500724,,0.00871401235371,-0.00766723618425,0.0533973175181,-0.998505919253
2055520000000,,23535,,2055,516207863,"""map""",,,-0.07422336936,0.0478825233877,0.0369369462132,,0.00871998296517,-0.00763610258714,0.0533796579886,-0.998507057218
2055552000000,,23536,,2055,547207863,"""map""",,,-0.0739951580763,0.0477709546685,0.0371740758419,,0.00873764537583,-0.00766125478912,0.0534250501445,-0.998504317673
2055588000000,,23537,,2055,580207187,"""map""",,,-0.0737681761384,0.0478382073343,0.0373725220561,,0.00869523877267,-0.0076368573203,0.0534511390437,-0.998503432589
2055620000000,,23538,,2055,612207187,"""map""",,,-0.0735292062163,0.0480926707387,0.037516027689,,0.00862297372036,-0.00766936867484,0.0534528670645,-0.998503727617
2055652000000,,23539,,2055,643207187,"""map""",,,-0.0732727497816,0.0483245290816,0.0376732125878,,0.00863006990786,-0.00767535776671,0.0534765114465,-0.998502336771
2055688000000,,23540,,2055,684218512,"""map""",,,-0.0730082392693,0.0481651388109,0.0377395562828,,0.00860259510172,-0.00767248815902,0.0535045812476,-0.998501072365
2055720000000,,23541,,2055,716218512,"""map""",,,-0.0727772563696,0.0482507646084,0.0377333126962,,0.00863728014704,-0.007689327636,0.0535199227005,-0.99849980796
2055752000000,,23542,,2055,748218512,"""map""",,,-0.072524510324,0.0485278889537,0.037651412189,,0.00861515082899,-0.0077287779917,0.0535112404497,-0.998500229428
2055788000000,,23543,,2055,780217836,"""map""",,,-0.0722878575325,0.04894400388,0.0376052968204,,0.00863797026053,-0.00776217587063,0.0534639938325,-0.998502294624
2055820000000,,23544,,2055,812217836,"""map""",,,-0.0720515996218,0.0495361685753,0.03763609007,,0.00864645326045,-0.00778522529884,0.0534564916935,-0.998502463211
2055852000000,,23545,,2055,851217836,"""map""",,,-0.07182097435,0.0498603060842,0.0377877019346,,0.00866164810483,-0.00777479041416,0.053484730082,-0.998500861631
2055888000000,,23546,,2055,884217161,"""map""",,,-0.0717049092054,0.0496864132583,0.0380739755929,,0.00862850125484,-0.00778074596141,0.0535667478492,-0.99849673124
2055920000000,,23547,,2055,916217161,"""map""",,,-0.071557380259,0.0497248210013,0.0382234565914,,0.00862229183868,-0.00777947694615,0.0535596250318,-0.998497194855
2055952000000,,23548,,2055,947217161,"""map""",,,-0.0714187920094,0.0499647818506,0.0385020077229,,0.00861796487199,-0.00778653292128,0.0535593721507,-0.998497194855
2055988000000,,23549,,2055,980216489,"""map""",,,-0.0712665617466,0.0503910258412,0.0387563556433,,0.00849661446391,-0.00772438121929,0.0536208644027,-0.998495382541
2056020000000,,23550,,2056,12216489,"""map""",,,-0.0710863545537,0.0509871914983,0.0388985164464,,0.00849975341631,-0.00772631964505,0.053619389263,-0.998495424688
2056052000000,,23551,,2056,43216489,"""map""",,,-0.0709293335676,0.0517269484699,0.0388362891972,,0.00851547312067,-0.00753756868831,0.0536437501414,-0.998495424688
2056088000000,,23552,,2056,83215814,"""map""",,,-0.070891097188,0.05141646415,0.0393729358912,,0.00850838183109,-0.00755712490834,0.0536813872771,-0.998493275198
2056120000000,,23553,,2056,116215814,"""map""",,,-0.0708710998297,0.0513946674764,0.0397135354578,,0.00853946640779,-0.00757383617493,0.0537118594486,-0.998491294296
2056152000000,,23554,,2056,148215814,"""map""",,,-0.0708562284708,0.0515649802983,0.0399357713759,,0.00860310510328,-0.00766859323869,0.0537457876616,-0.998488133283
2056188000000,,23555,,2056,179215139,"""map""",,,-0.0708360001445,0.0519296266139,0.0400337576866,,0.00864858735624,-0.00777587092106,0.0537057060087,-0.99848910266
2056220000000,,23556,,2056,212215139,"""map""",,,-0.0707919448614,0.0524500608444,0.0401702076197,,0.00864316992217,-0.00780309408088,0.0537010277085,-0.998489144807
2056252000000,,23557,,2056,244215139,"""map""",,,-0.0706840455532,0.0530627928674,0.0403590761125,,0.00864460456138,-0.00785472495812,0.0537589796252,-0.998485646619
2056288000000,,23558,,2056,284214464,"""map""",,,-0.070594355464,0.0522418394685,0.0403980873525,,0.00858604427303,-0.00786181340773,0.0537371054108,-0.998487290346
2056320000000,,23559,,2056,315214464,"""map""",,,-0.0704993233085,0.051862757653,0.0403298288584,,0.00857198012898,-0.00788904712485,0.0537035143726,-0.998489018367
2056352000000,,23560,,2056,348214464,"""map""",,,-0.070401199162,0.0516768917441,0.0403289608657,,0.00860811617423,-0.00790871745829,0.0537311205584,-0.998487037465
2056388000000,,23561,,2056,380213789,"""map""",,,-0.0702853947878,0.0516569986939,0.0403541326523,,0.00858814227235,-0.00794880594362,0.0537672404075,-0.998484972269
2056420000000,,23562,,2056,411213789,"""map""",,,-0.0701303109527,0.0517841652036,0.0403582118452,,0.00854497548246,-0.0079490000702,0.0537848156434,-0.998484340066
2056452000000,,23563,,2056,444213789,"""map""",,,-0.0699155330658,0.0520643554628,0.040496263653,,0.00859269258853,-0.00797473701855,0.0538030230819,-0.99848282278
2056488000000,,23564,,2056,484213118,"""map""",,,-0.0698995515704,0.0512786246836,0.0407306440175,,0.00856538560833,-0.00799091459655,0.0537668610859,-0.998484845829
2056520000000,,23565,,2056,516213118,"""map""",,,-0.069798655808,0.0509127415717,0.0409417673945,,0.00851701691363,-0.00801705346285,0.0537572516044,-0.998485604472
2056552000000,,23566,,2056,547213118,"""map""",,,-0.0696252062917,0.0507576540112,0.0412111096084,,0.00857511237246,-0.00797876175446,0.0537701485401,-0.998484677241
2056588000000,,23567,,2056,580212443,"""map""",,,-0.0694235786796,0.0508098192513,0.0414671450853,,0.00858755079649,-0.00797470396784,0.0537972068168,-0.998483159955
2056620000000,,23568,,2056,612212443,"""map""",,,-0.0691591277719,0.0510294958949,0.0415826253593,,0.00858801723121,-0.00794578182493,0.0537644165687,-0.99848509871
2056652000000,,23569,,2056,643212443,"""map""",,,-0.0688712373376,0.0514129251242,0.0416606590152,,0.00860817379688,-0.00771809944555,0.0537720872951,-0.998486363115
2056688000000,,23570,,2056,684211769,"""map""",,,-0.0684488192201,0.0520527400076,0.0419184118509,,0.00862707517671,-0.00768999293059,0.0537746582529,-0.998486236675
2056720000000,,23571,,2056,716211769,"""map""",,,-0.0680637285113,0.0526784099638,0.0420697405934,,0.00865091646353,-0.00769489316027,0.0537986819565,-0.998484719388
2056752000000,,23572,,2056,748211769,"""map""",,,-0.0676219984889,0.0534121878445,0.0422551594675,,0.00859396269451,-0.00770451601841,0.0537949730338,-0.998485309444
2056788000000,,23573,,2056,780211094,"""map""",,,-0.0671630948782,0.0531696788967,0.0426522307098,,0.008555830251,-0.00769003338991,0.0538063526829,-0.998485140857
2056820000000,,23574,,2056,812211094,"""map""",,,-0.0666619837284,0.0531070940197,0.0431311801076,,0.0085464928719,-0.00768915542661,0.0537909269364,-0.998486068087
2056852000000,,23575,,2056,844211094,"""map""",,,-0.0661309733987,0.0532367862761,0.0435652732849,,0.00855629880542,-0.00769138636961,0.0537926549572,-0.998485857353
2056888000000,,23576,,2056,884210420,"""map""",,,-0.0654548630118,0.0536488033831,0.044039722532,,0.00861553130308,-0.00764564744892,0.0538176901852,-0.998484340066
2056920000000,,23577,,2056,916210420,"""map""",,,-0.0648956149817,0.0541737750173,0.0443565770984,,0.0086222855825,-0.00762791391545,0.0538426411195,-0.998483075661
2056952000000,,23578,,2056,947210420,"""map""",,,-0.0643114298582,0.0548361539841,0.0446360893548,,0.00858032617222,-0.00765851870132,0.0538799832273,-0.9984812212
2056988000000,,23579,,2056,980221746,"""map""",,,-0.063995398581,0.0543970614672,0.044767908752,,0.00857705859785,-0.00767725548619,0.0538780866191,-0.998481179053
2057020000000,,23580,,2057,12221746,"""map""",,,-0.0636352971196,0.0541613474488,0.0448904372752,,0.00852956054015,-0.00768798963819,0.0539153022863,-0.998479535326
2057052000000,,23581,,2057,43221746,"""map""",,,-0.0632290169597,0.0540973655879,0.0449979901314,,0.00856355329056,-0.00769536928795,0.0538978956379,-0.998480083235
2057088000000,,23582,,2057,83221072,"""map""",,,-0.0627139061689,0.0542497560382,0.0451249442995,,0.00859456246392,-0.00769756392868,0.0539754036923,-0.998475657816
2057120000000,,23583,,2057,116221072,"""map""",,,-0.0623063929379,0.0545005127788,0.0451518297195,,0.00860713210294,-0.00748950008411,0.0539913773479,-0.998476205725
2057152000000,,23584,,2057,148221072,"""map""",,,-0.0618632175028,0.0549260824919,0.0453001372516,,0.00857634415938,-0.00750252049685,0.0539477132129,-0.998478818829
2057188000000,,23585,,2057,179220398,"""map""",,,-0.0616762340069,0.0542744137347,0.0450438149273,,0.00851188257137,-0.00754495377106,0.0539415176261,-0.998479366738
2057220000000,,23586,,2057,212220398,"""map""",,,-0.0614294670522,0.0538101270795,0.0448610633612,,0.00850880432855,-0.00754986671888,0.0539467016885,-0.99847907171
2057252000000,,23587,,2057,244220398,"""map""",,,-0.0611194521189,0.0535311736166,0.044794537127,,0.00841713143452,-0.00753350802056,0.0539421919757,-0.998480209675
2057288000000,,23588,,2057,284219724,"""map""",,,-0.0606827288866,0.0534308925271,0.0446211695671,,0.00838562851741,-0.0075448370852,0.0539688709308,-0.998478903123
2057320000000,,23589,,2057,315219724,"""map""",,,-0.0603477172554,0.0535228587687,0.0444886907935,,0.00837550561819,-0.00755270644512,0.0539557211141,-0.998479661766
2057352000000,,23590,,2057,348219724,"""map""",,,-0.0599780604243,0.0537465326488,0.0443187095225,,0.00838239321172,-0.00752605988217,0.0539503263175,-0.998480083235
2057388000000,,23591,,2057,380219050,"""map""",,,-0.0596790313721,0.0533464066684,0.0440040752292,,0.0083806862232,-0.00752910108187,0.0539132370908,-0.998482106283
2057420000000,,23592,,2057,411219050,"""map""",,,-0.0593619868159,0.052881911397,0.0437491685152,,0.00837345104164,-0.00750290195875,0.053942950619,-0.998480715437
2057452000000,,23593,,2057,444219050,"""map""",,,-0.0590130724013,0.0526174008846,0.0434472709894,,0.00835452702435,-0.00751918521257,0.0540012397105,-0.998477638718
2057488000000,,23594,,2057,484218379,"""map""",,,-0.0585122480989,0.0525045134127,0.0427969917655,,0.00838361053125,-0.00756212013307,0.0540052015142,-0.998476880074
2057520000000,,23595,,2057,516218379,"""map""",,,-0.0581086538732,0.0525539144874,0.0422734133899,,0.00836567054408,-0.00754249279023,0.0540207115545,-0.998476290018
2057552000000,,23596,,2057,547218379,"""map""",,,-0.0576691925526,0.0527239702642,0.0417354777455,,0.00833700426628,-0.00755387622596,0.0540347886019,-0.998475699962
2057588000000,,23597,,2057,580217705,"""map""",,,-0.0574367530644,0.0520872585475,0.0406324379146,,0.00834018828782,-0.00749554700441,0.0540303210359,-0.998476374312
2057620000000,,23598,,2057,612217705,"""map""",,,-0.0572168081999,0.0513324066997,0.0394654273987,,0.00834122644208,-0.00748887566044,0.054022523869,-0.998476837927
2057652000000,,23599,,2057,643217705,"""map""",,,-0.0569372214377,0.0507929474115,0.0385232008994,,0.00831371780321,-0.00748134446312,0.0539804191673,-0.998479408885
2057688000000,,23600,,2057,684217031,"""map""",,,-0.0564930438995,0.0503791868687,0.0372966118157,,0.008318545593,-0.00743615579753,0.0539915459353,-0.99847907171
2057720000000,,23601,,2057,716217031,"""map""",,,-0.0561045445502,0.0502125956118,0.0366875529289,,0.00830244446789,-0.007423291501,0.0540161596948,-0.998477975892
2057752000000,,23602,,2057,748217031,"""map""",,,-0.0556448511779,0.0501705594361,0.0361178219318,,0.00826422785416,-0.00742353117004,0.0540284665746,-0.998477638718
2057788000000,,23603,,2057,780216358,"""map""",,,-0.0555050596595,0.0493886396289,0.0360147841275,,0.00823707643453,-0.00742659303157,0.0540255162952,-0.998477975892
2057820000000,,23604,,2057,812216358,"""map""",,,-0.0554052256048,0.0485392063856,0.0362355932593,,0.00826902127616,-0.00747044402863,0.0540483177402,-0.998476163578
2057852000000,,23605,,2057,844216358,"""map""",,,-0.0552504323423,0.0478810332716,0.0364728234708,,0.00828159227343,-0.00743541929782,0.0541129710059,-0.99847279183
2057888000000,,23606,,2057,884215684,"""map""",,,-0.0550166033208,0.0472845844924,0.0366351380944,,0.00826224822821,-0.00741293523007,0.0541621563781,-0.998470473753
2057920000000,,23607,,2057,916215684,"""map""",,,-0.0547937452793,0.0469420365989,0.0367422662675,,0.00826315557906,-0.00743569728592,0.0541565929941,-0.998470642341
2057952000000,,23608,,2057,947215684,"""map""",,,-0.0545047484338,0.0467268638313,0.0368798151612,,0.00827405988251,-0.00738634056866,0.0541672139999,-0.998470305166
2057988000000,,23609,,2057,980215013,"""map""",,,-0.0545221604407,0.0459639318287,0.0372439697385,,0.00828686894362,-0.00742719234823,0.0541461827225,-0.998471021662
2058020000000,,23610,,2058,12215013,"""map""",,,-0.0545708909631,0.0451623350382,0.0376218892634,,0.00823800629937,-0.00742109155075,0.0541439910864,-0.998471611718
2058052000000,,23611,,2058,43215013,"""map""",,,-0.0545505359769,0.0445566363633,0.0380265899003,,0.00830950171895,-0.00744812887755,0.0541256150604,-0.998471780306
2058088000000,,23612,,2058,83214340,"""map""",,,-0.0544388964772,0.0440419502556,0.0386246405542,,0.00832665017678,-0.00750934985035,0.0541738310551,-0.998468577145
2058120000000,,23613,,2058,116214340,"""map""",,,-0.0542946457863,0.0438199304044,0.0388752855361,,0.00831834794732,-0.00748974296355,0.0541960424443,-0.998467607768
2058152000000,,23614,,2058,148214340,"""map""",,,-0.0541210025549,0.043710205704,0.039169061929,,0.00831628423347,-0.00740281755804,0.0542241965391,-0.998466764831
2058184000000,,23615,,2058,179213667,"""map""",,,-0.054006818682,0.0432961955667,0.0394834429026,,0.00834205550845,-0.00744980096321,0.0542122268341,-0.998466849124
2058220000000,,23616,,2058,212213667,"""map""",,,-0.0539388991892,0.0425958968699,0.0398419313133,,0.00834761226585,-0.00746872757353,0.0541867279908,-0.998467987089
2058252000000,,23617,,2058,244213667,"""map""",,,-0.0538305453956,0.0420429781079,0.040169570595,,0.00825928029159,-0.00743163184371,0.0541596275672,-0.998470473753
2058288000000,,23618,,2058,284212993,"""map""",,,-0.0536057725549,0.041554890573,0.0404192395508,,0.00824056116395,-0.0074521922618,0.0541923335216,-0.998468703586
2058320000000,,23619,,2058,315212993,"""map""",,,-0.0533571280539,0.0413330458105,0.0405306071043,,0.0082170323565,-0.00742553734357,0.054214207736,-0.998467902796
2058352000000,,23620,,2058,348212993,"""map""",,,-0.0530533380806,0.0412366129458,0.0406025126576,,0.00822267649452,-0.0074466735765,0.0542063684222,-0.998468155677
2058388000000,,23621,,2058,380212320,"""map""",,,-0.052897170186,0.0408439300954,0.0406319461763,,0.00817910780726,-0.00745222317223,0.0542442162921,-0.998466385509
2058420000000,,23622,,2058,411212320,"""map""",,,-0.0528249740601,0.0401898398995,0.0407356619835,,0.00822541147102,-0.00742697054221,0.0542008050382,-0.998468577145
2058452000000,,23623,,2058,444212320,"""map""",,,-0.0526797957718,0.0397055447102,0.0409089289606,,0.00822092493077,-0.0074345588271,0.0542234800427,-0.99846731274
2058488000000,,23624,,2058,484211650,"""map""",,,-0.0524195991457,0.0393467284739,0.0411648750305,,0.00824330976409,-0.0074337900587,0.0541713865379,-0.998470010138
2058520000000,,23625,,2058,516211650,"""map""",,,-0.0521827973425,0.0391816683114,0.0411430224776,,0.0082411125715,-0.00739290395249,0.0541772449498,-0.998469967991
2058552000000,,23626,,2058,547211650,"""map""",,,-0.051874447614,0.0391233898699,0.0411375835538,,0.00826509067094,-0.00740516687441,0.0541562136724,-0.998470853075
2058588000000,,23627,,2058,580210977,"""map""",,,-0.0517613813281,0.038800150156,0.041115205735,,0.00829740437981,-0.00729181531257,0.0541778771526,-0.998470263019
2058620000000,,23628,,2058,612210977,"""map""",,,-0.0518249422312,0.0382374897599,0.0410510711372,,0.00829180979727,-0.00717084554322,0.0541617770564,-0.998472033187
2058652000000,,23629,,2058,643210977,"""map""",,,-0.0518019236624,0.0378062427044,0.0409922525287,,0.00828496830185,-0.00717137291389,0.0541149940546,-0.998474646291
2058688000000,,23630,,2058,684210304,"""map""",,,-0.0516598001122,0.0374613218009,0.040993116796,,0.00829080839802,-0.00715928191325,0.0541188715647,-0.998474477704
2058720000000,,23631,,2058,716210304,"""map""",,,-0.0514711998403,0.0373205207288,0.0411010459065,,0.00831329481184,-0.00717682578589,0.0541003690982,-0.998475109907
2058752000000,,23632,,2058,748210304,"""map""",,,-0.0512208789587,0.0372744239867,0.0411829538643,,0.00836081595976,-0.00724010080017,0.0540669045004,-0.998476121431
2058788000000,,23633,,2058,780209631,"""map""",,,-0.0510301552713,0.0370338596404,0.0410888008773,,0.00833592622892,-0.00726812256869,0.0540283401341,-0.998478186627
2058820000000,,23634,,2058,812209631,"""map""",,,-0.0509068667889,0.0366138219833,0.0409937538207,,0.00836820618739,-0.00729081922284,0.0540527853062,-0.998476416459
2058852000000,,23635,,2058,844209631,"""map""",,,-0.0506989471614,0.0363290943205,0.0410156846046,,0.00843752054871,-0.00733271590676,0.054061172529,-0.998475109907
2058888000000,,23636,,2058,884208959,"""map""",,,-0.0503028668463,0.0361772328615,0.0411476828158,,0.00849936471041,-0.00739239032894,0.0540488656493,-0.998474772732
2058920000000,,23637,,2058,916208959,"""map""",,,-0.049923658371,0.0361577048898,0.0412483774126,,0.0085114928365,-0.00736912358104,0.0540408156012,-0.998475320641
2058952000000,,23638,,2058,947208959,"""map""",,,-0.0495289675891,0.0362501963973,0.0412405692041,,0.00852895673715,-0.00736767153156,0.0540588965992,-0.998474182676
2058988000000,,23639,,2058,980208289,"""map""",,,-0.0492263138294,0.0362746790051,0.0414560176432,,0.00852576987564,-0.00734562033334,0.0540258956168,-0.998476163578
2059020000000,,23640,,2059,12208289,"""map""",,,-0.0492361225188,0.0359519869089,0.04198358953,,0.00852189232442,-0.00734762761816,0.0539907451452,-0.998478102333
2059052000000,,23641,,2059,43208289,"""map""",,,-0.0491335839033,0.0357591807842,0.0424343347549,,0.00851233408595,-0.00734792276958,0.0540554827045,-0.998474646291
2059088000000,,23642,,2059,83207617,"""map""",,,-0.0489285513759,0.0357176251709,0.0431527607143,,0.00852841677181,-0.00736884106544,0.0540261906448,-0.998475952844
2059120000000,,23643,,2059,116207617,"""map""",,,-0.0486991144717,0.0358175896108,0.0438178889453,,0.00852060421136,-0.00736832303787,0.0540215123446,-0.998476247872
2059152000000,,23644,,2059,148207617,"""map""",,,-0.0484197586775,0.0360320582986,0.0443538725376,,0.00846857989493,-0.00737356040118,0.054053122481,-0.998474983466
2059192000000,,23645,,2059,179206945,"""map""",,,-0.0482306666672,0.0362182818353,0.0446033291519,,0.00847993159705,-0.00743886854815,0.054060919648,-0.998473929795
2059220000000,,23646,,2059,212206945,"""map""",,,-0.0483426228166,0.0361516289413,0.044376283884,,0.00849337611245,-0.00741034336352,0.0540904224419,-0.998472496802
2059252000000,,23647,,2059,244206945,"""map""",,,-0.0483201891184,0.0362213887274,0.0441246293485,,0.00848436656504,-0.00744648231048,0.054150776729,-0.998468956467
2059288000000,,23648,,2059,284206273,"""map""",,,-0.0480998419225,0.0365243516862,0.0439287014306,,0.00844842600461,-0.00744419172805,0.0541303355075,-0.998470431606
2059320000000,,23649,,2059,315206273,"""map""",,,-0.0478009320796,0.0369021929801,0.043932273984,,0.00841480566111,-0.0073890244668,0.0541250250045,-0.998471358837
2059352000000,,23650,,2059,348206273,"""map""",,,-0.0474289804697,0.0373752899468,0.0440449640155,,0.00842122626427,-0.00739635954132,0.0540792535271,-0.998473803354
2059388000000,,23651,,2059,380205601,"""map""",,,-0.0471241846681,0.0377179421484,0.0441557429731,,0.00841088950272,-0.00738240391306,0.0541030243496,-0.998472707536
2059420000000,,23652,,2059,411205601,"""map""",,,-0.0471473410726,0.0375672578812,0.0442403405905,,0.00840244984326,-0.00737350277854,0.0540548505018,-0.998475447081
2059452000000,,23653,,2059,444205601,"""map""",,,-0.0470379702747,0.0375531576574,0.0443438962102,,0.00840773779102,-0.00742041633684,0.0540502986421,-0.998475278494
2059480000000,,23654,,2059,484204932,"""map""",,,-0.046772480011,0.03770551458,0.0441533885896,,0.00842011130726,-0.00744082121494,0.0540341142523,-0.99847586855
2059520000000,,23655,,2059,516204932,"""map""",,,-0.0464533753693,0.0379395037889,0.0440142378211,,0.00843621683638,-0.00738719181975,0.0540469268942,-0.998475447081
2059552000000,,23656,,2059,547204932,"""map""",,,-0.0460524559021,0.0382636263967,0.0438395999372,,0.00840878574113,-0.00713121565182,0.0540017454726,-0.998479998941
2059588000000,,23657,,2059,580204261,"""map""",,,-0.0456926263869,0.0384736210108,0.0436958633363,,0.00845879301805,-0.00712739341833,0.0539988373401,-0.998479788207
2059620000000,,23658,,2059,612204261,"""map""",,,-0.045693743974,0.038164768368,0.0433881208301,,0.00847677181818,-0.00712185320686,0.0540421221535,-0.998477301543
2059652000000,,23659,,2059,643204261,"""map""",,,-0.045566663146,0.0379960313439,0.0432439111173,,0.00849066813628,-0.0071247287003,0.0540612146759,-0.998476163578
2059688000000,,23660,,2059,684203590,"""map""",,,-0.0452801138163,0.038014806807,0.0431888140738,,0.00845868415241,-0.00713582365237,0.0540521531035,-0.998476795781
2059720000000,,23661,,2059,716203590,"""map""",,,-0.044918242842,0.0381663776934,0.043267250061,,0.0084222895667,-0.0071837638404,0.0540441873491,-0.998477175102
2059752000000,,23662,,2059,748203590,"""map""",,,-0.0444716326892,0.0384227409959,0.0434374585748,,0.00838900368149,-0.0072462719796,0.054049497852,-0.998476753634
2059788000000,,23663,,2059,780202918,"""map""",,,-0.0439530387521,0.0388070084155,0.0437870547175,,0.00834390095596,-0.00730022554332,0.0540718356817,-0.998475489228
2059820000000,,23664,,2059,812202918,"""map""",,,-0.0439426638186,0.0385056212544,0.043923381716,,0.00834063852647,-0.00734199043602,0.0540956065043,-0.998473971942
2059852000000,,23665,,2059,844202918,"""map""",,,-0.0438322611153,0.0383754037321,0.0442627668381,,0.0083013446574,-0.00724900642103,0.0540776519468,-0.998475910697
2059888000000,,23666,,2059,884202247,"""map""",,,-0.0435525551438,0.0384384915233,0.044856954366,,0.00826052753373,-0.00726456046029,0.0541264579974,-0.998473550473
2059920000000,,23667,,2059,916202247,"""map""",,,-0.0432299524546,0.0386255271733,0.0453015938401,,0.00821648613499,-0.00727375036658,0.0540669887941,-0.998477048662
2059952000000,,23668,,2059,947202247,"""map""",,,-0.0428057424724,0.0389292612672,0.0457901954651,,0.00819393526613,-0.00730883992287,0.054056452082,-0.998477554424
2059988000000,,23669,,2059,980201580,"""map""",,,-0.042276006192,0.0393476448953,0.046255402267,,0.0081965650813,-0.00735317355074,0.0540841425615,-0.998475657816
2060020000000,,23670,,2060,12201580,"""map""",,,-0.0423662774265,0.0391513593495,0.0463495478034,,0.00818587237644,-0.00733282378458,0.0540606667669,-0.998477217249
2060052000000,,23671,,2060,43201580,"""map""",,,-0.0423374325037,0.0390666276217,0.046581722796,,0.00811272277538,-0.00731779164184,0.0541122966563,-0.99847506776
2060088000000,,23672,,2060,83200909,"""map""",,,-0.0421317480505,0.0391470938921,0.0469034127891,,0.00809354291354,-0.00728831955252,0.0541417994502,-0.998473887648
2060120000000,,23673,,2060,116200909,"""map""",,,-0.0418509356678,0.0393231697381,0.0472173243761,,0.00811930900248,-0.0072897711081,0.0541302090669,-0.99847426697
2060152000000,,23674,,2060,148200909,"""map""",,,-0.0414901934564,0.0396098122001,0.0475863106549,,0.0081464523961,-0.00730543705876,0.0540909282041,-0.998476121431
2060188000000,,23675,,2060,179200239,"""map""",,,-0.0410656034946,0.0399762280285,0.0479645505548,,0.00817481442634,-0.00729074509542,0.0540680846122,-0.998477217249
2060220000000,,23676,,2060,212200239,"""map""",,,-0.0413027890027,0.0395919345319,0.0485465973616,,0.00822338142526,-0.00730155642061,0.0540589808929,-0.998477217249
2060252000000,,23677,,2060,244200239,"""map""",,,-0.0414111278951,0.0393708869815,0.0490808859468,,0.00824236183043,-0.00709887370785,0.0539815992791,-0.998482696339
2060288000000,,23678,,2060,284199569,"""map""",,,-0.0413472875953,0.0392935313284,0.0500063709915,,0.00820220106984,-0.00718198605834,0.0539781010906,-0.998482654192
2060320000000,,23679,,2060,315199569,"""map""",,,-0.0411801598966,0.0393797345459,0.0508207157254,,0.00819067370097,-0.0071932025942,0.0539911244668,-0.998481937696
2060352000000,,23680,,2060,348199569,"""map""",,,-0.0409026369452,0.0395720899105,0.0516575574875,,0.00823588245218,-0.00722743670117,0.0539952127111,-0.998481052612
2060388000000,,23681,,2060,380198899,"""map""",,,-0.0405644513667,0.0398636646569,0.0524676591158,,0.00825410553116,-0.00722883824852,0.0539786489997,-0.998481853402
2060420000000,,23682,,2060,411198899,"""map""",,,-0.0406692959368,0.0396172404289,0.0529590435326,,0.0082293512547,-0.00727171040149,0.0539990059275,-0.998480631144
2060452000000,,23683,,2060,444198899,"""map""",,,-0.0408463738859,0.039300866425,0.0535025671124,,0.00820898029164,-0.00731193779855,0.0539459008984,-0.998483328542
2060488000000,,23684,,2060,484198232,"""map""",,,-0.0409062169492,0.0390917137265,0.0542266406119,,0.00821406491378,-0.0073782723283,0.0539702617768,-0.998481558374
2060520000000,,23685,,2060,516198232,"""map""",,,-0.0408137217164,0.0390873588622,0.0548869594932,,0.00820879017807,-0.00738034917188,0.0539528551284,-0.998482527752
2060552000000,,23686,,2060,547198232,"""map""",,,-0.0406125113368,0.0392313972116,0.0556501559913,,0.00817784097342,-0.00740255027129,0.0539701774831,-0.998481642668
2060588000000,,23687,,2060,580197562,"""map""",,,-0.0402919761837,0.0394974984229,0.0564392842352,,0.00817305117342,-0.00740094428703,0.0540349571893,-0.998478228773
2060620000000,,23688,,2060,612197562,"""map""",,,-0.0403828546405,0.0393541231751,0.0570218898356,,0.00818768357964,-0.00742812682289,0.0540436815869,-0.998477427983
2060652000000,,23689,,2060,643197562,"""map""",,,-0.0405118875206,0.0391854830086,0.0575332604349,,0.00827602641988,-0.00748919192644,0.0540620997597,-0.9984751942
2060688000000,,23690,,2060,684196893,"""map""",,,-0.0405033677816,0.039217222482,0.0582706294954,,0.00825568393887,-0.00753336976737,0.0541034879649,-0.998472833977
2060720000000,,23691,,2060,716196893,"""map""",,,-0.0403962284327,0.0393808297813,0.0589808747172,,0.00822022479506,-0.00757181606907,0.0541254043262,-0.998471653865
2060752000000,,23692,,2060,748196893,"""map""",,,-0.0402131192386,0.0396501235664,0.0595705211163,,0.00830757839855,-0.00732417536651,0.0541399871358,-0.99847199104
2060788000000,,23693,,2060,780196224,"""map""",,,-0.0398988835514,0.0400350689888,0.0603745132685,,0.00831438577313,-0.00732452373655,0.0541538955958,-0.998471148103
2060820000000,,23694,,2060,812196224,"""map""",,,-0.0401994735003,0.0399142876267,0.0608512014151,,0.00831031592692,-0.00731696895512,0.0541770342156,-0.998470010138
2060852000000,,23695,,2060,844196224,"""map""",,,-0.040569152683,0.0397381111979,0.0610533058643,,0.00832920689351,-0.00738164728658,0.0542257559725,-0.998466722684
2060888000000,,23696,,2060,884207555,"""map""",,,-0.0407578237355,0.0397713072598,0.061224270612,,0.00830999266388,-0.00739158525828,0.0542129854774,-0.998467523474
2060920000000,,23697,,2060,916207555,"""map""",,,-0.0407393500209,0.0399658679962,0.0614079162478,,0.00829813544654,-0.00736978163164,0.0542588833954,-0.998465289691
2060952000000,,23698,,2060,947207555,"""map""",,,-0.0405826978385,0.04028692469,0.0616585612297,,0.00833711835912,-0.00740878355969,0.0542288326924,-0.998466259068
2060988000000,,23699,,2060,980206890,"""map""",,,-0.0403126180172,0.0406948626041,0.0618603229523,,0.00837974503962,-0.00743023194273,0.0542204454696,-0.998466216922
2061020000000,,23700,,2061,12206890,"""map""",,,-0.0403833054006,0.0405625551939,0.0618265755475,,0.00836817083178,-0.00742322465873,0.0542102037854,-0.998466933418
2061052000000,,23701,,2061,43206890,"""map""",,,-0.0404959917068,0.0403838269413,0.0616892017424,,0.00840530759715,-0.00746853766576,0.0542756156943,-0.998462718733
2061088000000,,23702,,2061,83206221,"""map""",,,-0.0405185110867,0.0404055975378,0.0615012720227,,0.00841134809665,-0.00745969703501,0.0542295913357,-0.998465247544
2061120000000,,23703,,2061,116206221,"""map""",,,-0.0404530055821,0.0406247675419,0.0614294447005,,0.00839562633434,-0.00744647971746,0.0542196025326,-0.998466048334
2061152000000,,23704,,2061,148206221,"""map""",,,-0.0402853414416,0.0409989990294,0.0615211725235,,0.00836956900409,-0.00743770136033,0.054260400682,-0.998464109579
2061188000000,,23705,,2061,179205553,"""map""",,,-0.0400329045951,0.0414759106934,0.0617275312543,,0.00832918026362,-0.00745020600924,0.0542421089497,-0.998465289691
2061220000000,,23706,,2061,212205553,"""map""",,,-0.0400268137455,0.0417437888682,0.0615998096764,,0.00831205209719,-0.00747716097682,0.0542333424052,-0.998465711159
2061252000000,,23707,,2061,244205553,"""map""",,,-0.0402645654976,0.0418655984104,0.0611269138753,,0.00834593919237,-0.00725575333299,0.0542742669951,-0.998464826076
2061288000000,,23708,,2061,284204884,"""map""",,,-0.0403639115393,0.0422023758292,0.0607535913587,,0.008339571849,-0.00725579996618,0.0543175939554,-0.998462550146
2061320000000,,23709,,2061,315204884,"""map""",,,-0.0403156541288,0.0426012165844,0.060555383563,,0.00829215520386,-0.00725197789733,0.0543810249624,-0.99845955772
2061352000000,,23710,,2061,348204884,"""map""",,,-0.0401946566999,0.0431260466576,0.0604657121003,,0.00833212008862,-0.00724131429191,0.0543487826233,-0.998461032859
