rosbagTimestamp,header,seq,stamp,secs,nsecs,frame_id,pose,position,x,y,z,orientation,x,y,z,w
2521192000000,,44787,,2521,188292639,"""map""",,,-0.23144517839,-0.214601799846,0.0514137335122,,-0.00720213875506,-0.00311494416944,0.0821016815776,-0.99659312668
2521224000000,,44788,,2521,220292639,"""map""",,,-0.23137909174,-0.214960128069,0.0513218566775,,-0.00717809891706,-0.0031312362313,0.0821200997504,-0.996591735834
2521256000000,,44789,,2521,252292639,"""map""",,,-0.231283262372,-0.215340957046,0.0513069182634,,-0.00713641420216,-0.00314946951773,0.0821204369252,-0.996591988715
2521292000000,,44790,,2521,284291752,"""map""",,,-0.23126129806,-0.215562313795,0.0508400984108,,-0.00712280422745,-0.00313837419522,0.0821270539804,-0.9965915251
2521324000000,,44791,,2521,316291752,"""map""",,,-0.231222003698,-0.215793043375,0.0503517761827,,-0.00709823113304,-0.00307770002016,0.0821421425522,-0.996590682163
2521356000000,,44792,,2521,348291752,"""map""",,,-0.231140732765,-0.216021686792,0.0500351004303,,-0.00708316314079,-0.00306796064079,0.0821072449616,-0.996593632442
2521392000000,,44793,,2521,388290865,"""map""",,,-0.230990812182,-0.216321051121,0.0498051010072,,-0.0071130147987,-0.00307907769527,0.0820647609383,-0.996596919896
2521424000000,,44794,,2521,420290865,"""map""",,,-0.230861991644,-0.216573998332,0.0495650917292,,-0.00709515721192,-0.0030426949222,0.0820460477376,-0.99659860577
2521456000000,,44795,,2521,452290865,"""map""",,,-0.230739206076,-0.216862693429,0.04922234267,,-0.00706914223431,-0.00301137240513,0.0820518218558,-0.996598563624
2521492000000,,44796,,2521,484289979,"""map""",,,-0.230826929212,-0.216987043619,0.0487237498164,,-0.00709360255297,-0.00301407177907,0.0820343309137,-0.996599785882
2521524000000,,44797,,2521,516289979,"""map""",,,-0.230902180076,-0.21715182066,0.0481633804739,,-0.00708959135837,-0.00297719723789,0.0820291889981,-0.996600291644
2521556000000,,44798,,2521,548289979,"""map""",,,-0.230930164456,-0.217359811068,0.0475768446922,,-0.00703983140608,-0.00293932730669,0.0820380398363,-0.996600038763
2521592000000,,44799,,2521,588301092,"""map""",,,-0.230866625905,-0.217649772763,0.0468648783863,,-0.00702439100691,-0.00291592082388,0.082064550204,-0.996597973568
2521624000000,,44800,,2521,620301092,"""map""",,,-0.230782344937,-0.217897713184,0.0462829731405,,-0.0071233471974,-0.00290199458316,0.0821000799973,-0.996594475379
2521656000000,,44801,,2521,652301092,"""map""",,,-0.230662375689,-0.218161299825,0.0458394549787,,-0.00709460041254,-0.00288824022257,0.0821344296789,-0.996591820128
2521692000000,,44802,,2521,684300205,"""map""",,,-0.230651602149,-0.218157991767,0.0451987199485,,-0.0073425648103,-0.00287183390324,0.082158326942,-0.996588153352
2521724000000,,44803,,2521,716300205,"""map""",,,-0.230635374784,-0.218214660883,0.0446844175458,,-0.00736327998635,-0.00278551649895,0.0820969189837,-0.996593253121
2521756000000,,44804,,2521,748300205,"""map""",,,-0.230584233999,-0.218301072717,0.0441048368812,,-0.00713256105825,-0.00278436585706,0.0820811560624,-0.996596287694
2521792000000,,44805,,2521,788299319,"""map""",,,-0.230483114719,-0.218482509255,0.0434849448502,,-0.00719571761683,-0.00277894323694,0.082120479072,-0.996592620918
2521824000000,,44806,,2521,820299319,"""map""",,,-0.23034119606,-0.21868494153,0.0430578440428,,-0.00715708311545,-0.00275676049446,0.0820909341312,-0.996595360463
2521856000000,,44807,,2521,852299319,"""map""",,,-0.230176448822,-0.218935132027,0.0426915623248,,-0.00718692999892,-0.00277315792344,0.0820752555036,-0.996596371987
2521892000000,,44808,,2521,884298432,"""map""",,,-0.230249375105,-0.218588724732,0.0422031506896,,-0.00716318831695,-0.00280136387863,0.0821009229343,-0.996594391086
2521924000000,,44809,,2521,916298432,"""map""",,,-0.230276882648,-0.218292012811,0.0418298318982,,-0.00718861521431,-0.00278440849781,0.0820991949135,-0.996594348939
2521956000000,,44810,,2521,948298432,"""map""",,,-0.230250701308,-0.218034863472,0.0415685772896,,-0.00719306187147,-0.00276022262758,0.082067626924,-0.99659700419
2521992000000,,44811,,2521,988297545,"""map""",,,-0.230164930224,-0.21778228879,0.0412888228893,,-0.00719213134808,-0.00273605601977,0.0820178514959,-0.996601092434
2522024000000,,44812,,2522,20297545,"""map""",,,-0.230060979724,-0.217637300491,0.0409869812429,,-0.00722778313674,-0.00279495475884,0.0819780648709,-0.996604042714
2522056000000,,44813,,2522,52297545,"""map""",,,-0.229922622442,-0.217517063022,0.0407493412495,,-0.00722509413488,-0.00280426015737,0.0819512173284,-0.996606276497
2522092000000,,44814,,2522,84296658,"""map""",,,-0.230112746358,-0.21697640419,0.0407702624798,,-0.00726581902116,-0.00286853690016,0.0819521445591,-0.996605686441
2522124000000,,44815,,2522,116296658,"""map""",,,-0.230219125748,-0.21649260819,0.0408279262483,,-0.00726605856673,-0.00294102240025,0.0819210823317,-0.996608004518
2522156000000,,44816,,2522,148296658,"""map""",,,-0.230215728283,-0.216071590781,0.0409813821316,,-0.00727226683044,-0.0029041575726,0.0818738778614,-0.996612050615
2522192000000,,44817,,2522,188295772,"""map""",,,-0.230147138238,-0.215653732419,0.041299700737,,-0.00727109281022,-0.0028831208622,0.0818105732949,-0.996617192531
2522224000000,,44818,,2522,220295772,"""map""",,,-0.230057567358,-0.215374082327,0.0415483228862,,-0.00726821941589,-0.00279701699096,0.0818439114521,-0.99661479016
2522256000000,,44819,,2522,252295772,"""map""",,,-0.22994209826,-0.21513967216,0.0416851527989,,-0.00730054440234,-0.00282964622497,0.0818398232078,-0.996614832307
2522292000000,,44820,,2522,284294885,"""map""",,,-0.229743272066,-0.214742943645,0.0413353480399,,-0.00731746833765,-0.00284687770057,0.0818235966711,-0.996615970272
2522324000000,,44821,,2522,316294885,"""map""",,,-0.229495182633,-0.214421585202,0.0409630872309,,-0.00730636774679,-0.00287097664293,0.0818595900797,-0.996613019993
2522356000000,,44822,,2522,348294885,"""map""",,,-0.229232341051,-0.214191839099,0.040621355176,,-0.00724677473717,-0.00278151139589,0.0818128913716,-0.996617571852
2522392000000,,44823,,2522,388293998,"""map""",,,-0.228839352727,-0.214001178741,0.0401360020041,,-0.00726364319011,-0.00282310720728,0.0818237231117,-0.996616349594
2522424000000,,44824,,2522,420293998,"""map""",,,-0.228481918573,-0.213911935687,0.0396422594786,,-0.00730634716727,-0.00278591722328,0.0817701544672,-0.996620522132
2522456000000,,44825,,2522,452293998,"""map""",,,-0.22810690105,-0.213868960738,0.0390794761479,,-0.00727747213087,-0.00276997567174,0.0817755914107,-0.996620311397
2522492000000,,44826,,2522,484293111,"""map""",,,-0.228175267577,-0.213684365153,0.0384490154684,,-0.00727275909246,-0.00278054975627,0.0817619358317,-0.996621491509
2522524000000,,44827,,2522,516293111,"""map""",,,-0.22819493711,-0.213568001986,0.0378020070493,,-0.00728757535607,-0.00274075819219,0.0817825456407,-0.996619847782
2522556000000,,44828,,2522,548293111,"""map""",,,-0.22814591229,-0.213492333889,0.037109926343,,-0.00724122024352,-0.00265531813382,0.0818039983866,-0.99661854123
2522592000000,,44829,,2522,588292225,"""map""",,,-0.228002935648,-0.213439688087,0.0366040430963,,-0.00725605280611,-0.00263051125611,0.0819014419003,-0.996610617622
2522624000000,,44830,,2522,620292225,"""map""",,,-0.227821454406,-0.213395357132,0.0361080430448,,-0.00720372815223,-0.00260913424284,0.0819278679743,-0.996608805308
2522656000000,,44831,,2522,652292225,"""map""",,,-0.227583438158,-0.213376894593,0.0357309915125,,-0.0071333145978,-0.0026137190297,0.0819303124915,-0.996609142482
2522692000000,,44832,,2522,684291338,"""map""",,,-0.227653726935,-0.213112458587,0.035973418504,,-0.00714778100964,-0.00264505965674,0.081983333227,-0.996604590623
2522724000000,,44833,,2522,716291338,"""map""",,,-0.227672770619,-0.212923422456,0.0362780056894,,-0.00720114896266,-0.00264407628516,0.0819878007929,-0.99660383198
2522756000000,,44834,,2522,748291338,"""map""",,,-0.22762902081,-0.21279245615,0.036568377167,,-0.00722721744701,-0.00262071507728,0.0819373931621,-0.996607793783
2522792000000,,44835,,2522,788290451,"""map""",,,-0.227493658662,-0.212731406093,0.036961261183,,-0.00725157898399,-0.0026538497442,0.081915982563,-0.99660931107
2522824000000,,44836,,2522,820290451,"""map""",,,-0.227315083146,-0.21272829175,0.037284579128,,-0.00728646702566,-0.00261102360703,0.0819083539835,-0.996609858979
2522856000000,,44837,,2522,852290451,"""map""",,,-0.227114468813,-0.212739229202,0.0375430770218,,-0.00729738783388,-0.00259848277933,0.0818851732168,-0.99661171344
2522892000000,,44838,,2522,884301565,"""map""",,,-0.22720874846,-0.21251912415,0.0376944094896,,-0.00729503501898,-0.00259305752504,0.0819685396831,-0.996604885651
2522924000000,,44839,,2522,916301565,"""map""",,,-0.227294877172,-0.212322875857,0.0379026606679,,-0.0073037050867,-0.00255652641482,0.081968286802,-0.996604885651
2522956000000,,44840,,2522,948301565,"""map""",,,-0.227359056473,-0.212163120508,0.0381431430578,,-0.00729731802816,-0.00256546006498,0.0819973681275,-0.996602609721
2522992000000,,44841,,2522,988300678,"""map""",,,-0.227370500565,-0.212049275637,0.0384985879064,,-0.00732314515594,-0.0025192766679,0.0820432660455,-0.996598690064
2523024000000,,44842,,2523,20300678,"""map""",,,-0.227329313755,-0.212001442909,0.0387272983789,,-0.00729445945108,-0.00249753235143,0.0820348366758,-0.996599701588
2523056000000,,44843,,2523,52300678,"""map""",,,-0.227255150676,-0.21199131012,0.038948841393,,-0.00732923521092,-0.00251492517043,0.0820892904041,-0.996594812554
2523092000000,,44844,,2523,84299791,"""map""",,,-0.227462828159,-0.211836546659,0.039210382849,,-0.00735498183164,-0.00256119895274,0.0820572587993,-0.996597172778
2523124000000,,44845,,2523,116299791,"""map""",,,-0.227598547935,-0.211759582162,0.0395110286772,,-0.00736933579701,-0.00249365632309,0.0820560786875,-0.996597341365
2523156000000,,44846,,2523,148299791,"""map""",,,-0.227662593126,-0.211716860533,0.0396941043437,,-0.00736412489895,-0.00250406379586,0.0820353845849,-0.996599069386
2523192000000,,44847,,2523,188298904,"""map""",,,-0.227667406201,-0.211709246039,0.0400348044932,,-0.00738625446396,-0.00244704059155,0.0820213496843,-0.996600291644
2523224000000,,44848,,2523,220298904,"""map""",,,-0.227599367499,-0.211762666702,0.040408320725,,-0.0073254841414,-0.00240030220609,0.082064002295,-0.996597257071
2523256000000,,44849,,2523,252298904,"""map""",,,-0.227506041527,-0.211875244975,0.0407934375107,,-0.00736636592591,-0.00239711089941,0.0820687648889,-0.996596540575
2523292000000,,44850,,2523,284298018,"""map""",,,-0.227582365274,-0.211786434054,0.0401122272015,,-0.00734322220236,-0.00243866950304,0.0820549828694,-0.996597762833
2523324000000,,44851,,2523,316298018,"""map""",,,-0.227610945702,-0.21174749732,0.0394938960671,,-0.00726844644911,-0.00230268598904,0.0820123724056,-0.996602188252
2523356000000,,44852,,2523,348298018,"""map""",,,-0.227584287524,-0.211745738983,0.0388323701918,,-0.00727903255208,-0.00224268138911,0.0820129203146,-0.996602146106
2523392000000,,44853,,2523,388297131,"""map""",,,-0.227450430393,-0.211819276214,0.03816973418,,-0.00728768022928,-0.0022205072077,0.0819763368501,-0.996605180679
2523424000000,,44854,,2523,420297131,"""map""",,,-0.227292120457,-0.211957320571,0.0375139713287,,-0.00733840560783,-0.00218521481971,0.0819586773206,-0.996606318644
2523456000000,,44855,,2523,452297131,"""map""",,,-0.227109104395,-0.212130814791,0.0368691533804,,-0.00737185291875,-0.00216155479726,0.0819301017573,-0.99660851028
2523492000000,,44856,,2523,484296244,"""map""",,,-0.227013140917,-0.212075665593,0.0361022874713,,-0.00743151952072,-0.00216093329588,0.081914591717,-0.996609353217
2523524000000,,44857,,2523,516296244,"""map""",,,-0.226888135076,-0.21209910512,0.0354034826159,,-0.00744299614049,-0.00211419227624,0.0818901886918,-0.996611418412
2523556000000,,44858,,2523,548296244,"""map""",,,-0.226723268628,-0.212165057659,0.0347447171807,,-0.00747619303987,-0.00213826306583,0.0818724448685,-0.996612472084
2523592000000,,44859,,2523,588295357,"""map""",,,-0.226471468806,-0.212327465415,0.0338733159006,,-0.00746810463159,-0.0021624509117,0.0818386009492,-0.996615380216
2523624000000,,44860,,2523,620295357,"""map""",,,-0.226266786456,-0.212515860796,0.0331287533045,,-0.0074845022252,-0.00208977542152,0.0818131021058,-0.996617445412
2523656000000,,44861,,2523,652295357,"""map""",,,-0.226033821702,-0.21274740994,0.0324183180928,,-0.00745696271706,-0.0021017706451,0.0818106997355,-0.996617824733
2523692000000,,44862,,2523,684294470,"""map""",,,-0.226094692945,-0.212841361761,0.0316081531346,,-0.00744130450429,-0.00209392738001,0.0818261676289,-0.996616686768
2523724000000,,44863,,2523,716294470,"""map""",,,-0.226161524653,-0.212958648801,0.0308498218656,,-0.00742349169853,-0.00208963811499,0.0818957942226,-0.996611123384
2523756000000,,44864,,2523,748294470,"""map""",,,-0.226207867265,-0.21310596168,0.0301185175776,,-0.00742843572142,-0.0020876312006,0.0819068788438,-0.996610069713
2523792000000,,44865,,2523,788293584,"""map""",,,-0.226179376245,-0.213362514973,0.0293863695115,,-0.00743255014287,-0.00205351217428,0.0819195650452,-0.996609184629
2523824000000,,44866,,2523,820293584,"""map""",,,-0.226086467505,-0.213608592749,0.028966460377,,-0.00747601144622,-0.00210636102959,0.081907089578,-0.996609774685
2523856000000,,44867,,2523,852293584,"""map""",,,-0.225958302617,-0.213909208775,0.0286242999136,,-0.00752544179699,-0.00212737781902,0.0818720234,-0.996612219202
2523892000000,,44868,,2523,884292697,"""map""",,,-0.226085618138,-0.214020684361,0.0285998880863,,-0.00751886030318,-0.00208770578077,0.081909323361,-0.99660931107
2523924000000,,44869,,2523,924292697,"""map""",,,-0.226194873452,-0.214218407869,0.0286432784051,,-0.00747366801559,-0.00203024415045,0.0819428722524,-0.99660703514
2523956000000,,44870,,2523,948292697,"""map""",,,-0.226210415363,-0.214384034276,0.0287017319351,,-0.00746946979435,-0.00203472752146,0.0819337685331,-0.996607793783
2523992000000,,44871,,2523,988291810,"""map""",,,-0.226195603609,-0.214710637927,0.0287339035422,,-0.00738116177464,-0.00207772965465,0.0819894023732,-0.996603747686
2524024000000,,44872,,2524,20291810,"""map""",,,-0.226152196527,-0.215041995049,0.0289624873549,,-0.00728696702558,-0.00212064156725,0.0820269552152,-0.996601261022
2524056000000,,44873,,2524,52291810,"""map""",,,-0.226114109159,-0.21539182961,0.0292377620935,,-0.00730448562658,-0.00211942918681,0.0819982953582,-0.996603452658
2524092000000,,44874,,2524,84290923,"""map""",,,-0.226348161697,-0.215419396758,0.0293281842023,,-0.00728918697912,-0.00209320923722,0.0819347800575,-0.996608805308
2524124000000,,44875,,2524,124290923,"""map""",,,-0.226599931717,-0.215533033013,0.0294289644808,,-0.00725333054775,-0.00208167943998,0.0819072160186,-0.996611418412
2524156000000,,44876,,2524,148290923,"""map""",,,-0.226740851998,-0.21563449502,0.029476435855,,-0.00725604128158,-0.00207716363565,0.0819228946462,-0.996610154007
2524192000000,,44877,,2524,188302037,"""map""",,,-0.226948395371,-0.215825974941,0.0295105651021,,-0.0072576673926,-0.00207184769975,0.0819271936247,-0.996609816832
2524224000000,,44878,,2524,220302037,"""map""",,,-0.227091670036,-0.216028064489,0.0295722763985,,-0.00722885129593,-0.00205233519061,0.0819262663941,-0.996610069713
2524256000000,,44879,,2524,252302037,"""map""",,,-0.227178826928,-0.216263890266,0.0296308454126,,-0.00724413512615,-0.00203526275351,0.0819293852609,-0.996609732538
2524292000000,,44880,,2524,284301150,"""map""",,,-0.227606520057,-0.216286450624,0.0300246719271,,-0.00722110878815,-0.00206186301255,0.0819234847021,-0.996610406888
2524324000000,,44881,,2524,316301150,"""map""",,,-0.227974906564,-0.216357439756,0.0304742231965,,-0.0073240363313,-0.00198961705803,0.0819193543109,-0.996610069713
2524356000000,,44882,,2524,348301150,"""map""",,,-0.228301107883,-0.216473460197,0.030958911404,,-0.0073875315464,-0.00199571221672,0.0819032120679,-0.996610870503
2524392000000,,44883,,2524,388300263,"""map""",,,-0.228654548526,-0.216715216637,0.0315888598561,,-0.00742150042457,-0.0020298994024,0.0819307761069,-0.996608257399
2524424000000,,44884,,2524,420300263,"""map""",,,-0.228936523199,-0.216982528567,0.0320878475904,,-0.00737552825565,-0.00198523674924,0.0819493628671,-0.996607203727
2524456000000,,44885,,2524,452300263,"""map""",,,-0.229205563664,-0.217334777117,0.0326663777232,,-0.00740285439537,-0.00194932516476,0.0819698883823,-0.996605475707
2524492000000,,44886,,2524,484299376,"""map""",,,-0.229393899441,-0.217348217964,0.0334665887058,,-0.00742842995916,-0.00200335841237,0.0820088742172,-0.996601977518
2524524000000,,44887,,2524,516299376,"""map""",,,-0.229578435421,-0.217414990067,0.0340898931026,,-0.00744304388497,-0.00195182253017,0.0820074833712,-0.996602019665
2524556000000,,44888,,2524,548299376,"""map""",,,-0.229726821184,-0.217531323433,0.0348041318357,,-0.00744521905748,-0.0018933516804,0.0819823217026,-0.996604169154
2524592000000,,44889,,2524,588298489,"""map""",,,-0.229907304049,-0.217764675617,0.0356757082045,,-0.00746023716499,-0.00186672145758,0.0819921419183,-0.996603368364
2524624000000,,44890,,2524,620298489,"""map""",,,-0.230061411858,-0.218015253544,0.0364014208317,,-0.00748845579715,-0.00192646659098,0.0819591409359,-0.996605770735
2524656000000,,44891,,2524,652298489,"""map""",,,-0.230224907398,-0.218290090561,0.0370339825749,,-0.007462628834,-0.00196662479972,0.081943546602,-0.996607203727
2524692000000,,44892,,2524,684297602,"""map""",,,-0.230656862259,-0.218345552683,0.0376807712018,,-0.00742174474459,-0.00196227939378,0.081871475491,-0.996613441461
2524724000000,,44893,,2524,716297602,"""map""",,,-0.231059730053,-0.218485936522,0.0382932946086,,-0.00747912619711,-0.00197925617729,0.0818857632727,-0.996611797734
2524756000000,,44894,,2524,748297602,"""map""",,,-0.231438562274,-0.218668878078,0.0388595983386,,-0.00750232013468,-0.00196599440798,0.0819180899055,-0.996608889601
2524792000000,,44895,,2524,788296715,"""map""",,,-0.231870919466,-0.218922153115,0.0394430533051,,-0.00745504849281,-0.0018969842119,0.0819030434806,-0.996610701916
2524824000000,,44896,,2524,820296715,"""map""",,,-0.232163175941,-0.219202846289,0.0400340184569,,-0.00738618350579,-0.00170963982391,0.0819737658924,-0.996605644294
2524856000000,,44897,,2524,852296715,"""map""",,,-0.232441574335,-0.219536572695,0.0406785421073,,-0.00742280384879,-0.00172121045092,0.0820099700352,-0.99660248328
2524892000000,,44898,,2524,884295829,"""map""",,,-0.232752963901,-0.219596862793,0.0412305407226,,-0.00746545645948,-0.00176540010449,0.0820142690138,-0.996601640343
2524924000000,,44899,,2524,916295829,"""map""",,,-0.233034461737,-0.219738051295,0.0418123565614,,-0.00748496254781,-0.00168920518783,0.0819884329956,-0.996603789833
2524956000000,,44900,,2524,948295829,"""map""",,,-0.23327434063,-0.219925746322,0.0423435121775,,-0.00746172778048,-0.0016942147359,0.0820118666434,-0.996602019665
2524992000000,,44901,,2524,988294942,"""map""",,,-0.233559891582,-0.220208227634,0.0430498570204,,-0.00747128326129,-0.00167435698481,0.0820210125095,-0.996601218875
2525024000000,,44902,,2525,20294942,"""map""",,,-0.233764111996,-0.220525741577,0.0436432994902,,-0.00751581140674,-0.00168480676906,0.0820234148799,-0.99660075526
2525056000000,,44903,,2525,52294942,"""map""",,,-0.233978718519,-0.220891386271,0.044293217361,,-0.00749153580982,-0.00169108302749,0.0819973681275,-0.996603031189
2525092000000,,44904,,2525,84294055,"""map""",,,-0.233899757266,-0.220938757062,0.0445789545774,,-0.00755036062726,-0.00165227401182,0.0820489558701,-0.996598310742
2525124000000,,44905,,2525,124294055,"""map""",,,-0.233825325966,-0.221084520221,0.0449507944286,,-0.00760254204772,-0.00171714031659,0.0820391356544,-0.996598690064
2525156000000,,44906,,2525,148294055,"""map""",,,-0.233779549599,-0.221217885613,0.0452051907778,,-0.00760395429641,-0.00172360360166,0.082008916364,-0.996601176728
2525192000000,,44907,,2525,188293168,"""map""",,,-0.233715519309,-0.221494495869,0.0456438735127,,-0.00769145214174,-0.00167378569745,0.0820368597246,-0.996598184302
2525224000000,,44908,,2525,220293168,"""map""",,,-0.233666822314,-0.221780702472,0.045934420079,,-0.00772178239687,-0.00168622724956,0.0820171349995,-0.996599617295
2525256000000,,44909,,2525,252293168,"""map""",,,-0.233612149954,-0.222134739161,0.04623984918,,-0.00773677152842,-0.00167676396498,0.0820379555426,-0.996597762833
2525292000000,,44910,,2525,284292281,"""map""",,,-0.23348583281,-0.222093075514,0.0458296202123,,-0.00773946530473,-0.00168700597844,0.0820200009852,-0.996599195826
2525324000000,,44911,,2525,316292281,"""map""",,,-0.233401790261,-0.222147867084,0.0454395674169,,-0.00767562303667,-0.00171822987847,0.0820433081924,-0.99659780498
2525356000000,,44912,,2525,348292281,"""map""",,,-0.233312621713,-0.222287133336,0.0450675077736,,-0.00766609521473,-0.00170621012411,0.0820198323978,-0.996599785882
2525392000000,,44913,,2525,388291394,"""map""",,,-0.23321609199,-0.222606807947,0.0447770170867,,-0.00763945379666,-0.00164742119734,0.0820276717116,-0.996599448707
2525424000000,,44914,,2525,420291394,"""map""",,,-0.233163550496,-0.222919210792,0.0445457138121,,-0.0077032581984,-0.00165509521649,0.0820324764523,-0.996598521477
2525456000000,,44915,,2525,452291394,"""map""",,,-0.233124226332,-0.223244458437,0.0440739952028,,-0.00748667081226,-0.00169366221706,0.082006977609,-0.996602272546
2525492000000,,44916,,2525,484302507,"""map""",,,-0.233142405748,-0.223160877824,0.0443500652909,,-0.00740462472765,-0.00168265266997,0.0819937013517,-0.996604000567
2525524000000,,44917,,2525,516302507,"""map""",,,-0.233202695847,-0.223179131746,0.0447143316269,,-0.00741292699826,-0.00171936981902,0.0820061768189,-0.996602820455
2525556000000,,44918,,2525,548302507,"""map""",,,-0.233281135559,-0.223273083568,0.0450962930918,,-0.00738185127074,-0.00172693748323,0.0820047016792,-0.996603115483
2525592000000,,44919,,2525,588301620,"""map""",,,-0.233382821083,-0.223471909761,0.0456249527633,,-0.00740774919207,-0.00172820518141,0.0820010770502,-0.996603284071
2525624000000,,44920,,2525,620301620,"""map""",,,-0.233485803008,-0.22371006012,0.0460834950209,,-0.00745529939826,-0.00175127136135,0.0820073569306,-0.996602398987
2525656000000,,44921,,2525,652301620,"""map""",,,-0.23365111649,-0.224019184709,0.0465103909373,,-0.00747708405059,-0.00174552424342,0.0820157441535,-0.996601429609
2525692000000,,44922,,2525,684300733,"""map""",,,-0.233805388212,-0.22365295887,0.0468047522008,,-0.00748836327165,-0.00170414031873,0.0820612627499,-0.996597720687
2525724000000,,44923,,2525,716300733,"""map""",,,-0.233953610063,-0.223438888788,0.0470645464957,,-0.00749382062999,-0.00165853018465,0.0820112765875,-0.996601851078
2525756000000,,44924,,2525,748300733,"""map""",,,-0.234145402908,-0.223330512643,0.0473194159567,,-0.00749428424532,-0.00164344688124,0.081970520585,-0.996605264972
2525792000000,,44925,,2525,788299846,"""map""",,,-0.234371542931,-0.223292350769,0.0476181842387,,-0.00749193653415,-0.00164763983412,0.0819892759326,-0.996603705539
2525824000000,,44926,,2525,820299846,"""map""",,,-0.234543114901,-0.223342329264,0.0478782095015,,-0.00747829544321,-0.0016293560044,0.0819684975363,-0.996605517854
2525856000000,,44927,,2525,852299846,"""map""",,,-0.234723970294,-0.223467707634,0.0480452589691,,-0.00749223254991,-0.00158105011838,0.0819794557169,-0.996604590623
2525892000000,,44928,,2525,884298959,"""map""",,,-0.234820172191,-0.223283067346,0.0477303899825,,-0.00744479363773,-0.00153774620717,0.0818785140147,-0.996613399314
2525924000000,,44929,,2525,916298959,"""map""",,,-0.234929069877,-0.223191261292,0.0475138388574,,-0.00741827734311,-0.00150163623616,0.081944937448,-0.996608173105
2525956000000,,44930,,2525,948298959,"""map""",,,-0.235068008304,-0.223174989223,0.0473698861897,,-0.00740981735109,-0.00150395200792,0.0819914254219,-0.996604422035
2525992000000,,44931,,2525,988298072,"""map""",,,-0.235278308392,-0.223230645061,0.0472931526601,,-0.00743959706302,-0.00148674654483,0.0819019055156,-0.996611587
2526024000000,,44932,,2526,20298072,"""map""",,,-0.235474765301,-0.223343208432,0.0472052320838,,-0.00743811303297,-0.00144034055972,0.0819276993869,-0.996609563951
2526056000000,,44933,,2526,52298072,"""map""",,,-0.235711336136,-0.223519995809,0.0470568872988,,-0.00747393917129,-0.00143770704023,0.0819396690919,-0.996608299546
2526092000000,,44934,,2526,84297185,"""map""",,,-0.235882356763,-0.223495408893,0.0467189699411,,-0.00753690689224,-0.00141913246311,0.0818925910621,-0.996611629147
2526124000000,,44935,,2526,116297185,"""map""",,,-0.236088722944,-0.223547548056,0.0464689992368,,-0.00752744887601,-0.00138635933713,0.0819197336326,-0.996609521804
2526156000000,,44936,,2526,148297185,"""map""",,,-0.23634916544,-0.223664239049,0.0463620759547,,-0.00751858223276,-0.00134479003215,0.0819215038002,-0.996609606098
2526192000000,,44937,,2526,188296298,"""map""",,,-0.236687302589,-0.223963007331,0.0463193282485,,-0.00752256280504,-0.00124793953772,0.0819510908879,-0.996607161581
2526224000000,,44938,,2526,220296298,"""map""",,,-0.236971661448,-0.224312901497,0.0462730675936,,-0.00751146567153,-0.00119826091567,0.0819478877274,-0.996607583049
2526256000000,,44939,,2526,252296298,"""map""",,,-0.237270653248,-0.224731296301,0.0462960526347,,-0.00748366389804,-0.00113236761075,0.0819390368892,-0.996608594573
2526292000000,,44940,,2526,284295411,"""map""",,,-0.23758867383,-0.225189492106,0.0463430956006,,-0.00753854074116,-0.00111859777436,0.0819019055156,-0.996611334119
2526324000000,,44941,,2526,316295411,"""map""",,,-0.237914979458,-0.22570733726,0.0464627332985,,-0.00757330892773,-0.00114843148693,0.0818638890583,-0.996614115811
2526356000000,,44942,,2526,348295411,"""map""",,,-0.238250404596,-0.226294100285,0.0465647391975,,-0.00753798229542,-0.00111718848911,0.0819031277743,-0.996611123384
2526392000000,,44943,,2526,388294524,"""map""",,,-0.238601818681,-0.226484432817,0.0465063303709,,-0.00755550089642,-0.00112253982178,0.0819429143992,-0.99660783593
2526424000000,,44944,,2526,420294524,"""map""",,,-0.238855957985,-0.226583212614,0.0464549474418,,-0.00749552955298,-0.00111306171995,0.0819939120859,-0.996604042714
2526456000000,,44945,,2526,452294524,"""map""",,,-0.239115476608,-0.22674266994,0.0463345088065,,-0.0072292266663,-0.0011201068291,0.0820073569306,-0.996604927798
2526492000000,,44946,,2526,484293637,"""map""",,,-0.239410161972,-0.227019265294,0.046327482909,,-0.00716480158636,-0.00114527738801,0.08203424662,-0.996603073336
2526524000000,,44947,,2526,516293637,"""map""",,,-0.239717632532,-0.227402165532,0.0462368689477,,-0.00716148383913,-0.00120350391777,0.0820109815596,-0.996605012091
2526556000000,,44948,,2526,548293637,"""map""",,,-0.240045011044,-0.227859929204,0.0461573675275,,-0.00720516937688,-0.00122402054265,0.0820341623263,-0.996602820455
2526592000000,,44949,,2526,588292750,"""map""",,,-0.240149483085,-0.228022962809,0.0457845628262,,-0.00719282133808,-0.00118006170892,0.0820266180404,-0.996603452658
2526624000000,,44950,,2526,620292750,"""map""",,,-0.240222930908,-0.228159070015,0.0454130098224,,-0.00722640019327,-0.0011727172913,0.0820122038182,-0.996604464182
2526656000000,,44951,,2526,652292750,"""map""",,,-0.240327075124,-0.228355064988,0.0450371056795,,-0.00722887269863,-0.00114932348547,0.0820393885355,-0.996602230399
2526692000000,,44952,,2526,684291863,"""map""",,,-0.240444019437,-0.228649958968,0.0446791015565,,-0.00724627309089,-0.00114674034464,0.0820167978247,-0.996604000567
2526724000000,,44953,,2526,716291863,"""map""",,,-0.24060022831,-0.229031577706,0.0443738512695,,-0.00726459116493,-0.00108375122099,0.081978317752,-0.996607077287
2526756000000,,44954,,2526,748291863,"""map""",,,-0.240780085325,-0.229481264949,0.044149633497,,-0.00730764417068,-0.00108766560955,0.0819786549268,-0.996606740112
2526792000000,,44955,,2526,788302976,"""map""",,,-0.240689948201,-0.229755952954,0.0440280549228,,-0.0073443735028,-0.00104861161532,0.0819881801145,-0.996605728588
2526824000000,,44956,,2526,820302976,"""map""",,,-0.240608543158,-0.230021685362,0.0439615808427,,-0.00730980419667,-0.00104953456545,0.0819519759717,-0.996608889601
2526856000000,,44957,,2526,852302976,"""map""",,,-0.240587949753,-0.230393767357,0.0439532063901,,-0.00730248315737,-0.00105296689942,0.0819254234571,-0.996611249825
2526892000000,,44958,,2526,884302089,"""map""",,,-0.240641728044,-0.230837494135,0.0440938770771,,-0.00726653848104,-0.00103794681628,0.0819099977106,-0.996612682818
2526924000000,,44959,,2526,916302089,"""map""",,,-0.240753471851,-0.231382340193,0.0443340577185,,-0.00729317891129,-0.0010049968711,0.0818822650842,-0.996614874454
2526956000000,,44960,,2526,948302089,"""map""",,,-0.24091693759,-0.231996804476,0.0446990132332,,-0.00732534321288,-0.00103667780102,0.0818655749322,-0.996615970272
2526992000000,,44961,,2526,988301202,"""map""",,,-0.240921571851,-0.232344359159,0.0448500588536,,-0.00737096981057,-0.000994565855364,0.0818466931441,-0.996617150384
2527024000000,,44962,,2527,20301202,"""map""",,,-0.24091860652,-0.232623398304,0.0448820702732,,-0.00718974692305,-0.000944555985428,0.0818957099289,-0.996614495132
2527056000000,,44963,,2527,52301202,"""map""",,,-0.241004124284,-0.233004212379,0.0451426357031,,-0.00717765868006,-0.000933888881488,0.0819045607671,-0.99661398937
2527092000000,,44964,,2527,84300314,"""map""",,,-0.241147145629,-0.233452305198,0.0455727167428,,-0.00716613085845,-0.000964532274533,0.0818980701524,-0.996614579426
2527124000000,,44965,,2527,116300314,"""map""",,,-0.241326481104,-0.233965486288,0.0459610931575,,-0.00719784438632,-0.000988462464864,0.0818899358107,-0.996614958748
2527156000000,,44966,,2527,148300314,"""map""",,,-0.24153418839,-0.234581410885,0.0464741922915,,-0.0071954937117,-0.00104650558998,0.0818668393377,-0.996616813209
2527192000000,,44967,,2527,188299427,"""map""",,,-0.241772934794,-0.234664410353,0.0469303503633,,-0.00725565274032,-0.00106967022232,0.0818930546775,-0.996614200104
2527224000000,,44968,,2527,220299427,"""map""",,,-0.241984769702,-0.234711587429,0.0472357906401,,-0.00725809330627,-0.00105297019214,0.0818541952831,-0.996617403265
2527256000000,,44969,,2527,252299427,"""map""",,,-0.24226154387,-0.234893888235,0.0475283078849,,-0.0072612283074,-0.0010829323209,0.0818070751065,-0.996621196481
2527292000000,,44970,,2527,284298540,"""map""",,,-0.242640897632,-0.23518319428,0.0477839000523,,-0.0072684792117,-0.00109870544968,0.0817648018174,-0.996624526082
2527324000000,,44971,,2527,316298540,"""map""",,,-0.243094339967,-0.235575094819,0.0481477640569,,-0.00726280881421,-0.00110136103041,0.0817432647778,-0.99662642269
2527356000000,,44972,,2527,348298540,"""map""",,,-0.243574440479,-0.236063927412,0.0485918112099,,-0.00727755461356,-0.00111323623425,0.0817138462776,-0.99662869862
2527392000000,,44973,,2527,388297653,"""map""",,,-0.243943214417,-0.236000001431,0.0484022535384,,-0.00731831786006,-0.00115544301031,0.0817152371236,-0.996628150711
2527424000000,,44974,,2527,420297653,"""map""",,,-0.244227021933,-0.235929757357,0.0481457449496,,-0.00732420426015,-0.00114135312129,0.0816734695967,-0.996631564606
2527456000000,,44975,,2527,452297653,"""map""",,,-0.244565293193,-0.235974475741,0.0479923374951,,-0.00734584337414,-0.0011465082077,0.0816945008741,-0.996629752291
2527492000000,,44976,,2527,484296765,"""map""",,,-0.244975462556,-0.236141979694,0.047938901931,,-0.00738789177024,-0.00114798762793,0.0816282460283,-0.996634809913
2527524000000,,44977,,2527,516296765,"""map""",,,-0.245410874486,-0.236444532871,0.0478962697089,,-0.00740886740064,-0.00116786019628,0.0816218397073,-0.996635147088
2527556000000,,44978,,2527,548296765,"""map""",,,-0.245896175504,-0.236851528287,0.0478945784271,,-0.00742310974271,-0.00121073407793,0.0816383191251,-0.996633671948
2527592000000,,44979,,2527,588295878,"""map""",,,-0.246254399419,-0.236708834767,0.0475321151316,,-0.00737178212522,-0.00119795765593,0.0815890494591,-0.996638097367
2527624000000,,44980,,2527,620295878,"""map""",,,-0.246545910835,-0.236564859748,0.0472520180047,,-0.00734751410155,-0.00118455890937,0.0815278522351,-0.996643239283
2527656000000,,44981,,2527,652295878,"""map""",,,-0.246901512146,-0.236563146114,0.0470703803003,,-0.00736273537004,-0.00115446507171,0.0815146181247,-0.996644250807
2527692000000,,44982,,2527,684294991,"""map""",,,-0.24732542038,-0.236684978008,0.0469593629241,,-0.00736189572579,-0.00119232611257,0.0815703784053,-0.996639741095
2527724000000,,44983,,2527,716294991,"""map""",,,-0.247783750296,-0.236965402961,0.0468471236527,,-0.00733065766706,-0.00117695436666,0.0815409177581,-0.996642396346
2527756000000,,44984,,2527,748294991,"""map""",,,-0.24833111465,-0.237385183573,0.0465994141996,,-0.0075651113657,-0.00114080685862,0.0815262506549,-0.99664180629
2527792000000,,44985,,2527,788294104,"""map""",,,-0.248718544841,-0.237264588475,0.0461489707232,,-0.00753755457076,-0.00117142522697,0.081468888794,-0.996646737471
2527824000000,,44986,,2527,820294104,"""map""",,,-0.249036416411,-0.237166240811,0.0457737334073,,-0.00758745150031,-0.00116392407575,0.0815019740701,-0.996643576458
2527856000000,,44987,,2527,852294104,"""map""",,,-0.249425336719,-0.237193718553,0.0454904176295,,-0.00761432439678,-0.00115911571303,0.0814964949798,-0.996643913633
2527892000000,,44988,,2527,884293216,"""map""",,,-0.249863013625,-0.237309098244,0.0452735573053,,-0.00761779492634,-0.00110312691751,0.0814845252748,-0.996644925157
2527924000000,,44989,,2527,916293216,"""map""",,,-0.250348985195,-0.237556129694,0.0449847951531,,-0.00742710743715,-0.00105179139747,0.0815463547016,-0.996641342675
2527956000000,,44990,,2527,948293216,"""map""",,,-0.250906020403,-0.237962245941,0.0448336750269,,-0.00743219370566,-0.00102408544221,0.0815641828185,-0.996639951829
2527992000000,,44991,,2527,988292329,"""map""",,,-0.250947654247,-0.23794490099,0.0445358157158,,-0.00743422333983,-0.000982338988757,0.0815227946133,-0.996643323577
2528024000000,,44992,,2528,20292329,"""map""",,,-0.250953048468,-0.23792013526,0.044250998646,,-0.00749445382053,-0.000982821043336,0.081510066265,-0.996643913633
2528056000000,,44993,,2528,52292329,"""map""",,,-0.251084208488,-0.238044276834,0.0440514236689,,-0.00749388615517,-0.000946275115866,0.0814869697921,-0.996645852388
2528092000000,,44994,,2528,84303442,"""map""",,,-0.251328229904,-0.23829767108,0.0438993684947,,-0.00752274653896,-0.00098897612958,0.0815126793696,-0.996643492164
2528124000000,,44995,,2528,116303442,"""map""",,,-0.251662015915,-0.238719165325,0.0437475144863,,-0.00756329608776,-0.000999952420167,0.0815433201285,-0.996640668325
2528156000000,,44996,,2528,148303442,"""map""",,,-0.252061009407,-0.239261552691,0.0437514707446,,-0.00755351143346,-0.000981665297725,0.0815607689238,-0.996639319626
2528192000000,,44997,,2528,188302554,"""map""",,,-0.252264946699,-0.239391759038,0.0436957888305,,-0.00750666290644,-0.000977873069176,0.0815377567445,-0.996641595556
2528224000000,,44998,,2528,220302554,"""map""",,,-0.252446055412,-0.239514321089,0.0437377654016,,-0.00759809818938,-0.000965267539476,0.0815544047497,-0.99663953036
2528256000000,,44999,,2528,252302554,"""map""",,,-0.252719432116,-0.239751249552,0.0437677800655,,-0.00761994968397,-0.000929421315545,0.0815659108393,-0.996638476689
2528292000000,,45000,,2528,284301667,"""map""",,,-0.253085285425,-0.240121915936,0.0438781790435,,-0.00759089568809,-0.000863955735279,0.0815550790992,-0.996639614654
2528324000000,,45001,,2528,316301667,"""map""",,,-0.253547430038,-0.240639045835,0.0441157855093,,-0.00764743370974,-0.000838244182054,0.0815582822597,-0.996638856011
2528356000000,,45002,,2528,348301667,"""map""",,,-0.254108905792,-0.241285011172,0.0443993024528,,-0.00762311596596,-0.000847367328395,0.0815667537763,-0.996638392395
2528392000000,,45003,,2528,388300780,"""map""",,,-0.254507482052,-0.24145630002,0.0444822795689,,-0.00763550878578,-0.000851025872409,0.0815876586131,-0.996636537934
2528424000000,,45004,,2528,420300780,"""map""",,,-0.254801034927,-0.241592332721,0.0446112900972,,-0.00764640670958,-0.000811047281691,0.0816053602895,-0.996635104941
2528456000000,,45005,,2528,452300780,"""map""",,,-0.255188882351,-0.241862177849,0.0448607467115,,-0.00768965662014,-0.000825676847936,0.0815997547587,-0.996635231382
2528492000000,,45006,,2528,484299892,"""map""",,,-0.255629450083,-0.242255166173,0.0451268218458,,-0.00774706918889,-0.000821007767374,0.0815125950759,-0.996641890584
2528524000000,,45007,,2528,516299892,"""map""",,,-0.256131947041,-0.242767080665,0.0454212091863,,-0.00775582025758,-0.000774749954772,0.0814821229045,-0.996644377248
2528556000000,,45008,,2528,548299892,"""map""",,,-0.256731331348,-0.243375852704,0.0456808283925,,-0.00777843270035,-0.000783155616872,0.0814434742444,-0.996647369674
2528592000000,,45009,,2528,588299005,"""map""",,,-0.257217556238,-0.243326812983,0.0457330457866,,-0.00782713338381,-0.000825786495596,0.0814131706603,-0.99664943487
2528624000000,,45010,,2528,620299005,"""map""",,,-0.257619976997,-0.243317723274,0.0458137877285,,-0.0078802091077,-0.00085024582644,0.0813810547617,-0.996651542212
2528656000000,,45011,,2528,652299005,"""map""",,,-0.258115917444,-0.243511229753,0.0459541678429,,-0.00785286930318,-0.000790952125302,0.0813766293427,-0.996652174415
2528692000000,,45012,,2528,684298117,"""map""",,,-0.258710861206,-0.24385613203,0.0461931154132,,-0.00786487720374,-0.00080130181079,0.0813710659586,-0.99665251159
2528724000000,,45013,,2528,716298117,"""map""",,,-0.259368538857,-0.24433837831,0.0464688315988,,-0.00788490716422,-0.000779734807425,0.0813589698131,-0.996653396673
2528756000000,,45014,,2528,748298117,"""map""",,,-0.260100007057,-0.244945392013,0.0467574931681,,-0.00786431316037,-0.000742722630443,0.0813381914168,-0.996655293282
2528792000000,,45015,,2528,788297230,"""map""",,,-0.260402172804,-0.244928404689,0.0470747202635,,-0.0078030141912,-0.000732509592941,0.0813166122304,-0.996657569211
2528824000000,,45016,,2528,820297230,"""map""",,,-0.260622233152,-0.244919985533,0.047050781548,,-0.00769879129101,-0.000707904065217,0.0812933893168,-0.996660308757
2528856000000,,45017,,2528,852297230,"""map""",,,-0.260944873095,-0.245096191764,0.0471054427326,,-0.00760674356168,-0.000661735156124,0.0813005542811,-0.99666039305
2528892000000,,45018,,2528,884296342,"""map""",,,-0.261357218027,-0.245418474078,0.0471954494715,,-0.00761007349198,-0.000627627489694,0.0811919839993,-0.996669243888
2528924000000,,45019,,2528,916296342,"""map""",,,-0.261852324009,-0.245851680636,0.0472504533827,,-0.00759535831495,-0.000651113162482,0.0811807307908,-0.996670213266
2528956000000,,45020,,2528,948296342,"""map""",,,-0.262429267168,-0.246415942907,0.0473611690104,,-0.00759717556852,-0.000690126985496,0.0811772326023,-0.996670508294
2528992000000,,45021,,2528,988295455,"""map""",,,-0.262733399868,-0.246274143457,0.0473109781742,,-0.00766462896538,-0.000689676541053,0.0811989382293,-0.996668274511
2529024000000,,45022,,2529,20295455,"""map""",,,-0.263010650873,-0.246170401573,0.047283731401,,-0.00769067505922,-0.0007629415932,0.0811416606622,-0.996672615636
2529056000000,,45023,,2529,52295455,"""map""",,,-0.263417065144,-0.246250525117,0.0473554320633,,-0.007662111679,-0.000781879686888,0.0811150660008,-0.996675018007
2529092000000,,45024,,2529,84294567,"""map""",,,-0.263904958963,-0.246522217989,0.0474758893251,,-0.00766807644588,-0.00080146842255,0.0811075217149,-0.996675565916
2529124000000,,45025,,2529,116294567,"""map""",,,-0.264469772577,-0.24697124958,0.0475130192935,,-0.00769207874684,-0.000801310042596,0.0810956363036,-0.996676324559
2529156000000,,45026,,2529,148294567,"""map""",,,-0.265126019716,-0.247561618686,0.0475576147437,,-0.00770444456634,-0.000780846759827,0.0810713597189,-0.996678263314
2529192000000,,45027,,2529,188293680,"""map""",,,-0.26505613327,-0.247429803014,0.047462977469,,-0.0076878021588,-0.000782419693384,0.0809622836749,-0.99668728274
2529224000000,,45028,,2529,220293680,"""map""",,,-0.264960646629,-0.247315809131,0.0473575182259,,-0.00770382125396,-0.000828059461966,0.0809676363247,-0.996686650537
2529256000000,,45029,,2529,252293680,"""map""",,,-0.265010744333,-0.247380539775,0.047200653702,,-0.00773821275307,-0.000830177011831,0.0809764028692,-0.996685639013
2529292000000,,45030,,2529,284292792,"""map""",,,-0.265166252851,-0.247618705034,0.0469859540462,,-0.00777322986947,-0.000821155939889,0.080932780881,-0.99668888432
2529324000000,,45031,,2529,316292792,"""map""",,,-0.265408098698,-0.248019129038,0.0466332547367,,-0.00779217586569,-0.000780556341699,0.0809303785106,-0.99668901076
2529356000000,,45032,,2529,348292792,"""map""",,,-0.265775829554,-0.24857661128,0.0464121177793,,-0.00779307247404,-0.000764128619675,0.0809556244729,-0.996687029859
2529392000000,,45033,,2529,388303905,"""map""",,,-0.265873849392,-0.248299792409,0.0459693558514,,-0.00780252423409,-0.000806589264644,0.0809042053177,-0.996691075956
2529424000000,,45034,,2529,420303905,"""map""",,,-0.266004770994,-0.248085185885,0.0454898364842,,-0.00780278172499,-0.000791766744859,0.0808538819806,-0.996695122053
2529456000000,,45035,,2529,452303905,"""map""",,,-0.266265273094,-0.248095810413,0.0451059117913,,-0.00778178930171,-0.00079365149924,0.0808822468096,-0.996692972564
2529492000000,,45036,,2529,484303017,"""map""",,,-0.266640782356,-0.248290389776,0.0448768734932,,-0.00779776065239,-0.000823132231957,0.0808880209279,-0.996692340361
2529524000000,,45037,,2529,516303017,"""map""",,,-0.267124056816,-0.248668476939,0.044615585357,,-0.00788042247612,-0.000845391036327,0.0808591503366,-0.996694068382
2529556000000,,45038,,2529,548303017,"""map""",,,-0.267701297998,-0.249211460352,0.0443959236145,,-0.0078600737801,-0.00080973381467,0.0808525332814,-0.996694784879
2529592000000,,45039,,2529,588302129,"""map""",,,-0.26781347394,-0.249158859253,0.0437702313066,,-0.00785024302768,-0.000807336054116,0.0807876271347,-0.996700095382
2529624000000,,45040,,2529,620302129,"""map""",,,-0.267932295799,-0.249149188399,0.0432355590165,,-0.00784832402898,-0.000766944885264,0.0808286781652,-0.996696807927
2529656000000,,45041,,2529,652302129,"""map""",,,-0.26815289259,-0.249305069447,0.0427459254861,,-0.00784817025884,-0.00078314804361,0.0808308698013,-0.996696723634
2529692000000,,45042,,2529,684301242,"""map""",,,-0.268466919661,-0.249686047435,0.042391218245,,-0.00761312057742,-0.000823859923638,0.0807599788021,-0.996704141479
2529724000000,,45043,,2529,716301242,"""map""",,,-0.268913388252,-0.250217854977,0.0420361310244,,-0.0076506240286,-0.00081575389929,0.0807307710361,-0.996706290968
2529756000000,,45044,,2529,748301242,"""map""",,,-0.269463300705,-0.250955313444,0.0416689217091,,-0.00765630957261,-0.000814533945589,0.0807003831583,-0.996708693339
2529792000000,,45045,,2529,788300354,"""map""",,,-0.26929217577,-0.250702679157,0.041220523417,,-0.0076852898115,-0.000828541516546,0.0806788882656,-0.996710210625
2529824000000,,45046,,2529,820300354,"""map""",,,-0.26910468936,-0.250444382429,0.0409816354513,,-0.00770888710759,-0.000875223431811,0.0806883291596,-0.996709283395
2529856000000,,45047,,2529,852300354,"""map""",,,-0.269065737724,-0.250433564186,0.0407472774386,,-0.00769765991154,-0.00086880295213,0.080688792775,-0.996709325541
2529892000000,,45048,,2529,884299466,"""map""",,,-0.269138097763,-0.250660002232,0.0405376702547,,-0.0076963882621,-0.000818253075697,0.0806867275794,-0.996709451982
2529924000000,,45049,,2529,916299466,"""map""",,,-0.269337415695,-0.251064062119,0.0404037311673,,-0.00779773496915,-0.000823113134166,0.0805942995406,-0.996716153331
2529956000000,,45050,,2529,948299466,"""map""",,,-0.269646286964,-0.251665085554,0.0402348004282,,-0.00779036783174,-0.000846499366734,0.0805826248636,-0.996717122708
2529992000000,,45051,,2529,988298578,"""map""",,,-0.269729226828,-0.251510858536,0.0399377904832,,-0.00774448736514,-0.000844356792177,0.0805932880162,-0.996716659093
2530024000000,,45052,,2530,20298578,"""map""",,,-0.269840925932,-0.251405209303,0.0395761840045,,-0.00774467735523,-0.000811720314178,0.0805996100435,-0.996716153331
2530056000000,,45053,,2530,52298578,"""map""",,,-0.270052492619,-0.251515716314,0.0391856767237,,-0.00777552950689,-0.000838926104892,0.0806562554079,-0.99671134859
2530092000000,,45054,,2530,84297691,"""map""",,,-0.270340532064,-0.251838564873,0.0388012677431,,-0.0077884541014,-0.000764863555346,0.0807140808841,-0.996706628143
2530124000000,,45055,,2530,116297691,"""map""",,,-0.270703434944,-0.252334833145,0.0384345091879,,-0.00776139549539,-0.000789898454089,0.0807161882265,-0.996706628143
2530156000000,,45056,,2530,148297691,"""map""",,,-0.271151214838,-0.252959877253,0.0380951240659,,-0.00776078798808,-0.00079803839348,0.0807126478912,-0.996706881024
2530192000000,,45057,,2530,188296803,"""map""",,,-0.271076738834,-0.25284460187,0.0375300124288,,-0.00781906390868,-0.000791979125462,0.0806558760863,-0.996711137856
2530224000000,,45058,,2530,220296803,"""map""",,,-0.270988017321,-0.252743929625,0.0369745753706,,-0.007846034599,-0.000789042016957,0.0806550752961,-0.996710842828
2530256000000,,45059,,2530,252296803,"""map""",,,-0.271063446999,-0.252828806639,0.0363734140992,,-0.00787957130734,-0.000805849719162,0.0806664970921,-0.996709704863
2530292000000,,45060,,2530,284295915,"""map""",,,-0.271299183369,-0.253094941378,0.0358211696148,,-0.0078466137889,-0.00078144471824,0.0807235217781,-0.996705363738
2530324000000,,45061,,2530,316295915,"""map""",,,-0.271671742201,-0.253561526537,0.0352768935263,,-0.00785831908825,-0.000780566549139,0.0807650785708,-0.996701907696
2530356000000,,45062,,2530,348295915,"""map""",,,-0.272132366896,-0.254198551178,0.0347644351423,,-0.00783294339273,-0.000783898784349,0.0807700940457,-0.996701612668
2530392000000,,45063,,2530,388295027,"""map""",,,-0.271961063147,-0.254023194313,0.0338827669621,,-0.00800557194515,-0.000719873440922,0.080724659743,-0.996704057185
2530424000000,,45064,,2530,420295027,"""map""",,,-0.271811038256,-0.253882080317,0.0332250222564,,-0.00805061902367,-0.000712563596883,0.0806941875716,-0.996706206675
2530456000000,,45065,,2530,452295027,"""map""",,,-0.271783560514,-0.253958255053,0.0325561724603,,-0.00808327492873,-0.000695714077102,0.0806672557354,-0.996708103283
2530492000000,,45066,,2530,484294139,"""map""",,,-0.271880835295,-0.254189550877,0.0318905115128,,-0.00789392000436,-0.000732990659704,0.0806135185035,-0.996713961695
2530524000000,,45067,,2530,516294139,"""map""",,,-0.272123366594,-0.25460755825,0.0313192233443,,-0.00795199638597,-0.000671202062698,0.0805535856849,-0.996718344967
2530556000000,,45068,,2530,548294139,"""map""",,,-0.272477060556,-0.255167096853,0.0308047644794,,-0.0079351633298,-0.000635985078045,0.0805585168662,-0.996718134233
2530592000000,,45069,,2530,588293251,"""map""",,,-0.27228602767,-0.255160599947,0.0299715269357,,-0.00793231018572,-0.000653319615856,0.0805417424205,-0.996719482932
2530624000000,,45070,,2530,620293251,"""map""",,,-0.272126048803,-0.255217373371,0.0293663479388,,-0.00798546987404,-0.000708721648224,0.0805120710391,-0.996721421687
2530656000000,,45071,,2530,652293251,"""map""",,,-0.272093266249,-0.255466014147,0.0288031697273,,-0.00800989496057,-0.000709924479768,0.0804793650847,-0.99672378191
2530692000000,,45072,,2530,684304364,"""map""",,,-0.272180855274,-0.255905270576,0.028291311115,,-0.00809120940224,-0.000706058164961,0.0804656252121,-0.996724371966
2530724000000,,45073,,2530,716304364,"""map""",,,-0.272398114204,-0.256536930799,0.0279086008668,,-0.00813014584627,-0.000663789485716,0.0804630964012,-0.996724287673
2530756000000,,45074,,2530,748304364,"""map""",,,-0.272706896067,-0.257306873798,0.0275400169194,,-0.00815582117955,-0.000648419715445,0.0804449732563,-0.996725552078
2530792000000,,45075,,2530,788303476,"""map""",,,-0.272630631924,-0.257199674845,0.027126505971,,-0.00819932298338,-0.000687885299991,0.0804931471042,-0.996721295246
2530824000000,,45076,,2530,820303476,"""map""",,,-0.272602081299,-0.257127732038,0.026854833588,,-0.00818276025974,-0.000747381174293,0.0804686176383,-0.996723234001
2530856000000,,45077,,2530,852303476,"""map""",,,-0.272726893425,-0.25727802515,0.0265438966453,,-0.00820188570934,-0.000744404553117,0.0804931471042,-0.996721126659
2530892000000,,45078,,2530,884302588,"""map""",,,-0.272981226444,-0.257626473904,0.026194177568,,-0.00827580370836,-0.000720852696605,0.0804465748366,-0.996724371966
2530924000000,,45079,,2530,916302588,"""map""",,,-0.273362904787,-0.258156359196,0.0258945133537,,-0.00827403782126,-0.000751461516064,0.0804335936072,-0.996725383491
2530952000000,,45080,,2530,948302588,"""map""",,,-0.273896634579,-0.258827090263,0.0255807600915,,-0.00825629465659,-0.000767647881526,0.0804464905429,-0.99672445626
2530992000000,,45081,,2530,988301700,"""map""",,,-0.273895651102,-0.258570611477,0.0255261939019,,-0.00824376683514,-0.000812460188933,0.0804084319387,-0.99672753298
2531024000000,,45082,,2531,20301700,"""map""",,,-0.273914575577,-0.258434414864,0.025794647634,,-0.00820642933717,-0.000802642607408,0.0803620282584,-0.996731705518
2531056000000,,45083,,2531,52301700,"""map""",,,-0.274104446173,-0.258573532104,0.0260224509984,,-0.00819998119862,-0.000799941587108,0.0803812893682,-0.996730146085
2531092000000,,45084,,2531,84300812,"""map""",,,-0.274437874556,-0.258921355009,0.026311038062,,-0.00814208328257,-0.000762742383486,0.0803839867665,-0.996730483259
2531124000000,,45085,,2531,116300812,"""map""",,,-0.274889498949,-0.259464561939,0.0266428366303,,-0.00815184686344,-0.000745485224654,0.0803484569732,-0.996733222804
2531156000000,,45086,,2531,148300812,"""map""",,,-0.275466680527,-0.260191291571,0.026965091005,,-0.00817038324498,-0.000738826351862,0.0803401540441,-0.996733770714
2531192000000,,45087,,2531,188299924,"""map""",,,-0.275544703007,-0.260291218758,0.0273219458759,,-0.00813480043885,-0.000710046969046,0.0804163555462,-0.996727954448
2531224000000,,45088,,2531,220299924,"""map""",,,-0.275639474392,-0.260431110859,0.0275269765407,,-0.00809600986243,-0.000743662044184,0.0804349844532,-0.996726774337
2531256000000,,45089,,2531,252299924,"""map""",,,-0.275885313749,-0.260802149773,0.0277036111802,,-0.00809974150488,-0.000774615940965,0.0804035850511,-0.996729176707
2531292000000,,45090,,2531,284299035,"""map""",,,-0.276288866997,-0.26136726141,0.0278094206005,,-0.00817205002113,-0.000829918862384,0.080427524461,-0.996726647896
2531324000000,,45091,,2531,316299035,"""map""",,,-0.27681773901,-0.26210385561,0.0278245955706,,-0.0081685162713,-0.000857880003648,0.0803614382026,-0.996731958399
2531356000000,,45092,,2531,348299035,"""map""",,,-0.277439445257,-0.263002187014,0.0276785921305,,-0.00818215802078,-0.000825845106058,0.0803573078114,-0.996732295574
2531392000000,,45093,,2531,388298147,"""map""",,,-0.278329700232,-0.264331698418,0.0273662824184,,-0.00796874317281,-0.000845825017158,0.0803123792709,-0.996737521783
2531424000000,,45094,,2531,420298147,"""map""",,,-0.279142230749,-0.265574157238,0.0271663796157,,-0.00796734574136,-0.000851043323839,0.0803023061741,-0.996738406867
2531456000000,,45095,,2531,452298147,"""map""",,,-0.280064046383,-0.266955465078,0.0270316824317,,-0.00797463088998,-0.000881590240114,0.0803083753203,-0.996737732517
2531492000000,,45096,,2531,484297259,"""map""",,,-0.28005027771,-0.266773074865,0.0269517041743,,-0.00799577807122,-0.000931853649686,0.0803417556243,-0.996734866532
2531524000000,,45097,,2531,516297259,"""map""",,,-0.280168473721,-0.266859084368,0.0268139783293,,-0.00799406091642,-0.000976270830388,0.0803447480506,-0.996734571504
2531556000000,,45098,,2531,548297259,"""map""",,,-0.280455082655,-0.267160862684,0.0267603844404,,-0.00797242279025,-0.000960889535587,0.0803742086977,-0.996732422014
2531592000000,,45099,,2531,588296371,"""map""",,,-0.280997157097,-0.26786133647,0.0265972055495,,-0.00795142904988,-0.00101039759461,0.0804205280842,-0.996728839532
2531624000000,,45100,,2531,620296371,"""map""",,,-0.281569689512,-0.268663585186,0.0264345612377,,-0.00795272374838,-0.00101534655659,0.080416397693,-0.996729176707
2531652000000,,45101,,2531,652296371,"""map""",,,-0.282264620066,-0.269630134106,0.0262200944126,,-0.00796038887718,-0.00101404560191,0.0804133209731,-0.996729303148
2531692000000,,45102,,2531,684295483,"""map""",,,-0.282073765993,-0.269218474627,0.0260583385825,,-0.00798138360537,-0.00102880391361,0.0804449732563,-0.996726563602
2531724000000,,45103,,2531,716295483,"""map""",,,-0.282067626715,-0.269137531519,0.0258491206914,,-0.00802279584748,-0.00104636367364,0.0804795336721,-0.996723444736
2531756000000,,45104,,2531,748295483,"""map""",,,-0.28221976757,-0.269316792488,0.0256028492004,,-0.0080011649653,-0.00104058264068,0.080514051941,-0.996720873778
2531792000000,,45105,,2531,788294594,"""map""",,,-0.282572388649,-0.26988607645,0.0251801684499,,-0.00795014291245,-0.00106775813834,0.0804874994265,-0.996723318295
2531824000000,,45106,,2531,820294594,"""map""",,,-0.283006519079,-0.270574778318,0.0248974487185,,-0.00798646394697,-0.00107931658227,0.0804589238632,-0.996725425638
2531856000000,,45107,,2531,852294594,"""map""",,,-0.283583402634,-0.271449446678,0.0246440693736,,-0.00795791801819,-0.0010844631076,0.080455636409,-0.996725847106
2531892000000,,45108,,2531,884293706,"""map""",,,-0.283239871264,-0.270937204361,0.0241769701242,,-0.00796176622302,-0.0010905036071,0.0803798563754,-0.996732000546
2531924000000,,45109,,2531,916293706,"""map""",,,-0.28304028511,-0.270739227533,0.0236914977431,,-0.00800661178692,-0.0011173702474,0.0804059452746,-0.996729429588
2531956000000,,45110,,2531,948293706,"""map""",,,-0.283000946045,-0.270806908607,0.0232844632119,,-0.00803562264813,-0.00111926158722,0.0804008876528,-0.996729598176
2531992000000,,45111,,2531,988304818,"""map""",,,-0.283165663481,-0.271242797375,0.0227929335088,,-0.00804287585734,-0.00103902123165,0.0804062403025,-0.996729218854
2532024000000,,45112,,2532,20304818,"""map""",,,-0.283432692289,-0.271845161915,0.0224520936608,,-0.00799844682284,-0.00105102616876,0.0803854619062,-0.996731284049
2532056000000,,45113,,2532,52304818,"""map""",,,-0.283771187067,-0.272655189037,0.0220691934228,,-0.0079403101844,-0.00107441404768,0.0804031635826,-0.996730272525
2532092000000,,45114,,2532,84303930,"""map""",,,-0.283226817846,-0.272060215473,0.0217481572181,,-0.00790364506038,-0.000996652453638,0.0804317812927,-0.996728291623
2532124000000,,45115,,2532,116303930,"""map""",,,-0.282844632864,-0.271787345409,0.0215334910899,,-0.00786479916621,-0.000942562571202,0.0803799828159,-0.99673288563
2532156000000,,45116,,2532,148303930,"""map""",,,-0.282642811537,-0.271816909313,0.0213560070843,,-0.00785434543069,-0.000931044627758,0.0803239696542,-0.996737395343
2532192000000,,45117,,2532,188303042,"""map""",,,-0.282623410225,-0.272209405899,0.0211509224027,,-0.00786433423379,-0.000955344920102,0.0803129693268,-0.996738280426
2532224000000,,45118,,2532,220303042,"""map""",,,-0.282770246267,-0.272778511047,0.020895652473,,-0.00780976591877,-0.000913421318179,0.0803154559908,-0.996738491161
2532256000000,,45119,,2532,252303042,"""map""",,,-0.283019214869,-0.273565858603,0.0206680204719,,-0.00781400661613,-0.000900497052938,0.080327931458,-0.99673756393
2532292000000,,45120,,2532,284302153,"""map""",,,-0.282391905785,-0.272800266743,0.0209405086935,,-0.00777837343135,-0.000931521743254,0.0803047928382,-0.996739544832
2532324000000,,45121,,2532,316302153,"""map""",,,-0.281940937042,-0.272353261709,0.0210501458496,,-0.00778974945845,-0.00108671664691,0.0803089653762,-0.996738996923
2532356000000,,45122,,2532,348302153,"""map""",,,-0.281647235155,-0.272181153297,0.0211414825171,,-0.00778145278547,-0.00109454838747,0.0802976700208,-0.996740008447
2532392000000,,45123,,2532,388301265,"""map""",,,-0.281512409449,-0.272312968969,0.0210760813206,,-0.00776012285812,-0.00110519606435,0.0802835086797,-0.996741272853
2532424000000,,45124,,2532,420301265,"""map""",,,-0.281579762697,-0.27268332243,0.0210573654622,,-0.0077935594677,-0.0011261651093,0.0802760486875,-0.996741652174
2532456000000,,45125,,2532,452301265,"""map""",,,-0.281748861074,-0.273273259401,0.0210399068892,,-0.00777887227881,-0.00112682266599,0.08025809413,-0.996743169461
2532492000000,,45126,,2532,484300376,"""map""",,,-0.281185984612,-0.272471219301,0.0208181086928,,-0.0077827412278,-0.00107939297344,0.0802863746654,-0.996740851384
2532524000000,,45127,,2532,516300376,"""map""",,,-0.280774891376,-0.272032469511,0.020563704893,,-0.00779296282638,-0.00103593529208,0.080281738512,-0.996741272853
2532556000000,,45128,,2532,548300376,"""map""",,,-0.280542105436,-0.271883666515,0.0202066022903,,-0.00774496711482,-0.0010209300262,0.0803142337322,-0.996738954776
2532592000000,,45129,,2532,588299488,"""map""",,,-0.280463606119,-0.272085726261,0.0197123810649,,-0.00773165529613,-0.00107011473986,0.0803289851292,-0.996737858958
2532624000000,,45130,,2532,620299488,"""map""",,,-0.280546575785,-0.27254447341,0.0193520523608,,-0.00775057034076,-0.00104162248245,0.0803498056724,-0.99673608879
2532656000000,,45131,,2532,652299488,"""map""",,,-0.280754834414,-0.273230791092,0.0190206207335,,-0.00779465857848,-0.00103421583237,0.0803488362949,-0.996735793762
2532692000000,,45132,,2532,684298599,"""map""",,,-0.280418276787,-0.272792190313,0.0184900369495,,-0.00775148802254,-0.00100129222897,0.0803140651448,-0.99673903907
2532724000000,,45133,,2532,716298599,"""map""",,,-0.280201524496,-0.27266740799,0.0179599430412,,-0.0077845782377,-0.000971557956616,0.0802756693659,-0.996741862908
2532756000000,,45134,,2532,748298599,"""map""",,,-0.280110061169,-0.272821754217,0.0175571236759,,-0.00778476954488,-0.00098936467084,0.080308459614,-0.99673916551
2532792000000,,45135,,2532,788297711,"""map""",,,-0.280151158571,-0.273372650146,0.017086673528,,-0.0076583438166,-0.0010602263648,0.0803447901974,-0.996737226755
2532824000000,,45136,,2532,820297711,"""map""",,,-0.280328899622,-0.274087190628,0.0166272800416,,-0.00767384562504,-0.00106033469538,0.080315413844,-0.996739460538
2532856000000,,45137,,2532,852297711,"""map""",,,-0.280584007502,-0.2750043571,0.0161832813174,,-0.00767020091047,-0.00109533995797,0.0802998616569,-0.996740682797
2532892000000,,45138,,2532,884296822,"""map""",,,-0.280014485121,-0.274520516396,0.0157218109816,,-0.00767884792913,-0.00101301827248,0.0803273414021,-0.996738406867
2532924000000,,45139,,2532,916296822,"""map""",,,-0.279623389244,-0.27431088686,0.015320549719,,-0.00763459044547,-0.00103341142026,0.0803275942832,-0.996738828335
2532956000000,,45140,,2532,948296822,"""map""",,,-0.279378682375,-0.274386405945,0.0150161385536,,-0.00765038695258,-0.00100982433161,0.0803459703092,-0.996737142461
2532992000000,,45141,,2532,988295934,"""map""",,,-0.279274493456,-0.274814546108,0.0145918410271,,-0.00762259703289,-0.00100665804962,0.0803471082741,-0.996737268902
2533024000000,,45142,,2533,20295934,"""map""",,,-0.279332637787,-0.275422096252,0.0141961015761,,-0.00768335270283,-0.00112430537961,0.0803317246744,-0.996737985398
2533056000000,,45143,,2533,52295934,"""map""",,,-0.279491305351,-0.276231080294,0.0137836989015,,-0.00766157792868,-0.00109961325328,0.0802929074269,-0.996741314999
2533092000000,,45144,,2533,84295045,"""map""",,,-0.278962641954,-0.275699585676,0.0135327717289,,-0.00766145609794,-0.00109694812366,0.0803190806198,-0.99673916551
2533124000000,,45145,,2533,116295045,"""map""",,,-0.278581768274,-0.275454580784,0.0132648609579,,-0.0077266345528,-0.00114115259448,0.0802736463171,-0.996742284377
