rosbagTimestamp,header,seq,stamp,secs,nsecs,frame_id,pose,position,x,y,z,orientation,x,y,z,w
2394952000000,,10568,,2394,944292307,"""map""",,,0.296636670828,-0.140119612217,-0.0232729855925,,-0.00136613774019,-0.0124002333883,0.0521638057028,-0.998560668009
2394984000000,,10569,,2394,976292307,"""map""",,,0.296857893467,-0.139799386263,-0.0232534538954,,-0.00137634748497,-0.0122225821169,0.0521872393506,-0.99856159524
2395016000000,,10570,,2395,8291512,"""map""",,,0.297090023756,-0.139486134052,-0.0231174789369,,-0.00136819997232,-0.0122281349642,0.0521922548255,-0.998561300212
2395052000000,,10571,,2395,48291512,"""map""",,,0.297452718019,-0.139024659991,-0.0230391398072,,-0.00136760629444,-0.0122332054276,0.0522082284811,-0.998560415128
2395084000000,,10572,,2395,80291512,"""map""",,,0.297832131386,-0.138610109687,-0.0229307413101,,-0.00136305180063,-0.0123192732435,0.0521975653284,-0.998559867219
2395116000000,,10573,,2395,112290717,"""map""",,,0.298254221678,-0.138136014342,-0.0227904934436,,-0.00134614004839,-0.0123638320113,0.0521442917119,-0.998562143149
2395152000000,,10574,,2395,144290717,"""map""",,,0.29872033,-0.13762229681,-0.0227131061256,,-0.00137577092925,-0.0123877197255,0.0521065702825,-0.998563786876
2395184000000,,10575,,2395,176290717,"""map""",,,0.299144715071,-0.137222513556,-0.0224672500044,,-0.0013693560472,-0.0123871974997,0.0521385597405,-0.998562143149
2395216000000,,10576,,2395,208289922,"""map""",,,0.299568295479,-0.136819064617,-0.0221456903964,,-0.0013639517017,-0.0124177938068,0.0521592116963,-0.998560710156
2395252000000,,10577,,2395,248289922,"""map""",,,0.30018606782,-0.136277392507,-0.0216567851603,,-0.0013704989512,-0.0124534684799,0.0521721086319,-0.998559530044
2395284000000,,10578,,2395,280289922,"""map""",,,0.300786465406,-0.135827153921,-0.021188672632,,-0.00130887960013,-0.0125328448251,0.0521466519354,-0.998559951513
2395316000000,,10579,,2395,312289126,"""map""",,,0.301480650902,-0.135330155492,-0.0206052362919,,-0.00136104883751,-0.0125643449846,0.0521313526294,-0.998560246541
2395352000000,,10580,,2395,344289126,"""map""",,,0.302246361971,-0.134793713689,-0.0200168974698,,-0.00141752363888,-0.0125951905508,0.0520840217186,-0.998562311736
2395384000000,,10581,,2395,376289126,"""map""",,,0.302698850632,-0.134322285652,-0.0191175695509,,-0.00139079265875,-0.0125767480118,0.0520561626517,-0.998564039757
2395416000000,,10582,,2395,408288331,"""map""",,,0.303112745285,-0.133870229125,-0.018205286935,,-0.00144475247865,-0.0125841526863,0.0520439822125,-0.998564503372
2395452000000,,10583,,2395,448288331,"""map""",,,0.303739309311,-0.133270785213,-0.0170852635056,,-0.00142716999883,-0.0126105873214,0.0520619789168,-0.998563281114
2395484000000,,10584,,2395,480288331,"""map""",,,0.304334610701,-0.132742241025,-0.0163861997426,,-0.00142258982178,-0.0126130996687,0.0520468481982,-0.99856399761
2395516000000,,10585,,2395,512287535,"""map""",,,0.304988235235,-0.132174402475,-0.0156570672989,,-0.00139985093846,-0.0124459590969,0.0520393039123,-0.998566568568
2395552000000,,10586,,2395,544287535,"""map""",,,0.305737733841,-0.131602153182,-0.014843554236,,-0.00143537019504,-0.012420362789,0.0520596186933,-0.998565725631
2395584000000,,10587,,2395,576287535,"""map""",,,0.306124091148,-0.131118252873,-0.0139229223132,,-0.00148276399692,-0.0124879429557,0.0520416219889,-0.998565767778
2395616000000,,10588,,2395,608286738,"""map""",,,0.306453883648,-0.130631357431,-0.0131215201691,,-0.0014674268246,-0.0125204497004,0.0520497984776,-0.998564924841
2395652000000,,10589,,2395,648286738,"""map""",,,0.306969314814,-0.129984214902,-0.0120667060837,,-0.00145689142957,-0.0125391418277,0.0520408633457,-0.998565177722
2395684000000,,10590,,2395,680286738,"""map""",,,0.307447582483,-0.129407405853,-0.0112381037325,,-0.00141476565448,-0.0125411490714,0.0520617260357,-0.998564124051
2395716000000,,10591,,2395,712285942,"""map""",,,0.308016270399,-0.128805339336,-0.0105380266905,,-0.00141113641569,-0.0124831424955,0.0520549403931,-0.998565262016
2395752000000,,10592,,2395,744285942,"""map""",,,0.308599084616,-0.128167778254,-0.0099122505635,,-0.00143733265768,-0.0125212939544,0.052033824822,-0.998565809925
2395784000000,,10593,,2395,776285942,"""map""",,,0.308855444193,-0.127988547087,-0.00906416866928,,-0.00147859541019,-0.0125183650777,0.0520640862592,-0.998564208344
2395816000000,,10594,,2395,808285146,"""map""",,,0.309074431658,-0.127870127559,-0.00806389190257,,-0.00141498099853,-0.0125042896767,0.0520690595873,-0.998564208344
2395852000000,,10595,,2395,848285146,"""map""",,,0.309471994638,-0.127630010247,-0.00682895630598,,-0.00139579232866,-0.0125046663642,0.0520752551741,-0.998563913316
2395884000000,,10596,,2395,880285146,"""map""",,,0.309879094362,-0.127347558737,-0.00588137796149,,-0.00134929842785,-0.0125695428764,0.0520757609362,-0.998563154673
2395916000000,,10597,,2395,912284349,"""map""",,,0.310360848904,-0.126974239945,-0.00491954572499,,-0.00129985490619,-0.0125935086281,0.0521278122942,-0.998560162247
2395952000000,,10598,,2395,952284349,"""map""",,,0.31110611558,-0.126411378384,-0.00400218274444,,-0.00128921085131,-0.0126186577843,0.0521772505475,-0.998557338408
2395984000000,,10599,,2395,976284349,"""map""",,,0.311019539833,-0.126283109188,-0.00350803369656,,-0.00132876435155,-0.0125833387253,0.0522465821133,-0.998554093101
2396016000000,,10600,,2396,8283552,"""map""",,,0.310990691185,-0.126033142209,-0.00292641948909,,-0.00137315749538,-0.0125321744268,0.0522261830386,-0.998555694681
2396052000000,,10601,,2396,48283552,"""map""",,,0.311131536961,-0.12561377883,-0.00217786408029,,-0.00138779430561,-0.0125318859843,0.0521946993427,-0.998557338408
2396084000000,,10602,,2396,80283552,"""map""",,,0.311326861382,-0.125182211399,-0.00156493508257,,-0.00142100931496,-0.0125025221432,0.0521732887437,-0.998558855695
2396116000000,,10603,,2396,112294755,"""map""",,,0.311612337828,-0.124689608812,-0.000760235998314,,-0.00140367313079,-0.0122310694385,0.0521646486398,-0.998562606764
2396152000000,,10604,,2396,144294755,"""map""",,,0.312008202076,-0.124129787087,0.000182612449862,,-0.00144813542179,-0.0122027757323,0.0522307348982,-0.998559487897
2396184000000,,10605,,2396,176294755,"""map""",,,0.311888247728,-0.123679064214,0.000820679357275,,-0.0014215891634,-0.012194689135,0.0522868745004,-0.998556621912
2396216000000,,10606,,2396,208293957,"""map""",,,0.311687797308,-0.123212575912,0.00126363174058,,-0.00142413740137,-0.0122591846792,0.0522699314673,-0.998556790499
2396252000000,,10607,,2396,248293957,"""map""",,,0.311604559422,-0.122538648546,0.00187191390432,,-0.00140290724352,-0.0122623983764,0.0522575824407,-0.998557422702
2396284000000,,10608,,2396,280293957,"""map""",,,0.311641573906,-0.121938459575,0.00241369218566,,-0.00135686477498,-0.0122723486546,0.0522587204056,-0.998557296261
2396316000000,,10609,,2396,312293160,"""map""",,,0.311773359776,-0.121257916093,0.00294705363922,,-0.00134931028165,-0.0123031708425,0.0522611649228,-0.998556790499
2396352000000,,10610,,2396,344293160,"""map""",,,0.312031924725,-0.120512910187,0.00355405150913,,-0.00130965668265,-0.012320755298,0.0522298076675,-0.998558223492
2396384000000,,10611,,2396,376293160,"""map""",,,0.311946421862,-0.12007535249,0.00421281391755,,-0.00132730962673,-0.0123655666176,0.0522480993998,-0.998556706205
2396416000000,,10612,,2396,408292362,"""map""",,,0.311833292246,-0.119656294584,0.00484963972121,,-0.00130031457026,-0.0123897694453,0.0522369304849,-0.998557085527
2396452000000,,10613,,2396,448292362,"""map""",,,0.31183630228,-0.119006872177,0.00557006569579,,-0.00130015125122,-0.0124266044738,0.0522485208683,-0.998555947562
2396484000000,,10614,,2396,480292362,"""map""",,,0.311971992254,-0.118395343423,0.0061423657462,,-0.00131843771512,-0.0124152340443,0.0522607013075,-0.998555483947
2396516000000,,10615,,2396,512291564,"""map""",,,0.312222063541,-0.117728516459,0.00680219056085,,-0.00131667808419,-0.012423706878,0.0522897404861,-0.99855384022
2396552000000,,10616,,2396,544291564,"""map""",,,0.312557846308,-0.116964884102,0.00752945337445,,-0.0013032892158,-0.0124336528757,0.0523047869111,-0.998552955136
2396584000000,,10617,,2396,576291564,"""map""",,,0.312489777803,-0.116604156792,0.00842181406915,,-0.00134316935412,-0.0124398787555,0.0523138063366,-0.99855236508
2396616000000,,10618,,2396,612290766,"""map""",,,0.312368810177,-0.116296097636,0.00940071325749,,-0.00137385719891,-0.0124187793187,0.0523595778141,-0.998550173444
2396652000000,,10619,,2396,644290766,"""map""",,,0.31236577034,-0.115871883929,0.0103622339666,,-0.00137127998498,-0.0124167348673,0.0523405274386,-0.998551184968
2396684000000,,10620,,2396,676290766,"""map""",,,0.312437832355,-0.115363806486,0.0112982243299,,-0.00136828591238,-0.0123848300322,0.0524023147185,-0.998548318982
2396716000000,,10621,,2396,708289967,"""map""",,,0.312567651272,-0.114771604538,0.0119779044762,,-0.00139944066523,-0.0123522870676,0.0523331938869,-0.99855236508
2396752000000,,10622,,2396,748289967,"""map""",,,0.312861353159,-0.113931193948,0.0127170551568,,-0.00146072284151,-0.0123401191407,0.0523348797609,-0.998552280786
2396784000000,,10623,,2396,780289967,"""map""",,,0.312734901905,-0.113715596497,0.0132806291804,,-0.00142306397382,-0.0123492208843,0.0522684563276,-0.998555736828
2396816000000,,10624,,2396,812289169,"""map""",,,0.31259265542,-0.113561034203,0.013870600611,,-0.00140417428316,-0.0123680341838,0.052242198841,-0.998556874793
2396852000000,,10625,,2396,844289169,"""map""",,,0.312577992678,-0.113303430378,0.0144691774622,,-0.00140110645357,-0.0123114892475,0.0522409765824,-0.998557675583
2396884000000,,10626,,2396,876289169,"""map""",,,0.312664031982,-0.112951330841,0.0151085937396,,-0.0013870136011,-0.012290752998,0.0522091978586,-0.998559614338
2396916000000,,10627,,2396,908288370,"""map""",,,0.312857419252,-0.112502999604,0.0156840384007,,-0.00141392732732,-0.0122771510905,0.0522398386175,-0.998558139198
2396952000000,,10628,,2396,948288370,"""map""",,,0.313253253698,-0.111802056432,0.0163008384407,,-0.00141093127908,-0.0122829130256,0.0522821540534,-0.998555863268
2396984000000,,10629,,2396,980288370,"""map""",,,0.313219606876,-0.111598543823,0.0165950842202,,-0.00141653812702,-0.0122762735799,0.0523643825548,-0.998551606437
2397016000000,,10630,,2397,12287570,"""map""",,,0.313148438931,-0.111441388726,0.0167674049735,,-0.00134536691714,-0.0122222106978,0.0524225452058,-0.998549330507
2397052000000,,10631,,2397,44287570,"""map""",,,0.313183277845,-0.111182957888,0.0169407278299,,-0.00131679497584,-0.0122134616047,0.0524716462843,-0.998546843843
2397084000000,,10632,,2397,76287570,"""map""",,,0.313342750072,-0.110828250647,0.017164984718,,-0.00130674723301,-0.0121672630611,0.0525275751523,-0.998544525766
2397116000000,,10633,,2397,108286771,"""map""",,,0.313591569662,-0.110401935875,0.0173734407872,,-0.0012617011423,-0.0121759482754,0.0525802165661,-0.998541701927
2397152000000,,10634,,2397,148286771,"""map""",,,0.314048975706,-0.1097195521,0.0175441224128,,-0.00128390429966,-0.0121883608515,0.0526200874848,-0.998539425997
2397184000000,,10635,,2397,180286771,"""map""",,,0.314030706882,-0.109556399286,0.0177779179066,,-0.00129705609203,-0.0120858050568,0.0526585254106,-0.998538667354
2397216000000,,10636,,2397,212285972,"""map""",,,0.313964188099,-0.109416216612,0.01802681759,,-0.00131850883792,-0.0120507138541,0.0526407394405,-0.998540016053
2397252000000,,10637,,2397,244285972,"""map""",,,0.313977956772,-0.109137669206,0.0183274876326,,-0.00133936099123,-0.0120682416747,0.052658693998,-0.998538751648
2397284000000,,10638,,2397,276285972,"""map""",,,0.31412088871,-0.108738474548,0.0185564868152,,-0.00132006267369,-0.0120353147786,0.0526801888907,-0.998538077298
2397316000000,,10639,,2397,308285172,"""map""",,,0.314353436232,-0.108230553567,0.0188144724816,,-0.00138798133225,-0.0120183780017,0.0527061513494,-0.998536812893
2397352000000,,10640,,2397,348285172,"""map""",,,0.31475687027,-0.107429683208,0.0189881101251,,-0.00138520721351,-0.0119828327326,0.05270627779,-0.998537276508
2397384000000,,10641,,2397,380285172,"""map""",,,0.314645320177,-0.10731292516,0.0190014634281,,-0.0013640620079,-0.0119433483795,0.0526919057146,-0.998538498767
2397416000000,,10642,,2397,412296372,"""map""",,,0.314451754093,-0.107272483408,0.0189881101251,,-0.00137834847246,-0.0118899641275,0.0526849936315,-0.998539510291
2397452000000,,10643,,2397,444296372,"""map""",,,0.314340472221,-0.107128061354,0.0188952088356,,-0.00135680978651,-0.0119014718635,0.0526707058498,-0.998540142494
2397484000000,,10644,,2397,476296372,"""map""",,,0.314336359501,-0.106841318309,0.0189189873636,,-0.0013583787688,-0.0119415466017,0.0526565023619,-0.998540353228
2397516000000,,10645,,2397,508295572,"""map""",,,0.314454495907,-0.106413289905,0.0190457645804,,-0.0013520320461,-0.0119190016598,0.0526307084906,-0.998542039102
2397552000000,,10646,,2397,548295572,"""map""",,,0.314718842506,-0.105740092695,0.0191947314888,,-0.00140637974871,-0.011924220625,0.052655069369,-0.998540606109
2397584000000,,10647,,2397,580295572,"""map""",,,0.314531266689,-0.105668380857,0.0193575527519,,-0.00143592765297,-0.0119434945764,0.0526612649558,-0.998539973906
2397616000000,,10648,,2397,612294772,"""map""",,,0.314335882664,-0.105654619634,0.0194824878126,,-0.00147521213778,-0.0119159967212,0.0526755105906,-0.998539552438
2397652000000,,10649,,2397,644294772,"""map""",,,0.31426602602,-0.10550416261,0.0196025259793,,-0.00144433397361,-0.0119201050511,0.0526654796406,-0.9985400582
2397684000000,,10650,,2397,676294772,"""map""",,,0.314285576344,-0.105236232281,0.0196394175291,,-0.00148029313793,-0.0119435307964,0.0526922428894,-0.998538330179
2397716000000,,10651,,2397,708293971,"""map""",,,0.314363926649,-0.104855582118,0.0197711326182,,-0.00144894707789,-0.0119416677739,0.0527107453559,-0.998537360802
2397752000000,,10652,,2397,748293971,"""map""",,,0.314506709576,-0.104208722711,0.0198905263096,,-0.00145589110046,-0.0116846981093,0.0527141592506,-0.998540268934
2397784000000,,10653,,2397,780293971,"""map""",,,0.314461678267,-0.104230552912,0.0200037658215,,-0.0014054044443,-0.011692254249,0.0527609843993,-0.99853778227
2397816000000,,10654,,2397,812293170,"""map""",,,0.314429461956,-0.104276381433,0.0201474260539,,-0.00139820457719,-0.0117053375527,0.0528135415194,-0.998534789844
2397852000000,,10655,,2397,844293170,"""map""",,,0.314445108175,-0.104156963527,0.0202510803938,,-0.00134923882957,-0.0116800853343,0.0528450252153,-0.998533567585
2397884000000,,10656,,2397,876293170,"""map""",,,0.314504742622,-0.103904627264,0.0203605685383,,-0.00132217199175,-0.0117288577991,0.052829810203,-0.99853377832
2397912000000,,10657,,2397,908292369,"""map""",,,0.314607977867,-0.103476658463,0.0205029491335,,-0.00131550027734,-0.0118198798454,0.0529176442352,-0.998528046348
2397952000000,,10658,,2397,948292369,"""map""",,,0.314787060022,-0.102752439678,0.0207235272974,,-0.00130673406212,-0.0118084603543,0.0529221960949,-0.998527962055
2397984000000,,10659,,2397,980292369,"""map""",,,0.314520269632,-0.102497316897,0.0207963306457,,-0.00126839294232,-0.011803921007,0.0529331964223,-0.998527498439
2398016000000,,10660,,2398,12291568,"""map""",,,0.314186811447,-0.102265052497,0.0207086671144,,-0.00122722271532,-0.0118323352269,0.0529613505172,-0.998525728272
2398052000000,,10661,,2398,44291568,"""map""",,,0.313942193985,-0.101899579167,0.0205230861902,,-0.00124926584636,-0.0118063921953,0.0529887881155,-0.998524590307
2398084000000,,10662,,2398,76291568,"""map""",,,0.313796371222,-0.101447559893,0.020438997075,,-0.00121605445901,-0.0118263563013,0.0529994091214,-0.998523831663
2398116000000,,10663,,2398,108290766,"""map""",,,0.313716560602,-0.100894078612,0.0204204805195,,-0.00120298300907,-0.0118395449722,0.0530959254044,-0.998518521161
2398152000000,,10664,,2398,148290766,"""map""",,,0.313726335764,-0.100087583065,0.0204631127417,,-0.00120951939258,-0.0118399654528,0.0530965576072,-0.998518479014
2398184000000,,10665,,2398,180290766,"""map""",,,0.313436567783,-0.100299224257,0.0202295426279,,-0.00120371135929,-0.0118479098045,0.0531156079827,-0.998517383196
2398216000000,,10666,,2398,212289964,"""map""",,,0.31308183074,-0.10066075623,0.0198960155249,,-0.00122564846467,-0.0118150579825,0.0531554367545,-0.998515655175
2398252000000,,10667,,2398,244289964,"""map""",,,0.312826156616,-0.100849956274,0.0197013355792,,-0.00123513907885,-0.0118155890986,0.0531619695161,-0.998515275853
2398284000000,,10668,,2398,276289964,"""map""",,,0.312675893307,-0.100889138877,0.0195188112557,,-0.00124640842174,-0.0117559628325,0.0531923573938,-0.998514306476
2398316000000,,10669,,2398,308289162,"""map""",,,0.312620013952,-0.100790843368,0.0193169079721,,-0.00120360302872,-0.0117262282309,0.0531638661242,-0.998516245231
2398352000000,,10670,,2398,348289162,"""map""",,,0.312627673149,-0.100481033325,0.0193137302995,,-0.00122273835649,-0.0117195314918,0.0531991430365,-0.998514432916
2398384000000,,10671,,2398,380289162,"""map""",,,0.312345206738,-0.100789047778,0.0192931164056,,-0.0012527390101,-0.0116458706544,0.0532412477381,-0.99851304207
2398416000000,,10672,,2398,412288360,"""map""",,,0.312028288841,-0.101180456579,0.0193460211158,,-0.00124414434572,-0.0116890112466,0.0532472325906,-0.998512199133
2398452000000,,10673,,2398,444288360,"""map""",,,0.311804533005,-0.101421378553,0.0194859635085,,-0.0012270544572,-0.0117133741006,0.0532297416485,-0.998512831336
2398484000000,,10674,,2398,476288360,"""map""",,,0.311641305685,-0.101482234895,0.0196667108685,,-0.00122759545151,-0.0116896892181,0.0532086682242,-0.998514264329
2398516000000,,10675,,2398,508287558,"""map""",,,0.311556100845,-0.101381368935,0.0200479030609,,-0.00127161882259,-0.0116448900816,0.0531689237461,-0.998516835287
2398552000000,,10676,,2398,548287558,"""map""",,,0.311571896076,-0.10106882453,0.0205466859043,,-0.00125353025132,-0.0116117741832,0.0531915987506,-0.998516076643
2398584000000,,10677,,2398,580287558,"""map""",,,0.311677515507,-0.100652240217,0.0208940990269,,-0.00135309493694,-0.0116185789236,0.0531989323022,-0.998515486587
2398616000000,,10678,,2398,612286755,"""map""",,,0.31184437871,-0.100140422583,0.0211291629821,,-0.0013847883792,-0.0116708275156,0.0531513063634,-0.998517341049
2398652000000,,10679,,2398,644286755,"""map""",,,0.312051922083,-0.0995215848088,0.0210934020579,,-0.00137526549635,-0.0116411749028,0.0531343211834,-0.998518563307
2398684000000,,10680,,2398,676286755,"""map""",,,0.311799377203,-0.0995646640658,0.0207685977221,,-0.00135346009987,-0.0116015525846,0.0531053662985,-0.998520628503
2398716000000,,10681,,2398,708297953,"""map""",,,0.311437219381,-0.0996866673231,0.020436597988,,-0.00141275610591,-0.0115557778144,0.0530383949562,-0.998524632454
2398752000000,,10682,,2398,748297953,"""map""",,,0.311076819897,-0.0996260643005,0.020167497918,,-0.00141580352062,-0.0115610544023,0.0530407973266,-0.998524421719
2398784000000,,10683,,2398,780297953,"""map""",,,0.310846984386,-0.0994105637074,0.0200768392533,,-0.00143654866044,-0.011578342842,0.0529983133033,-0.998526444768
2398816000000,,10684,,2398,812297150,"""map""",,,0.31069919467,-0.0990357324481,0.0201040804386,,-0.00139734122534,-0.0115012341948,0.0529965852825,-0.998527498439
2398852000000,,10685,,2398,844297150,"""map""",,,0.310597002506,-0.0985374897718,0.0202997177839,,-0.00138974326808,-0.0114738291944,0.0530084285469,-0.998527203411
2398884000000,,10686,,2398,876297150,"""map""",,,0.310151875019,-0.0986977517605,0.0206076055765,,-0.00134429513595,-0.0115249197359,0.0530550429614,-0.998524168838
2398916000000,,10687,,2398,908296346,"""map""",,,0.309626489878,-0.0989342108369,0.0208829212934,,-0.00131289079473,-0.0112917630406,0.0530560123389,-0.99852682409
2398952000000,,10688,,2398,948296346,"""map""",,,0.309057444334,-0.0989752560854,0.021242884919,,-0.00128937647525,-0.0112829428248,0.0530642731212,-0.998526571209
2398984000000,,10689,,2398,980296346,"""map""",,,0.308620125055,-0.0987969040871,0.0214922465384,,-0.00128331424378,-0.0112454225807,0.0530943238242,-0.99852534895
2399016000000,,10690,,2399,12295543,"""map""",,,0.308207809925,-0.0984523966908,0.0217274967581,,-0.00124647032492,-0.0112978819069,0.053076580001,-0.998525812565
2399052000000,,10691,,2399,44295543,"""map""",,,0.307867199183,-0.0979693159461,0.022030364722,,-0.00129998233455,-0.0112886267224,0.0530851779581,-0.998525306803
2399084000000,,10692,,2399,76295543,"""map""",,,0.30726391077,-0.0980411544442,0.0218824446201,,-0.00130290396726,-0.0112703596856,0.0531000136488,-0.998524801041
2399116000000,,10693,,2399,108294739,"""map""",,,0.306629389524,-0.0981115922332,0.0216350723058,,-0.00130910054181,-0.0112900623494,0.0530945345584,-0.998524885335
2399152000000,,10694,,2399,148294739,"""map""",,,0.305899292231,-0.0979400128126,0.021433847025,,-0.00127542257567,-0.011284344866,0.0530383106625,-0.998527919908
2399184000000,,10695,,2399,180294739,"""map""",,,0.305370926857,-0.0976299345493,0.0213174764067,,-0.00127848842963,-0.011299137422,0.0530141605183,-0.998529057873
2399216000000,,10696,,2399,212293935,"""map""",,,0.304890543222,-0.0971755310893,0.0211935322732,,-0.00122488916285,-0.0112930396292,0.0530480465845,-0.998527371999
2399252000000,,10697,,2399,244293935,"""map""",,,0.304429352283,-0.0965986177325,0.0211095418781,,-0.00124271365778,-0.0112918170413,0.0530456020673,-0.998527540586
2399284000000,,10698,,2399,276293935,"""map""",,,0.303966403008,-0.0963842496276,0.021071376279,,-0.00131985358581,-0.0113193040305,0.0530581618282,-0.998526444768
2399316000000,,10699,,2399,308293131,"""map""",,,0.303532570601,-0.0961679592729,0.0209376905113,,-0.00139161386376,-0.0113847356957,0.0530711430575,-0.998524927482
2399352000000,,10700,,2399,348293131,"""map""",,,0.302988469601,-0.0957157462835,0.0205140449107,,-0.00139288683029,-0.0114264261729,0.0530754841829,-0.998524126691
2399384000000,,10701,,2399,380293131,"""map""",,,0.302552044392,-0.095196582377,0.0201501455158,,-0.00138926253059,-0.0114573642646,0.053109960305,-0.998522019349
2399416000000,,10702,,2399,412292326,"""map""",,,0.302138149738,-0.0945316404104,0.0198740363121,,-0.00137521906896,-0.0114865160543,0.0530774650848,-0.998523410195
2399452000000,,10703,,2399,444292326,"""map""",,,0.301738113165,-0.0937387570739,0.019683200866,,-0.00139907352667,-0.0114841169767,0.053082143385,-0.998523199461
2399484000000,,10704,,2399,476292326,"""map""",,,0.301190823317,-0.0936822891235,0.0194736104459,,-0.00139923124808,-0.0114707040714,0.0530800360426,-0.998523452342
2399516000000,,10705,,2399,508291522,"""map""",,,0.300611287355,-0.093716584146,0.0192746277899,,-0.00140409427,-0.0114620478331,0.0531023738723,-0.998522356524
2399552000000,,10706,,2399,548291522,"""map""",,,0.29988309741,-0.0935174077749,0.0189671441913,,-0.00140150190954,-0.0114248720078,0.053123025828,-0.998521682174
2399584000000,,10707,,2399,580291522,"""map""",,,0.299298405647,-0.093160957098,0.018646819517,,-0.00138567774356,-0.0113711802156,0.0531585556213,-0.998520375622
2399616000000,,10708,,2399,612290717,"""map""",,,0.298747569323,-0.0926283299923,0.0184519197792,,-0.00139021445668,-0.0113388002407,0.0531561111041,-0.998520881384
2399652000000,,10709,,2399,644290717,"""map""",,,0.298189848661,-0.0919353738427,0.018303077668,,-0.00144161220916,-0.0113522256583,0.0531438463712,-0.998521344999
2399684000000,,10710,,2399,676290717,"""map""",,,0.297488957644,-0.0916398242116,0.018270181492,,-0.00140805475667,-0.0113516362609,0.0531775217032,-0.998519616979
2399716000000,,10711,,2399,708289912,"""map""",,,0.296753823757,-0.0913695991039,0.01814818196,,-0.0013995858743,-0.011354255951,0.0531615901944,-0.998520459916
2399752000000,,10712,,2399,748289912,"""map""",,,0.295799672604,-0.090804412961,0.0181547775865,,-0.00139848248297,-0.0113751235801,0.0531351641204,-0.998521597881
2399784000000,,10713,,2399,780289912,"""map""",,,0.295010447502,-0.0902099236846,0.0182444043458,,-0.00139729381014,-0.0113547949697,0.0531081901374,-0.998523283754
2399816000000,,10714,,2399,812289106,"""map""",,,0.294207066298,-0.0894854739308,0.0183078143746,,-0.00141091646183,-0.0113217636942,0.0531025846065,-0.998523915957
2399852000000,,10715,,2399,844289106,"""map""",,,0.293365627527,-0.0886541679502,0.0181644111872,,-0.00143014991273,-0.0112709899127,0.0530864845104,-0.998525264656
2399884000000,,10716,,2399,876289106,"""map""",,,0.2925362885,-0.0886737629771,0.0180522557348,,-0.00140553055557,-0.0112432944941,0.0530965154603,-0.998525096069
2399916000000,,10717,,2399,908288301,"""map""",,,0.291683971882,-0.0888576209545,0.0180569179356,,-0.00141249598083,-0.0112504008479,0.0530913735448,-0.998525264656
2399952000000,,10718,,2399,948288301,"""map""",,,0.290558308363,-0.0888159349561,0.0183079913259,,-0.00141234813759,-0.011225837467,0.053105787767,-0.998524843188
2399984000000,,10719,,2399,980288301,"""map""",,,0.289624392986,-0.088553711772,0.018626190722,,-0.0014579958087,-0.0111752796881,0.0531101288924,-0.998525053922
2400016000000,,10720,,2400,12299495,"""map""",,,0.288635492325,-0.088115401566,0.0189787186682,,-0.00144820094697,-0.011137212852,0.0530749362739,-0.998527371999
2400052000000,,10721,,2400,44299495,"""map""",,,0.287630796432,-0.0875120609999,0.0194533411413,,-0.00141382327729,-0.0111730867348,0.0530797410146,-0.998526781943
2400084000000,,10722,,2400,76299495,"""map""",,,0.286626428366,-0.0875613540411,0.0203000977635,,-0.00144402742115,-0.0111912737585,0.0530898141114,-0.998525981153
2400116000000,,10723,,2400,108298689,"""map""",,,0.285614460707,-0.087677910924,0.0214176662266,,-0.00147026778561,-0.0111738684272,0.0530860630419,-0.998526360474
2400152000000,,10724,,2400,148298689,"""map""",,,0.284299194813,-0.0875365361571,0.0227750353515,,-0.00147737183449,-0.0111387591145,0.0530896876709,-0.998526529062
2400184000000,,10725,,2400,180298689,"""map""",,,0.283205509186,-0.0872185751796,0.0239190142602,,-0.00152186244291,-0.0111859800485,0.0531263975759,-0.998524042398
2400216000000,,10726,,2400,212297883,"""map""",,,0.282052338123,-0.086757555604,0.025007776916,,-0.0015710527542,-0.0110739593228,0.0530728710783,-0.998528004201
2400252000000,,10727,,2400,244297883,"""map""",,,0.280857652426,-0.0861537009478,0.0258658584207,,-0.00158093158037,-0.01102440319,0.0530724496098,-0.998528594257
2400284000000,,10728,,2400,276297883,"""map""",,,0.279909282923,-0.0862542167306,0.0266166757792,,-0.00160474092778,-0.0110496224812,0.0530878753564,-0.998527414146
2400316000000,,10729,,2400,308297077,"""map""",,,0.279004275799,-0.0864320248365,0.0273359306157,,-0.00165114296163,-0.0110156471822,0.0530739247495,-0.998528467817
2400352000000,,10730,,2400,348297077,"""map""",,,0.277757227421,-0.0863423869014,0.0281186588109,,-0.00168757166818,-0.0109977025029,0.0531333096591,-0.998525475391
2400384000000,,10731,,2400,380297077,"""map""",,,0.276689678431,-0.0860558971763,0.0285352449864,,-0.0016933602744,-0.0110102675321,0.0530672234006,-0.998528847138
2400416000000,,10732,,2400,412296270,"""map""",,,0.275573283434,-0.0856204554439,0.0290303267539,,-0.00168629903092,-0.0110317429978,0.0530244864962,-0.998530870187
2400452000000,,10733,,2400,444296270,"""map""",,,0.274374783039,-0.0850481763482,0.0294109433889,,-0.00171234940529,-0.0108289010819,0.0529643850902,-0.998536264984
2400484000000,,10734,,2400,476296270,"""map""",,,0.273545056581,-0.0851811096072,0.0297712292522,,-0.00161070075558,-0.0108086070451,0.0529162533892,-0.998539215263
2400516000000,,10735,,2400,508295463,"""map""",,,0.272783845663,-0.0853783637285,0.0300572123379,,-0.00160674553726,-0.0108551898494,0.0529046630059,-0.998539341704
2400552000000,,10736,,2400,548295463,"""map""",,,0.271745026112,-0.0853572785854,0.0303877405822,,-0.00160588613668,-0.0108762665664,0.0529047472996,-0.998539088823
2400584000000,,10737,,2400,580295463,"""map""",,,0.270813107491,-0.0851346030831,0.0306890904903,,-0.00160444952184,-0.0109438052448,0.0529759333267,-0.99853457911
2400616000000,,10738,,2400,612294656,"""map""",,,0.269777327776,-0.0847569331527,0.0310086477548,,-0.00157063820043,-0.0109878924947,0.0530356132642,-0.998530954481
2400652000000,,10739,,2400,644294656,"""map""",,,0.268692821264,-0.0842675194144,0.0312683843076,,-0.00156393685152,-0.0109748678014,0.0530760742388,-0.998528931432
2400684000000,,10740,,2400,676294656,"""map""",,,0.268000900745,-0.0844819173217,0.0312077384442,,-0.0015703217698,-0.0110450004866,0.0531376507845,-0.998524927482
2400716000000,,10741,,2400,708293849,"""map""",,,0.267324537039,-0.0847213864326,0.0310488007963,,-0.00151811104412,-0.0110514634424,0.0531397159801,-0.998524801041
2400752000000,,10742,,2400,748293849,"""map""",,,0.266332358122,-0.0847154706717,0.0308145713061,,-0.00151699612826,-0.0110679803972,0.0531457008325,-0.998524295279
2400784000000,,10743,,2400,780293849,"""map""",,,0.265431135893,-0.0844863206148,0.0305548161268,,-0.00149570307942,-0.0110557522135,0.0531332675122,-0.998525180363
2400816000000,,10744,,2400,812293041,"""map""",,,0.264450192451,-0.084067940712,0.030336195603,,-0.00158485420073,-0.0110780320913,0.0531468809443,-0.998524042398
2400852000000,,10745,,2400,844293041,"""map""",,,0.263389736414,-0.0834939479828,0.0299926958978,,-0.00158598821437,-0.0110431081589,0.0531497047831,-0.998524253132
2400884000000,,10746,,2400,876293041,"""map""",,,0.262748360634,-0.0835307538509,0.0292734783143,,-0.00156706493793,-0.0110835329136,0.0531175045909,-0.998525517537
2400916000000,,10747,,2400,908292233,"""map""",,,0.262124150991,-0.0835785940289,0.0284247603267,,-0.00161013572439,-0.0110788592232,0.0531432141685,-0.998524168838
2400952000000,,10748,,2400,948292233,"""map""",,,0.261149287224,-0.0833526477218,0.0274212602526,,-0.00157305143678,-0.0111170380118,0.0531555210482,-0.998523157314
2400984000000,,10749,,2400,980292233,"""map""",,,0.260228842497,-0.0829845964909,0.0267170947045,,-0.00154727995601,-0.0111165098591,0.0531531608247,-0.998523325901
2401016000000,,10750,,2401,12291425,"""map""",,,0.259180694818,-0.0824708193541,0.0260500870645,,-0.00154025624956,-0.0110855605721,0.0531912615758,-0.998521640027
2401052000000,,10751,,2401,44291425,"""map""",,,0.25797906518,-0.0818480476737,0.0254056528211,,-0.00155147817725,-0.0110737446373,0.0531695138019,-0.998522904433
2401084000000,,10752,,2401,76291425,"""map""",,,0.25737965107,-0.0819876492023,0.025093248114,,-0.00153108568801,-0.0111237492389,0.053117757472,-0.998525096069
2401116000000,,10753,,2401,108290617,"""map""",,,0.256860822439,-0.0822079926729,0.0251046977937,,-0.0015234004736,-0.0112513198468,0.0531074736409,-0.998524253132
2401152000000,,10754,,2401,148290617,"""map""",,,0.256004363298,-0.0822141692042,0.0251377876848,,-0.00150401424038,-0.011223225021,0.0530951246143,-0.998525306803
2401184000000,,10755,,2401,180290617,"""map""",,,0.255146682262,-0.0819865465164,0.0251352414489,,-0.00153071854945,-0.0111796804117,0.0530764114136,-0.998526739796
2401216000000,,10756,,2401,212289808,"""map""",,,0.254158943892,-0.0815636217594,0.0251667872071,,-0.00155771953282,-0.0112070449117,0.0530979063063,-0.998525222509
2401252000000,,10757,,2401,244289808,"""map""",,,0.253033906221,-0.0809745341539,0.0251410137862,,-0.00152834416723,-0.0112581193188,0.0530819747976,-0.998525559684
2401284000000,,10758,,2401,276289808,"""map""",,,0.252430647612,-0.0812088623643,0.0248842108995,,-0.00152512355531,-0.0112526563628,0.0530799938957,-0.998525770419
2401316000000,,10759,,2401,308289000,"""map""",,,0.251880198717,-0.0815506279469,0.0246396716684,,-0.00153122003109,-0.0112043537695,0.0530898141114,-0.998525728272
2401352000000,,10760,,2401,348289000,"""map""",,,0.250922560692,-0.0816846862435,0.0243260040879,,-0.00155509786713,-0.0112362757267,0.0530708901764,-0.998526360474
2401384000000,,10761,,2401,380289000,"""map""",,,0.249958664179,-0.0815881341696,0.0239298194647,,-0.00157316701134,-0.0110433696011,0.0530700472395,-0.998528467817
2401416000000,,10762,,2401,412288191,"""map""",,,0.248882114887,-0.0813702493906,0.0236283075064,,-0.00153754568036,-0.0110535882362,0.0530844614617,-0.998527709174
2401452000000,,10763,,2401,444288191,"""map""",,,0.24762429297,-0.0810491517186,0.0233587641269,,-0.00151817393512,-0.0110303047366,0.0530734611342,-0.998528594257
2401484000000,,10764,,2401,476288191,"""map""",,,0.247025191784,-0.0815042555332,0.0232360251248,,-0.00148943604061,-0.0110513271237,0.0530831970562,-0.998527877761
2401516000000,,10765,,2401,508287382,"""map""",,,0.246538996696,-0.08202894032,0.0232151411474,,-0.00149641496603,-0.0110922783846,0.0531050291237,-0.998526191887
2401552000000,,10766,,2401,548287382,"""map""",,,0.245732501149,-0.0823348239064,0.023136774078,,-0.00152030136315,-0.0110915806567,0.0531042704805,-0.998526276181
2401584000000,,10767,,2401,580287382,"""map""",,,0.244892805815,-0.0823502242565,0.0230191983283,,-0.00149320950064,-0.0111295174302,0.0531173360035,-0.998525180363
2401616000000,,10768,,2401,612286573,"""map""",,,0.243930637836,-0.0822000876069,0.0228368211538,,-0.0014944370276,-0.0111472191066,0.0530872010068,-0.998526571209
2401652000000,,10769,,2401,644286573,"""map""",,,0.242832973599,-0.0818714424968,0.0226950291544,,-0.0014988492758,-0.0111732908836,0.0531110139762,-0.998525011775
2401684000000,,10770,,2401,676286573,"""map""",,,0.242677122355,-0.0821664184332,0.0224711745977,,-0.0014545163888,-0.0111834966772,0.0531081479905,-0.998525096069
2401716000000,,10771,,2401,708285763,"""map""",,,0.242665484548,-0.082484446466,0.0222371388227,,-0.00144836229037,-0.0112054308191,0.0531226043596,-0.998524126691
2401752000000,,10772,,2401,748285763,"""map""",,,0.242374539375,-0.0825587064028,0.0217992048711,,-0.0014256418463,-0.0111990975965,0.0531289685337,-0.998523831663
2401784000000,,10773,,2401,780285763,"""map""",,,0.241959944367,-0.0823646560311,0.0214773397893,,-0.00142948017296,-0.0111917215688,0.0531073472004,-0.998525053922
2401816000000,,10774,,2401,812284954,"""map""",,,0.241377517581,-0.0819944739342,0.0212145168334,,-0.00145667476842,-0.0112369247224,0.0530843350211,-0.998525728272
2401852000000,,10775,,2401,844284954,"""map""",,,0.240642622113,-0.0814857333899,0.0209521837533,,-0.00145490789351,-0.0112515108247,0.0530900248457,-0.99852534895
2401884000000,,10776,,2401,876284954,"""map""",,,0.240625277162,-0.0817006900907,0.0209649074823,,-0.0014411762527,-0.0111860985865,0.053084377168,-0.998526360474
2401916000000,,10777,,2401,908284144,"""map""",,,0.240678191185,-0.0820105522871,0.0210650153458,,-0.00146548378903,-0.0112236876485,0.0531466280632,-0.998522609405
2401952000000,,10778,,2401,948284144,"""map""",,,0.240435361862,-0.0821349695325,0.0211536884308,,-0.00151107844732,-0.0112311413845,0.0531620538098,-0.998521597881
2401984000000,,10779,,2401,980284144,"""map""",,,0.240032836795,-0.0820453241467,0.021153088659,,-0.00142798165494,-0.0112359490887,0.0531751193328,-0.998521007825
2402016000000,,10780,,2402,12283335,"""map""",,,0.239467725158,-0.0818018764257,0.0211487542838,,-0.00142315386515,-0.0112412022982,0.0532072773782,-0.998519279804
2402052000000,,10781,,2402,44283335,"""map""",,,0.238759368658,-0.081431299448,0.021105773747,,-0.00140348182361,-0.0112497225471,0.0532050435952,-0.998519237657
2402084000000,,10782,,2402,76283335,"""map""",,,0.238867342472,-0.0818869322538,0.0211242698133,,-0.00136195005567,-0.0112252721066,0.0532812029505,-0.998515570881
2402116000000,,10783,,2402,108282525,"""map""",,,0.239040985703,-0.0824294239283,0.0211779847741,,-0.00135142881933,-0.0111610314191,0.0533404192727,-0.998513168511
2402152000000,,10784,,2402,148282525,"""map""",,,0.238950937986,-0.0828028693795,0.0212734322995,,-0.00133335671167,-0.0111367617491,0.0533707650036,-0.998511819812
2402184000000,,10785,,2402,180282525,"""map""",,,0.238637492061,-0.0828961879015,0.0214167963713,,-0.00131259346188,-0.011183450579,0.05340237514,-0.998509628176
2402216000000,,10786,,2402,212281715,"""map""",,,0.238099381328,-0.0828318595886,0.0214762613177,,-0.00141330599058,-0.0111907419838,0.0534500853725,-0.998506846484
2402252000000,,10787,,2402,244281715,"""map""",,,0.237413063645,-0.0826286152005,0.0215564221144,,-0.00142618514552,-0.0112246300257,0.0534593576792,-0.998505919253
2402284000000,,10788,,2402,276281715,"""map""",,,0.237425506115,-0.0831701681018,0.0216597188264,,-0.0014579246859,-0.0111910175847,0.0534485680859,-0.998506846484
2402316000000,,10789,,2402,308280905,"""map""",,,0.237478002906,-0.0837633311749,0.0217994619161,,-0.001474867719,-0.0111463182177,0.0535356856218,-0.998502673946
2402352000000,,10790,,2402,348280905,"""map""",,,0.237235337496,-0.0841891914606,0.022025225684,,-0.00141621017186,-0.0111742810053,0.0535374979363,-0.998502294624
2402384000000,,10791,,2402,380280905,"""map""",,,0.236808776855,-0.0842913165689,0.0222103428096,,-0.00140090625604,-0.0111560887133,0.0535484982638,-0.998501999596
2402416000000,,10792,,2402,412280095,"""map""",,,0.236193776131,-0.0842125564814,0.0223160944879,,-0.00142915748616,-0.011122494053,0.0535546517036,-0.998501999596
2402452000000,,10793,,2402,444280095,"""map""",,,0.235440269113,-0.0840089470148,0.0224182978272,,-0.00141731422172,-0.0111274594786,0.0535544831162,-0.998501999596
2402484000000,,10794,,2402,476280095,"""map""",,,0.2353874892,-0.0845259651542,0.0225840471685,,-0.00144575214921,-0.0110099889678,0.0535049184224,-0.998505877106
2402516000000,,10795,,2402,508279284,"""map""",,,0.235394328833,-0.08511531353,0.0228381603956,,-0.00142276762879,-0.0109007390681,0.0535160451904,-0.998506467162
2402552000000,,10796,,2402,548279284,"""map""",,,0.235029041767,-0.0855276286602,0.0230660494417,,-0.0013976609487,-0.0109253281322,0.0535499734035,-0.998504401966
2402584000000,,10797,,2402,580279284,"""map""",,,0.234506651759,-0.0856148302555,0.0231868643314,,-0.00146291151418,-0.0110514071368,0.0535844495255,-0.998501114512
2402616000000,,10798,,2402,612278474,"""map""",,,0.233830854297,-0.0855074524879,0.0232692845166,,-0.00147509162413,-0.011016976125,0.0535647669473,-0.998502505358
2402652000000,,10799,,2402,644278474,"""map""",,,0.232985377312,-0.0852384641767,0.0232827439904,,-0.00145005771321,-0.0110042227521,0.0535910665808,-0.998501325246
2402684000000,,10800,,2402,676278474,"""map""",,,0.232912927866,-0.0854784548283,0.0232983287424,,-0.00147239027456,-0.0110865592549,0.0536001281532,-0.998499850107
2402716000000,,10801,,2402,708277664,"""map""",,,0.232960045338,-0.0857648253441,0.0233180802315,,-0.00143884731005,-0.0111207172999,0.0535633339544,-0.998501493834
2402752000000,,10802,,2402,748277664,"""map""",,,0.232739746571,-0.0858460590243,0.0232397019863,,-0.00143980582158,-0.0111182810145,0.053565947059,-0.99850140954
2402784000000,,10803,,2402,780277664,"""map""",,,0.232333406806,-0.0856783315539,0.0231725238264,,-0.0013799833092,-0.0110935609001,0.0536009710902,-0.9984999344
2402816000000,,10804,,2402,812276853,"""map""",,,0.231752544641,-0.0853564813733,0.0231444705278,,-0.00136311074036,-0.0111105072259,0.0536225081297,-0.998498543554
2402852000000,,10805,,2402,844276853,"""map""",,,0.231009885669,-0.084899790585,0.0230395793915,,-0.00134302282796,-0.0111625121564,0.0536117606834,-0.998498585701
2402884000000,,10806,,2402,876276853,"""map""",,,0.231061920524,-0.0851957499981,0.0230365991592,,-0.00127069817737,-0.0112042882444,0.053662505489,-0.998495466834
2402916000000,,10807,,2402,908276043,"""map""",,,0.231189072132,-0.0855936259031,0.0229840036482,,-0.00123920328628,-0.0113266003744,0.0536443401973,-0.998495087513
2402952000000,,10808,,2402,948276043,"""map""",,,0.231039986014,-0.0858224630356,0.0227781552821,,-0.00123841599632,-0.0113628726766,0.0536318647301,-0.998495424688
2402984000000,,10809,,2402,980276043,"""map""",,,0.23068934679,-0.0858044475317,0.0225845985115,,-0.00126739294249,-0.0113561347785,0.0536593866222,-0.998493949548
2403016000000,,10810,,2403,12275232,"""map""",,,0.230147615075,-0.0856250822544,0.0223962590098,,-0.00124057635158,-0.0113117587568,0.0536206115216,-0.998496562652
2403052000000,,10811,,2403,44275232,"""map""",,,0.229431927204,-0.0852911919355,0.0222235433757,,-0.0012678354844,-0.0113228295485,0.0536202321999,-0.998496436212
2403084000000,,10812,,2403,84275232,"""map""",,,0.229701593518,-0.0857040509582,0.0219928789884,,-0.00124619274841,-0.0113500791324,0.0536383974916,-0.998495213953
2403116000000,,10813,,2403,108274422,"""map""",,,0.229873493314,-0.0859469175339,0.0218223407865,,-0.00124750621544,-0.0113743000702,0.0536585858321,-0.998493823107
2403152000000,,10814,,2403,148274422,"""map""",,,0.229858994484,-0.0860839113593,0.0215686298907,,-0.00128622237633,-0.011379375802,0.053645520309,-0.998494413163
2403184000000,,10815,,2403,180274422,"""map""",,,0.229600891471,-0.085991255939,0.0214046314359,,-0.0012793218177,-0.0114191522195,0.0535964192305,-0.998496562652
2403216000000,,10816,,2403,212273611,"""map""",,,0.229169338942,-0.0857108458877,0.0211345255375,,-0.00124919999191,-0.0113482282931,0.0536098640752,-0.998496689093
2403252000000,,10817,,2403,244273611,"""map""",,,0.228569194674,-0.0852526724339,0.0207782257348,,-0.00125575909521,-0.0113499470943,0.0536280715137,-0.998495761862
2403284000000,,10818,,2403,276273611,"""map""",,,0.228824660182,-0.0856357216835,0.0205444972962,,-0.0013162661646,-0.0113191127233,0.0537108479242,-0.998491547178
2403316000000,,10819,,2403,308272800,"""map""",,,0.229153335094,-0.0861287117004,0.0202669482678,,-0.00133615289165,-0.0113022342276,0.0537444811093,-0.998489945597
2403352000000,,10820,,2403,348272800,"""map""",,,0.229220256209,-0.0864306688309,0.0199391506612,,-0.00135142420952,-0.0113077215497,0.0537076447637,-0.998491800059
2403384000000,,10821,,2403,380272800,"""map""",,,0.229014366865,-0.0864949002862,0.019699845463,,-0.0013559270076,-0.01133181012,0.0536561413149,-0.998494244576
2403416000000,,10822,,2403,412271990,"""map""",,,0.228636547923,-0.0863833501935,0.0194225851446,,-0.00130266293997,-0.0113728608212,0.0536300945625,-0.9984952561
2403452000000,,10823,,2403,444271990,"""map""",,,0.228079661727,-0.0861275717616,0.0189694408327,,-0.00128783943237,-0.0113673853528,0.0536687432226,-0.998493275198
2403484000000,,10824,,2403,476271990,"""map""",,,0.228352233768,-0.0866454839706,0.0185896642506,,-0.00134770672578,-0.0113940178806,0.0536681110198,-0.99849298017
2403516000000,,10825,,2403,508271179,"""map""",,,0.228708669543,-0.0872428119183,0.0182296093553,,-0.00140243342075,-0.011403349127,0.0537339443972,-0.998489186954
2403552000000,,10826,,2403,548271179,"""map""",,,0.228839337826,-0.0876984596252,0.0175863485783,,-0.00140247457978,-0.0114478242596,0.0537144725532,-0.99848977701
2403584000000,,10827,,2403,580271179,"""map""",,,0.228755891323,-0.0878562927246,0.0169667303562,,-0.0014042924919,-0.0112661986721,0.053692556192,-0.99849298017
2403616000000,,10828,,2403,612270368,"""map""",,,0.228477492929,-0.0878511592746,0.0162511467934,,-0.0013938087926,-0.0112910386417,0.0537037251068,-0.998492095087
2403652000000,,10829,,2403,644270368,"""map""",,,0.228038802743,-0.0877021998167,0.0154655268416,,-0.00132796817124,-0.0112799599474,0.0537173385389,-0.998491631471
2403684000000,,10830,,2403,676270368,"""map""",,,0.228487879038,-0.0880356654525,0.0149453124031,,-0.00134467445759,-0.0113278489748,0.0537400978371,-0.99848977701
2403716000000,,10831,,2403,708269557,"""map""",,,0.229031503201,-0.088363096118,0.014564152807,,-0.00135228295156,-0.0113638097854,0.0537865015173,-0.998486953171
2403752000000,,10832,,2403,748269557,"""map""",,,0.229387447238,-0.0884920656681,0.0138410469517,,-0.00135002941225,-0.0113661779115,0.0537746582529,-0.99848750108
2403784000000,,10833,,2403,780269557,"""map""",,,0.229422330856,-0.0884118303657,0.0131900114939,,-0.00139145745944,-0.0114304805022,0.0538080807037,-0.998484930122
2403816000000,,10834,,2403,812268747,"""map""",,,0.229260593653,-0.0881842821836,0.0125790620223,,-0.00134739622204,-0.0115103955367,0.0538148663463,-0.998483707864
2403852000000,,10835,,2403,844268747,"""map""",,,0.228916555643,-0.0878141745925,0.0119349295273,,-0.00132792964638,-0.0115490481481,0.053794382978,-0.998484382213
2403884000000,,10836,,2403,876268747,"""map""",,,0.228402420878,-0.0873316377401,0.0112176174298,,-0.00135923882793,-0.0115509585857,0.0538310507362,-0.998482359165
2403916000000,,10837,,2403,908279936,"""map""",,,0.227728545666,-0.0867244452238,0.0104363793507,,-0.00135003994897,-0.0115084985993,0.0538448749025,-0.998482106283
2403952000000,,10838,,2403,948279936,"""map""",,,0.226690232754,-0.085804015398,0.00936870556325,,-0.00133654604273,-0.0115132233269,0.0538392272248,-0.998482359165
2403984000000,,10839,,2403,980279936,"""map""",,,0.226788923144,-0.0859210714698,0.00890790391713,,-0.00138286180724,-0.0115563616141,0.0538036974315,-0.998483750011
2404016000000,,10840,,2404,12279125,"""map""",,,0.227066248655,-0.0861727297306,0.00860499963164,,-0.00137286608943,-0.011555601983,0.0537252199996,-0.998487964695
2404052000000,,10841,,2404,44279125,"""map""",,,0.227146044374,-0.0862111896276,0.00840646401048,,-0.0013516902615,-0.0116010135659,0.0537104686026,-0.99848830187
2404084000000,,10842,,2404,76279125,"""map""",,,0.227048352361,-0.0860924050212,0.00838961545378,,-0.00138029019094,-0.0116003504116,0.0536768775643,-0.998490029891
2404116000000,,10843,,2404,108278314,"""map""",,,0.226787284017,-0.0858365297318,0.00821489747614,,-0.00137167214824,-0.0116353536986,0.0536879621855,-0.998489060513
2404152000000,,10844,,2404,148278314,"""map""",,,0.226231068373,-0.085314810276,0.00757852802053,,-0.00137412687289,-0.0116532177062,0.0537013227365,-0.998488091136
2404184000000,,10845,,2404,180278314,"""map""",,,0.226700112224,-0.0855984985828,0.00710989255458,,-0.00138621676224,-0.0116597330163,0.0537220168391,-0.998486953171
2404216000000,,10846,,2404,212277503,"""map""",,,0.227304965258,-0.0859503298998,0.00658878032118,,-0.00140114596624,-0.0116658416751,0.0537041044285,-0.998487753961
2404252000000,,10847,,2404,244277503,"""map""",,,0.227661550045,-0.0861312821507,0.00630625477061,,-0.00143402445934,-0.0116990468063,0.0537066332394,-0.998487163905
2404284000000,,10848,,2404,276277503,"""map""",,,0.227780818939,-0.0861604735255,0.00602841330692,,-0.00147727404063,-0.0117198604348,0.0537253042933,-0.998485941647
2404316000000,,10849,,2404,308276692,"""map""",,,0.227681607008,-0.0860512033105,0.00553953973576,,-0.00140831290612,-0.0115148262242,0.0537049895123,-0.998489481982
2404352000000,,10850,,2404,348276692,"""map""",,,0.227380990982,-0.0856996104121,0.00494381645694,,-0.0014316016741,-0.011539681011,0.0536745594877,-0.998490830681
2404384000000,,10851,,2404,380276692,"""map""",,,0.227828517556,-0.0863095149398,0.00473441556096,,-0.00139354306989,-0.0115625865061,0.0536746859282,-0.998490619947
2404416000000,,10852,,2404,412275881,"""map""",,,0.228351816535,-0.0870514586568,0.00455829035491,,-0.00138039259461,-0.0116046510365,0.0536902802621,-0.998489271248
2404452000000,,10853,,2404,444275881,"""map""",,,0.228639557958,-0.0875770002604,0.00440939282998,,-0.00139634682313,-0.0116123095799,0.0536892265909,-0.998489229101
2404484000000,,10854,,2404,476275881,"""map""",,,0.228733345866,-0.0878915563226,0.00430253334343,,-0.00136061518595,-0.011616287518,0.0536920082829,-0.998489060513
2404516000000,,10855,,2404,508275070,"""map""",,,0.228663906455,-0.0880346894264,0.00424561277032,,-0.0012878782865,-0.0116847912933,0.0536581643636,-0.998490198478
2404552000000,,10856,,2404,548275070,"""map""",,,0.228379547596,-0.0879844352603,0.00395329622552,,-0.00130585194175,-0.0116823513859,0.0536171133331,-0.998492390114
2404584000000,,10857,,2404,580275070,"""map""",,,0.228938311338,-0.0884886980057,0.00349659565836,,-0.00130290627217,-0.0117039206942,0.0535849552877,-0.998493865254
2404616000000,,10858,,2404,612274259,"""map""",,,0.229577437043,-0.0890238136053,0.00302102253772,,-0.00133927472189,-0.0116946895466,0.0536085996697,-0.998492642996
2404652000000,,10859,,2404,644274259,"""map""",,,0.229975089431,-0.0893549844623,0.00231635873206,,-0.00133451805491,-0.0116879216847,0.0535782960857,-0.998494371016
2404684000000,,10860,,2404,676274259,"""map""",,,0.230161592364,-0.089505687356,0.00164543115534,,-0.00128227078001,-0.0117227227985,0.053567337905,-0.998494623897
2404716000000,,10861,,2404,708273448,"""map""",,,0.230167999864,-0.0894865691662,0.00100657343864,,-0.00130331819176,-0.0117826697757,0.0535576862767,-0.998494413163
2404752000000,,10862,,2404,748273448,"""map""",,,0.229924842715,-0.0892374888062,0.00018079217989,,-0.00126925168436,-0.0117974527829,0.0535708782403,-0.998493612373
2404784000000,,10863,,2404,780273448,"""map""",,,0.230410769582,-0.089622631669,-0.00068959168857,,-0.00123067348854,-0.0118266796467,0.0535816678335,-0.998492685142
2404816000000,,10864,,2404,812272636,"""map""",,,0.230966418982,-0.0900028422475,-0.00158429413568,,-0.00119716542688,-0.0117852874902,0.0536176190953,-0.998491294296
2404852000000,,10865,,2404,844272636,"""map""",,,0.231333523989,-0.090178437531,-0.00249949935824,,-0.00117278281648,-0.0117933460993,0.0536170290394,-0.998491294296
2404884000000,,10866,,2404,876272636,"""map""",,,0.231507867575,-0.0901863649487,-0.00342682632618,,-0.00115884505124,-0.0117263382078,0.0536847168781,-0.998488428311
2404916000000,,10867,,2404,908271825,"""map""",,,0.231500923634,-0.0899938717484,-0.00423892401159,,-0.00117736990825,-0.0117730579894,0.0536885100945,-0.998487669667
2404952000000,,10868,,2404,948271825,"""map""",,,0.231320440769,-0.0895504355431,-0.0052294335328,,-0.0011551736656,-0.0117708933536,0.053658332951,-0.998489355541
2404984000000,,10869,,2404,980271825,"""map""",,,0.231883957982,-0.0900055989623,-0.00607747910544,,-0.00117951478771,-0.0116197547548,0.0536478805325,-0.998491631471
2405016000000,,10870,,2405,12271014,"""map""",,,0.232566326857,-0.0905671492219,-0.00677021546289,,-0.00114971696581,-0.0115928360895,0.0536418956801,-0.998492305821
2405052000000,,10871,,2405,44271014,"""map""",,,0.233025535941,-0.0908870249987,-0.00752686662599,,-0.00118228693081,-0.0115943471199,0.0536684060478,-0.998490830681
2405084000000,,10872,,2405,76271014,"""map""",,,0.233288884163,-0.091011531651,-0.00823657400906,,-0.00116926553026,-0.0116136181078,0.0536052279219,-0.998493991695
2405116000000,,10873,,2405,108270203,"""map""",,,0.233362823725,-0.090961791575,-0.00903310347348,,-0.0011653060314,-0.0116534551115,0.0535483296764,-0.998496604799
2405152000000,,10874,,2405,148270203,"""map""",,,0.233249098063,-0.0906516462564,-0.0101643195376,,-0.00113689049443,-0.0116425608097,0.0535170145679,-0.998498417114
2405184000000,,10875,,2405,180270203,"""map""",,,0.233804255724,-0.0910578891635,-0.0107811419293,,-0.0011720063925,-0.0117368159802,0.0535652727095,-0.998494666044
2405216000000,,10876,,2405,212281391,"""map""",,,0.234453454614,-0.0914943963289,-0.0113017745316,,-0.00115139559576,-0.0117419127854,0.0535583606263,-0.998495087513
2405252000000,,10877,,2405,244281391,"""map""",,,0.23491217196,-0.0916838347912,-0.0118724163622,,-0.00120907586286,-0.011738914103,0.0536039213695,-0.998492600849
2405284000000,,10878,,2405,276281391,"""map""",,,0.23520411551,-0.0916792526841,-0.0125436177477,,-0.00117994613436,-0.0117521768601,0.0535925417205,-0.998493022317
2405316000000,,10879,,2405,308280580,"""map""",,,0.235333263874,-0.0914977192879,-0.0132637480274,,-0.00117152894773,-0.0118202687159,0.0535780853514,-0.998493064464
2405352000000,,10880,,2405,348280580,"""map""",,,0.235234990716,-0.0910546556115,-0.0141927069053,,-0.00119051643226,-0.0118565001884,0.0535934268043,-0.998491715765
2405384000000,,10881,,2405,380280580,"""map""",,,0.235749900341,-0.0914910286665,-0.0147775644436,,-0.00116815588276,-0.0118734237944,0.0535772845613,-0.998492432261
2405416000000,,10882,,2405,412279769,"""map""",,,0.236325696111,-0.0920081660151,-0.0153407957405,,-0.00118268765515,-0.0118890059453,0.0535718476178,-0.998492558702
2405452000000,,10883,,2405,444279769,"""map""",,,0.236712545156,-0.0922913849354,-0.0159684885293,,-0.00119499124219,-0.0118768538235,0.0535938482728,-0.998491462884
2405484000000,,10884,,2405,476279769,"""map""",,,0.236920550466,-0.0923285484314,-0.0167328920215,,-0.00122053881783,-0.01168801882,0.0536680267261,-0.998489692716
2405516000000,,10885,,2405,508278957,"""map""",,,0.237003043294,-0.0921472534537,-0.0175473019481,,-0.00125015685708,-0.0116874834233,0.0536385239322,-0.998491210003
2405552000000,,10886,,2405,548278957,"""map""",,,0.236878752708,-0.0917223319411,-0.0187020953745,,-0.00128249600223,-0.0117206786763,0.0536135729979,-0.998492137233
2405584000000,,10887,,2405,580278957,"""map""",,,0.237438395619,-0.0919818654656,-0.0196444522589,,-0.00128970541823,-0.0116941541499,0.0536073774111,-0.998492769436
2405616000000,,10888,,2405,612278145,"""map""",,,0.238088726997,-0.0922431498766,-0.0206736773252,,-0.00123928692143,-0.0117102493069,0.0536268492551,-0.998491673618
2405652000000,,10889,,2405,644278145,"""map""",,,0.238561183214,-0.0922747552395,-0.0217971876264,,-0.00131639491005,-0.0117283852934,0.0535794761974,-0.998493865254
2405684000000,,10890,,2405,676278145,"""map""",,,0.238861903548,-0.0921449288726,-0.022928847,,-0.00135469684646,-0.0117461821295,0.0535761887432,-0.99849378096
2405716000000,,10891,,2405,708277334,"""map""",,,0.239018633962,-0.09184679389,-0.0240473281592,,-0.00136691778616,-0.0117598986238,0.0535693188069,-0.998493991695
2405752000000,,10892,,2405,748277334,"""map""",,,0.239013716578,-0.0912527441978,-0.0256774332374,,-0.00139175117029,-0.0117322282299,0.0535712154151,-0.998494118135
2405784000000,,10893,,2405,780277334,"""map""",,,0.239397004247,-0.0915966555476,-0.0268254708499,,-0.00137327339921,-0.0117705058001,0.0535669164366,-0.998493949548
2405816000000,,10894,,2405,812276522,"""map""",,,0.239803642035,-0.0920266658068,-0.0278394762427,,-0.0013695246346,-0.0117866562749,0.0535562532839,-0.998494413163
2405852000000,,10895,,2405,844276522,"""map""",,,0.240050941706,-0.0922509506345,-0.0288121849298,,-0.00137684962516,-0.0118089578847,0.0535710889746,-0.998493317345
2405884000000,,10896,,2405,876276522,"""map""",,,0.240173980594,-0.0922747477889,-0.0297588501126,,-0.00134918943873,-0.0118570606097,0.0536091897256,-0.998490704241
2405916000000,,10897,,2405,908275710,"""map""",,,0.240189000964,-0.0921012237668,-0.030699307099,,-0.00142768135864,-0.011850643752,0.0536338877788,-0.998489355541
2405952000000,,10898,,2405,948275710,"""map""",,,0.240039020777,-0.0916490927339,-0.0318985693157,,-0.0014391670334,-0.0118940253715,0.0536516316021,-0.998487880402
2405984000000,,10899,,2405,980275710,"""map""",,,0.240498259664,-0.0919593721628,-0.0325126238167,,-0.00148173765531,-0.0118723095371,0.053606576621,-0.998490535653
2406016000000,,10900,,2406,12274898,"""map""",,,0.241035729647,-0.0923180282116,-0.0331383422017,,-0.00152440179053,-0.0118968024537,0.0536242361505,-0.998489144807
2406052000000,,10901,,2406,52274898,"""map""",,,0.241457924247,-0.0924840047956,-0.0340420678258,,-0.00157287165413,-0.0118995581332,0.0536059865651,-0.998490029891
2406084000000,,10902,,2406,76274898,"""map""",,,0.241621494293,-0.0924197137356,-0.0345918238163,,-0.00160732966624,-0.0119479213126,0.0535878212734,-0.998490409213
2406116000000,,10903,,2406,108274087,"""map""",,,0.241731137037,-0.0921636521816,-0.0353745110333,,-0.00168607677214,-0.0119939907815,0.0535838594697,-0.99848990345
2406152000000,,10904,,2406,148274087,"""map""",,,0.24173514545,-0.0916127860546,-0.0364367328584,,-0.00168743008111,-0.012065145857,0.0535760623027,-0.998489439835
2406184000000,,10905,,2406,180274087,"""map""",,,0.242281392217,-0.0917158275843,-0.0365227870643,,-0.00170670502031,-0.0121340987597,0.0535051291566,-0.998492432261
2406216000000,,10906,,2406,212273275,"""map""",,,0.242907807231,-0.0918700098991,-0.0365616716444,,-0.00167099544437,-0.0121880210426,0.0535028953737,-0.998491968646
2406252000000,,10907,,2406,244273275,"""map""",,,0.243389576674,-0.0918371975422,-0.0367415882647,,-0.00165549725792,-0.0121797260159,0.0534940866823,-0.998492516555
2406284000000,,10908,,2406,276273275,"""map""",,,0.243751361966,-0.091652341187,-0.0369712375104,,-0.00163671161728,-0.0122326690431,0.0534620129306,-0.99849365452
2406316000000,,10909,,2406,308272463,"""map""",,,0.244002074003,-0.0913295149803,-0.0372085608542,,-0.00157206921765,-0.012285137589,0.0534784923484,-0.99849217938
2406352000000,,10910,,2406,348272463,"""map""",,,0.24414883554,-0.0907413810492,-0.0376226082444,,-0.0015941051047,-0.0120968218478,0.0534416138559,-0.998496436212
2406384000000,,10911,,2406,380272463,"""map""",,,0.244772836566,-0.0911067575216,-0.0377233400941,,-0.00156661646912,-0.0120740819767,0.053473308286,-0.998495087513
2406416000000,,10912,,2406,412271651,"""map""",,,0.245428770781,-0.0915756449103,-0.0378279127181,,-0.00158903036073,-0.0121089535548,0.0534568710151,-0.998495508981
2406452000000,,10913,,2406,444271651,"""map""",,,0.245946183801,-0.0918014720082,-0.0382036082447,,-0.00162924010057,-0.0121369795627,0.0534445641353,-0.998495761862
2406484000000,,10914,,2406,476271651,"""map""",,,0.246339678764,-0.0917961671948,-0.0385401435196,,-0.00169183903659,-0.0122004326309,0.053477480824,-0.998493106611
2406516000000,,10915,,2406,508282839,"""map""",,,0.246614381671,-0.0915901586413,-0.0389536544681,,-0.00171822889066,-0.0122614131938,0.0534290119482,-0.998494961072
2406552000000,,10916,,2406,548282839,"""map""",,,0.24681660533,-0.091118760407,-0.0396940298378,,-0.00167646729068,-0.0122962073929,0.0534114788592,-0.998495466834
2406584000000,,10917,,2406,580282839,"""map""",,,0.247430533171,-0.0913142412901,-0.0399975478649,,-0.00162811267237,-0.0123695906538,0.0534299813257,-0.99849365452
2406616000000,,10918,,2406,612282027,"""map""",,,0.248093515635,-0.0915544256568,-0.0402325764298,,-0.00166084628568,-0.0124083288759,0.0533904475818,-0.9984952561
2406652000000,,10919,,2406,644282027,"""map""",,,0.248650476336,-0.0915548875928,-0.0406482629478,,-0.00163911069492,-0.0125023700195,0.0533802058977,-0.998494708191
2406684000000,,10920,,2406,676282027,"""map""",,,0.249072700739,-0.0913476273417,-0.0411938354373,,-0.00166946366984,-0.012505033832,0.0533895203512,-0.998494075988
2406716000000,,10921,,2406,708281214,"""map""",,,0.249392986298,-0.0909837558866,-0.0417251959443,,-0.00170584924172,-0.0125214424562,0.0533533583552,-0.998495761862
2406752000000,,10922,,2406,748281214,"""map""",,,0.249687537551,-0.0903076976538,-0.0421663969755,,-0.00165707776474,-0.0125425906253,0.0534127432647,-0.998492432261
2406784000000,,10923,,2406,780281214,"""map""",,,0.250454396009,-0.0905243977904,-0.0422503426671,,-0.00160370141527,-0.0125446558209,0.05347887167,-0.998488934073
2406816000000,,10924,,2406,812280402,"""map""",,,0.251287788153,-0.0908355861902,-0.042312245816,,-0.00167913439594,-0.0125300631331,0.0534607485252,-0.998489945597
2406852000000,,10925,,2406,844280402,"""map""",,,0.251991122961,-0.0909458324313,-0.0424396581948,,-0.0016592190222,-0.0125539284568,0.0534197396416,-0.998491926499
2406884000000,,10926,,2406,876280402,"""map""",,,0.252567797899,-0.0908547788858,-0.0430279783905,,-0.00159870997718,-0.0126230486298,0.053430739969,-0.998490535653
2406916000000,,10927,,2406,908279590,"""map""",,,0.253055155277,-0.0906348749995,-0.043768890202,,-0.00163838201543,-0.012617561637,0.0534057468879,-0.998491842205
2406952000000,,10928,,2406,948279590,"""map""",,,0.253578305244,-0.0901765674353,-0.0449612215161,,-0.00167531483779,-0.0126155896255,0.0534031337832,-0.998491926499
2406984000000,,10929,,2406,980279590,"""map""",,,0.254185289145,-0.0905383899808,-0.0455262549222,,-0.00172201387522,-0.0126222050343,0.0534016586435,-0.998491884352
