rosbagTimestamp,header,seq,stamp,secs,nsecs,frame_id,pose,position,x,y,z,orientation,x,y,z,w
1649932000000,,13915,,1649,916178781,"""map""",,,-0.179182738066,0.137494698167,-0.00849394034594,,0.00993606527855,-0.0101896726002,0.0455207037342,-0.998862017976
1649956000000,,13916,,1649,948178781,"""map""",,,-0.179203540087,0.137352928519,-0.00880739744753,,0.00991065449495,-0.0102526625676,0.0455120214834,-0.998862017976
1649992000000,,13917,,1649,988178325,"""map""",,,-0.179057121277,0.137342050672,-0.00883410684764,,0.00992495760833,-0.0102404101618,0.0455031284984,-0.998862397298
1650024000000,,13918,,1650,20178325,"""map""",,,-0.178946435452,0.137331843376,-0.00879330281168,,0.00988857044154,-0.0102264331617,0.0455117264555,-0.998862565885
1650056000000,,13919,,1650,52178325,"""map""",,,-0.178918018937,0.137293323874,-0.00877166818827,,0.00987420929392,-0.0102852328927,0.0455152246439,-0.998861933682
1650092000000,,13920,,1650,84189869,"""map""",,,-0.178966358304,0.137236490846,-0.00884836912155,,0.00992666484896,-0.0100872864166,0.0455075960643,-0.998863745997
1650124000000,,13921,,1650,116189869,"""map""",,,-0.179033979774,0.137188702822,-0.00887867156416,,0.00990798392204,-0.0101059528555,0.0455408920746,-0.99886222871
1650156000000,,13922,,1650,148189869,"""map""",,,-0.179136544466,0.137128159404,-0.00885205809027,,0.00987812677969,-0.0100710223892,0.0455495321786,-0.998862523738
1650192000000,,13923,,1650,188189413,"""map""",,,-0.179049029946,0.137414798141,-0.00804443378001,,0.00989503940656,-0.0101350870292,0.0455682875262,-0.998860795717
1650224000000,,13924,,1650,220189413,"""map""",,,-0.178983166814,0.137663170695,-0.00729513820261,,0.00991986099862,-0.0101615239075,0.0455530725138,-0.998861006452
1650256000000,,13925,,1650,252189413,"""map""",,,-0.178943410516,0.137881815434,-0.00654966477305,,0.00988133031061,-0.0101814401764,0.0455604903592,-0.998860837864
1650292000000,,13926,,1650,284188956,"""map""",,,-0.178954750299,0.138064831495,-0.00581103377044,,0.00986218048457,-0.0102413512733,0.0455502065281,-0.998860922158
1650324000000,,13927,,1650,316188956,"""map""",,,-0.179026126862,0.138229429722,-0.00516714900732,,0.00985122607001,-0.0102569273532,0.0455693411974,-0.998859994927
1650356000000,,13928,,1650,348188956,"""map""",,,-0.179151237011,0.138383701444,-0.00456199701875,,0.00988498203251,-0.0103136290644,0.0455560227932,-0.998859657752
1650392000000,,13929,,1650,388188498,"""map""",,,-0.17913043499,0.138930469751,-0.00382924685255,,0.00986571923522,-0.0103338427999,0.0455750310219,-0.998858772669
1650424000000,,13930,,1650,420188498,"""map""",,,-0.179140210152,0.139356896281,-0.00333088752814,,0.00986818916814,-0.0103450205434,0.0456138482694,-0.99885687606
1650456000000,,13931,,1650,452188498,"""map""",,,-0.179207324982,0.139736413956,-0.00297099375166,,0.00981651151366,-0.010320040983,0.0456138061226,-0.998857676851
1650492000000,,13932,,1650,484188041,"""map""",,,-0.179327234626,0.1401193887,-0.00269820704125,,0.00976402522826,-0.0103622500228,0.0455915947334,-0.998858730522
1650524000000,,13933,,1650,516188041,"""map""",,,-0.179506272078,0.140461191535,-0.00248381588608,,0.00973580488799,-0.0103703544625,0.0455822802799,-0.998859278431
1650556000000,,13934,,1650,548188041,"""map""",,,-0.179750010371,0.140781208873,-0.00237111235037,,0.00973891336213,-0.0103766039058,0.0455639042539,-0.998860037074
1650592000000,,13935,,1650,588187583,"""map""",,,-0.179763808846,0.141292884946,-0.00210252427496,,0.00982114814032,-0.0104453957738,0.0455868742864,-0.99885755041
1650624000000,,13936,,1650,620187583,"""map""",,,-0.179748833179,0.14171333611,-0.00191679096315,,0.00979140608891,-0.0104215415219,0.0455514709336,-0.998859657752
1650656000000,,13937,,1650,652187583,"""map""",,,-0.179772287607,0.14209201932,-0.00175595399924,,0.00982256187075,-0.0104276422371,0.0455150560565,-0.998861006452
1650680000000,,13938,,1650,684187125,"""map""",,,-0.179871633649,0.142437338829,-0.00156505743507,,0.00984606295759,-0.0103846047688,0.0455430837108,-0.998859868487
1650724000000,,13939,,1650,716187125,"""map""",,,-0.180016249418,0.142727166414,-0.00136263528839,,0.00984233063601,-0.0104178267135,0.0455545476535,-0.99885902555
1650756000000,,13940,,1650,748187125,"""map""",,,-0.180200874805,0.143000483513,-0.00105056015309,,0.00984899325428,-0.0103515684514,0.0455961044462,-0.998857761144
1650792000000,,13941,,1650,788186666,"""map""",,,-0.179978221655,0.143461823463,-0.00077433208935,,0.00990886880007,-0.0103883725078,0.0456123731297,-0.99885607527
1650824000000,,13942,,1650,820186666,"""map""",,,-0.179805710912,0.143816098571,-0.00065079156775,,0.00993258695965,-0.0103569230357,0.0455897824189,-0.998857171088
1650856000000,,13943,,1650,852186666,"""map""",,,-0.179686516523,0.144118338823,-0.000637441524304,,0.00992892803491,-0.0101492932234,0.0455329684671,-0.998861975829
1650892000000,,13944,,1650,884186208,"""map""",,,-0.179575189948,0.1444119066,-0.000644335174002,,0.00995225431935,-0.0102037897776,0.0455522717237,-0.998860289955
1650924000000,,13945,,1650,916186208,"""map""",,,-0.179551184177,0.144674167037,-0.000689536274876,,0.00996398735989,-0.0102106329605,0.0455415664242,-0.99886062713
1650956000000,,13946,,1650,948186208,"""map""",,,-0.179541498423,0.144923582673,-0.000712115084752,,0.0100062045595,-0.0102810400427,0.0455578351077,-0.998858688375
1650992000000,,13947,,1650,988185748,"""map""",,,-0.179284721613,0.145323753357,-0.000443809258286,,0.010033140244,-0.0103743888296,0.0455937863695,-0.998855780242
1651024000000,,13948,,1651,20185748,"""map""",,,-0.179084554315,0.145661741495,-0.000266685383394,,0.0100351569852,-0.0103523852627,0.0455954300966,-0.998855990977
1651056000000,,13949,,1651,52185748,"""map""",,,-0.178943216801,0.146025955677,-0.000119845106383,,0.00998287144264,-0.0103832483524,0.0456148176469,-0.998855316627
1651088000000,,13950,,1651,84185289,"""map""",,,-0.178853809834,0.146381005645,0.000147764003486,,0.00995477352991,-0.0103496933283,0.0456390942317,-0.998854810865
1651124000000,,13951,,1651,116185289,"""map""",,,-0.178817361593,0.146719396114,0.00052159500774,,0.00993064157801,-0.0103491851788,0.0456259022681,-0.998855611655
1651156000000,,13952,,1651,148185289,"""map""",,,-0.178849950433,0.147013127804,0.000860047293827,,0.00995261788737,-0.0104398608101,0.045647355014,-0.998853546459
1651192000000,,13953,,1651,188184829,"""map""",,,-0.178561076522,0.147466525435,0.00135945761576,,0.0099522134793,-0.0104424502689,0.0456532134259,-0.998853251431
1651224000000,,13954,,1651,220184829,"""map""",,,-0.178325355053,0.147814020514,0.00173062295653,,0.00990419817604,-0.0104514955423,0.0456591561315,-0.998853377872
1651256000000,,13955,,1651,252184829,"""map""",,,-0.178158432245,0.148137375712,0.00203227810562,,0.0098920061094,-0.0104933049897,0.0456519490205,-0.998853335725
1651292000000,,13956,,1651,284184369,"""map""",,,-0.178037896752,0.148457214236,0.00229959213175,,0.00985215015201,-0.0105187888717,0.0456331093792,-0.998854305103
1651324000000,,13957,,1651,316184369,"""map""",,,-0.177970916033,0.1487313658,0.00265072542243,,0.00981100077206,-0.0105024920971,0.0456250593311,-0.99885527448
1651356000000,,13958,,1651,348184369,"""map""",,,-0.177965030074,0.148984178901,0.00302377808839,,0.00980843438295,-0.0105339093211,0.0456342051972,-0.998854557984
1651392000000,,13959,,1651,388195909,"""map""",,,-0.177894100547,0.14928072691,0.0034742965363,,0.00983815620469,-0.0104832023201,0.0456574281108,-0.998853757194
1651424000000,,13960,,1651,420195909,"""map""",,,-0.177851036191,0.149498715997,0.00380446203053,,0.00985418925276,-0.0104802598198,0.0456946016311,-0.998851902732
1651456000000,,13961,,1651,452195909,"""map""",,,-0.1778575629,0.149690747261,0.00411959690973,,0.00978706607481,-0.0104452506471,0.0457507412334,-0.998850385446
1651492000000,,13962,,1651,484195448,"""map""",,,-0.177914649248,0.149871379137,0.00437254784629,,0.00979440368062,-0.0104438583811,0.045745009262,-0.998850554033
1651524000000,,13963,,1651,516195448,"""map""",,,-0.17797857523,0.150027498603,0.0045817065984,,0.00979697828095,-0.0104681655676,0.045729962837,-0.998850933355
1651556000000,,13964,,1651,548195448,"""map""",,,-0.17807996273,0.150163665414,0.00474421074614,,0.00979890131323,-0.0103884025744,0.0457424383042,-0.998851186236
1651592000000,,13965,,1651,588194987,"""map""",,,-0.177932858467,0.150488659739,0.00472201826051,,0.00980189939884,-0.0104201769559,0.0457022302107,-0.998852703522
1651624000000,,13966,,1651,620194987,"""map""",,,-0.177814424038,0.150760725141,0.00467950711027,,0.00977358682119,-0.0104109235207,0.0457381393257,-0.998851439117
1651656000000,,13967,,1651,652194987,"""map""",,,-0.177725046873,0.150995999575,0.00466325692832,,0.00975950456717,-0.010465655093,0.0457581590787,-0.998850132565
1651692000000,,13968,,1651,684194526,"""map""",,,-0.177657529712,0.151216998696,0.00474671740085,,0.00976298937891,-0.010473530174,0.0458026661507,-0.998847940929
1651724000000,,13969,,1651,716194526,"""map""",,,-0.177615389228,0.151393204927,0.00481974985451,,0.00972268711356,-0.0104841623751,0.0458283757283,-0.998847013698
1651756000000,,13970,,1651,748194526,"""map""",,,-0.177566826344,0.151554405689,0.00488142622635,,0.00975729169298,-0.0105606147415,0.0458664343325,-0.998844105565
1651792000000,,13971,,1651,788194064,"""map""",,,-0.177241563797,0.151342704892,0.00467941723764,,0.00977601530696,-0.0105712938227,0.0458922282038,-0.998842672572
1651824000000,,13972,,1651,820194064,"""map""",,,-0.176994398236,0.151082828641,0.00451237568632,,0.00973550839891,-0.0105414471039,0.0458955999517,-0.998843178335
1651856000000,,13973,,1651,852194064,"""map""",,,-0.176800176501,0.15084426105,0.00435594841838,,0.00971514574997,-0.0105614488704,0.0459323520036,-0.998841492461
1651892000000,,13974,,1651,884193602,"""map""",,,-0.176648005843,0.150604352355,0.00419042911381,,0.00966984583151,-0.0105699559072,0.0458889828965,-0.998843810537
1651924000000,,13975,,1651,916193602,"""map""",,,-0.176492795348,0.150352180004,0.00406192895025,,0.0096511662577,-0.0106337549995,0.0458734728562,-0.998844063418
1651956000000,,13976,,1651,948193602,"""map""",,,-0.176384165883,0.150100380182,0.00403770245612,,0.00961909867984,-0.0106199681232,0.0458862012045,-0.998843894831
1651992000000,,13977,,1651,988193140,"""map""",,,-0.175918504596,0.149872109294,0.00410127546638,,0.00963784242058,-0.010647321181,0.0459159990264,-0.998842082517
1652024000000,,13978,,1652,20193140,"""map""",,,-0.175523653626,0.149711102247,0.00419736187905,,0.00960758427607,-0.0106784881169,0.0459164626417,-0.99884204037
1652056000000,,13979,,1652,52193140,"""map""",,,-0.175169691443,0.149511680007,0.00427357200533,,0.00959525763997,-0.0106370709357,0.0459024277412,-0.998843262628
1652092000000,,13980,,1652,84192677,"""map""",,,-0.174923673272,0.149266183376,0.00431088544428,,0.00962193182063,-0.0103950316275,0.0458899101271,-0.998846086467
1652124000000,,13981,,1652,116192677,"""map""",,,-0.17467418313,0.148996144533,0.00452118832618,,0.00964200635635,-0.0103840133959,0.0459006154267,-0.998845580705
1652156000000,,13982,,1652,148192677,"""map""",,,-0.174467399716,0.148711502552,0.00482371030375,,0.00967643831479,-0.0104180568954,0.0459106885235,-0.998844358446
1652192000000,,13983,,1652,188192214,"""map""",,,-0.174091234803,0.148467451334,0.00569527363405,,0.00970334372689,-0.0104555426482,0.0459381682687,-0.998842503985
1652224000000,,13984,,1652,220192214,"""map""",,,-0.173809215426,0.148284614086,0.00639809900895,,0.00972688710464,-0.0104136535375,0.0459468926663,-0.998842208957
1652256000000,,13985,,1652,252192214,"""map""",,,-0.173551753163,0.148069500923,0.00709875905886,,0.00969283981851,-0.0104681618015,0.0459463026105,-0.99884204037
1652292000000,,13986,,1652,284191750,"""map""",,,-0.173353046179,0.147824436426,0.00785060599446,,0.009668508945,-0.0105205730128,0.0459422143661,-0.998841913929
1652324000000,,13987,,1652,324191750,"""map""",,,-0.173174798489,0.147470012307,0.00873544625938,,0.00967148424909,-0.0105486757412,0.0459504330016,-0.998841197433
1652356000000,,13988,,1652,348191750,"""map""",,,-0.173094019294,0.147238180041,0.00915551558137,,0.00973980655427,-0.0105432549732,0.0459648893706,-0.998839975174
1652392000000,,13989,,1652,388191286,"""map""",,,-0.173143595457,0.147182255983,0.0091217495501,,0.00974796888418,-0.0105612105185,0.0459984382621,-0.998838120713
1652424000000,,13990,,1652,420191286,"""map""",,,-0.173234313726,0.147177651525,0.00897377636284,,0.00976297279182,-0.0105555553087,0.0460136532744,-0.998837319923
1652456000000,,13991,,1652,452191286,"""map""",,,-0.173340648413,0.14713318646,0.00880785286427,,0.00974505704732,-0.0105671081961,0.0460170671691,-0.998837277776
1652492000000,,13992,,1652,484190822,"""map""",,,-0.173477888107,0.14706248045,0.00868950691074,,0.00979267351956,-0.0106189635547,0.0459956987169,-0.998837235629
1652524000000,,13993,,1652,516190822,"""map""",,,-0.173660099506,0.146965250373,0.00858188793063,,0.00980085910432,-0.0105784908499,0.0460281096434,-0.998836097664
1652556000000,,13994,,1652,548190822,"""map""",,,-0.173873618245,0.146822690964,0.00856819935143,,0.00986040712711,-0.0105774887509,0.0460221669378,-0.998835802636
1652592000000,,13995,,1652,588190358,"""map""",,,-0.174226894975,0.146700337529,0.00839101709425,,0.00982818791937,-0.010576377704,0.0460325350625,-0.998835634049
1652624000000,,13996,,1652,620190358,"""map""",,,-0.17451775074,0.146552339196,0.00828059203923,,0.00981426842875,-0.0105496320713,0.0460149176798,-0.998836898454
1652656000000,,13997,,1652,652190358,"""map""",,,-0.17480674386,0.146369278431,0.00833810679615,,0.00980228098423,-0.0105430893904,0.0459693990834,-0.998839174384
1652692000000,,13998,,1652,684201893,"""map""",,,-0.175099000335,0.14615522325,0.00851402245462,,0.00980387219239,-0.0105659235981,0.0459670810068,-0.99883896365
1652724000000,,13999,,1652,716201893,"""map""",,,-0.175388917327,0.145903125405,0.00877850595862,,0.0097867646878,-0.0105730646901,0.0459623605597,-0.998839300825
1652756000000,,14000,,1652,748201893,"""map""",,,-0.175690114498,0.145579352975,0.0091398563236,,0.00979884379348,-0.0105974742185,0.0459909782699,-0.998837572804
1652792000000,,14001,,1652,788201428,"""map""",,,-0.175855055451,0.14523679018,0.00943305250257,,0.00980086527817,-0.0105808778267,0.0459940971367,-0.998837572804
1652824000000,,14002,,1652,820201428,"""map""",,,-0.175945654511,0.144941851497,0.00969105958939,,0.00979291965057,-0.0105848761386,0.0459872693472,-0.998837994272
1652856000000,,14003,,1652,852201428,"""map""",,,-0.176100715995,0.1446210742,0.00987286772579,,0.009780936075,-0.0105955966258,0.0460049710236,-0.998837151335
1652892000000,,14004,,1652,884200962,"""map""",,,-0.176280528307,0.144269764423,0.00997497886419,,0.00976484314054,-0.0105953589735,0.0460050553173,-0.998837319923
1652924000000,,14005,,1652,916200962,"""map""",,,-0.176441863179,0.143909171224,0.00997684244066,,0.0097793374582,-0.010579386882,0.0460225462594,-0.998836519133
1652956000000,,14006,,1652,948200962,"""map""",,,-0.176591679454,0.143527060747,0.00994198396802,,0.0097815439939,-0.0105722794581,0.0460349795797,-0.998836055517
1652992000000,,14007,,1652,988200496,"""map""",,,-0.176598295569,0.14319588244,0.00985197909176,,0.00980796327667,-0.0105879345839,0.0460156763231,-0.998836476986
1653024000000,,14008,,1653,20200496,"""map""",,,-0.176578804851,0.142915576696,0.00992275308818,,0.00982352982827,-0.0103535231556,0.0459918633537,-0.99883989088
1653056000000,,14009,,1653,52200496,"""map""",,,-0.17658495903,0.14259044826,0.00989963579923,,0.00978971317678,-0.010369465592,0.0459135123623,-0.99884364195
1653092000000,,14010,,1653,84200029,"""map""",,,-0.176620393991,0.142246723175,0.00997903291136,,0.00976180774426,-0.0104324174462,0.045897454413,-0.998844021272
1653124000000,,14011,,1653,116200029,"""map""",,,-0.176642984152,0.141878083348,0.0101995589212,,0.00976566068239,-0.0104221331624,0.0459107728172,-0.998843431216
1653156000000,,14012,,1653,148200029,"""map""",,,-0.176670446992,0.141494348645,0.0105918357149,,0.00976253364553,-0.0104297844,0.0459209302077,-0.9988429676
1653192000000,,14013,,1653,188199563,"""map""",,,-0.176435828209,0.141464337707,0.0107810683548,,0.0097965315614,-0.010440098627,0.0458608288017,-0.99884524353
1653224000000,,14014,,1653,220199563,"""map""",,,-0.176204502583,0.141498535872,0.0109109431505,,0.0097909790228,-0.0104386047394,0.0458433378595,-0.998846128614
1653256000000,,14015,,1653,252199563,"""map""",,,-0.176002278924,0.141508579254,0.0110373264179,,0.0098090214548,-0.0104816093833,0.0458661814514,-0.99884444274
1653292000000,,14016,,1653,284199095,"""map""",,,-0.17586286366,0.141486957669,0.0111693535,,0.00980323677926,-0.0105315982003,0.0458621775008,-0.998844147712
1653324000000,,14017,,1653,316199095,"""map""",,,-0.175752654672,0.141441106796,0.011433634907,,0.0097943805904,-0.0105238472138,0.0458740207653,-0.998843768391
1653356000000,,14018,,1653,348199095,"""map""",,,-0.175664231181,0.141367688775,0.0117363957688,,0.00979802291776,-0.0105353013608,0.0458678251785,-0.998843979125
1653392000000,,14019,,1653,388198628,"""map""",,,-0.175621896982,0.141547888517,0.0122130550444,,0.00979290285768,-0.0105662943175,0.0458669400947,-0.998843684097
1653424000000,,14020,,1653,420198628,"""map""",,,-0.175649821758,0.141694664955,0.0126195596531,,0.00980979950456,-0.0105566192697,0.0459059680764,-0.998841829635
1653456000000,,14021,,1653,452198628,"""map""",,,-0.175711944699,0.141780793667,0.013123341836,,0.00976712437987,-0.0105750006874,0.0458961478607,-0.998842546132
1653492000000,,14022,,1653,484198160,"""map""",,,-0.175848096609,0.141797199845,0.0135639086366,,0.00975397686804,-0.0103874014427,0.0458923124975,-0.998844779915
1653524000000,,14023,,1653,516198160,"""map""",,,-0.176018163562,0.141792595387,0.0142312096432,,0.00976550779716,-0.0103506917229,0.0458990981401,-0.998844737768
1653556000000,,14024,,1653,548198160,"""map""",,,-0.176225140691,0.141762197018,0.0148802194744,,0.00977861733978,-0.0103944646207,0.0459144817398,-0.998843431216
1653592000000,,14025,,1653,588197691,"""map""",,,-0.176402583718,0.14170217514,0.0157464630902,,0.00972892202775,-0.0103875896424,0.0460123045752,-0.998839511559
1653624000000,,14026,,1653,620197691,"""map""",,,-0.176532655954,0.141626670957,0.0164303015918,,0.00970496584549,-0.0103698573231,0.0460042545272,-0.998840312349
1653656000000,,14027,,1653,652197691,"""map""",,,-0.176649317145,0.141546562314,0.0171348247677,,0.00968656545339,-0.0104093574813,0.046004296674,-0.998840101615
1653692000000,,14028,,1653,684197222,"""map""",,,-0.176766142249,0.141447380185,0.0178714413196,,0.0097209741364,-0.0103753162661,0.0460059825479,-0.998840017321
1653724000000,,14029,,1653,716197222,"""map""",,,-0.176910534501,0.141330763698,0.0184376873076,,0.00967324136932,-0.0103960381716,0.0459797672082,-0.998841450314
1653756000000,,14030,,1653,748197222,"""map""",,,-0.177057445049,0.141171321273,0.0190668981522,,0.00969462245733,-0.0104048039341,0.0459955722764,-0.998840396643
1653792000000,,14031,,1653,788196753,"""map""",,,-0.177040472627,0.14122711122,0.0196042396128,,0.00967010933164,-0.0104205939792,0.0460626279123,-0.998837404216
1653824000000,,14032,,1653,820196753,"""map""",,,-0.177026182413,0.141286179423,0.01995616965,,0.00967796165171,-0.0104573066831,0.0460757355822,-0.998836350545
1653856000000,,14033,,1653,852196753,"""map""",,,-0.177053570747,0.141308233142,0.0203872602433,,0.00964124421456,-0.0104935183581,0.0460406272574,-0.998837909979
1653892000000,,14034,,1653,884196284,"""map""",,,-0.177125036716,0.141317918897,0.0209362301975,,0.009635809576,-0.0104701008446,0.046023768518,-0.998839005797
1653924000000,,14035,,1653,916196284,"""map""",,,-0.177207320929,0.141295865178,0.0215352009982,,0.00965257937074,-0.0104729688471,0.046056600913,-0.99883736207
1653956000000,,14036,,1653,948196284,"""map""",,,-0.177331879735,0.141254380345,0.0221611578017,,0.00963922585796,-0.0105058310824,0.0460952495731,-0.998835296874
1653992000000,,14037,,1653,988207814,"""map""",,,-0.177308484912,0.141321048141,0.0225912649184,,0.0096470463621,-0.0104932953996,0.0460954603073,-0.998835339021
1654024000000,,14038,,1654,20207814,"""map""",,,-0.177264109254,0.141359224916,0.0229237638414,,0.00963094857088,-0.0104842196685,0.046108062215,-0.998835043993
1654056000000,,14039,,1654,52207814,"""map""",,,-0.177249059081,0.141374185681,0.0233052968979,,0.00963938539036,-0.0103965625789,0.0461118975783,-0.998835676196
1654092000000,,14040,,1654,84207343,"""map""",,,-0.177249610424,0.141344696283,0.0236371066421,,0.00967691007961,-0.0104149509525,0.0461152271793,-0.998834959699
1654124000000,,14041,,1654,116207343,"""map""",,,-0.177274733782,0.141268745065,0.0240445137024,,0.00968054326966,-0.0104232861503,0.0460764520787,-0.998836645573
1654156000000,,14042,,1654,148207343,"""map""",,,-0.177321434021,0.141129687428,0.0246600471437,,0.00970888681949,-0.0104225132249,0.0460981155588,-0.998835381168
1654192000000,,14043,,1654,188206873,"""map""",,,-0.177250012755,0.140744566917,0.0251805838197,,0.00968967903125,-0.0101950947778,0.0460867780565,-0.998838457888
1654224000000,,14044,,1654,220206873,"""map""",,,-0.177187055349,0.140399858356,0.0257716756314,,0.00968192903252,-0.0101824944341,0.0460896018954,-0.998838500034
1654256000000,,14045,,1654,252206873,"""map""",,,-0.177165314555,0.140044391155,0.026396881789,,0.00974885141614,-0.0101532091862,0.0461249631013,-0.998836519133
1654292000000,,14046,,1654,284206401,"""map""",,,-0.177199304104,0.139685705304,0.0270196143538,,0.0097414743594,-0.0101852948329,0.0460930157901,-0.998837783538
1654324000000,,14047,,1654,316206401,"""map""",,,-0.177297219634,0.139314964414,0.0276463348418,,0.00976627868525,-0.0102048052841,0.0460943223424,-0.998837235629
1654356000000,,14048,,1654,348206401,"""map""",,,-0.177434191108,0.138898178935,0.0283472910523,,0.00977475433828,-0.0102094425693,0.0460562215914,-0.998838837209
1654392000000,,14049,,1654,388205930,"""map""",,,-0.177651241422,0.138355657458,0.0292684212327,,0.00974456892178,-0.010236701414,0.0460882531962,-0.998837404216
1654424000000,,14050,,1654,420205930,"""map""",,,-0.177841991186,0.137892410159,0.0299287792295,,0.0098100526326,-0.0102146908604,0.0460745133236,-0.998837657097
1654456000000,,14051,,1654,452205930,"""map""",,,-0.178052440286,0.137409076095,0.0307487305254,,0.00981375219159,-0.0101823011513,0.0460811303788,-0.998837614951
1654492000000,,14052,,1654,484205458,"""map""",,,-0.177983000875,0.137220725417,0.0315959528089,,0.0098335634124,-0.0101131583614,0.0460952917199,-0.998837530657
1654524000000,,14053,,1654,516205458,"""map""",,,-0.177866861224,0.137080222368,0.0324360653758,,0.00984986711197,-0.0101454368073,0.0460831112807,-0.998837572804
1654556000000,,14054,,1654,548205458,"""map""",,,-0.177805453539,0.136888384819,0.0334755294025,,0.00981286430896,-0.0101978297955,0.0461254267166,-0.998835381168
1654592000000,,14055,,1654,588204985,"""map""",,,-0.177815049887,0.13656643033,0.0346630513668,,0.00980385391778,-0.0102435277012,0.0460924257342,-0.998836603426
1654624000000,,14056,,1654,620204985,"""map""",,,-0.177896916866,0.136252939701,0.0355395823717,,0.00980888157583,-0.0102431928313,0.0460687392054,-0.998837614951
1654656000000,,14057,,1654,652204985,"""map""",,,-0.17804941535,0.135888963938,0.0363790951669,,0.00986223041048,-0.0100761080918,0.0461137098927,-0.998836729867
1654692000000,,14058,,1654,684204512,"""map""",,,-0.177997007966,0.135673105717,0.0368864126503,,0.00983861773121,-0.0100602818575,0.0460925943216,-0.998838120713
1654724000000,,14059,,1654,716204512,"""map""",,,-0.177929610014,0.135474383831,0.0370786786079,,0.0098205177383,-0.0100826544872,0.0461148478576,-0.998837024895
1654756000000,,14060,,1654,748204512,"""map""",,,-0.177903845906,0.135223597288,0.037322293967,,0.00984784648133,-0.0101175134192,0.0460721109533,-0.998838373594
1654792000000,,14061,,1654,788204039,"""map""",,,-0.177943199873,0.134830653667,0.0378020107746,,0.00988719215933,-0.0101628038813,0.0460911191819,-0.998836645573
1654824000000,,14062,,1654,820204039,"""map""",,,-0.1780372262,0.134442448616,0.0379916504025,,0.00988248333973,-0.0102104392661,0.0460808774977,-0.99883668772
1654856000000,,14063,,1654,852204039,"""map""",,,-0.178174331784,0.134028717875,0.0381633006036,,0.00988647550856,-0.0102359116957,0.0460102393796,-0.998839637999
1654892000000,,14064,,1654,884203565,"""map""",,,-0.178336977959,0.133919507265,0.038378149271,,0.0099194505196,-0.0102935260672,0.046027098119,-0.998837952125
1654924000000,,14065,,1654,916203565,"""map""",,,-0.178535476327,0.133830696344,0.038642629981,,0.00991105739042,-0.0102707818949,0.0459993233459,-0.998839511559
1654956000000,,14066,,1654,948203565,"""map""",,,-0.178766965866,0.133681252599,0.0386287383735,,0.00994044080261,-0.0102676678232,0.0459859627949,-0.99883989088
1654992000000,,14067,,1654,988203091,"""map""",,,-0.179108694196,0.133396938443,0.0387642085552,,0.00995228017751,-0.0102998481973,0.0460217876161,-0.998837783538
1655024000000,,14068,,1655,20203091,"""map""",,,-0.179417312145,0.133086904883,0.0389538891613,,0.00994628487063,-0.0103032620098,0.0460053924921,-0.998838584328
1655056000000,,14069,,1655,52203091,"""map""",,,-0.179750800133,0.132751137018,0.0391364768147,,0.00994517106607,-0.0102919161522,0.0460450948234,-0.998836898454
1655092000000,,14070,,1655,84202616,"""map""",,,-0.179875031114,0.132746756077,0.0392372012138,,0.00995410658896,-0.0103379150951,0.0460645666674,-0.998835381168
1655124000000,,14071,,1655,116202616,"""map""",,,-0.17997905612,0.132802769542,0.0394208356738,,0.00995291093967,-0.0103246412045,0.0460740075614,-0.998835128287
1655156000000,,14072,,1655,148202616,"""map""",,,-0.180137053132,0.132794559002,0.0395651757717,,0.0099718235765,-0.0103321032752,0.0460980734119,-0.998833737441
1655192000000,,14073,,1655,188202141,"""map""",,,-0.180398285389,0.132681623101,0.0394864603877,,0.00997756452057,-0.0102910906873,0.0461436341552,-0.99883200942
1655224000000,,14074,,1655,220202141,"""map""",,,-0.180670559406,0.132479161024,0.0393370427191,,0.00996333160391,-0.0101664457868,0.0461128248089,-0.998834833259
1655256000000,,14075,,1655,252202141,"""map""",,,-0.180938497186,0.132158711553,0.0393674299121,,0.00997015829236,-0.010084538439,0.0461438448894,-0.998834158909
1655292000000,,14076,,1655,284213665,"""map""",,,-0.181003570557,0.13202945888,0.0395296812057,,0.00998637674129,-0.0100788171895,0.0461610408036,-0.998833231678
1655324000000,,14077,,1655,316213665,"""map""",,,-0.181063845754,0.13190561533,0.0398197323084,,0.0100044080295,-0.0100877269572,0.0461843901577,-0.998831882979
1655356000000,,14078,,1655,348213665,"""map""",,,-0.18117390573,0.13167282939,0.0402258709073,,0.00995434062951,-0.010112594493,0.0461910072129,-0.998831840832
1655392000000,,14079,,1655,388213189,"""map""",,,-0.181401386857,0.131243437529,0.0407115630805,,0.00996097231676,-0.0101040359045,0.0462000687853,-0.998831461511
1655424000000,,14080,,1655,420213189,"""map""",,,-0.181669056416,0.130817234516,0.0411338917911,,0.00995158202258,-0.0101045872143,0.046201838953,-0.998831461511
1655456000000,,14081,,1655,452213189,"""map""",,,-0.18198004365,0.130330190063,0.0415068343282,,0.0099522135822,-0.0101125588801,0.046225483335,-0.998830323546
1655492000000,,14082,,1655,484212713,"""map""",,,-0.181972175837,0.130221381783,0.0416842587292,,0.00995294340386,-0.0101523598388,0.046173727005,-0.998832262301
1655524000000,,14083,,1655,516212713,"""map""",,,-0.181900545955,0.130129694939,0.0417911708355,,0.00993397874201,-0.0101842425097,0.0461441399174,-0.998833526706
1655556000000,,14084,,1655,548212713,"""map""",,,-0.181894153357,0.129922866821,0.0418363288045,,0.0099179610154,-0.010232422233,0.0461306950727,-0.998833821734
1655592000000,,14085,,1655,588212236,"""map""",,,-0.181989982724,0.129512935877,0.0419734120369,,0.0099245411098,-0.0102625678487,0.0461542130142,-0.998832304448
1655624000000,,14086,,1655,620212236,"""map""",,,-0.182116851211,0.129078671336,0.0420809276402,,0.00990272280997,-0.0102982169003,0.0461679528868,-0.998831545804
1655656000000,,14087,,1655,652212236,"""map""",,,-0.182298630476,0.128565564752,0.0421943478286,,0.00993310834168,-0.0103269396894,0.0462020918341,-0.998829354168
1655692000000,,14088,,1655,684211759,"""map""",,,-0.182197108865,0.12842169404,0.0420789644122,,0.00998893746074,-0.0103265139198,0.0461888577236,-0.998829438462
1655724000000,,14089,,1655,716211759,"""map""",,,-0.182033166289,0.128310859203,0.0419220179319,,0.0100442553538,-0.0103403089558,0.0462300773415,-0.998826825357
1655756000000,,14090,,1655,748211759,"""map""",,,-0.181929603219,0.128103449941,0.0417881645262,,0.0100571186007,-0.0103467897952,0.0462690210295,-0.998824802309
1655792000000,,14091,,1655,788211281,"""map""",,,-0.181850045919,0.12772102654,0.0416855439544,,0.0100435694076,-0.0103965431312,0.0462529209334,-0.998825223777
1655824000000,,14092,,1655,820211281,"""map""",,,-0.181826144457,0.127314850688,0.0416479110718,,0.010077623557,-0.0103955097205,0.0462412462563,-0.998825434511
1655856000000,,14093,,1655,852211281,"""map""",,,-0.18183401227,0.126819550991,0.0416333265603,,0.0101109679909,-0.0104012749278,0.0462297401667,-0.998825560952
1655892000000,,14094,,1655,884210802,"""map""",,,-0.181601166725,0.126768067479,0.0418372116983,,0.0100905060047,-0.0103974853541,0.046242721396,-0.998825223777
1655924000000,,14095,,1655,916210802,"""map""",,,-0.181354939938,0.12675756216,0.0419628508389,,0.0100711425118,-0.010407854446,0.0462539324577,-0.998824718015
1655956000000,,14096,,1655,948210802,"""map""",,,-0.18117569387,0.126613557339,0.0422069095075,,0.0100596341687,-0.0104164375344,0.0462801899444,-0.99882358005
1655992000000,,14097,,1655,988210324,"""map""",,,-0.181084468961,0.126278117299,0.0425538644195,,0.0100959140545,-0.0104298053191,0.0462880292582,-0.998822652819
1656024000000,,14098,,1656,20210324,"""map""",,,-0.181101173162,0.125886127353,0.0428701713681,,0.0101132335796,-0.0103967373607,0.046279726329,-0.998823285022
1656056000000,,14099,,1656,52210324,"""map""",,,-0.1811414361,0.125423550606,0.0431128516793,,0.0100365748006,-0.0104728139863,0.0462315524812,-0.998825434511
1656092000000,,14100,,1656,84209844,"""map""",,,-0.180994719267,0.125301972032,0.0434437394142,,0.0100288577291,-0.0104477078824,0.0462563769749,-0.998824633721
1656124000000,,14101,,1656,116209844,"""map""",,,-0.180851399899,0.12518966198,0.0436999611557,,0.0100301889768,-0.0104708204897,0.0462356407255,-0.998825392365
1656156000000,,14102,,1656,148209844,"""map""",,,-0.180785998702,0.124956063926,0.0438649728894,,0.0100414559119,-0.010505544986,0.0462377902148,-0.998824760162
1656192000000,,14103,,1656,188209365,"""map""",,,-0.180826276541,0.124509222806,0.0441312380135,,0.00998641537933,-0.0105308087701,0.0462463038782,-0.998824675868
1656224000000,,14104,,1656,220209365,"""map""",,,-0.180925294757,0.124023102224,0.0443756431341,,0.00999487913741,-0.0105033828815,0.0462781668956,-0.998823411463
1656256000000,,14105,,1656,252209365,"""map""",,,-0.181108027697,0.123443394899,0.0446128286421,,0.00994424013109,-0.0105289115857,0.0462593694012,-0.998824507281
1656292000000,,14106,,1656,284208885,"""map""",,,-0.181076481938,0.122923240066,0.0447941571474,,0.00989146682318,-0.0105231995559,0.0462184869581,-0.998826951798
1656324000000,,14107,,1656,316208885,"""map""",,,-0.181072324514,0.122351385653,0.0450697354972,,0.00989554086762,-0.0105042147467,0.0462328168866,-0.998826446036
1656356000000,,14108,,1656,348208885,"""map""",,,-0.181147113442,0.121658623219,0.0452036522329,,0.0099340589301,-0.0105169709596,0.0462221115871,-0.998826446036
1656392000000,,14109,,1656,388208404,"""map""",,,-0.181319966912,0.120651654899,0.0452615134418,,0.00990533875455,-0.0105437339409,0.0462036091206,-0.99882733112
1656424000000,,14110,,1656,420208404,"""map""",,,-0.181539639831,0.119747199118,0.0453008301556,,0.0099041973117,-0.010538235938,0.046186539647,-0.998828216203
1656456000000,,14111,,1656,452208404,"""map""",,,-0.181819394231,0.118774034083,0.045487344265,,0.00988732175883,-0.0105934480008,0.046202934771,-0.998826993945
1656492000000,,14112,,1656,484207923,"""map""",,,-0.181866854429,0.118498452008,0.0454044155777,,0.00990416971457,-0.0106050649729,0.0462024711557,-0.998826698917
1656524000000,,14113,,1656,516207923,"""map""",,,-0.181942552328,0.118308395147,0.0449999310076,,0.00988687627405,-0.0103486462425,0.0461803440602,-0.998830618574
1656556000000,,14114,,1656,548207923,"""map""",,,-0.182028591633,0.117990657687,0.0446398966014,,0.00986197452478,-0.0103483086149,0.0462435221862,-0.998827879029
1656592000000,,14115,,1656,588219441,"""map""",,,-0.182222485542,0.117396652699,0.0441181212664,,0.00990063586184,-0.0104013443323,0.0463098191789,-0.998823959372
1656624000000,,14116,,1656,620219441,"""map""",,,-0.182409211993,0.116769611835,0.0437270738184,,0.00990401520357,-0.0104291800002,0.0463174899053,-0.998823285022
1656656000000,,14117,,1656,652219441,"""map""",,,-0.182638525963,0.11601023376,0.0435384325683,,0.00986536378583,-0.0104428910204,0.0463155511503,-0.998823622197
1656692000000,,14118,,1656,684218960,"""map""",,,-0.182552859187,0.115636952221,0.0435564108193,,0.00986086183151,-0.0104427252112,0.046319512954,-0.99882345361
1656724000000,,14119,,1656,716218960,"""map""",,,-0.182408407331,0.115272536874,0.0436766967177,,0.00982782617264,-0.0104600242905,0.0463298810788,-0.998823116435
1656756000000,,14120,,1656,748218960,"""map""",,,-0.182330712676,0.114765502512,0.0438577793539,,0.00982854279255,-0.010511144343,0.0463566864744,-0.998821261973
1656792000000,,14121,,1656,788218477,"""map""",,,-0.18232421577,0.11393199116,0.0439967215061,,0.00981985280386,-0.0105491382452,0.0463560121248,-0.998821009092
1656824000000,,14122,,1656,820218477,"""map""",,,-0.182405516505,0.113154917955,0.0441228896379,,0.00980991767214,-0.0105483680774,0.046337046043,-0.998822020617
1656856000000,,14123,,1656,852218477,"""map""",,,-0.18254134059,0.112256892025,0.0442823804915,,0.00978695122053,-0.0105513648253,0.0463375518052,-0.998822189204
1656892000000,,14124,,1656,884217994,"""map""",,,-0.18227891624,0.111888036132,0.0444105416536,,0.00982509292482,-0.0105305823543,0.046336498134,-0.998822062764
1656924000000,,14125,,1656,916217994,"""map""",,,-0.18190985918,0.111602135003,0.0446843355894,,0.0098498534163,-0.010552121493,0.0463386054764,-0.998821557001
1656956000000,,14126,,1656,948217994,"""map""",,,-0.18159788847,0.111147455871,0.0450680367649,,0.00986179865223,-0.0105410731947,0.04633093475,-0.998821894176
1656992000000,,14127,,1656,988217510,"""map""",,,-0.181302458048,0.11033397913,0.0455270335078,,0.00983207958814,-0.0105463892335,0.0463399963224,-0.998821683442
1657024000000,,14128,,1657,20217510,"""map""",,,-0.181149452925,0.109522685409,0.0458156578243,,0.00977416240967,-0.0105448754043,0.046332030568,-0.998822652819
1657056000000,,14129,,1657,52217510,"""map""",,,-0.181095764041,0.108595825732,0.046284083277,,0.00984305336803,-0.0105244243457,0.046293634789,-0.998823959372
1657092000000,,14130,,1657,84217026,"""map""",,,-0.180866509676,0.108304448426,0.0465248078108,,0.0098749556718,-0.0105026754812,0.0462936769359,-0.998823832931
1657124000000,,14131,,1657,116217026,"""map""",,,-0.180621147156,0.108090139925,0.0466413758695,,0.00989808682127,-0.0104822878282,0.0462865119716,-0.998824170106
1657156000000,,14132,,1657,148217026,"""map""",,,-0.180425092578,0.107704527676,0.0466863997281,,0.00983354021928,-0.0104298729743,0.0462142301264,-0.998828764112
1657192000000,,14133,,1657,188216542,"""map""",,,-0.180220499635,0.106977947056,0.0466458760202,,0.00981476029975,-0.0103937500382,0.0462073601901,-0.998829564903
1657224000000,,14134,,1657,220216542,"""map""",,,-0.180130034685,0.106226466596,0.0465913526714,,0.00979654849834,-0.0103915416915,0.0461920187373,-0.998830492133
1657256000000,,14135,,1657,252216542,"""map""",,,-0.180079191923,0.105331584811,0.0466052629054,,0.00982928435482,-0.0104220379616,0.0462189927203,-0.998828637672
1657292000000,,14136,,1657,284216057,"""map""",,,-0.179711326957,0.105069048703,0.0467163734138,,0.00985409059456,-0.0104567628282,0.0462105212038,-0.998828426938
1657324000000,,14137,,1657,316216057,"""map""",,,-0.17928019166,0.104912526906,0.0467908382416,,0.00980162739938,-0.0104232820139,0.0461875090245,-0.998830365693
1657356000000,,14138,,1657,348216057,"""map""",,,-0.178902938962,0.104572072625,0.0467058643699,,0.00981429479111,-0.0104366561062,0.0461676578588,-0.998830997895
1657392000000,,14139,,1657,388215571,"""map""",,,-0.178534299135,0.103885732591,0.0465353019536,,0.00983217651766,-0.0104416416791,0.0461199054795,-0.998832978797
1657424000000,,14140,,1657,420215571,"""map""",,,-0.17831876874,0.103185728192,0.0464790798724,,0.00981066370017,-0.0104480527539,0.0461022459499,-0.998833948175
1657456000000,,14141,,1657,452215571,"""map""",,,-0.178166732192,0.102346107364,0.0464966259897,,0.00980275095863,-0.0104370033649,0.0460683598837,-0.998835718342
1657492000000,,14142,,1657,484215085,"""map""",,,-0.177690058947,0.102137550712,0.0464771836996,,0.00982742900857,-0.0104187592948,0.0460887589584,-0.998834706818
1657524000000,,14143,,1657,516215085,"""map""",,,-0.177157402039,0.10199778527,0.0464334636927,,0.00982121360376,-0.0104191110193,0.0460826476654,-0.998835001846
1657556000000,,14144,,1657,548215085,"""map""",,,-0.176685392857,0.101673930883,0.0464294888079,,0.00982062044038,-0.0103624595428,0.0460479186622,-0.998837193482
1657592000000,,14145,,1657,588214599,"""map""",,,-0.176203846931,0.101031057537,0.0464904680848,,0.00978236581628,-0.0104046390922,0.0461014873067,-0.998834706818
1657624000000,,14146,,1657,620214599,"""map""",,,-0.175902634859,0.100313819945,0.0465974807739,,0.00981211249808,-0.0104558551893,0.0460839542177,-0.998834706818
1657656000000,,14147,,1657,652214599,"""map""",,,-0.175672963262,0.0994509831071,0.0466679781675,,0.00982605658123,-0.0104457095908,0.0460373819501,-0.998836772014
1657692000000,,14148,,1657,684214112,"""map""",,,-0.175218299031,0.0992817804217,0.0461865402758,,0.00985208987461,-0.0104705567632,0.0460228834342,-0.998836940601
1657724000000,,14149,,1657,716214112,"""map""",,,-0.17474655807,0.0991849079728,0.045723028481,,0.00984963543807,-0.0104309697184,0.0460654096043,-0.998835465461
1657756000000,,14150,,1657,748214112,"""map""",,,-0.17431782186,0.0989250913262,0.0454224608839,,0.00984936037226,-0.0104118203554,0.046105575551,-0.998833821734
1657792000000,,14151,,1657,788213624,"""map""",,,-0.173854321241,0.0983598977327,0.0452458746731,,0.0098551916604,-0.0104728234323,0.0461220549687,-0.998832346595
1657824000000,,14152,,1657,820213624,"""map""",,,-0.173564434052,0.097715318203,0.04517031461,,0.00985597053334,-0.0104544732748,0.046110295998,-0.998833063091
1657856000000,,14153,,1657,852213624,"""map""",,,-0.173354297876,0.0969360470772,0.0452991947532,,0.0098681932223,-0.0104357415319,0.046057991759,-0.998835549755
1657892000000,,14154,,1657,884213136,"""map""",,,-0.173070982099,0.0972757264972,0.0448640026152,,0.00982241301911,-0.0104024740036,0.046039067824,-0.998837193482
1657924000000,,14155,,1657,916213136,"""map""",,,-0.172783240676,0.0977647230029,0.0443019978702,,0.00981761566642,-0.0104077560451,0.0460751876732,-0.998835549755
1657956000000,,14156,,1657,948213136,"""map""",,,-0.172536894679,0.0980138853192,0.0438399277627,,0.00982737630443,-0.0103468106937,0.0460687392054,-0.998836350545
1657992000000,,14157,,1657,988212648,"""map""",,,-0.172344073653,0.0980218276381,0.0431564934552,,0.00985596911335,-0.0103065893059,0.0460631336745,-0.998836729867
1658024000000,,14158,,1658,20212648,"""map""",,,-0.172250509262,0.097807854414,0.0425728112459,,0.0098562714676,-0.0103120360452,0.0460405429637,-0.998837741391
1658056000000,,14159,,1658,52212648,"""map""",,,-0.172229006886,0.097388908267,0.0419760644436,,0.00988896023815,-0.0102922363077,0.0460481715433,-0.998837277776
1658092000000,,14160,,1658,84212159,"""map""",,,-0.172282770276,0.0978516861796,0.0413419678807,,0.0099072859266,-0.010355580675,0.0461271547374,-0.99883281021
1658124000000,,14161,,1658,116212159,"""map""",,,-0.172380685806,0.0984034091234,0.0408237725496,,0.00994367689032,-0.0103732917768,0.0461437605957,-0.998831461511
1658156000000,,14162,,1658,148212159,"""map""",,,-0.172554731369,0.0987018123269,0.0404025018215,,0.0100287276563,-0.0103469594733,0.0461680793273,-0.998829817784
1658192000000,,14163,,1658,188211670,"""map""",,,-0.172821998596,0.098733894527,0.0399540886283,,0.0100114815692,-0.0103455727021,0.0461715353689,-0.998829817784
1658224000000,,14164,,1658,220211670,"""map""",,,-0.173073783517,0.0985428839922,0.0395881719887,,0.00996275665339,-0.0103269495882,0.0461572475873,-0.998831124336
1658256000000,,14165,,1658,252211670,"""map""",,,-0.173339381814,0.0981683954597,0.0393539555371,,0.00994951427,-0.0103353490353,0.046195980541,-0.998829396315
1658292000000,,14166,,1658,284211180,"""map""",,,-0.173430010676,0.0984263271093,0.0389649271965,,0.00994310889568,-0.0103068647215,0.0461736005645,-0.998830787161
1658324000000,,14167,,1658,316211180,"""map""",,,-0.173481747508,0.0987602695823,0.0386162437499,,0.00994850231346,-0.0103011301777,0.0461874247308,-0.998830197105
1658356000000,,14168,,1658,348211180,"""map""",,,-0.173573076725,0.0988623052835,0.0383619330823,,0.0099591900175,-0.0103544450973,0.0461427069245,-0.998831587951
1658392000000,,14169,,1658,388210690,"""map""",,,-0.173738375306,0.098676584661,0.0381191410124,,0.00994681483947,-0.0100776928946,0.0461400095262,-0.998834706818
1658424000000,,14170,,1658,420210690,"""map""",,,-0.173854574561,0.0982922017574,0.0380796641111,,0.00996608273019,-0.0100990637854,0.0461105910259,-0.998835634049
1658456000000,,14171,,1658,452210690,"""map""",,,-0.173980727792,0.0977398604155,0.0381128899753,,0.00999725741945,-0.010130149211,0.0461335189115,-0.998833863881
1658492000000,,14172,,1658,484210200,"""map""",,,-0.173884123564,0.0977749675512,0.0378623865545,,0.0100005201834,-0.0101683484093,0.0461666041876,-0.998831967273
1658524000000,,14173,,1658,516210200,"""map""",,,-0.173752501607,0.0978256911039,0.0376693755388,,0.0100066767565,-0.0101918197536,0.0461462472598,-0.998832599476
1658556000000,,14174,,1658,548210200,"""map""",,,-0.17367233336,0.0976580455899,0.0375502035022,,0.0100612721387,-0.0101653218314,0.0461661827191,-0.998831377217
1658592000000,,14175,,1658,588209709,"""map""",,,-0.173635616899,0.0971831977367,0.0376167073846,,0.0101048207545,-0.0101421406801,0.046173727005,-0.998830829308
1658624000000,,14176,,1658,620209709,"""map""",,,-0.173654824495,0.0965818092227,0.0377563238144,,0.0101226777078,-0.0101263897522,0.0461238251364,-0.998833189532
1658656000000,,14177,,1658,652209709,"""map""",,,-0.173739284277,0.0958055406809,0.0379571020603,,0.0101296730033,-0.0101365350531,0.0460801610013,-0.998834959699
1658692000000,,14178,,1658,684209217,"""map""",,,-0.173705145717,0.0957706421614,0.0379089079797,,0.0101492308623,-0.0102097713837,0.0461039318239,-0.99883293665
1658724000000,,14179,,1658,716209217,"""map""",,,-0.173648223281,0.095811791718,0.0378941074014,,0.0101576431227,-0.0102019728868,0.0461010658382,-0.998833105238
1658756000000,,14180,,1658,748209217,"""map""",,,-0.17361111939,0.0956393033266,0.0379667691886,,0.0101411996187,-0.0101548405039,0.0461240780175,-0.998832683769
1658792000000,,14181,,1658,788208726,"""map""",,,-0.173607736826,0.0951478332281,0.0380239635706,,0.0101602366832,-0.0101467813764,0.0461621787685,-0.998830745014
1658824000000,,14182,,1658,820208726,"""map""",,,-0.173663377762,0.0945601835847,0.0377659127116,,0.0101534393906,-0.0101368121258,0.0461937046112,-0.998829480609
1658856000000,,14183,,1658,852208726,"""map""",,,-0.173779398203,0.0938161164522,0.0375605821609,,0.0101617116415,-0.0101219004292,0.0462551547163,-0.998826698917
1658892000000,,14184,,1658,884208233,"""map""",,,-0.173698082566,0.0937816277146,0.0371397584677,,0.0101738500394,-0.00989757108831,0.0462582314363,-0.998828679819
1658924000000,,14185,,1658,916208233,"""map""",,,-0.173547372222,0.0938205495477,0.0367997176945,,0.0101932204264,-0.00992983190783,0.0462342077326,-0.998829269875
1658956000000,,14186,,1658,948208233,"""map""",,,-0.173421666026,0.0936750173569,0.0365280993283,,0.0102861253337,-0.01000485585,0.0463116736402,-0.998823959372
1658992000000,,14187,,1658,988207741,"""map""",,,-0.173313438892,0.0932292044163,0.0363262295723,,0.0102707993258,-0.010033173624,0.0462377480679,-0.99882733112
1659024000000,,14188,,1659,20207741,"""map""",,,-0.173258244991,0.0927127301693,0.0362404733896,,0.010296265849,-0.0100429445003,0.0462740786513,-0.998825223777
1659056000000,,14189,,1659,52207741,"""map""",,,-0.173245087266,0.0920521095395,0.036107711494,,0.0103220932855,-0.0100900482339,0.0463160990593,-0.998822568526
1659092000000,,14190,,1659,84207248,"""map""",,,-0.173151537776,0.0922154709697,0.0353931598365,,0.0103573653615,-0.0101444001142,0.0463219996181,-0.998821388414
1659124000000,,14191,,1659,116207248,"""map""",,,-0.173077180982,0.0924511700869,0.0345661789179,,0.0103312328337,-0.0101697120955,0.0463058995219,-0.998822147057
1659156000000,,14192,,1659,148207248,"""map""",,,-0.173057258129,0.0924325585365,0.0338576473296,,0.0103286071164,-0.0102487447808,0.0463339271762,-0.998820081862
1659192000000,,14193,,1659,188218755,"""map""",,,-0.173110753298,0.0921124815941,0.0332305319607,,0.01035638093,-0.0102436670451,0.0462792205668,-0.998822357791
1659224000000,,14194,,1659,220218755,"""map""",,,-0.173195555806,0.0916271880269,0.0328105911613,,0.0103392690986,-0.0102655770318,0.0463084704797,-0.998820924799
1659256000000,,14195,,1659,252218755,"""map""",,,-0.173323899508,0.090987443924,0.0323581844568,,0.0103476613943,-0.0102448831247,0.0463076275427,-0.998821093386
1659292000000,,14196,,1659,284218261,"""map""",,,-0.172930374742,0.0910624563694,0.0317783765495,,0.0103824703643,-0.0102131337524,0.0462857111815,-0.99882210491
1659324000000,,14197,,1659,316218261,"""map""",,,-0.17243103683,0.0912332311273,0.0311714801937,,0.0103881451916,-0.0102195787783,0.0462640898482,-0.998822989994
1659356000000,,14198,,1659,348218261,"""map""",,,-0.1720046103,0.0912213101983,0.0307139698416,,0.0104285998945,-0.010161837282,0.046286975587,-0.99882210491
1659392000000,,14199,,1659,388217766,"""map""",,,-0.171564653516,0.0909652635455,0.0302806179971,,0.0104083117949,-0.010180842537,0.046288071405,-0.998822020617
1659424000000,,14200,,1659,420217766,"""map""",,,-0.171260535717,0.0905715376139,0.029973693192,,0.0104373719132,-0.0101847544251,0.0463052251724,-0.998820882652
1659456000000,,14201,,1659,452217766,"""map""",,,-0.171035781503,0.0900237634778,0.029928907752,,0.0104261947151,-0.0102129089007,0.0463201873036,-0.998820081862
1659492000000,,14202,,1659,484217272,"""map""",,,-0.170900791883,0.0893201678991,0.0302241723984,,0.0104728497535,-0.0100574056747,0.0462865119716,-0.998822652819
1659524000000,,14203,,1659,516217272,"""map""",,,-0.170780867338,0.0884955972433,0.0305244401097,,0.0104898851063,-0.0100738955057,0.0462722663368,-0.998822989994
1659556000000,,14204,,1659,548217272,"""map""",,,-0.17068515718,0.0875683799386,0.0308339353651,,0.0105289715338,-0.0101169941157,0.0463154247097,-0.998820208302
1659592000000,,14205,,1659,588216776,"""map""",,,-0.170460239053,0.0876117348671,0.031234998256,,0.0105376847568,-0.0102040187762,0.0463576979988,-0.998817215876
1659624000000,,14206,,1659,620216776,"""map""",,,-0.170310690999,0.0876852720976,0.0315968394279,,0.0105601169642,-0.0102349668695,0.0463990019103,-0.998814771359
1659656000000,,14207,,1659,652216776,"""map""",,,-0.170182853937,0.0875543802977,0.0319945849478,,0.0105191493219,-0.0102605140336,0.0464493252474,-0.998812579723
1659692000000,,14208,,1659,684216281,"""map""",,,-0.170089438558,0.0872373059392,0.0324300676584,,0.0105027154055,-0.010260701657,0.0464251329564,-0.998813928422
1659724000000,,14209,,1659,716216281,"""map""",,,-0.170038983226,0.0867648497224,0.0328789688647,,0.01047147249,-0.010260599171,0.0464009406653,-0.998815361415
1659756000000,,14210,,1659,748216281,"""map""",,,-0.17001400888,0.0861543565989,0.0331712327898,,0.0105315914811,-0.010286388628,0.0463635564107,-0.998816162205
1659792000000,,14211,,1659,788215784,"""map""",,,-0.170031458139,0.0863476470113,0.0325552001595,,0.010557255825,-0.0103324937818,0.0463702156128,-0.99881515068
1659824000000,,14212,,1659,820215784,"""map""",,,-0.170113161206,0.0864831879735,0.0320243984461,,0.0105580174523,-0.0103556307347,0.046384334807,-0.998814181303
1659856000000,,14213,,1659,852215784,"""map""",,,-0.170233607292,0.0864167064428,0.0315581150353,,0.0106167349167,-0.0104448039275,0.0463370881898,-0.998814897799
1659892000000,,14214,,1659,884215288,"""map""",,,-0.17041797936,0.0861320719123,0.0310536660254,,0.0106089833539,-0.0104862202855,0.0463425251333,-0.998814265597
1659924000000,,14215,,1659,916215288,"""map""",,,-0.170636504889,0.0856928229332,0.0304814465344,,0.0105411622223,-0.0105327072092,0.0463254978065,-0.998815277121
1659956000000,,14216,,1659,948215288,"""map""",,,-0.170873090625,0.0851132944226,0.0298766605556,,0.0105089516517,-0.0105054749184,0.046365157991,-0.998814054862
1659992000000,,14217,,1659,988214791,"""map""",,,-0.171266034245,0.0855225846171,0.0286694113165,,0.0104849310174,-0.0105327645676,0.0463595103133,-0.998814307743
1660024000000,,14218,,1660,20214791,"""map""",,,-0.171590924263,0.085856102407,0.027603155002,,0.0104832647236,-0.0105146995508,0.0463675603613,-0.998814097009
1660056000000,,14219,,1660,52214791,"""map""",,,-0.171937838197,0.0859539061785,0.0266686491668,,0.0104966424726,-0.0105607554437,0.0463811316465,-0.998812832604
1660092000000,,14220,,1660,84214293,"""map""",,,-0.172294318676,0.0858540683985,0.0259111560881,,0.0105611799167,-0.0103362759778,0.0463784342482,-0.998814687065
1660124000000,,14221,,1660,116214293,"""map""",,,-0.172658085823,0.0855792835355,0.0253333859146,,0.0105577528254,-0.010403278956,0.0463979060922,-0.998813085485
1660156000000,,14222,,1660,148214293,"""map""",,,-0.173054784536,0.0851339325309,0.0249140076339,,0.0105036377588,-0.010437470417,0.0464083585107,-0.998812832604
1660192000000,,14223,,1660,188213795,"""map""",,,-0.172789409757,0.0856127217412,0.0238085296005,,0.0105858114776,-0.0103979861874,0.0463923005614,-0.998813127632
1660224000000,,14224,,1660,220213795,"""map""",,,-0.172528803349,0.0860072076321,0.0228099171072,,0.0105613613355,-0.0104601682957,0.0463693726758,-0.998813801981
1660256000000,,14225,,1660,252213795,"""map""",,,-0.172379046679,0.0861937180161,0.0219363477081,,0.0105876201855,-0.0104719970258,0.04637961436,-0.998812916897
1660292000000,,14226,,1660,284213297,"""map""",,,-0.172319367528,0.0861799195409,0.0211399048567,,0.0106524036731,-0.010529855599,0.0464084006575,-0.998810261646
1660324000000,,14227,,1660,316213297,"""map""",,,-0.172317996621,0.085989817977,0.0204575564712,,0.0106529743431,-0.0105317650076,0.0463735873607,-0.998811863226
1660356000000,,14228,,1660,348213297,"""map""",,,-0.172392219305,0.0856318548322,0.0198177415878,,0.0106116520926,-0.0105349048475,0.0463792350384,-0.998812031814
1660392000000,,14229,,1660,388212798,"""map""",,,-0.172376275063,0.0859585404396,0.0190905220807,,0.0106372796737,-0.0105858515047,0.0463914154776,-0.998810640968
1660424000000,,14230,,1660,420212798,"""map""",,,-0.172427713871,0.0861782059073,0.0185632687062,,0.0106828720374,-0.0106405146399,0.0464305698998,-0.998807732835
1660456000000,,14231,,1660,452212798,"""map""",,,-0.172527074814,0.0862029343843,0.0180026162416,,0.0106914635557,-0.0107139817185,0.0464539614008,-0.998805751933
1660492000000,,14232,,1660,484212299,"""map""",,,-0.172704666853,0.0860313624144,0.017531203106,,0.0107382859982,-0.0106927318764,0.0464232363482,-0.998806889898
1660524000000,,14233,,1660,516212299,"""map""",,,-0.172940075397,0.0857029482722,0.0170638319105,,0.010791031107,-0.0107146288363,0.0464106344405,-0.998806763458
1660556000000,,14234,,1660,548212299,"""map""",,,-0.173203453422,0.0852183774114,0.0164933800697,,0.0108801244642,-0.0105138766236,0.0464505896529,-0.998806004814
1660592000000,,14235,,1660,588211799,"""map""",,,-0.173139408231,0.0856795832515,0.0159647408873,,0.0109318952821,-0.0105770903109,0.0464604520154,-0.99880431894
1660624000000,,14236,,1660,620211799,"""map""",,,-0.173088297248,0.0860592201352,0.015573322773,,0.0109226838805,-0.0105814324344,0.0464687970914,-0.998803981766
1660656000000,,14237,,1660,652211799,"""map""",,,-0.173089802265,0.0862262547016,0.015219014138,,0.0109472836048,-0.0106706950555,0.0464234892293,-0.998804866849
1660692000000,,14238,,1660,684211299,"""map""",,,-0.173143699765,0.0862084105611,0.0149020459503,,0.0109097360209,-0.0107494003542,0.0464423288706,-0.998803560297
1660724000000,,14239,,1660,716211299,"""map""",,,-0.173220872879,0.0860423371196,0.0145595371723,,0.0109196430873,-0.0107920859692,0.0464620114488,-0.998802085157
1660756000000,,14240,,1660,748211299,"""map""",,,-0.173354819417,0.0857145264745,0.014358246699,,0.0109706197983,-0.0108107095102,0.0464747819439,-0.998800778605
1660792000000,,14241,,1660,788210798,"""map""",,,-0.173517465591,0.0863338559866,0.0143199441954,,0.0109594573043,-0.0108098338106,0.046399634113,-0.998804361087
1660824000000,,14242,,1660,820210798,"""map""",,,-0.173678278923,0.0868235602975,0.0143477618694,,0.0109492090192,-0.0108027531555,0.0463817638493,-0.998805456905
1660856000000,,14243,,1660,852210798,"""map""",,,-0.173910588026,0.0871016904712,0.014608014375,,0.0109721474569,-0.0107526616106,0.0463870322053,-0.998805414758
1660892000000,,14244,,1660,884210298,"""map""",,,-0.174202501774,0.087214410305,0.0148983085528,,0.0110290869952,-0.0107991082917,0.0464011935464,-0.998803644591
1660924000000,,14245,,1660,916210298,"""map""",,,-0.174544200301,0.0871933400631,0.0151913342997,,0.0110494028978,-0.0107844585061,0.0464303591656,-0.998802211598
1660956000000,,14246,,1660,948210298,"""map""",,,-0.174906939268,0.0870405063033,0.0155746331438,,0.011022949772,-0.0107942860172,0.0464621800362,-0.998800905046
1660992000000,,14247,,1660,988209796,"""map""",,,-0.17499807477,0.0878873243928,0.015798766166,,0.0109957678432,-0.0108304689323,0.0465189096943,-0.998798207647
1661024000000,,14248,,1661,20209796,"""map""",,,-0.17506814003,0.0885768979788,0.0159035213292,,0.0110509091743,-0.0108329647337,0.0465539337254,-0.998795889571
1661056000000,,14249,,1661,52209796,"""map""",,,-0.175213754177,0.0890608653426,0.0160423144698,,0.0110825765732,-0.010833614748,0.0465296149938,-0.998796690361
1661092000000,,14250,,1661,84209295,"""map""",,,-0.175410017371,0.0893650949001,0.0161740947515,,0.0111849334155,-0.0108080573662,0.0464644138192,-0.99879883985
1661124000000,,14251,,1661,116209295,"""map""",,,-0.175654292107,0.0895252972841,0.0164906010032,,0.0112634591681,-0.0108029632775,0.0464026265393,-0.998800947192
1661156000000,,14252,,1661,148209295,"""map""",,,-0.175933286548,0.0895403325558,0.0167326256633,,0.0111955940986,-0.0107777799593,0.0464344052631,-0.99880044143
1661192000000,,14253,,1661,188208793,"""map""",,,-0.175770044327,0.0905549824238,0.0168650001287,,0.0112123438489,-0.0106737822813,0.0464224777049,-0.998802000864
1661224000000,,14254,,1661,220208793,"""map""",,,-0.175612851977,0.0913801789284,0.0170726571232,,0.0112153997629,-0.0105692341219,0.0464058718466,-0.998803771031
1661256000000,,14255,,1661,252208793,"""map""",,,-0.175542235374,0.0920108109713,0.0171563830227,,0.0112699260752,-0.0106232359446,0.0463950401065,-0.998803138829
1661292000000,,14256,,1661,284208290,"""map""",,,-0.175577491522,0.0924606323242,0.0171837639064,,0.0112958131923,-0.0106532605733,0.0464066726367,-0.998801958717
1661324000000,,14257,,1661,316208290,"""map""",,,-0.175692558289,0.0927528291941,0.0171405673027,,0.0113207188516,-0.010677967023,0.0463540733698,-0.998803897472
1661356000000,,14258,,1661,348208290,"""map""",,,-0.175862595439,0.0929008722305,0.0170180238783,,0.0113315532259,-0.0106979156532,0.046298102355,-0.998806173402
1661392000000,,14259,,1661,388207787,"""map""",,,-0.175967812538,0.0938828140497,0.0169850829989,,0.0113539907016,-0.0106890178526,0.0462580628489,-0.998807859276
1661424000000,,14260,,1661,420207787,"""map""",,,-0.176074117422,0.0946369767189,0.0170203503221,,0.011362231954,-0.0106706310635,0.0462120384903,-0.998810050912
1661456000000,,14261,,1661,452207787,"""map""",,,-0.176237612963,0.095202550292,0.0170685965568,,0.0113875606047,-0.0106980768526,0.0462612238625,-0.998807227073
1661492000000,,14262,,1661,484207284,"""map""",,,-0.176479652524,0.0956199020147,0.0171158928424,,0.0113483579441,-0.0106587599344,0.0462340812921,-0.998809334415
1661524000000,,14263,,1661,516207284,"""map""",,,-0.176782056689,0.0958904027939,0.0171501114964,,0.0113628064311,-0.0106739024863,0.0462425528086,-0.998808617919
1661556000000,,14264,,1661,548207284,"""map""",,,-0.177149042487,0.0960332900286,0.0173024553806,,0.0113392028171,-0.0107363654946,0.0462457138223,-0.99880807001
1661592000000,,14265,,1661,588206781,"""map""",,,-0.177308902144,0.0968565791845,0.0173272769898,,0.0113715029435,-0.010728312977,0.0462742050919,-0.99880646843
1661624000000,,14266,,1661,620206781,"""map""",,,-0.177448734641,0.0974847748876,0.0173065941781,,0.0113377639797,-0.010767307126,0.0463142024511,-0.998804571821
1661656000000,,14267,,1661,652206781,"""map""",,,-0.177638143301,0.0979459956288,0.017301460728,,0.0113580818888,-0.0107232565899,0.0463021063056,-0.998805372612
1661692000000,,14268,,1661,684206277,"""map""",,,-0.177875131369,0.0982851833105,0.0170966051519,,0.0113663947373,-0.0106904155927,0.0463016005434,-0.998805709786
1661724000000,,14269,,1661,716206277,"""map""",,,-0.178175225854,0.0985248535872,0.0169536788017,,0.0113872796943,-0.0106839435408,0.046322294646,-0.998804487528
1661756000000,,14270,,1661,748206277,"""map""",,,-0.17853333056,0.0986583009362,0.0168958436698,,0.0114321278512,-0.0106609432564,0.0463107885564,-0.998804782556
1661792000000,,14271,,1661,788205773,"""map""",,,-0.17852987349,0.0995460748672,0.0163132622838,,0.0114379045625,-0.0106456927239,0.0462508557378,-0.998807648541
1661824000000,,14272,,1661,820205773,"""map""",,,-0.178556889296,0.100266493857,0.0157238636166,,0.0114113135642,-0.010648178359,0.0462418363122,-0.998808322891
1661856000000,,14273,,1661,852205773,"""map""",,,-0.178653895855,0.100852206349,0.015107951127,,0.0114424095008,-0.0105805674465,0.0462174754338,-0.998809840177
1661892000000,,14274,,1661,884205268,"""map""",,,-0.178814217448,0.101305365562,0.0145185394213,,0.0114713154477,-0.0106007520414,0.0462636683797,-0.998807142779
1661924000000,,14275,,1661,916205268,"""map""",,,-0.179013296962,0.101604625583,0.01388401445,,0.0114939219224,-0.010622094193,0.0462489591296,-0.998807353513
1661956000000,,14276,,1661,948205268,"""map""",,,-0.179315090179,0.101796351373,0.0132025629282,,0.0115479606853,-0.0103527061076,0.04624828478,-0.998809629443
1661992000000,,14277,,1661,988204763,"""map""",,,-0.1790869385,0.102679535747,0.0130439987406,,0.0115426845502,-0.0104237589853,0.0462195406294,-0.998810303793
1662024000000,,14278,,1662,20204763,"""map""",,,-0.178874567151,0.10338973254,0.0130342058837,,0.0115731363068,-0.0104356213475,0.0461824092558,-0.998811526051
1662056000000,,14279,,1662,52204763,"""map""",,,-0.178739652038,0.103982895613,0.0130823478103,,0.0116386601682,-0.010469126775,0.0460827319591,-0.99881502424
1662092000000,,14280,,1662,84204258,"""map""",,,-0.178714677691,0.104456864297,0.0131746791303,,0.0116459356033,-0.0105495721026,0.046071900219,-0.998814560625
