rosbagTimestamp,header,seq,stamp,secs,nsecs,frame_id,pose,position,x,y,z,orientation,x,y,z,w
920804000000,,21327,,920,796146699,"""map""",,,0.0067414008081,0.146185785532,-0.000219521694817,,-0.000404544179367,-0.00159455641349,0.0526353867908,-0.998612466486
920836000000,,21328,,920,828146699,"""map""",,,0.00565053150058,0.145496219397,-0.000783953699283,,-0.000392517139859,-0.00155155432146,0.0526244286102,-0.998613140835
920868000000,,21329,,920,860146699,"""map""",,,0.00445312913507,0.144678130746,-0.00133981904946,,-0.000454930530967,-0.00157646376747,0.0526287275887,-0.998612803661
920904000000,,21330,,920,900146290,"""map""",,,0.00393550936133,0.14454202354,-0.00195541535504,,-0.000471380108436,-0.00158321981674,0.0525853584816,-0.998615121737
920936000000,,21331,,920,932146290,"""map""",,,0.00350153725594,0.144421443343,-0.00248777936213,,-0.000454787421013,-0.00157484625868,0.0525282916487,-0.998618072017
920968000000,,21332,,920,964146290,"""map""",,,0.00285223987885,0.14413818717,-0.00303208455443,,-0.000406310848487,-0.00158557094411,0.0524640177047,-0.998621485911
921004000000,,21333,,920,996145881,"""map""",,,0.00201432779431,0.143708735704,-0.0036195111461,,-0.000459176332046,-0.00159443610564,0.0524682745364,-0.998621275177
921036000000,,21334,,921,28145881,"""map""",,,0.00101841706783,0.143118217587,-0.00417654588819,,-0.000491111665939,-0.00159196751039,0.0524606881037,-0.998621612352
921068000000,,21335,,921,60145881,"""map""",,,-9.56924341153e-05,0.142365962267,-0.00491911591962,,-0.000474436001908,-0.00178469204238,0.0524705926131,-0.998620811562
921104000000,,21336,,921,100145472,"""map""",,,-0.000651610665955,0.142240136862,-0.00545624922961,,-0.000500612940305,-0.00173530091616,0.0524485076645,-0.998621991674
921136000000,,21337,,921,132145472,"""map""",,,-0.00111053313594,0.142126023769,-0.00578584196046,,-0.000528887631073,-0.00173551519008,0.0523516120597,-0.998627091442
921168000000,,21338,,921,164145472,"""map""",,,-0.00177260418423,0.141805782914,-0.00615240214393,,-0.000581790034283,-0.00170626572997,0.0523168409097,-0.998628903757
921204000000,,21339,,921,200145063,"""map""",,,-0.00260291900486,0.141293525696,-0.00651609711349,,-0.000601072917181,-0.00169396457131,0.0523542673112,-0.998626965002
921236000000,,21340,,921,232145063,"""map""",,,-0.00361200305633,0.140593484044,-0.00693898601457,,-0.000655925188361,-0.00164831233154,0.0523480717245,-0.998627344323
921268000000,,21341,,921,264145063,"""map""",,,-0.00478098867461,0.139716699719,-0.00744740804657,,-0.000654910083161,-0.00163060188829,0.0522963575413,-0.998630083869
921304000000,,21342,,921,296144653,"""map""",,,-0.00520588364452,0.139691501856,-0.00776683073491,,-0.000640332336137,-0.00158412004708,0.0522868323536,-0.998630673924
921336000000,,21343,,921,328144653,"""map""",,,-0.00553799094632,0.139761164784,-0.00807161163539,,-0.00063239374673,-0.00155483852408,0.0522201560392,-0.99863421426
921368000000,,21344,,921,360144653,"""map""",,,-0.00607668561861,0.139593586326,-0.00848064571619,,-0.000608061597295,-0.00152398875965,0.0521624148568,-0.998637248833
921404000000,,21345,,921,400144244,"""map""",,,-0.00706664891914,0.139094203711,-0.00892917718738,,-0.000569594572017,-0.0014985270829,0.052149560068,-0.998638049623
921436000000,,21346,,921,432144244,"""map""",,,-0.00805271603167,0.138475805521,-0.00915762130171,,-0.000513742383319,-0.0014252752428,0.0521102370583,-0.998640199112
921468000000,,21347,,921,464144244,"""map""",,,-0.00921818800271,0.137683108449,-0.00937524531037,,-0.000493491933904,-0.00140165214001,0.0520845274807,-0.998641632105
921504000000,,21348,,921,496143834,"""map""",,,-0.00943643040955,0.137778490782,-0.00924737285823,,-0.000506116602553,-0.00137317054279,0.0520542238967,-0.998643191538
921536000000,,21349,,921,528143834,"""map""",,,-0.00990787241608,0.137647762895,-0.00926233455539,,-0.000525137714008,-0.00135280007364,0.0520489976874,-0.998643528713
921568000000,,21350,,921,560143834,"""map""",,,-0.010638833046,0.137298241258,-0.0092310141772,,-0.000544785265927,-0.00156797319429,0.0520303266335,-0.998644160916
921604000000,,21351,,921,600143425,"""map""",,,-0.0118712121621,0.136603057384,-0.00908764172345,,-0.000556232168883,-0.00152831819588,0.0520152802086,-0.998645046
921636000000,,21352,,921,632143425,"""map""",,,-0.0130911804736,0.135805085301,-0.0091173555702,,-0.00054147628557,-0.00149730671761,0.052034372731,-0.998644076622
921668000000,,21353,,921,664143425,"""map""",,,-0.0145401069894,0.134811669588,-0.0093048652634,,-0.000602549991353,-0.0015243604257,0.0520152802086,-0.998644961706
921704000000,,21354,,921,696143015,"""map""",,,-0.0148081565276,0.134801238775,-0.00939255207777,,-0.00059646203549,-0.00149529478182,0.0520011610144,-0.998645762496
921736000000,,21355,,921,728143015,"""map""",,,-0.0153220146894,0.13458698988,-0.00956950895488,,-0.000586483892582,-0.00146620263152,0.052004322028,-0.998645636056
921768000000,,21356,,921,760143015,"""map""",,,-0.0160662308335,0.134139940143,-0.00984596647322,,-0.000556813334411,-0.00139594136551,0.0519568225297,-0.998648207013
921804000000,,21357,,921,800142605,"""map""",,,-0.0172879155725,0.133286967874,-0.0102991387248,,-0.000544164628887,-0.0013838149681,0.0519427454823,-0.998648965657
921836000000,,21358,,921,832142605,"""map""",,,-0.0185173377395,0.132428586483,-0.0107142701745,,-0.000493300420929,-0.00136268248064,0.0518859736774,-0.998652042377
921868000000,,21359,,921,864142605,"""map""",,,-0.0199426785111,0.13140951097,-0.0111547345296,,-0.000520887015005,-0.00131109885396,0.0518687777632,-0.998652969607
921904000000,,21360,,921,896142195,"""map""",,,-0.0200630296022,0.131583794951,-0.011285956949,,-0.000535720112661,-0.00126507017369,0.0518649845468,-0.998653222488
921936000000,,21361,,921,928142195,"""map""",,,-0.0204790104181,0.131478145719,-0.0114903422073,,-0.000534441136909,-0.00123457108421,0.051804840994,-0.998656383502
921968000000,,21362,,921,960142195,"""map""",,,-0.0211377125233,0.131120383739,-0.0118578067049,,-0.000519321057903,-0.00120254760825,0.0517646329005,-0.998658490844
922004000000,,21363,,922,141786,"""map""",,,-0.0222925953567,0.130390748382,-0.0123756090179,,-0.000539777425955,-0.00117832403634,0.051758648048,-0.998658828019
922036000000,,21364,,922,32141786,"""map""",,,-0.0234579648823,0.129554927349,-0.0128632541746,,-0.000590321519543,-0.0013520406895,0.0517571307615,-0.998658659432
922068000000,,21365,,922,64141786,"""map""",,,-0.0248594991863,0.128503963351,-0.0132223982364,,-0.000611437543397,-0.00136251619815,0.051742800833,-0.998659333781
922104000000,,21366,,922,96141376,"""map""",,,-0.0247657671571,0.128502994776,-0.0132793700323,,-0.000576827119394,-0.00138587209651,0.0517134244796,-0.998660893215
922136000000,,21367,,922,128141376,"""map""",,,-0.0249642860144,0.128255486488,-0.0133888367563,,-0.000562864988008,-0.00138050430022,0.0517256470657,-0.998660303159
922168000000,,21368,,922,160141376,"""map""",,,-0.0254301596433,0.127752259374,-0.0134998355061,,-0.000564269992716,-0.00137512168669,0.0517023398584,-0.998661525418
922204000000,,21369,,922,200140966,"""map""",,,-0.026384934783,0.126821085811,-0.0137879028916,,-0.000575562755098,-0.00134708032647,0.0516922667616,-0.998661989033
922236000000,,21370,,922,232140966,"""map""",,,-0.0273840688169,0.125850990415,-0.0140763102099,,-0.00052917385098,-0.00129103806536,0.0516244103355,-0.998665613662
922268000000,,21371,,922,264140966,"""map""",,,-0.0286000221968,0.124684177339,-0.0144012197852,,-0.000519007775933,-0.00128147579331,0.0515865203187,-0.998667594564
922304000000,,21372,,922,296140556,"""map""",,,-0.0287924241275,0.124817721546,-0.0144613338634,,-0.00054616582217,-0.00127739347591,0.0515787652986,-0.998668016032
922336000000,,21373,,922,328140556,"""map""",,,-0.0292670521885,0.124686919153,-0.0146897416562,,-0.000532962087103,-0.00125387973266,0.05153581766,-0.998670249815
922368000000,,21374,,922,360140556,"""map""",,,-0.0299846082926,0.124291807413,-0.0148955099285,,-0.000513999462632,-0.00121865764429,0.051454853564,-0.998674506647
922404000000,,21375,,922,400140146,"""map""",,,-0.0312203727663,0.123429439962,-0.0152143100277,,-0.000510208592331,-0.00121477680034,0.0514341173145,-0.998675518171
922436000000,,21376,,922,432140146,"""map""",,,-0.032483804971,0.122496411204,-0.0155681455508,,-0.000530353756943,-0.00124028605693,0.0514079019747,-0.99867686687
922468000000,,21377,,922,464140146,"""map""",,,-0.033995077014,0.121351674199,-0.0158543847501,,-0.000553794875079,-0.00115522361209,0.0513861120541,-0.998678089129
922504000000,,21378,,922,496139736,"""map""",,,-0.0337774679065,0.121531106532,-0.0158736277372,,-0.000579338808148,-0.00110418001249,0.0512878677502,-0.998683188898
922536000000,,21379,,922,528139736,"""map""",,,-0.0339022763073,0.121404625475,-0.0158349964768,,-0.000539615074154,-0.001275735302,0.0512519586352,-0.998684790478
922568000000,,21380,,922,560139736,"""map""",,,-0.0342966578901,0.120978206396,-0.0158765781671,,-0.000541867008258,-0.0012974399,0.0512184518907,-0.998686518499
922604000000,,21381,,922,600139326,"""map""",,,-0.035174973309,0.120078228414,-0.0159085113555,,-0.000512581657465,-0.00126715183288,0.0512195055619,-0.998686476352
922636000000,,21382,,922,632139326,"""map""",,,-0.0361695550382,0.119100376964,-0.0160192083567,,-0.000536810312515,-0.00121419565539,0.0512266283793,-0.998686181324
922668000000,,21383,,922,664139326,"""map""",,,-0.037390049547,0.117898650467,-0.0162171944976,,-0.00051525524527,-0.00119319985707,0.0512140264716,-0.99868689782
922704000000,,21384,,922,696138916,"""map""",,,-0.0370488129556,0.118127539754,-0.0159596782178,,-0.000513552125695,-0.00115722780998,0.0512026468225,-0.998687487876
922736000000,,21385,,922,728138916,"""map""",,,-0.0370023585856,0.11805345118,-0.015726942569,,-0.000513824763121,-0.00113977769761,0.0512186626249,-0.998686729233
922768000000,,21386,,922,760138916,"""map""",,,-0.0372671633959,0.117692649364,-0.0155586348847,,-0.000535135839626,-0.00111243698759,0.051216133814,-0.998686813527
922804000000,,21387,,922,800138506,"""map""",,,-0.0380165763199,0.116838470101,-0.0154068190604,,-0.000492058550044,-0.00108056516208,0.0512065243326,-0.998687403583
922836000000,,21388,,922,832138506,"""map""",,,-0.0388915166259,0.115892678499,-0.0153355291113,,-0.000458048492258,-0.0010673806277,0.0511786652657,-0.998688878722
922868000000,,21389,,922,864138506,"""map""",,,-0.0400238782167,0.114725582302,-0.0153328105807,,-0.00047246351705,-0.00105092362103,0.0511718374762,-0.998689215897
922904000000,,21390,,922,896138095,"""map""",,,-0.0396875627339,0.11504753679,-0.0149879595265,,-0.000513208777052,-0.0010361403258,0.0511518177232,-0.998690269568
922936000000,,21391,,922,928138095,"""map""",,,-0.0397063568234,0.115019410849,-0.0147341005504,,-0.000464583023615,-0.00100595344816,0.0511114831892,-0.998692334764
922968000000,,21392,,922,960138095,"""map""",,,-0.040026191622,0.114703781903,-0.0145905502141,,-0.000463079237231,-0.000993683940791,0.0510924749605,-0.998693388435
923004000000,,21393,,923,137685,"""map""",,,-0.0407893024385,0.113934695721,-0.0146281933412,,-0.00045333504226,-0.00117449165716,0.0510484315038,-0.998695369337
923036000000,,21394,,923,32137685,"""map""",,,-0.0416856706142,0.113054662943,-0.0145698459819,,-0.000400576119434,-0.00112256521691,0.0510248714155,-0.998696675889
923068000000,,21395,,923,64137685,"""map""",,,-0.0428018979728,0.111925534904,-0.0144970342517,,-0.000374255947606,-0.0011066883262,0.0509922919016,-0.99869840391
923104000000,,21396,,923,96137275,"""map""",,,-0.0422603189945,0.112304016948,-0.0146365966648,,-0.000382413173791,-0.00109976455388,0.0509984874883,-0.998698108882
923136000000,,21397,,923,128137275,"""map""",,,-0.0421003438532,0.112365990877,-0.0147155662999,,-0.000405415022161,-0.00102110812133,0.0510392434908,-0.99869612798
923168000000,,21398,,923,160137275,"""map""",,,-0.0422607511282,0.112091869116,-0.0149176977575,,-0.000379155889177,-0.000995744526556,0.0509914068178,-0.998698530351
923204000000,,21399,,923,200136865,"""map""",,,-0.0429214760661,0.111307688057,-0.0153109598905,,-0.000382492343188,-0.00097734493706,0.0509962958522,-0.998698361763
923236000000,,21400,,923,232136865,"""map""",,,-0.0437652468681,0.11038967222,-0.0156341996044,,-0.00037073014147,-0.000918964822371,0.0509783834416,-0.998699331141
923268000000,,21401,,923,264136865,"""map""",,,-0.0448845513165,0.109244294465,-0.0159368347377,,-0.000332830020116,-0.000947400835964,0.0509459303682,-0.998700932721
923304000000,,21402,,923,296136455,"""map""",,,-0.0443584993482,0.110042825341,-0.0159834437072,,-0.000294869971212,-0.000934306974932,0.0509077031766,-0.998702913623
923336000000,,21403,,923,328136455,"""map""",,,-0.0442123711109,0.110478065908,-0.0160648468882,,-0.000271618308099,-0.000874221559239,0.0508975457861,-0.998703545826
923368000000,,21404,,923,360148045,"""map""",,,-0.0444172024727,0.110574327409,-0.0161462705582,,-0.0002489152743,-0.000899673934042,0.0508347469818,-0.998706664692
923404000000,,21405,,923,400148045,"""map""",,,-0.0451139323413,0.110276900232,-0.0163991581649,,-0.000274363450881,-0.000919408002245,0.05084359782,-0.998706243224
923436000000,,21406,,923,432148045,"""map""",,,-0.0459967292845,0.109734378755,-0.0166831742972,,-0.000325393118147,-0.000930550945751,0.0508196162632,-0.998707381189
923468000000,,21407,,923,464148045,"""map""",,,-0.0471566617489,0.108952693641,-0.0169619470835,,-0.00031100293283,-0.000899558030208,0.0508075622645,-0.998708055538
923504000000,,21408,,923,496147635,"""map""",,,-0.0469007380307,0.109712541103,-0.0165317375213,,-0.000336230723376,-0.00110830114286,0.0508239995355,-0.99870695972
923536000000,,21409,,923,528147635,"""map""",,,-0.0470424704254,0.110103532672,-0.0160579551011,,-0.000331859181455,-0.00110078546251,0.0507615800528,-0.998710205028
923568000000,,21410,,923,560147635,"""map""",,,-0.0475271344185,0.110158957541,-0.0157746765763,,-0.000339689357973,-0.00109453645135,0.0507997650976,-0.998708181979
923604000000,,21411,,923,600147224,"""map""",,,-0.0485582388937,0.109809219837,-0.0154203996062,,-0.000347387413999,-0.00108241906777,0.0508143057603,-0.998707465482
923636000000,,21412,,923,632147224,"""map""",,,-0.0496831014752,0.109214141965,-0.0151943201199,,-0.000307775756049,-0.00102609544352,0.0507976156083,-0.998708392713
923668000000,,21413,,923,664147224,"""map""",,,-0.0510245896876,0.108366139233,-0.0150001198053,,-0.00029118669062,-0.000996707647899,0.0507262188469,-0.998712101636
923704000000,,21414,,923,696146814,"""map""",,,-0.0507949329913,0.109180100262,-0.0144467111677,,-0.000306369907581,-0.000955552258725,0.0506985283675,-0.998713492482
923736000000,,21415,,923,728146814,"""map""",,,-0.0509273894131,0.1095938012,-0.013958228752,,-0.000341952014005,-0.000959500685799,0.0506308405287,-0.998716948523
923768000000,,21416,,923,760146814,"""map""",,,-0.0513756871223,0.109648421407,-0.013523879461,,-0.000340891819085,-0.000934615708829,0.0506112422442,-0.998717917901
923804000000,,21417,,923,800146403,"""map""",,,-0.0523471981287,0.109328202903,-0.0130521338433,,-0.000342736649206,-0.000924446464537,0.0506174378309,-0.998717622873
923836000000,,21418,,923,832146403,"""map""",,,-0.0534303598106,0.108745329082,-0.012726765126,,-0.000314142461454,-0.000863951351842,0.0505599495295,-0.998720657446
923868000000,,21419,,923,864146403,"""map""",,,-0.054785694927,0.107895717025,-0.0123460711911,,-0.000310351158983,-0.000817354450557,0.0504759087136,-0.998724956425
923904000000,,21420,,923,896145993,"""map""",,,-0.054399676621,0.108730234206,-0.012057909742,,-0.000285118902683,-0.000791649030028,0.050438524459,-0.998726853033
923936000000,,21421,,923,928145993,"""map""",,,-0.0543896518648,0.109202958643,-0.0117761306465,,-0.000234964914397,-0.000810109658368,0.0504096960146,-0.998728286026
923968000000,,21422,,923,960145993,"""map""",,,-0.0547377951443,0.109367631376,-0.0115606216714,,-0.000255507284245,-0.00103088483193,0.05039009773,-0.998729086816
924004000000,,21423,,924,145582,"""map""",,,-0.0556456893682,0.109115056694,-0.0112344389781,,-0.000277880181451,-0.00101782490652,0.0503619857821,-0.998730477662
924036000000,,21424,,924,32145582,"""map""",,,-0.0566786155105,0.10857834667,-0.010967027396,,-0.000319353009658,-0.00099882836701,0.0503512383357,-0.998731025571
924068000000,,21425,,924,64145582,"""map""",,,-0.0579676292837,0.107784569263,-0.0107117649168,,-0.000348600267767,-0.000985671491501,0.0502835926439,-0.998734439465
924104000000,,21426,,924,96145171,"""map""",,,-0.057488899678,0.108544789255,-0.0101160509512,,-0.000367281776051,-0.000955027357593,0.0503144862838,-0.998732964326
924136000000,,21427,,924,128145171,"""map""",,,-0.057384904474,0.108902797103,-0.00958027690649,,-0.00035541554488,-0.000947238916333,0.0503157085424,-0.998732922179
924168000000,,21428,,924,160145171,"""map""",,,-0.0576660521328,0.108923941851,-0.00912673212588,,-0.000315602866219,-0.000896007487493,0.0503146127244,-0.998733006473
924204000000,,21429,,924,200144760,"""map""",,,-0.058521732688,0.108511991799,-0.0086858458817,,-0.000340689069695,-0.000880945730836,0.0503142755496,-0.998733006473
924236000000,,21430,,924,232144760,"""map""",,,-0.0595643594861,0.107854641974,-0.00840762630105,,-0.000335281369729,-0.000814924153789,0.0503015472013,-0.998733765116
924268000000,,21431,,924,264144760,"""map""",,,-0.0609230473638,0.106939844787,-0.00813225843012,,-0.000305377851438,-0.000795148885395,0.0502616762826,-0.998735788165
924304000000,,21432,,924,296144349,"""map""",,,-0.0605220645666,0.10748334229,-0.00740960240364,,-0.000294626289165,-0.000753971908308,0.0502526568571,-0.998736209633
924336000000,,21433,,924,328144349,"""map""",,,-0.0605269856751,0.107680261135,-0.00680360384285,,-0.000294534483945,-0.000727081992584,0.0501831567039,-0.998739707822
924368000000,,21434,,924,360144349,"""map""",,,-0.0609294362366,0.107565484941,-0.00629030028358,,-0.0002675731573,-0.00063921126701,0.0501773825856,-0.998740087143
924404000000,,21435,,924,400143939,"""map""",,,-0.0618939250708,0.106993891299,-0.0057506817393,,-0.000267318300575,-0.000586116116054,0.0501601866714,-0.998741014374
924436000000,,21436,,924,432143939,"""map""",,,-0.0630333572626,0.106182470918,-0.00536123057827,,-0.000295544300209,-0.000555215767173,0.050155845546,-0.998741225108
924468000000,,21437,,924,464143939,"""map""",,,-0.0644344612956,0.105120241642,-0.00520209316164,,-0.00029281263701,-0.000716594588976,0.0501082617541,-0.998743543185
924504000000,,21438,,924,496143527,"""map""",,,-0.0639239549637,0.105579167604,-0.00470826681703,,-0.000322317406602,-0.000758764074954,0.0500862189523,-0.998744596856
924536000000,,21439,,924,528143527,"""map""",,,-0.0638486817479,0.105663470924,-0.0042622955516,,-0.000289775368001,-0.000727719031497,0.0500227879453,-0.998747842163
924568000000,,21440,,924,560143527,"""map""",,,-0.0641913041472,0.105439893901,-0.003854138311,,-0.000308196133819,-0.000684872849878,0.0499853615438,-0.998749696625
924604000000,,21441,,924,600143116,"""map""",,,-0.0651485100389,0.104765146971,-0.0032757082954,,-0.000319474006921,-0.00065486761733,0.0499571231553,-0.998751129618
924636000000,,21442,,924,632143116,"""map""",,,-0.0662972927094,0.103906929493,-0.00286948867142,,-0.000345545567908,-0.000621204437574,0.0499216776557,-0.998752941932
924668000000,,21443,,924,664143116,"""map""",,,-0.0677762404084,0.102771498263,-0.00245720241219,,-0.000326101022623,-0.000559767945795,0.0499240378792,-0.998752857638
924704000000,,21444,,924,696142705,"""map""",,,-0.0672706216574,0.103201396763,-0.00193684105761,,-0.000303744805115,-0.000529189038662,0.0498942822042,-0.998754374925
924736000000,,21445,,924,728142705,"""map""",,,-0.0672343224287,0.103252843022,-0.00151799782179,,-0.000329779086308,-0.000435503632617,0.0498172377651,-0.998758252435
924768000000,,21446,,924,760142705,"""map""",,,-0.0676421374083,0.102956771851,-0.00116980285384,,-0.000302590073045,-0.000387867542954,0.0498228432959,-0.998757957407
924804000000,,21447,,924,800142294,"""map""",,,-0.0687191262841,0.102130949497,-0.000828861724585,,-0.0003273734438,-0.000365453162589,0.0498084290737,-0.99875871605
924836000000,,21448,,924,832142294,"""map""",,,-0.0699684917927,0.101155363023,-0.000567242852412,,-0.000388267310339,-0.000342361150215,0.049792792593,-0.998759432547
924868000000,,21449,,924,864142294,"""map""",,,-0.0715233832598,0.0999239236116,-0.000243499060161,,-0.00040102635551,-0.000368283939308,0.0497173497341,-0.998763225763
924904000000,,21450,,924,896141883,"""map""",,,-0.070988073945,0.100427493453,0.000256769882981,,-0.000387531656636,-0.000378464924536,0.0496778581371,-0.998765206665
924936000000,,21451,,924,928141883,"""map""",,,-0.0709241405129,0.100564911962,0.00075531785842,,-0.000361361507228,-0.000466843410755,0.0496524857343,-0.998766386777
924968000000,,21452,,924,960141883,"""map""",,,-0.0713670775294,0.100370295346,0.00151607091539,,-0.000390048287367,-0.000543363807896,0.0496016144881,-0.998768873441
925004000000,,21453,,925,141471,"""map""",,,-0.0724946036935,0.0996536761522,0.00248104333878,,-0.000369033463283,-0.000542576445909,0.0496022466908,-0.998768831294
925036000000,,21454,,925,32141471,"""map""",,,-0.0737855061889,0.0987506732345,0.00319456472062,,-0.00031170350071,-0.000547574428293,0.0495609427793,-0.998770938636
925068000000,,21455,,925,64141471,"""map""",,,-0.0754182860255,0.0975619331002,0.0038167971652,,-0.000315576689074,-0.000511767428919,0.0495923843283,-0.99876942135
925104000000,,21456,,925,96141060,"""map""",,,-0.0750195980072,0.0978326946497,0.00487204967067,,-0.00034166995116,-0.000519032080341,0.0495735868338,-0.99877034858
925136000000,,21457,,925,128141060,"""map""",,,-0.0751008465886,0.0977230072021,0.00586241390556,,-0.000329858831932,-0.000502695525573,0.0495602684297,-0.998770938636
925168000000,,21458,,925,160141060,"""map""",,,-0.075608856976,0.0972461700439,0.00676567619666,,-0.000346922394113,-0.000463560432616,0.049542651047,-0.998771865867
925204000000,,21459,,925,200140649,"""map""",,,-0.0767909362912,0.0962439477444,0.00779035920277,,-0.000359796100629,-0.000456449896044,0.049541555229,-0.998771950161
925236000000,,21460,,925,232140649,"""map""",,,-0.0781222581863,0.0951306074858,0.00862821750343,,-0.000412090433167,-0.00045028537152,0.0495120945819,-0.998773341007
925268000000,,21461,,925,264140649,"""map""",,,-0.0797616094351,0.0937718525529,0.00941288284957,,-0.000380007690774,-0.000441916029693,0.0494365252825,-0.998777092076
925304000000,,21462,,925,296140237,"""map""",,,-0.0790940225124,0.0942790359259,0.00989253912121,,-0.000362044037162,-0.000433831284564,0.0494267893605,-0.998777639985
925336000000,,21463,,925,328140237,"""map""",,,-0.0789538621902,0.0943791791797,0.0104499403387,,-0.000306824678867,-0.000417630091561,0.0494332378283,-0.998777344957
925368000000,,21464,,925,360140237,"""map""",,,-0.0792559683323,0.0941126793623,0.0109830871224,,-0.000318754701393,-0.000421924053852,0.0494726872785,-0.998775406202
925404000000,,21465,,925,400139826,"""map""",,,-0.0802001655102,0.0933272987604,0.0115653527901,,-0.000302264314743,-0.000386548792142,0.0494412457295,-0.998776923489
925436000000,,21466,,925,432139826,"""map""",,,-0.0813470333815,0.0923523381352,0.0120279276744,,-0.000439483134761,-0.000637789243043,0.0493813550578,-0.998779747328
925468000000,,21467,,925,464139826,"""map""",,,-0.0828505381942,0.0911049246788,0.0124644739553,,-0.000465800101329,-0.000600180872341,0.049284754481,-0.998784552068
925504000000,,21468,,925,496139415,"""map""",,,-0.084665633738,0.0895934179425,0.0129284979776,,-0.000462129379386,-0.000603361390215,0.0493040577376,-0.998783540544
925536000000,,21469,,925,528139415,"""map""",,,-0.0867787972093,0.0878455042839,0.0133407721296,,-0.000431550256169,-0.000596048274034,0.0492752292932,-0.998784973537
925568000000,,21470,,925,560139415,"""map""",,,-0.0891378894448,0.0858692452312,0.0137627124786,,-0.000485259628501,-0.000575408372715,0.049251922086,-0.998786111502
925604000000,,21471,,925,600139003,"""map""",,,-0.089712716639,0.0855632126331,0.0141159845516,,-0.000509342951009,-0.000574948852705,0.0492222085578,-0.998787586641
925636000000,,21472,,925,632139003,"""map""",,,-0.0901309847832,0.0853985473514,0.0143958162516,,-0.000529856908264,-0.000546854636573,0.0491886596664,-0.998789272515
925668000000,,21473,,925,664139003,"""map""",,,-0.090980052948,0.0848617628217,0.0147352376953,,-0.000489479427361,-0.000560529372448,0.0491621492987,-0.998790579068
925704000000,,21474,,925,696138592,"""map""",,,-0.0922414138913,0.0839852318168,0.0149957686663,,-0.000493426082025,-0.000561480477926,0.0491629922357,-0.998790494774
925736000000,,21475,,925,728138592,"""map""",,,-0.0938682109118,0.0828018710017,0.0152687234804,,-0.000529629174055,-0.00051044556417,0.0491768585488,-0.998789862571
925768000000,,21476,,925,760138592,"""map""",,,-0.0957995429635,0.0813360884786,0.0155056100339,,-0.000541055671134,-0.000441871809458,0.0491769849894,-0.998789904718
925804000000,,21477,,925,800138180,"""map""",,,-0.0956171005964,0.0816985368729,0.0159243419766,,-0.000560290655208,-0.000410280966371,0.0491359339589,-0.998791843473
925836000000,,21478,,925,832138180,"""map""",,,-0.0953993275762,0.0820216685534,0.0163213647902,,-0.000505782651032,-0.000419854420817,0.0490996455223,-0.998793740081
925868000000,,21479,,925,864138180,"""map""",,,-0.0956566780806,0.0819317921996,0.0167195945978,,-0.000512123927873,-0.000353115886879,0.0490642421696,-0.998795510249
925904000000,,21480,,925,896137769,"""map""",,,-0.0963385924697,0.0814742296934,0.0170794073492,,-0.000472663519075,-0.000285117143134,0.0490433373327,-0.998796521773
925936000000,,21481,,925,928137769,"""map""",,,-0.0974154546857,0.0806769579649,0.017515283078,,-0.000493143180566,-0.000442360781328,0.0489921289118,-0.998799008437
925968000000,,21482,,925,960137769,"""map""",,,-0.0988882258534,0.0795643404126,0.0178494267166,,-0.000532871207961,-0.000381022204313,0.0489744272354,-0.998799851374
926004000000,,21483,,926,137357,"""map""",,,-0.0981485769153,0.0801698789001,0.0182094722986,,-0.000471900862796,-0.000383361344115,0.0489601816006,-0.998800610018
926036000000,,21484,,926,32137357,"""map""",,,-0.0975389406085,0.080613322556,0.0185866784304,,-0.000435611291782,-0.000357968343789,0.0489622046493,-0.998800525724
926068000000,,21485,,926,64137357,"""map""",,,-0.0974446386099,0.0806274339557,0.0190713051707,,-0.000429125701086,-0.00033448003425,0.0489391503232,-0.998801663689
926104000000,,21486,,926,96136946,"""map""",,,-0.0978157669306,0.080262504518,0.019432593137,,-0.000422997754078,-0.000357545416731,0.0489628789989,-0.998800525724
926136000000,,21487,,926,128136946,"""map""",,,-0.0985892564058,0.0795588344336,0.0198340285569,,-0.000448921749646,-0.000326148010803,0.0489631740269,-0.998800483577
926168000000,,21488,,926,160136946,"""map""",,,-0.0997596755624,0.0785237401724,0.0203079450876,,-0.000460172128515,-0.000343156106044,0.0489799063257,-0.998799598493
926204000000,,21489,,926,200136534,"""map""",,,-0.0987509414554,0.0792685896158,0.0208567660302,,-0.000493778740327,-0.000309753560711,0.0489951634849,-0.99879883985
926236000000,,21490,,926,232136534,"""map""",,,-0.0979466363788,0.0798499807715,0.0211789924651,,-0.000509723769806,-0.000312948221858,0.0489498134759,-0.99880111578
926268000000,,21491,,926,264136534,"""map""",,,-0.0976674035192,0.0799904242158,0.0215409416705,,-0.000511277739339,-0.00029230551658,0.0488782059803,-0.998804613968
926304000000,,21492,,926,296136123,"""map""",,,-0.0978796184063,0.079690054059,0.0218702536076,,-0.000524227018982,-0.000288392455404,0.0488906393006,-0.998803981766
926336000000,,21493,,926,328136123,"""map""",,,-0.0985019281507,0.0790441557765,0.0222102385014,,-0.00055176717538,-0.000316732846276,0.0489062757814,-0.998803180975
926368000000,,21494,,926,360136123,"""map""",,,-0.0995317026973,0.0780545175076,0.0225841794163,,-0.000556087134745,-0.000290078843832,0.048770057167,-0.998809840177
926404000000,,21495,,926,400135711,"""map""",,,-0.0983940139413,0.0788732767105,0.023202393204,,-0.00060371293465,-0.000506072526375,0.0487432939182,-0.998811062436
926436000000,,21496,,926,432135711,"""map""",,,-0.0975579842925,0.0794678255916,0.0238378476351,,-0.000576073930979,-0.000533268988137,0.0487265616193,-0.998811863226
926468000000,,21497,,926,464135711,"""map""",,,-0.0972661599517,0.0796126574278,0.0245634671301,,-0.000538682752629,-0.000574852872415,0.0487067947474,-0.998812832604
926504000000,,21498,,926,496135300,"""map""",,,-0.0974609255791,0.079337336123,0.0253598373383,,-0.00055846963623,-0.000548284709061,0.0487153084108,-0.998812411135
926536000000,,21499,,926,528135300,"""map""",,,-0.0980942249298,0.078662879765,0.0261821430176,,-0.000622631189685,-0.000527482796146,0.0486647743394,-0.998814897799
926568000000,,21500,,926,560135300,"""map""",,,-0.0991139560938,0.0776533856988,0.0270070359111,,-0.000673560897098,-0.000477662489276,0.0487172471658,-0.998812326842
926604000000,,21501,,926,600134888,"""map""",,,-0.0979229062796,0.0781346410513,0.027832230553,,-0.000684319703361,-0.000487038269754,0.0487209139416,-0.998812116107
926636000000,,21502,,926,632134888,"""map""",,,-0.096986271441,0.0784500315785,0.028263842687,,-0.000685158647905,-0.00048068508509,0.0486834453933,-0.998813928422
926668000000,,21503,,926,664134888,"""map""",,,-0.0965417698026,0.0783104300499,0.0287044905126,,-0.00067396038666,-0.000478183397981,0.0486535632777,-0.998815403561
926704000000,,21504,,926,696134477,"""map""",,,-0.0965864285827,0.077717654407,0.0290835276246,,-0.000677910367488,-0.000449478482144,0.0486805794076,-0.998814097009
926736000000,,21505,,926,728134477,"""map""",,,-0.0970909073949,0.076763227582,0.0293031651527,,-0.000710145884489,-0.000459162862753,0.0486405820484,-0.998815993617
926768000000,,21506,,926,760134477,"""map""",,,-0.0979941040277,0.0754818543792,0.0293846540153,,-0.000707536617961,-0.000443859389391,0.0485911016482,-0.998818438135
926804000000,,21507,,926,800134065,"""map""",,,-0.096869289875,0.0758268237114,0.0294624101371,,-0.000648336821155,-0.000433288865119,0.0485630318471,-0.998819871127
926836000000,,21508,,926,832134065,"""map""",,,-0.0960110798478,0.0760634317994,0.0295733064413,,-0.000641327479207,-0.000481798035598,0.0484800025555,-0.998823832931
926868000000,,21509,,926,864134065,"""map""",,,-0.0956567078829,0.0758794546127,0.0296007245779,,-0.000686333351109,-0.000670660827862,0.0484711517173,-0.998824170106
926904000000,,21510,,926,896133654,"""map""",,,-0.0957706794143,0.0753053873777,0.0297895427793,,-0.000664040694079,-0.000651039843455,0.0484480130975,-0.998825308071
926936000000,,21511,,926,928133654,"""map""",,,-0.0963184535503,0.0743319392204,0.0300307366997,,-0.000604632347674,-0.000657421280579,0.0484569903762,-0.998824928749
926968000000,,21512,,926,960133654,"""map""",,,-0.0972634255886,0.0729863271117,0.0302850492299,,-0.000625858945266,-0.000674721100747,0.0484662626829,-0.998824422987
927004000000,,21513,,927,133242,"""map""",,,-0.096076913178,0.0734514072537,0.0311644654721,,-0.000623645453698,-0.000642928506376,0.0484473387479,-0.998825392365
927036000000,,21514,,927,32133242,"""map""",,,-0.0951507762074,0.0737967193127,0.0320073179901,,-0.000604447216922,-0.000640003928223,0.0483572709327,-0.99882973349
927068000000,,21515,,927,64133242,"""map""",,,-0.0947495102882,0.0736849084496,0.0328140333295,,-0.000579001215338,-0.000605520403946,0.048276222543,-0.998833653147
927104000000,,21516,,927,96132831,"""map""",,,-0.0947954207659,0.0731634497643,0.0336860492826,,-0.000619003409475,-0.000585201364291,0.0482308303871,-0.99883588693
927136000000,,21517,,927,128132831,"""map""",,,-0.0952558517456,0.0722950622439,0.0345803424716,,-0.000579007967992,-0.000552585112097,0.0481571998428,-0.998839469412
927168000000,,21518,,927,160132831,"""map""",,,-0.0961029082537,0.0710941702127,0.0356354489923,,-0.000615571402199,-0.000521023405746,0.0480915350528,-0.998842672572
927204000000,,21519,,927,200132420,"""map""",,,-0.0949287712574,0.0716461241245,0.0365852378309,,-0.000610401647741,-0.000536025723617,0.0481216279026,-0.998841155286
927236000000,,21520,,927,232132420,"""map""",,,-0.0940375477076,0.0720474347472,0.0373589210212,,-0.000620283118373,-0.000530303373143,0.0480351004227,-0.998845327824
927268000000,,21521,,927,264132420,"""map""",,,-0.0936634391546,0.0719774737954,0.0381120592356,,-0.000610882040525,-0.000542511743911,0.0479538412987,-0.998849289628
927304000000,,21522,,927,296132009,"""map""",,,-0.0937821269035,0.0714515447617,0.0387463308871,,-0.000597559589948,-0.000519265876504,0.0479563279628,-0.998849163187
927336000000,,21523,,927,328132009,"""map""",,,-0.0943345576525,0.0705334916711,0.0393394269049,,-0.000636787792351,-0.000535785277698,0.0479054567166,-0.998851565558
927368000000,,21524,,927,364132009,"""map""",,,-0.0952574759722,0.069239936769,0.0397796221077,,-0.000676097579673,-0.000716429026771,0.0479025907309,-0.998851565558
927404000000,,21525,,927,396131597,"""map""",,,-0.0944074466825,0.0696215927601,0.03995532915,,-0.000690150838442,-0.000677034069836,0.047921219638,-0.998850638327
927436000000,,21526,,927,428131597,"""map""",,,-0.0933716669679,0.070155531168,0.0399405322969,,-0.000599434268084,-0.00068717821355,0.0478907474665,-0.99885219776
927468000000,,21527,,927,460131597,"""map""",,,-0.0928360447288,0.0702048614621,0.0400362052023,,-0.000574924958601,-0.000586350780415,0.0478711491819,-0.998853251431
927504000000,,21528,,927,500131186,"""map""",,,-0.0928360298276,0.0696694552898,0.0402208603919,,-0.000572771959876,-0.000588055474966,0.0478477998279,-0.99885434725
927536000000,,21529,,927,532131186,"""map""",,,-0.0933271795511,0.0687727555633,0.0404116660357,,-0.000548371816685,-0.000544885988187,0.0477668778787,-0.99885822476
927568000000,,21530,,927,564131186,"""map""",,,-0.0942072570324,0.0675174593925,0.0406156517565,,-0.000524474104367,-0.000561752338475,0.0477282713655,-0.998860079221
927604000000,,21531,,927,596130775,"""map""",,,-0.0924284234643,0.0686051696539,0.0407400466502,,-0.000517786739235,-0.000582565730258,0.0477183668561,-0.998860542836
927636000000,,21532,,927,628130775,"""map""",,,-0.09120413661,0.0692075714469,0.0408974811435,,-0.000528333371975,-0.00050394181205,0.0476863352512,-0.998862144416
927668000000,,21533,,927,660130775,"""map""",,,-0.0904849544168,0.0693292692304,0.0412542596459,,-0.000517639882363,-0.000514956836019,0.0476615107575,-0.998863282381
927704000000,,21534,,927,700130364,"""map""",,,-0.0902141034603,0.0688723176718,0.0418215952814,,-0.000532670178246,-0.000494873116536,0.0476211762234,-0.998865263283
927736000000,,21535,,927,732130364,"""map""",,,-0.0904569774866,0.0680619925261,0.0424221791327,,-0.000568087263964,-0.000510437171586,0.0475711057674,-0.998867539213
927768000000,,21536,,927,764130364,"""map""",,,-0.0911072716117,0.06688760221,0.0430791154504,,-0.00057131714245,-0.000565387642428,0.0474819230359,-0.998871753898
927804000000,,21537,,927,796129953,"""map""",,,-0.0894481763244,0.0678747594357,0.043963342905,,-0.000583275386566,-0.000595176263352,0.0474735779599,-0.998872175366
927836000000,,21538,,927,828129953,"""map""",,,-0.0882944390178,0.0683435872197,0.0445477366447,,-0.000644305551239,-0.000743843215952,0.0474214844552,-0.99887453559
927868000000,,21539,,927,860129953,"""map""",,,-0.0876784026623,0.0683338940144,0.0452052615583,,-0.000662238322715,-0.000721217491676,0.0473911387243,-0.998875968583
927904000000,,21540,,927,900129542,"""map""",,,-0.0875222161412,0.0676855891943,0.0459813810885,,-0.000636015901015,-0.000729245974982,0.0473835522915,-0.998876305758
927936000000,,21541,,927,932129542,"""map""",,,-0.08784532547,0.0667372792959,0.0465567782521,,-0.000702407637955,-0.000738155015898,0.0473767245021,-0.998876642932
927968000000,,21542,,927,964129542,"""map""",,,-0.0885146930814,0.0654674619436,0.0472770445049,,-0.000641209116121,-0.000745328851203,0.0473212171026,-0.998879298184
928004000000,,21543,,927,996129131,"""map""",,,-0.0868538916111,0.0665415003896,0.048075594008,,-0.000623638073369,-0.00071147489419,0.0472939480916,-0.998880604736
928036000000,,21544,,928,28129131,"""map""",,,-0.0857287570834,0.0671067982912,0.0490337908268,,-0.000647523408072,-0.00069959383805,0.047260736375,-0.998882206316
928068000000,,21545,,928,60129131,"""map""",,,-0.0850550085306,0.067172691226,0.0499746352434,,-0.000671824445138,-0.000700703399369,0.0472060719124,-0.99888469298
928104000000,,21546,,928,100128720,"""map""",,,-0.0848332643509,0.0666345059872,0.0510236434639,,-0.000652992874883,-0.000705921619874,0.0471605533161,-0.998886884617
928136000000,,21547,,928,132128720,"""map""",,,-0.0851208493114,0.0657852515578,0.0517851449549,,-0.000628777578511,-0.00071219042595,0.0471463498281,-0.998887601113
928168000000,,21548,,928,164128720,"""map""",,,-0.0858189538121,0.0645835250616,0.0525350160897,,-0.000625520872697,-0.000690989611919,0.0471123794682,-0.998889202693
928204000000,,21549,,928,196128310,"""map""",,,-0.0844429135323,0.0658589079976,0.0529418997467,,-0.000640603800531,-0.000704033366974,0.0470806850381,-0.99889071998
928236000000,,21550,,928,228128310,"""map""",,,-0.0835760384798,0.0665952414274,0.0533631965518,,-0.000637218279809,-0.000729802321614,0.0470360936724,-0.998892743028
928268000000,,21551,,928,260128310,"""map""",,,-0.0831546038389,0.0668158605695,0.0536200627685,,-0.000656412233474,-0.000735115525588,0.0469492711645,-0.998896789126
928304000000,,21552,,928,300127899,"""map""",,,-0.0832044035196,0.0664458423853,0.0540310256183,,-0.000618503900893,-0.000731182738945,0.0469440871021,-0.998897084154
928336000000,,21553,,928,332127899,"""map""",,,-0.0836268365383,0.0656872987747,0.0542493872344,,-0.00062836816705,-0.000946943229849,0.0468992007084,-0.998898980762
928368000000,,21554,,928,364127899,"""map""",,,-0.0843858793378,0.064554437995,0.0545547828078,,-0.000598817340502,-0.000983617367703,0.0468726481939,-0.998900245168
928404000000,,21555,,928,396127489,"""map""",,,-0.0829776152968,0.0658266097307,0.0545778609812,,-0.000586130068966,-0.000961437506356,0.0468423446098,-0.998901720307
928436000000,,21556,,928,428127489,"""map""",,,-0.0820460692048,0.0665455535054,0.0546020120382,,-0.000587644669885,-0.000899638917995,0.0467992705306,-0.998903743356
928468000000,,21557,,928,460127489,"""map""",,,-0.0815566256642,0.0667633637786,0.0545973218977,,-0.000531737256057,-0.000897980980748,0.0467349544398,-0.998906777929
928504000000,,21558,,928,500127078,"""map""",,,-0.0815179795027,0.0664293393493,0.0546113699675,,-0.000487433962395,-0.000894260903981,0.04672264756,-0.998907367985
928536000000,,21559,,928,532127078,"""map""",,,-0.0818693041801,0.0656739622355,0.0546679347754,,-0.00048201179503,-0.000929391331191,0.0467174634977,-0.998907663013
928568000000,,21560,,928,564138668,"""map""",,,-0.0825474411249,0.0645272880793,0.0545758381486,,-0.000465890872429,-0.00089705375008,0.0466429057226,-0.998911161201
928604000000,,21561,,928,596138668,"""map""",,,-0.0811036676168,0.0656977370381,0.0544421412051,,-0.000450660075627,-0.000882696306774,0.0466211579488,-0.998912172726
928636000000,,21562,,928,628138668,"""map""",,,-0.0801415145397,0.0662905722857,0.0542404837906,,-0.000393926034095,-0.000851212055289,0.0465917394485,-0.998913605719
928668000000,,21563,,928,660138668,"""map""",,,-0.0796071738005,0.066346809268,0.0540048591793,,-0.000372495555239,-0.000857084502462,0.0465158751212,-0.998917146054
928704000000,,21564,,928,700138257,"""map""",,,-0.0794780999422,0.0657236650586,0.0535972714424,,-0.000386039798976,-0.000880918998045,0.0464699350564,-0.998919253396
928736000000,,21565,,928,732138257,"""map""",,,-0.0797780528665,0.0647608488798,0.0531089529395,,-0.00043028347378,-0.000838156883748,0.046447765814,-0.998920264921
928768000000,,21566,,928,764138257,"""map""",,,-0.0803881138563,0.0634625032544,0.0524806715548,,-0.000434186193749,-0.000842581870671,0.0464176729642,-0.998921697913
928804000000,,21567,,928,796137847,"""map""",,,-0.0789546296,0.0645011812449,0.0516448132694,,-0.000437754517166,-0.000848229383736,0.0464285047043,-0.998921150004
928836000000,,21568,,928,828137847,"""map""",,,-0.0779812261462,0.064969740808,0.050757471472,,-0.000423445291665,-0.0010964304871,0.0464131632514,-0.998921655767
928868000000,,21569,,928,860137436,"""map""",,,-0.0774444639683,0.0649388507009,0.0499470829964,,-0.000419477108255,-0.00109323930389,0.0463843769539,-0.998922962319
928904000000,,21570,,928,900137436,"""map""",,,-0.0772980377078,0.0642732083797,0.048760175705,,-0.00041243448923,-0.00109310592805,0.0463470348461,-0.998924732487
928936000000,,21571,,928,932137436,"""map""",,,-0.0775883346796,0.0632894933224,0.0477312766016,,-0.0003789347417,-0.00110525154672,0.0463294596103,-0.99892561757
928968000000,,21572,,928,964137436,"""map""",,,-0.0782207548618,0.0619289167225,0.0468091890216,,-0.000424568439324,-0.00105713595949,0.0462766496091,-0.998928019941
929004000000,,21573,,928,996137026,"""map""",,,-0.0768475309014,0.0628692805767,0.0456476733088,,-0.000446653017512,-0.00107482631713,0.0463065317247,-0.998926629095
929036000000,,21574,,929,28137026,"""map""",,,-0.0759172663093,0.0632920712233,0.0446561612189,,-0.000474814850215,-0.00106999408216,0.0462486219548,-0.998929326493
929068000000,,21575,,929,60137026,"""map""",,,-0.0753901228309,0.0632410496473,0.0437205508351,,-0.000533000406161,-0.00102151267345,0.0461647497263,-0.998933204003
929104000000,,21576,,929,100136616,"""map""",,,-0.0752422586083,0.0625898838043,0.0426410287619,,-0.000535118079504,-0.00104462943784,0.0461776888088,-0.9989325718
929136000000,,21577,,929,132136616,"""map""",,,-0.0754977837205,0.0616189613938,0.0418343283236,,-0.000586696376084,-0.000992286900356,0.0461389980018,-0.998934426262
929168000000,,21578,,929,164136616,"""map""",,,-0.0760619789362,0.0602592155337,0.0410632975399,,-0.000611784123024,-0.000972333495672,0.0461599871324,-0.998933414737
929204000000,,21579,,929,196136205,"""map""",,,-0.0746132358909,0.0613513663411,0.0402330756187,,-0.000601181432968,-0.000949132108316,0.0460968933002,-0.998936407164
929236000000,,21580,,929,228136205,"""map""",,,-0.0736177116632,0.0618826039135,0.0394863933325,,-0.000531175311796,-0.000940987106364,0.0460880846088,-0.998936786485
929268000000,,21581,,929,260136205,"""map""",,,-0.0730517506599,0.0619060583413,0.038911331445,,-0.000504797126313,-0.00092259085075,0.0460491830677,-0.998938683093
929304000000,,21582,,929,300135795,"""map""",,,-0.0728217288852,0.0612703748047,0.0381220765412,,-0.000514052084454,-0.00114742014778,0.0460881689025,-0.998936617898
929336000000,,21583,,929,332135795,"""map""",,,-0.0730396732688,0.0603238530457,0.0374042727053,,-0.000466375046699,-0.0012176818048,0.0460674747999,-0.998937502982
929368000000,,21584,,929,364135795,"""map""",,,-0.0735757350922,0.0590463317931,0.0366238616407,,-0.000408081715828,-0.0011563546417,0.0460437882711,-0.998938683093
929404000000,,21585,,929,396135384,"""map""",,,-0.0721388459206,0.0602316968143,0.0359747186303,,-0.000364200960786,-0.00113122569457,0.0460196381269,-0.998939905352
929436000000,,21586,,929,428135384,"""map""",,,-0.0711301267147,0.0608650520444,0.0354546271265,,-0.000383410909879,-0.0010801230935,0.0459701998736,-0.998942223429
929468000000,,21587,,929,460135384,"""map""",,,-0.0704979151487,0.0610184781253,0.0348898507655,,-0.000333381777516,-0.00110354258257,0.0459571764974,-0.998942771338
929504000000,,21588,,929,500134974,"""map""",,,-0.070219963789,0.0606339499354,0.0340274758637,,-0.000310508756916,-0.00108601587324,0.0459578087001,-0.998942729191
929536000000,,21589,,929,532134974,"""map""",,,-0.0703659504652,0.0598622821271,0.0333200246096,,-0.000324984758813,-0.00103628049288,0.0459432258905,-0.998943487834
929568000000,,21590,,929,564134974,"""map""",,,-0.0708174481988,0.0586882606149,0.0326581075788,,-0.000337346050818,-0.000973153404164,0.0459121636632,-0.998944962974
929604000000,,21591,,929,596134564,"""map""",,,-0.0693745315075,0.0600815489888,0.0323857031763,,-0.000276217788738,-0.000957721175062,0.0459178113409,-0.998944794386
929636000000,,21592,,929,628134564,"""map""",,,-0.0683493390679,0.0608796030283,0.0321822501719,,-0.000224365331848,-0.000972673736808,0.0459272522349,-0.998944288624
929668000000,,21593,,929,660134153,"""map""",,,-0.0677071288228,0.0611601695418,0.0319996997714,,-0.000264630595223,-0.000957336029422,0.0458417784261,-0.998948250428
929704000000,,21594,,929,700134153,"""map""",,,-0.0674348846078,0.06082572788,0.0317215248942,,-0.00027121486727,-0.00093528732133,0.0458045206121,-0.998950020596
929736000000,,21595,,929,732134153,"""map""",,,-0.0676118731499,0.060059428215,0.0314945876598,,-0.000268687990834,-0.00090445834221,0.0457521320794,-0.998952422966
929768000000,,21596,,929,764134153,"""map""",,,-0.0680555775762,0.0589203089476,0.0311152748764,,-0.000296754190527,-0.00111611123377,0.045662359292,-0.998956300476
929804000000,,21597,,929,796133743,"""map""",,,-0.0666583254933,0.0603442527354,0.0310186576098,,-0.000281238141056,-0.00115383505041,0.0456398950218,-0.998957269854
929836000000,,21598,,929,828133743,"""map""",,,-0.0656649842858,0.0612367242575,0.0309021715075,,-0.000308775179657,-0.00114175438069,0.0455685825541,-0.998960557308
929868000000,,21599,,929,860145333,"""map""",,,-0.0650673806667,0.06160145998,0.0307353101671,,-0.000256923731164,-0.00111540161091,0.0455339799915,-0.998962201035
929904000000,,21600,,929,900145333,"""map""",,,-0.0648507922888,0.0613496601582,0.0305279362947,,-0.000254601168161,-0.00108896372425,0.045521040909,-0.998962748944
929936000000,,21601,,929,932145333,"""map""",,,-0.0650277286768,0.0606629885733,0.0303762480617,,-0.000272675210296,-0.00102246097754,0.0454613188246,-0.998965572783
929968000000,,21602,,929,964145333,"""map""",,,-0.065489590168,0.0595802217722,0.0301978252828,,-0.000233503789349,-0.00100277490077,0.045448969798,-0.998966204985
930004000000,,21603,,929,996144922,"""map""",,,-0.0640785098076,0.0608632415533,0.0297368355095,,-0.000243772062272,-0.000965355084737,0.0454230073393,-0.998967385097
930036000000,,21604,,930,28144922,"""map""",,,-0.0630872994661,0.0616093873978,0.0292738974094,,-0.000191081586916,-0.000977891220309,0.0454483375953,-0.998966247132
930068000000,,21605,,930,60144922,"""map""",,,-0.0624673888087,0.061874743551,0.0288353879005,,-0.000128219274249,-0.000946165468205,0.0454880399266,-0.998964476965
930104000000,,21606,,930,100144512,"""map""",,,-0.0621593296528,0.0615499801934,0.028209708631,,-0.000109479814048,-0.000948342616349,0.0454651963347,-0.998965488489
930136000000,,21607,,930,132144512,"""map""",,,-0.0622616969049,0.0608082413673,0.0277911666781,,-0.00011048417674,-0.000958638301187,0.0454426056239,-0.998966500013
930168000000,,21608,,930,164144512,"""map""",,,-0.0626833364367,0.05970171839,0.027400881052,,-7.63651915769e-05,-0.000958382333168,0.045414198648,-0.998967848713
930204000000,,21609,,930,196144101,"""map""",,,-0.0613742917776,0.060995079577,0.0271655544639,,-7.40150931821e-05,-0.000890068630223,0.0454230494862,-0.998967511538
930236000000,,21610,,930,228144101,"""map""",,,-0.0605120658875,0.0617255456746,0.0269897729158,,-4.91247037994e-05,-0.000831856300327,0.0453937152796,-0.998968860237
930268000000,,21611,,930,260144101,"""map""",,,-0.0600089132786,0.0619648210704,0.0267225857824,,-2.65041526995e-05,-0.00103103098766,0.0453046589887,-0.9989726956
930304000000,,21612,,930,300143691,"""map""",,,-0.0599065348506,0.0616046637297,0.0264751277864,,-2.91847581192e-05,-0.00102206778531,0.0452894861233,-0.99897336995
930336000000,,21613,,930,332143691,"""map""",,,-0.060168158263,0.0608492530882,0.0263504851609,,-1.98654889916e-05,-0.00100162215977,0.0452457798414,-0.998975435145
930368000000,,21614,,930,364143691,"""map""",,,-0.0606986880302,0.0596890076995,0.0262042824179,,-5.20702499065e-05,-0.00103676905059,0.0452419023313,-0.998975519439
930404000000,,21615,,930,396143280,"""map""",,,-0.0595969259739,0.0609489791095,0.0263745281845,,-6.71775901918e-05,-0.0010419606039,0.0452746925794,-0.998974086446
930436000000,,21616,,930,428143280,"""map""",,,-0.0589028187096,0.0616790875793,0.0263957250863,,-8.42403960756e-05,-0.00103549978837,0.0452295533047,-0.998976067348
930468000000,,21617,,930,460143280,"""map""",,,-0.058559127152,0.0619352571666,0.0264143850654,,-6.59464000751e-05,-0.00105249225347,0.0452343580454,-0.998975898761
930504000000,,21618,,930,500142869,"""map""",,,-0.058560308069,0.0616170726717,0.026363870129,,-2.2648086492e-05,-0.00102682013059,0.0452250857387,-0.998976320229
930536000000,,21619,,930,532142869,"""map""",,,-0.0588952712715,0.0609431751072,0.0262772571295,,5.434391598e-06,-0.00103129510516,0.0452300590669,-0.998976067348
930568000000,,21620,,930,564142869,"""map""",,,-0.0594845190644,0.0599144138396,0.0261741802096,,-1.00237059559e-05,-0.00101997093844,0.0452189322989,-0.99897657311
930604000000,,21621,,930,596142458,"""map""",,,-0.0603192336857,0.0585023984313,0.0260879676789,,9.16430537315e-06,-0.00101235190775,0.0452408486601,-0.99897564588
930636000000,,21622,,930,628142458,"""map""",,,-0.0613951273263,0.0567283332348,0.0260436329991,,-4.22799568195e-05,-0.000979831909815,0.045243377471,-0.998975477292
930668000000,,21623,,930,660142458,"""map""",,,-0.0626749545336,0.0546202100813,0.0261257588863,,-7.29770212424e-05,-0.000969569316838,0.0451904831761,-0.998977963956
930704000000,,21624,,930,700142048,"""map""",,,-0.0623076334596,0.0542651861906,0.0263617578894,,-8.75784758685e-05,-0.000971587961551,0.0451717699754,-0.998978806893
930736000000,,21625,,930,732142048,"""map""",,,-0.06194460392,0.0539928562939,0.0263824723661,,-6.95349325762e-05,-0.000963733830476,0.0452410172475,-0.99897564588
930768000000,,21626,,930,764142048,"""map""",,,-0.0618846602738,0.0532937496901,0.0263110194355,,-0.000114230759923,-0.0011559025509,0.0451756896323,-0.998978427572
930804000000,,21627,,930,796141637,"""map""",,,-0.0621781237423,0.0522495321929,0.0262495912611,,-9.97147514471e-05,-0.00110674150367,0.0451423093283,-0.998979944858
930836000000,,21628,,930,828141637,"""map""",,,-0.0627628266811,0.0508538149297,0.0261201523244,,-6.89787505802e-05,-0.0010881247797,0.0451440794959,-0.998979944858
930868000000,,21629,,930,860141637,"""map""",,,-0.0635950416327,0.0491329692304,0.0261350683868,,-6.22373950881e-05,-0.00108371788218,0.0451152089047,-0.99898125141
930904000000,,21630,,930,900141226,"""map""",,,-0.0628612712026,0.0498333834112,0.0261261556298,,-4.22644398645e-05,-0.00107233391138,0.0451015111789,-0.998981883613
930936000000,,21631,,930,932141226,"""map""",,,-0.0622569844127,0.0504475161433,0.0261879600585,,-5.45269501935e-05,-0.00103263528439,0.0450790047618,-0.998982895137
930968000000,,21632,,930,964141226,"""map""",,,-0.0620047599077,0.0505891181529,0.0262813791633,,-8.87075092684e-05,-0.00105525707027,0.0450275434598,-0.998985213214
931004000000,,21633,,930,996140815,"""map""",,,-0.0620608255267,0.0503061339259,0.0265049003065,,-8.36760645913e-05,-0.00108022817251,0.0449939945684,-0.998986730501
931036000000,,21634,,931,28140815,"""map""",,,-0.0624140053988,0.0496391132474,0.0267656017095,,-6.21624856503e-05,-0.00109432135425,0.0449762507451,-0.998987446997
931068000000,,21635,,931,60140815,"""map""",,,-0.0630433931947,0.0485874600708,0.0270788203925,,-3.22970806225e-06,-0.00106110078843,0.0449511733703,-0.998988669256
931104000000,,21636,,931,100140404,"""map""",,,-0.0624431744218,0.0500060431659,0.0274282880127,,-1.93230129532e-05,-0.00109381378107,0.0448987426907,-0.998991029479
931136000000,,21637,,931,132140404,"""map""",,,-0.0619802102447,0.0511743351817,0.0277264341712,,-8.86612053577e-05,-0.0010960657975,0.0448530555069,-0.998992968234
931168000000,,21638,,931,164140404,"""map""",,,-0.0618235766888,0.0518367923796,0.0281082987785,,-6.27292866765e-05,-0.00103458103646,0.0448872787479,-0.998991535241
931204000000,,21639,,931,196139993,"""map""",,,-0.0619577616453,0.0520188733935,0.0285074785352,,-5.40279380926e-05,-0.00102649756726,0.0448827690351,-0.998991745976
931232000000,,21640,,931,228139993,"""map""",,,-0.0623476952314,0.0517704598606,0.0287617649883,,-2.38383645312e-05,-0.00126467047833,0.0448801559305,-0.998991577388
931268000000,,21641,,931,268139993,"""map""",,,-0.0632315203547,0.0509122721851,0.0289709717035,,-4.3619107076e-06,-0.00125707556684,0.044864435156,-0.998992293885
931304000000,,21642,,931,300139582,"""map""",,,-0.0620974749327,0.0526040866971,0.0287710316479,,-3.54095677629e-05,-0.0012371219152,0.0448373347324,-0.998993600437
931340000000,,21643,,931,332139582,"""map""",,,-0.0613630898297,0.053743287921,0.0285848844796,,-3.66645477999e-05,-0.00117258335981,0.0447812372771,-0.998996171395
931368000000,,21644,,931,364139582,"""map""",,,-0.0609865896404,0.0543660633266,0.0284156017005,,2.1956285487e-06,-0.00113166268001,0.0447307032057,-0.998998489471
931404000000,,21645,,931,396139171,"""map""",,,-0.0609073713422,0.0545064248145,0.0282636787742,,-1.10126751708e-05,-0.00112040070459,0.0447321783454,-0.998998447325
931436000000,,21646,,931,428139171,"""map""",,,-0.0610940232873,0.0542206950486,0.0284006502479,,2.47476498607e-05,-0.0010859061021,0.0446920966925,-0.999000259639
931468000000,,21647,,931,460139171,"""map""",,,-0.0615337230265,0.0535396784544,0.0284975450486,,5.5195043597e-05,-0.00105581242908,0.0446988401882,-0.999000006758
931504000000,,21648,,931,500138760,"""map""",,,-0.0602334663272,0.0547579675913,0.0283428654075,,6.39156134488e-05,-0.00103275847338,0.0446776824703,-0.999000933989
931536000000,,21649,,931,532138760,"""map""",,,-0.0591830015182,0.0556580796838,0.0283582694829,,8.62841477972e-05,-0.00104032506746,0.0446372214957,-0.99900278845
931568000000,,21650,,931,564138760,"""map""",,,-0.0584930479527,0.0560812652111,0.0285215489566,,0.000128798011394,-0.00100829712574,0.0445058919157,-0.999008604715
931604000000,,21651,,931,596138349,"""map""",,,-0.0581309236586,0.0560586005449,0.0288202762604,,0.000146994625126,-0.000991628005996,0.0444525761524,-0.999011007085
931636000000,,21652,,931,628138349,"""map""",,,-0.0580716468394,0.0556451231241,0.0291483756155,,0.00014854940755,-0.000964175631523,0.0444682969269,-0.999010374883
931668000000,,21653,,931,660138349,"""map""",,,-0.0582918822765,0.0548635423183,0.0294669531286,,0.000138695194487,-0.000960103686194,0.0444494151387,-0.99901121782
931704000000,,21654,,931,700137938,"""map""",,,-0.0570653341711,0.0559566132724,0.029715757817,,0.00016404211985,-0.000942359245585,0.0444294375325,-0.999012060757
931736000000,,21655,,931,732137938,"""map""",,,-0.0561242848635,0.0567635297775,0.0298229735345,,0.000326811026211,-0.00121434644151,0.0444267401342,-0.999011892169
931768000000,,21656,,931,764137938,"""map""",,,-0.0555403083563,0.0571287758648,0.0300313606858,,0.000313482949709,-0.0011781496661,0.0444470549152,-0.999011049232
931804000000,,21657,,931,796137526,"""map""",,,-0.0553011037409,0.0571012124419,0.0302297603339,,0.000310889272164,-0.00117538773044,0.0444428402304,-0.99901121782
931836000000,,21658,,931,828137526,"""map""",,,-0.0553572066128,0.0567202121019,0.0304570551962,,0.000400891603413,-0.00120649222811,0.0444384148113,-0.99901134426
931868000000,,21659,,931,860137526,"""map""",,,-0.0557038001716,0.0559785626829,0.0308220200241,,0.000417922963796,-0.00124348324935,0.0443763325034,-0.999014083805
931904000000,,21660,,931,900137115,"""map""",,,-0.054684933275,0.0573032647371,0.031225418672,,0.000426417611723,-0.00126844282707,0.0443745623358,-0.999014083805
931936000000,,21661,,931,932137115,"""map""",,,-0.0538939796388,0.0583372376859,0.0315924286842,,0.000448767706825,-0.00126511116809,0.0443826123839,-0.999013704484
931968000000,,21662,,931,964137115,"""map""",,,-0.0534369647503,0.0588964372873,0.0319531075656,,0.000458616610373,-0.0013287798685,0.0443350707387,-0.999015727532
932004000000,,21663,,931,996136704,"""map""",,,-0.0533077791333,0.059019587934,0.0323211140931,,0.000445499062319,-0.00131873722939,0.0443063687349,-0.999017034085
932036000000,,21664,,932,28136704,"""map""",,,-0.0534965805709,0.0587749145925,0.0326401628554,,0.000506353843212,-0.00128696739597,0.0443181277056,-0.999016570469
932068000000,,21665,,932,60136704,"""map""",,,-0.0539533682168,0.058196220547,0.0328981094062,,0.000484865906348,-0.00132978954071,0.0442855060449,-0.999017919169
932104000000,,21666,,932,100136293,"""map""",,,-0.053055331111,0.0598064884543,0.0326706208289,,0.00047469946087,-0.00134344347327,0.0443062422943,-0.999016991938
932136000000,,21667,,932,132136293,"""map""",,,-0.0523438230157,0.0610895082355,0.0325029119849,,0.000476062236411,-0.00134483950531,0.0442501869858,-0.999019520749
932168000000,,21668,,932,164136293,"""map""",,,-0.0519294552505,0.061903372407,0.0323365703225,,0.000484918795704,-0.00133619516198,0.0441896219645,-0.999022176
932204000000,,21669,,932,196135882,"""map""",,,-0.0518071837723,0.0623051822186,0.0321581028402,,0.00052948332574,-0.00134029904672,0.0441308271108,-0.999024746958
932236000000,,21670,,932,228135882,"""map""",,,-0.0519507937133,0.062353849411,0.0320650599897,,0.000577903798506,-0.0013465367803,0.044154724374,-0.999023693287
932268000000,,21671,,932,260135882,"""map""",,,-0.0523060485721,0.062051165849,0.031952586025,,0.0006268297865,-0.00159305493201,0.0441677056033,-0.999022681762
932304000000,,21672,,932,300135471,"""map""",,,-0.0513421855867,0.0637831389904,0.0319245867431,,0.000621436430457,-0.00161873623335,0.0441443562492,-0.999023693287
932336000000,,21673,,932,332135471,"""map""",,,-0.050650767982,0.0651337876916,0.031933657825,,0.000628308424716,-0.0015410917779,0.044119110287,-0.999024915545
932368000000,,21674,,932,364135471,"""map""",,,-0.0503149963915,0.066035784781,0.0319108776748,,0.000582332510322,-0.00151525884669,0.0440719058166,-0.999027107182
932404000000,,21675,,932,396135060,"""map""",,,-0.0503008179367,0.0665312260389,0.0319076925516,,0.000590376261056,-0.00154488680527,0.044031191961,-0.999028793055
932436000000,,21676,,932,428135060,"""map""",,,-0.0505266301334,0.0666232854128,0.0319379791617,,0.000617322626392,-0.00156767948344,0.0440395791838,-0.999028413734
932468000000,,21677,,932,460135060,"""map""",,,-0.0509657226503,0.0663439184427,0.0320374630392,,0.000691529150231,-0.00150268089354,0.0439620289826,-0.999031869775
932504000000,,21678,,932,500134649,"""map""",,,-0.0499934591353,0.0680047050118,0.0321080088615,,0.000701471649418,-0.00150697645589,0.0439698261495,-0.999031490454
932536000000,,21679,,932,532134649,"""map""",,,-0.04921432212,0.0692781284451,0.0323169715703,,0.0008566901372,-0.00153704308743,0.0439449595089,-0.999032417684
932568000000,,21680,,932,564134649,"""map""",,,-0.0487579666078,0.0700975880027,0.0325201265514,,0.000845415731746,-0.00152964001818,0.0438990615909,-0.99903448288
932604000000,,21681,,932,600134238,"""map""",,,-0.0486045740545,0.0705441683531,0.0327510535717,,0.000894575153189,-0.00151141078592,0.0438626467138,-0.99903608446
932636000000,,21682,,932,632134238,"""map""",,,-0.0487006418407,0.0706410482526,0.0329633392394,,0.000973212405636,-0.00158045773701,0.0438248409907,-0.9990375596
932668000000,,21683,,932,664134238,"""map""",,,-0.0490208007395,0.0704151466489,0.0332264080644,,0.00100065646598,-0.00163335758836,0.0437442140695,-0.999040973495
932704000000,,21684,,932,696133827,"""map""",,,-0.0482405312359,0.0717908889055,0.033095818013,,0.000974228457494,-0.00165141533152,0.0437466585867,-0.999040804907
932736000000,,21685,,932,728133827,"""map""",,,-0.0473479777575,0.0733487159014,0.0329251177609,,0.0010028339434,-0.00165517088737,0.0437113816745,-0.999042364341
