rosbagTimestamp,header,seq,stamp,secs,nsecs,frame_id,pose,position,x,y,z,orientation,x,y,z,w
169576000000,,259,,169,568220858,"""map""",,,0.0153051977977,-0.0357258170843,0.0189787205309,,0.0047788121866,-0.0135229957981,0.0383668662553,-0.999160839132
169612000000,,260,,169,608220858,"""map""",,,0.0153933512047,-0.0366140864789,0.0180953424424,,0.00474746876074,-0.0135358986606,0.0383476894393,-0.999161555628
169644000000,,261,,169,640220858,"""map""",,,0.0155299594626,-0.0374748557806,0.0173117481172,,0.00473583227929,-0.0135321686646,0.0383272903646,-0.999162398565
169676000000,,262,,169,672220675,"""map""",,,0.0157370921224,-0.0384702160954,0.0165921952575,,0.00476108153427,-0.0135615246031,0.0383325165738,-0.999161724216
169712000000,,263,,169,704220675,"""map""",,,0.0159065183252,-0.0390956327319,0.0158853121102,,0.00470904301798,-0.013655741578,0.0383379535173,-0.999160501957
169744000000,,264,,169,736220675,"""map""",,,0.0160001125187,-0.039389975369,0.0152297606692,,0.00467673910495,-0.0136350471461,0.0383116538838,-0.99916193495
169776000000,,265,,169,768220490,"""map""",,,0.0161583721638,-0.0398318059742,0.0146536277607,,0.00469462253961,-0.0136257471806,0.0382983776265,-0.999162482859
169812000000,,266,,169,808220490,"""map""",,,0.0164185743779,-0.0406177043915,0.0139387389645,,0.00467365645811,-0.0136422562329,0.0382709400281,-0.999163367943
169844000000,,267,,169,840220490,"""map""",,,0.0166429560632,-0.0414313934743,0.0134998923168,,0.00465377664578,-0.0136401867567,0.0382592653511,-0.999163915852
169876000000,,268,,169,872220304,"""map""",,,0.0169126950204,-0.0423338264227,0.0131099289283,,0.00469268246749,-0.0136526434554,0.0382420272901,-0.99916421088
169912000000,,269,,169,904220304,"""map""",,,0.0170781295747,-0.0428235903382,0.0127328047529,,0.00466069037529,-0.01371599412,0.0383269953367,-0.999160249076
169944000000,,270,,169,936220304,"""map""",,,0.0171552170068,-0.0429660081863,0.012521465309,,0.00466996169415,-0.0137050277075,0.0383187345543,-0.999160670544
169976000000,,271,,169,968220116,"""map""",,,0.0172913856804,-0.0433626510203,0.0123941740021,,0.0046541786872,-0.0137084050531,0.0383248879942,-0.999160501957
170012000000,,272,,170,8220116,"""map""",,,0.0175185035914,-0.0441145151854,0.0120568694547,,0.00493831364207,-0.0137552150552,0.0382778099644,-0.999160291223
170044000000,,273,,170,40220116,"""map""",,,0.0177919324487,-0.0449132435024,0.0117503600195,,0.00496687043684,-0.0137700734657,0.038270687147,-0.999160164782
170076000000,,274,,170,72219927,"""map""",,,0.0181191843003,-0.0458617508411,0.0112960655242,,0.00499420135101,-0.0138409262693,0.0382439238982,-0.999160122635
170112000000,,275,,170,104219927,"""map""",,,0.0183422844857,-0.0463836565614,0.0110803935677,,0.00495837883468,-0.0138437662425,0.0382513417436,-0.999159954048
170144000000,,276,,170,136219927,"""map""",,,0.018469909206,-0.0465636886656,0.0110220322385,,0.00496033833387,-0.0138247899532,0.0382645337072,-0.999159743314
170176000000,,277,,170,168219736,"""map""",,,0.018680581823,-0.0469272844493,0.0109894368798,,0.00492800610343,-0.0138191926542,0.0382364217592,-0.999161049866
170212000000,,278,,170,208219736,"""map""",,,0.0190148483962,-0.0476494543254,0.0109278215095,,0.00497055532263,-0.0138270866272,0.038236211025,-0.999160754838
170244000000,,279,,170,240219736,"""map""",,,0.0193164795637,-0.0484365783632,0.0107988659292,,0.00496514702586,-0.0138068512008,0.0382238619983,-0.999161471335
170276000000,,280,,170,272219544,"""map""",,,0.0196796767414,-0.0493721775711,0.0106384046376,,0.00497288624092,-0.0138447675594,0.0381946120855,-0.99916206139
170312000000,,281,,170,304219544,"""map""",,,0.0200542323291,-0.0496293790638,0.0104122301564,,0.00492952536561,-0.0138637649221,0.0382032943363,-0.999161639922
170344000000,,282,,170,336219544,"""map""",,,0.0204459838569,-0.0493154935539,0.0101421624422,,0.00491097515464,-0.0137998363847,0.0382062867625,-0.999162525006
170376000000,,283,,170,368219351,"""map""",,,0.0209141615778,-0.0492749810219,0.00986038800329,,0.00493202421274,-0.0138871798014,0.0382530276175,-0.999159448286
170412000000,,284,,170,408219351,"""map""",,,0.0215949863195,-0.0495332963765,0.00944075360894,,0.00491678417574,-0.0138579325227,0.0382979140112,-0.999158226027
170444000000,,285,,170,440219351,"""map""",,,0.022193538025,-0.0499600619078,0.00924098026007,,0.00492701466467,-0.0138849743358,0.0382909597812,-0.999158015293
170476000000,,286,,170,472219156,"""map""",,,0.0228392034769,-0.0505737625062,0.00914989318699,,0.00483494948391,-0.0138555051276,0.0382722887273,-0.999159574726
170512000000,,287,,170,504219156,"""map""",,,0.0234024804085,-0.0508263893425,0.00909805390984,,0.00486749738767,-0.0138692976838,0.0382666410496,-0.999159490433
170544000000,,288,,170,536219156,"""map""",,,0.0238893572241,-0.0507977195084,0.00913390144706,,0.00484072063871,-0.0138544070047,0.0382245363479,-0.999161471335
170576000000,,289,,170,568218960,"""map""",,,0.0244798865169,-0.0510163605213,0.00922341831028,,0.00484343022009,-0.0139328854244,0.0382885574108,-0.999157888852
170612000000,,290,,170,608218960,"""map""",,,0.0253109969199,-0.0515693724155,0.00927205290645,,0.00483194092333,-0.0139656299037,0.0382572423024,-0.999158689643
170644000000,,291,,170,640218960,"""map""",,,0.026042336598,-0.0522348508239,0.00937161408365,,0.00482646282084,-0.0139889822212,0.038267652574,-0.999157973146
170676000000,,292,,170,672218763,"""map""",,,0.0268249828368,-0.0530674345791,0.0093932300806,,0.00496943349207,-0.0140149031916,0.0383336123919,-0.999154390664
170712000000,,293,,170,704218763,"""map""",,,0.0273598693311,-0.0535753108561,0.0095074698329,,0.00497278548361,-0.0140698574137,0.038301580787,-0.999154812133
170744000000,,294,,170,736218763,"""map""",,,0.0276568289846,-0.0537778772414,0.00956868659705,,0.00503325863796,-0.0140572051273,0.0383137190794,-0.999154222077
170776000000,,295,,170,768218564,"""map""",,,0.0280362982303,-0.0541711561382,0.00962136872113,,0.00500918027512,-0.0140971135831,0.0382797487195,-0.999155065014
170812000000,,296,,170,808218564,"""map""",,,0.0286248363554,-0.0549354851246,0.00965028069913,,0.00505142919803,-0.0140674362748,0.0383077763737,-0.99915417993
170844000000,,297,,170,840218564,"""map""",,,0.0292102620006,-0.0557753294706,0.00969461351633,,0.00505014569478,-0.014089270318,0.0383367734055,-0.999152831231
170876000000,,298,,170,872218364,"""map""",,,0.0298614650965,-0.056801199913,0.00967463105917,,0.00501928366496,-0.014090098767,0.0383229492392,-0.99915350558
170912000000,,299,,170,904218364,"""map""",,,0.0301417317241,-0.0571559295058,0.00945175625384,,0.0049741183777,-0.014128158359,0.0383554023126,-0.999151904
170944000000,,300,,170,936218364,"""map""",,,0.0300731826574,-0.0569484345615,0.00901032052934,,0.00497249572403,-0.0141147964909,0.0383505132781,-0.999152325468
170976000000,,301,,170,968218162,"""map""",,,0.0301228128374,-0.05699178949,0.00860840827227,,0.00496296823136,-0.0141239551987,0.0383717552898,-0.999151398238
171012000000,,302,,171,8218162,"""map""",,,0.0303519815207,-0.0573372095823,0.00814364850521,,0.00497245950408,-0.0141505627017,0.0383744948349,-0.999150934622
171044000000,,303,,171,40218162,"""map""",,,0.0306423008442,-0.0578581653535,0.00776528101414,,0.00498027082976,-0.014142751376,0.038357214627,-0.999151608972
171076000000,,304,,171,72217959,"""map""",,,0.0310399308801,-0.0585702471435,0.00742109119892,,0.00495802947682,-0.0141307918785,0.0383774872612,-0.999151145357
171112000000,,305,,171,104217959,"""map""",,,0.031245412305,-0.0587454251945,0.00699197920039,,0.00493432878925,-0.0141858656264,0.0384216993053,-0.999148742986
171144000000,,306,,171,136217959,"""map""",,,0.0312577709556,-0.0584439896047,0.00653770240024,,0.00492633965655,-0.0141990901879,0.0383811961838,-0.999150133832
171176000000,,307,,171,168217755,"""map""",,,0.0313955917954,-0.0583944357932,0.00613335007802,,0.00492574301523,-0.0141624303323,0.0383300720566,-0.99915270479
171212000000,,308,,171,208217755,"""map""",,,0.0317382179201,-0.0586841888726,0.00562756601721,,0.00492556883021,-0.0142116450097,0.0383515248025,-0.999151145357
171244000000,,309,,171,240217755,"""map""",,,0.0321521833539,-0.0591705814004,0.00524804089218,,0.00491512003377,-0.0142348669354,0.038355275872,-0.999150766035
171276000000,,310,,171,272217549,"""map""",,,0.0326640531421,-0.0598684065044,0.00491558061913,,0.0048563488877,-0.0142320918289,0.0383322636927,-0.999151946147
171312000000,,311,,171,304217549,"""map""",,,0.0329525247216,-0.0600268542767,0.00471747526899,,0.00509223096938,-0.0142960029148,0.0383050368286,-0.999150850329
171344000000,,312,,171,336217549,"""map""",,,0.0330511853099,-0.0597366094589,0.00475662294775,,0.00507594681006,-0.0142776542185,0.0383393865101,-0.999149880951
171376000000,,313,,171,368217342,"""map""",,,0.0332743450999,-0.0596781745553,0.00471147801727,,0.00506244763546,-0.0143173581961,0.0383407773561,-0.999149333042
171412000000,,314,,171,408217342,"""map""",,,0.0337180942297,-0.0599098876119,0.0047026979737,,0.00505713515692,-0.0143423111061,0.0383413252651,-0.999149038014
171444000000,,315,,171,440217342,"""map""",,,0.0342213474214,-0.0603135339916,0.00460585858673,,0.00504444994333,-0.014380125061,0.0383218112743,-0.999149248749
171476000000,,316,,171,472217134,"""map""",,,0.0348419547081,-0.0608770698309,0.00454158475623,,0.00505030341619,-0.0144240180403,0.0383228227987,-0.999148574399
171512000000,,317,,171,504217134,"""map""",,,0.0351685844362,-0.0608557276428,0.00476044928655,,0.00507167483184,-0.0144506242262,0.0382939522074,-0.999149206602
171544000000,,318,,171,536217134,"""map""",,,0.0352114289999,-0.0602998659015,0.00514881312847,,0.00503274069271,-0.0144215214981,0.0383390914822,-0.999148068637
171576000000,,319,,171,568216924,"""map""",,,0.0353733375669,-0.0599765591323,0.00549711147323,,0.0050266705587,-0.0144467974241,0.0383767707647,-0.999146298469
171612000000,,320,,171,608216924,"""map""",,,0.0357740409672,-0.0599005892873,0.00585066573694,,0.00502357276534,-0.0144823772668,0.038360291347,-0.99914642491
171644000000,,321,,171,640216924,"""map""",,,0.0362735316157,-0.0600736811757,0.00608236715198,,0.00504637355184,-0.0144967170734,0.0383702380032,-0.999145666266
171676000000,,322,,171,672216713,"""map""",,,0.036895621568,-0.0604326352477,0.00630222633481,,0.00501480885503,-0.014519607422,0.0383288919448,-0.999147141406
171712000000,,323,,171,704216713,"""map""",,,0.0376274809241,-0.060974419117,0.00657457206398,,0.0050303613714,-0.0144869656756,0.0383148148974,-0.999148068637
171744000000,,324,,171,736216713,"""map""",,,0.0384787656367,-0.0616798438132,0.00667410995811,,0.00504594385155,-0.0144674780265,0.0382979983049,-0.999148953721
171776000000,,325,,171,768216501,"""map""",,,0.0394155904651,-0.0625534504652,0.00676385546103,,0.00498717501038,-0.0145001987982,0.0382733845453,-0.999149712364
171812000000,,326,,171,808216501,"""map""",,,0.0401695221663,-0.0627891942859,0.00697168242186,,0.00501929189676,-0.0144555247852,0.0382126930835,-0.999152494056
171844000000,,327,,171,840216501,"""map""",,,0.0406046286225,-0.062632791698,0.00709367822856,,0.00508495536966,-0.0144533199782,0.0381988267703,-0.99915270479
171876000000,,328,,171,872216287,"""map""",,,0.0411797426641,-0.0626792535186,0.00711332354695,,0.00511183748574,-0.0144418952188,0.0381793127795,-0.99915350558
171912000000,,329,,171,904216287,"""map""",,,0.0418567731977,-0.0628993362188,0.00711177103221,,0.00512286152081,-0.014394152059,0.0381826423805,-0.999153969196
171944000000,,330,,171,936216287,"""map""",,,0.0426653660834,-0.063284508884,0.00710037117824,,0.00510630867533,-0.0144436861306,0.038161358222,-0.99915417993
171976000000,,331,,171,968216072,"""map""",,,0.0435443781316,-0.0638737678528,0.00698641547933,,0.00486137819211,-0.0144416505695,0.0381647299699,-0.999155275748
172012000000,,332,,172,8216072,"""map""",,,0.0442890934646,-0.0637101829052,0.00697529315948,,0.0048401523148,-0.0144236377308,0.0381731171927,-0.999155317895
172044000000,,333,,172,40216072,"""map""",,,0.0447574518621,-0.0632721781731,0.00682945502922,,0.00483186321508,-0.0144412175765,0.03820030191,-0.999154095636
172076000000,,334,,172,72215856,"""map""",,,0.0453821755946,-0.063083358109,0.00653869332746,,0.0047032929366,-0.0144615007473,0.0381664158438,-0.999155697216
172112000000,,335,,172,104215856,"""map""",,,0.0461467057467,-0.0630793496966,0.00617093080655,,0.00469815233817,-0.0144629982775,0.0381475340557,-0.99915645586
172144000000,,336,,172,136215856,"""map""",,,0.0470271483064,-0.0632412210107,0.00573611957952,,0.0046894710752,-0.0144716769063,0.0381369551967,-0.999156750888
172176000000,,337,,172,168215639,"""map""",,,0.0480015724897,-0.0635801255703,0.005133993458,,0.00473151288586,-0.0145205721897,0.0380903829291,-0.999157635971
172212000000,,338,,172,208215639,"""map""",,,0.0485435910523,-0.0632694363594,0.00435865903273,,0.00475642858805,-0.0145888313158,0.0380534622898,-0.999157888852
172244000000,,339,,172,240215639,"""map""",,,0.0487213693559,-0.0627906620502,0.00370498443954,,0.004763674224,-0.0146270160312,0.0380626081559,-0.999156919475
172276000000,,340,,172,272215420,"""map""",,,0.0490910597146,-0.0625186040998,0.00316782714799,,0.00479509041902,-0.0146105092839,0.03803032367,-0.999158268174
172312000000,,341,,172,304215420,"""map""",,,0.0495966486633,-0.0624518953264,0.00281009660102,,0.00479741442259,-0.01463485765,0.0380184382587,-0.999158352468
172344000000,,342,,172,336215420,"""map""",,,0.0502367764711,-0.0625492706895,0.00248551485129,,0.00480465742436,-0.0146072998672,0.0380030125122,-0.999159279698
172376000000,,343,,172,368215200,"""map""",,,0.0509905815125,-0.0627660229802,0.0021831295453,,0.00479144833862,-0.0146906610652,0.0379422367566,-0.99916045981
172412000000,,344,,172,408215200,"""map""",,,0.051311828196,-0.0620997324586,0.00207905611023,,0.00477843582842,-0.0146546449368,0.0379161478574,-0.999162103537
172444000000,,345,,172,440215200,"""map""",,,0.0513487681746,-0.0612315125763,0.00189353711903,,0.00484945590233,-0.0146590795755,0.0378994155585,-0.999162314272
172476000000,,346,,172,472214978,"""map""",,,0.0515378862619,-0.0605831220746,0.00174827082083,,0.00485538741272,-0.0146865283691,0.0379194353116,-0.999161092013
172512000000,,347,,172,504214978,"""map""",,,0.0518772415817,-0.0601364523172,0.00158532487694,,0.00485884740556,-0.0146370110905,0.0379102894454,-0.999162145684
172544000000,,348,,172,536214978,"""map""",,,0.0523636862636,-0.0598824732006,0.00142105203122,,0.00485643877902,-0.0145129238538,0.0379012700198,-0.99916433732
172576000000,,349,,172,568214756,"""map""",,,0.0529793165624,-0.0598073191941,0.00116815930232,,0.00486991786801,-0.014541262341,0.0378750546801,-0.999164843082
172612000000,,350,,172,608214756,"""map""",,,0.0532218292356,-0.0590695217252,0.000981040182523,,0.00483346117332,-0.0145347911534,0.0379064962291,-0.999163915852
172644000000,,351,,172,640214756,"""map""",,,0.0532451160252,-0.0582602135837,0.000932118331548,,0.00484601500728,-0.0145691968112,0.0379367998131,-0.999162187831
172676000000,,352,,172,672214532,"""map""",,,0.0534998737276,-0.0576636567712,0.00088833301561,,0.00478851287648,-0.0146073192943,0.0379957211074,-0.99915965902
172712000000,,353,,172,704214532,"""map""",,,0.0538883917034,-0.0572215542197,0.000602360931225,,0.00479963733958,-0.0146561526744,0.0379486852244,-0.999160754838
172744000000,,354,,172,736214532,"""map""",,,0.0544433929026,-0.0569491162896,0.000354095827788,,0.00480489482966,-0.0146642162227,0.0379428268125,-0.999160796985
172776000000,,355,,172,768214307,"""map""",,,0.0551432035863,-0.0568490624428,0.000121876866615,,0.0048234786264,-0.0146428586365,0.037943248281,-0.999160965572
172812000000,,356,,172,808214307,"""map""",,,0.0552439205348,-0.0561116337776,-0.000263749505393,,0.00481970220292,-0.0146949472021,0.0379410987917,-0.99916033337
172844000000,,357,,172,840214307,"""map""",,,0.0550060085952,-0.055317722261,-0.000723065051716,,0.00478105321356,-0.0147011457523,0.0379327115688,-0.999160712691
172876000000,,358,,172,872214080,"""map""",,,0.0549645163119,-0.0547449290752,-0.00110811681952,,0.00486169528129,-0.014651581717,0.0379091514805,-0.999162019244
172912000000,,359,,172,904214080,"""map""",,,0.0551256351173,-0.054350849241,-0.00141581310891,,0.00482443285739,-0.0146626933385,0.0379013121667,-0.999162272125
172944000000,,360,,172,936214080,"""map""",,,0.0554911717772,-0.054167676717,-0.00167643942405,,0.00481397121934,-0.0146482685796,0.0379259680731,-0.999161555628
172976000000,,361,,172,968213853,"""map""",,,0.0560390949249,-0.0541677251458,-0.00191071885638,,0.00485179834515,-0.0145996597631,0.0379199410737,-0.999162356418
173012000000,,362,,173,8213853,"""map""",,,0.0560604222119,-0.0535855181515,-0.00198159436695,,0.00483421685315,-0.0146298813584,0.037896507426,-0.999162946474
173044000000,,363,,173,40213853,"""map""",,,0.055851995945,-0.0529242455959,-0.00188141688704,,0.00482298109602,-0.0146484085203,0.0379217112414,-0.999161766363
173076000000,,364,,173,72213624,"""map""",,,0.0558909960091,-0.0524714663625,-0.00184214580804,,0.00479233737371,-0.0146336956482,0.0379424896377,-0.999161302747
173112000000,,365,,173,104213624,"""map""",,,0.0561483688653,-0.0522185899317,-0.00175567239057,,0.00470681483263,-0.0146516291322,0.0379284125903,-0.999161977097
173144000000,,366,,173,136213624,"""map""",,,0.0565745122731,-0.0521577335894,-0.00168361002579,,0.00468616386468,-0.0146401642016,0.0379750691516,-0.999160501957
173176000000,,367,,173,168213394,"""map""",,,0.0571615323424,-0.0522393882275,-0.00169330998324,,0.00466214707575,-0.0146951615584,0.0380108096791,-0.999158394615
173212000000,,368,,173,208213394,"""map""",,,0.0572797507048,-0.0517479144037,-0.00167382147629,,0.00462633015705,-0.0146922679138,0.0380489104302,-0.999157214503
173244000000,,369,,173,240213394,"""map""",,,0.057190336287,-0.0511784777045,-0.0017011918826,,0.00464201635795,-0.0147094444009,0.0380234537337,-0.999157804559
173276000000,,370,,173,272213162,"""map""",,,0.0573292039335,-0.0508132204413,-0.001710924902,,0.00465888958534,-0.0147416788375,0.0380092080989,-0.999157804559
173312000000,,371,,173,304213162,"""map""",,,0.0576781742275,-0.0506197884679,-0.00170180154964,,0.00465397486767,-0.0147415846656,0.0379656704044,-0.99915953258
173344000000,,372,,173,336213162,"""map""",,,0.0581917874515,-0.0505892634392,-0.00174846500158,,0.00465866205821,-0.0145188257296,0.0379779772841,-0.999162314272
173376000000,,373,,173,368212930,"""map""",,,0.0588511973619,-0.0507256016135,-0.00170912826434,,0.00469474996797,-0.014532247196,0.0380014530788,-0.999161007719
173412000000,,374,,173,408212930,"""map""",,,0.0589743070304,-0.0505206547678,-0.00134455435909,,0.00470173251539,-0.0145461576316,0.0379621722159,-0.999162272125
173444000000,,375,,173,440212930,"""map""",,,0.0588525123894,-0.0502544939518,-0.00109609146602,,0.00471851618072,-0.0145337651411,0.0379706858793,-0.999162019244
173476000000,,376,,173,472212696,"""map""",,,0.0589568540454,-0.0501742735505,-0.00096818828024,,0.00473006013668,-0.0144883733145,0.0379886404368,-0.99916193495
173512000000,,377,,173,504212696,"""map""",,,0.0592652000487,-0.0502612739801,-0.00101366871968,,0.00470493501733,-0.0145002155911,0.0379692950333,-0.999162651446
173544000000,,378,,173,536212696,"""map""",,,0.059746298939,-0.0505018383265,-0.00107708992437,,0.00465575491348,-0.0144898092708,0.0379158949763,-0.999165053817
173576000000,,379,,173,568212461,"""map""",,,0.0603925921023,-0.050908960402,-0.00125005305745,,0.00467342432117,-0.0144552007813,0.0378729894845,-0.999167076865
173612000000,,380,,173,608212461,"""map""",,,0.0604198239744,-0.0509001389146,-0.0015971492976,,0.0046216953208,-0.0144559215582,0.0378435709842,-0.999168425565
173644000000,,381,,173,640212461,"""map""",,,0.0601516291499,-0.0507523491979,-0.0018703507958,,0.00462992943205,-0.0144877164164,0.0378694491492,-0.999166908278
173676000000,,382,,173,672212225,"""map""",,,0.0601024962962,-0.0507733561099,-0.00222766050138,,0.00458366569255,-0.0145393591474,0.0378292410557,-0.999167919802
173712000000,,383,,173,704212225,"""map""",,,0.060260809958,-0.0509462617338,-0.00253378716297,,0.0045801796872,-0.0145706870975,0.0378511152701,-0.999166697544
173744000000,,384,,173,736212225,"""map""",,,0.0606270357966,-0.0513001009822,-0.00283625791781,,0.00455699101798,-0.0145667397817,0.0379015229009,-0.999164927376
173776000000,,385,,173,768211987,"""map""",,,0.0611887797713,-0.0517760254443,-0.00311609148048,,0.00457253003419,-0.0146311902156,0.0379475472595,-0.999162229978
173812000000,,386,,173,808211987,"""map""",,,0.0610137432814,-0.051899407059,-0.00348581653088,,0.00457495677071,-0.0146044302595,0.0379007221108,-0.999164379467
173844000000,,387,,173,840211987,"""map""",,,0.0605549328029,-0.0518440194428,-0.0036994391121,,0.00455203777547,-0.0145830410632,0.037915684242,-0.999164168733
173876000000,,388,,173,872211749,"""map""",,,0.0603511147201,-0.0519495457411,-0.00377634493634,,0.00449800683276,-0.0145843067857,0.0378841583994,-0.999165601726
173912000000,,389,,173,904211749,"""map""",,,0.0603756159544,-0.0522549822927,-0.00382100814022,,0.0044031125448,-0.0146073907463,0.0378728208971,-0.999166149635
173944000000,,390,,173,936211749,"""map""",,,0.0606058016419,-0.0526959300041,-0.00381735083647,,0.00438229200163,-0.0146182791212,0.037853644081,-0.999166781838
173976000000,,391,,173,968211509,"""map""",,,0.061065800488,-0.0532693192363,-0.0038761284668,,0.004495883356,-0.0146125744794,0.0378045851494,-0.99916821483
174012000000,,392,,174,8211509,"""map""",,,0.0609837062657,-0.0532075613737,-0.00420313375071,,0.00449640920379,-0.0146205965394,0.0378334557406,-0.999166992572
174044000000,,393,,174,40211509,"""map""",,,0.0606975369155,-0.0528380796313,-0.00470788124949,,0.00445923041505,-0.0146723752598,0.0378460576483,-0.999165938901
174076000000,,394,,174,72211268,"""map""",,,0.0606585480273,-0.0526798218489,-0.0053535704501,,0.00443182113408,-0.014653238615,0.0378105700019,-0.999167709068
174112000000,,395,,174,104211268,"""map""",,,0.0608394630253,-0.0527176298201,-0.00615338375792,,0.00440522877757,-0.0146028418502,0.0378402413832,-0.999167371893
174144000000,,396,,174,136211268,"""map""",,,0.0612375289202,-0.0528649948537,-0.00704238889739,,0.00441917510389,-0.0145971457694,0.0378224554131,-0.999168130537
174176000000,,397,,174,168211026,"""map""",,,0.0617896430194,-0.0531607866287,-0.00779578834772,,0.00464117572589,-0.0145870081353,0.0378058917017,-0.999167919802
174212000000,,398,,174,208211026,"""map""",,,0.0618559271097,-0.0529171302915,-0.00856265053153,,0.00456455538947,-0.0146747855327,0.0378006654925,-0.999167161159
174244000000,,399,,174,240211026,"""map""",,,0.0617183372378,-0.0525085292757,-0.00905847549438,,0.00459293766995,-0.014675132915,0.037802730688,-0.999166950425
174276000000,,400,,174,272210782,"""map""",,,0.0618165209889,-0.0523211024702,-0.00946970656514,,0.00461897717834,-0.0146877644572,0.0377155288585,-0.999169942851
174312000000,,401,,174,304210782,"""map""",,,0.0621232949197,-0.0523321405053,-0.00980363506824,,0.00461426101185,-0.0146986880642,0.0376734241568,-0.999171333697
174344000000,,402,,174,336210782,"""map""",,,0.0626491084695,-0.0525030829012,-0.0100945476443,,0.00460457349286,-0.0147010986664,0.0376210777709,-0.999173356746
174376000000,,403,,174,368210538,"""map""",,,0.0633679479361,-0.0528432056308,-0.0102511420846,,0.00454963079529,-0.0147491740618,0.0376043876189,-0.999173525333
174412000000,,404,,174,408210538,"""map""",,,0.0636260583997,-0.052633471787,-0.0105606587604,,0.00452371311763,-0.0148000360884,0.0375893833409,-0.99917344104
174444000000,,405,,174,440210538,"""map""",,,0.0636129006743,-0.052260722965,-0.0109244314954,,0.0045182165759,-0.01479421225,0.0375994564377,-0.999173146012
174476000000,,406,,174,472210292,"""map""",,,0.0638327226043,-0.0520954579115,-0.0113568771631,,0.0045117167416,-0.0147819778101,0.0375665818958,-0.999174663298
174512000000,,407,,174,504210292,"""map""",,,0.0642705708742,-0.0521440580487,-0.011685946025,,0.00452402460919,-0.0147159761746,0.0375462671148,-0.999176349172
174544000000,,408,,174,536210292,"""map""",,,0.0649085938931,-0.0523633882403,-0.0119732506573,,0.00450635487222,-0.0147366357037,0.0375353932279,-0.99917651776
174576000000,,409,,174,568210045,"""map""",,,0.0657484456897,-0.0527178607881,-0.0122522115707,,0.0044367921573,-0.0147293357378,0.0376086865975,-0.999174199683
174612000000,,410,,174,608210045,"""map""",,,0.0659664943814,-0.0527197942138,-0.0122963413596,,0.00446739768403,-0.0146894987341,0.037629970756,-0.999173820361
174644000000,,411,,174,640210045,"""map""",,,0.0658476576209,-0.0525991916656,-0.0121973175555,,0.00447499597057,-0.0146997786139,0.0376271047703,-0.999173736068
174676000000,,412,,174,672209797,"""map""",,,0.0659820660949,-0.0526608787477,-0.0120608359575,,0.00443488534167,-0.0147137529284,0.0375750955592,-0.999175674823
174712000000,,413,,174,704209797,"""map""",,,0.0663378164172,-0.0529029630125,-0.0119649022818,,0.00443984484036,-0.0147263252016,0.0375654439309,-0.999175801263
174744000000,,414,,174,736209797,"""map""",,,0.0669048130512,-0.0532693341374,-0.01205185242,,0.00464733904394,-0.0147176350482,0.0375791838035,-0.999174536858
174776000000,,415,,174,768209548,"""map""",,,0.0676882639527,-0.0537984780967,-0.0119332130998,,0.00464292877137,-0.0146933762442,0.0376191390159,-0.999173356746
174812000000,,416,,174,808209548,"""map""",,,0.0679126158357,-0.0540276616812,-0.0117237186059,,0.00462683921195,-0.0146742521117,0.0376404653213,-0.999172935277
174844000000,,417,,174,840209548,"""map""",,,0.0678275302052,-0.0540907457471,-0.0114255780354,,0.00459566799548,-0.014716680488,0.0376452279151,-0.999172218781
174876000000,,418,,174,872209298,"""map""",,,0.0680313184857,-0.0543444678187,-0.011136260815,,0.00456282671014,-0.0147641836083,0.0376435841881,-0.999171755166
174912000000,,419,,174,904209298,"""map""",,,0.0684361383319,-0.0547643862665,-0.0107779167593,,0.00454737132908,-0.014728603107,0.0376338904129,-0.999172682396
174944000000,,420,,174,936209298,"""map""",,,0.0690433159471,-0.0553636662662,-0.0103080878034,,0.00455198937244,-0.0147367832176,0.0376252503089,-0.999172893131
174976000000,,421,,174,968209047,"""map""",,,0.0698416829109,-0.0561255179346,-0.00991745758802,,0.00451991134019,-0.0146788803625,0.0376591363752,-0.999172640249
175012000000,,422,,175,8209047,"""map""",,,0.0700066760182,-0.0561896078289,-0.00924323592335,,0.00452059029958,-0.0146496034493,0.0375870652642,-0.999175759116
175044000000,,423,,175,40209047,"""map""",,,0.0698324292898,-0.0559084229171,-0.00864477735013,,0.00453411482814,-0.0146722343313,0.0375590797568,-0.999176433466
175076000000,,424,,175,72208794,"""map""",,,0.0699235871434,-0.0558373741806,-0.00818718224764,,0.00452552049304,-0.0146699679504,0.0376302236371,-0.999173820361
175112000000,,425,,175,104208794,"""map""",,,0.0702709332108,-0.0559500642121,-0.00786995701492,,0.00450601111199,-0.0146875636011,0.0376697152341,-0.999172176634
175144000000,,426,,175,136208794,"""map""",,,0.0708433315158,-0.0562416166067,-0.00771153671667,,0.0045507746871,-0.0147162909589,0.037661960214,-0.999171839459
175176000000,,427,,175,168208540,"""map""",,,0.071619451046,-0.05670369789,-0.0077948179096,,0.00448233116857,-0.0147048806875,0.0376361241959,-0.999173314599
175212000000,,428,,175,208208540,"""map""",,,0.0715113803744,-0.056558329612,-0.00792268849909,,0.00444868909311,-0.0146772451965,0.0376217521205,-0.99917436827
175244000000,,429,,175,240208540,"""map""",,,0.0710179060698,-0.0562216900289,-0.00803635083139,,0.00440499170155,-0.0146909076901,0.0376187596943,-0.999174494711
175276000000,,430,,175,272208286,"""map""",,,0.0707582309842,-0.0561127737164,-0.00814965926111,,0.00442939966592,-0.0146752425626,0.0376075064857,-0.99917504262
175312000000,,431,,175,304208286,"""map""",,,0.070774808526,-0.0562028251588,-0.00829154904932,,0.00441564859805,-0.0146223897561,0.0376182960789,-0.999175464088
175344000000,,432,,175,336208286,"""map""",,,0.0710366517305,-0.0564839616418,-0.00859031826258,,0.0043986907477,-0.0146176340769,0.0376164837645,-0.999175674823
175376000000,,433,,175,368208030,"""map""",,,0.0715167373419,-0.0569041073322,-0.00892613828182,,0.00465659192355,-0.0146514272883,0.0376102460309,-0.99917424183
175412000000,,434,,175,408208030,"""map""",,,0.0712108016014,-0.0567434616387,-0.00885267183185,,0.0046138023356,-0.0146775333097,0.0376562282426,-0.999172345222
175444000000,,435,,175,440208030,"""map""",,,0.0706514641643,-0.0563577078283,-0.00878431368619,,0.00460649644283,-0.01467249281,0.0376340168534,-0.999173314599
175476000000,,436,,175,472207773,"""map""",,,0.0703587830067,-0.0561929531395,-0.00885257404298,,0.0045871434661,-0.0146718418388,0.0376732555694,-0.999171923753
175512000000,,437,,175,504207773,"""map""",,,0.0703239217401,-0.0562226995826,-0.00886552873999,,0.00460505159618,-0.0146841266573,0.0376453122088,-0.999172724543
175544000000,,438,,175,536207773,"""map""",,,0.0705252587795,-0.0564485117793,-0.00881449040025,,0.00462453200127,-0.0146807384458,0.0376782288975,-0.999171417991
175576000000,,439,,175,568207515,"""map""",,,0.0709618926048,-0.0568928606808,-0.00864554196596,,0.00463964131718,-0.0146757614957,0.0376779338696,-0.999171460138
175612000000,,440,,175,608207515,"""map""",,,0.0705569162965,-0.0567722097039,-0.00854620803148,,0.0045628105758,-0.0146608767435,0.0376904093367,-0.999171544431
175644000000,,441,,175,640207515,"""map""",,,0.0698597505689,-0.0564385205507,-0.00845444668084,,0.00459077270488,-0.0146508480984,0.0376923902386,-0.999171502285
175676000000,,442,,175,672207256,"""map""",,,0.0694356635213,-0.0563446693122,-0.00834601931274,,0.00459545627342,-0.0146890489482,0.0376718647234,-0.999171628725
175712000000,,443,,175,704207256,"""map""",,,0.0692599862814,-0.0564452894032,-0.00827258266509,,0.00462195314097,-0.0146872725244,0.0376446378593,-0.999172555956
175744000000,,444,,175,736207256,"""map""",,,0.0693342760205,-0.0567157715559,-0.00835784710944,,0.00461575590788,-0.0146674862254,0.0376533622569,-0.999172598103
175776000000,,445,,175,768206995,"""map""",,,0.0696091502905,-0.0571531653404,-0.0084557980299,,0.00457911218655,-0.0146729241567,0.0376802097994,-0.999171628725
175812000000,,446,,175,808206995,"""map""",,,0.0693231523037,-0.0569529831409,-0.00839498825371,,0.00452828374579,-0.014653139504,0.037648051754,-0.999173356746
175844000000,,447,,175,840206995,"""map""",,,0.0689347311854,-0.0565515346825,-0.0083425026387,,0.00450851094694,-0.0146300897877,0.0376281584415,-0.999174621151
175876000000,,448,,175,872206734,"""map""",,,0.0687903240323,-0.0563645735383,-0.00843827240169,,0.00447461533184,-0.0146595033489,0.0376547109561,-0.999173272452
175912000000,,449,,175,904206734,"""map""",,,0.0688750296831,-0.0563882961869,-0.00865335855633,,0.00451347307981,-0.0146305777692,0.0376743935343,-0.999172808837
175944000000,,450,,175,936206734,"""map""",,,0.0691721737385,-0.0566229037941,-0.00891910493374,,0.00450585832966,-0.0146298540288,0.0376965206298,-0.999172008047
175976000000,,451,,175,968206472,"""map""",,,0.0696528851986,-0.0570571050048,-0.00935844052583,,0.00448818958051,-0.0146649570852,0.0376272312108,-0.999174199683
176012000000,,452,,176,8206472,"""map""",,,0.0694020912051,-0.0568161867559,-0.00953422766179,,0.00450102889351,-0.0146318148451,0.0375562559179,-0.99917731855
176044000000,,453,,176,40206472,"""map""",,,0.0689375922084,-0.0563415810466,-0.00949096959084,,0.00449929823854,-0.0146087157379,0.037548163723,-0.999177908606
176076000000,,454,,176,72206208,"""map""",,,0.0686850249767,-0.0560762956738,-0.00933235231787,,0.00448080499167,-0.0148005892657,0.0375026451266,-0.999176897081
176112000000,,455,,176,104206208,"""map""",,,0.0686505809426,-0.0560715645552,-0.00942752882838,,0.00450176349991,-0.0148256011154,0.0375833141947,-0.999173356746
176144000000,,456,,176,136206208,"""map""",,,0.0688092708588,-0.0562589243054,-0.00951286498457,,0.00447785668791,-0.0147623548302,0.037558742582,-0.999175337648
176176000000,,457,,176,168205944,"""map""",,,0.0691708922386,-0.0566564835608,-0.00962734222412,,0.00446320999951,-0.0147533571365,0.037580153181,-0.999174747592
176212000000,,458,,176,208205944,"""map""",,,0.0688730850816,-0.0566450916231,-0.00920207705349,,0.00440312505714,-0.0146970324833,0.0375334966197,-0.999177655724
176244000000,,459,,176,240205944,"""map""",,,0.0683897808194,-0.0564779117703,-0.00856040418148,,0.00442954816771,-0.0147215807177,0.0374795486536,-0.999179173011
176276000000,,460,,176,272205678,"""map""",,,0.0681539997458,-0.056541454047,-0.00803435686976,,0.00436105953888,-0.0147397341556,0.0374336928825,-0.999180943179
176312000000,,461,,176,304205678,"""map""",,,0.0681752562523,-0.0568279512227,-0.00758616486564,,0.00435743227573,-0.0147195616202,0.0374533333139,-0.99918052171
176344000000,,462,,176,336205678,"""map""",,,0.0684051811695,-0.0573175214231,-0.00720576290041,,0.0043494945095,-0.014705979469,0.0374904225406,-0.999179341598
176376000000,,463,,176,368205411,"""map""",,,0.0688268467784,-0.0579960383475,-0.00690589379519,,0.00432947771991,-0.014701352206,0.0374661881027,-0.99918039527
176412000000,,464,,176,408205411,"""map""",,,0.0685624554753,-0.0580097436905,-0.00649667298421,,0.00434233152089,-0.0147761309227,0.0374492450696,-0.999179889507
176444000000,,465,,176,440205411,"""map""",,,0.0680920258164,-0.0577101372182,-0.00609557656571,,0.00432721364389,-0.0147702557179,0.0374260643029,-0.999180901032
176476000000,,466,,176,472205144,"""map""",,,0.0678750947118,-0.0576316341758,-0.00579444132745,,0.00431412474252,-0.0147047855278,0.0373761202874,-0.999183809164
176512000000,,467,,176,504205144,"""map""",,,0.0678598880768,-0.0577506572008,-0.00560259306803,,0.00432168088221,-0.0147380090982,0.0373243218106,-0.99918520001
176544000000,,468,,176,536205144,"""map""",,,0.0680546984076,-0.0581064894795,-0.00540187116712,,0.00432994495724,-0.0147376528257,0.03733810383,-0.999184652101
176576000000,,469,,176,568204875,"""map""",,,0.0684488713741,-0.0587315931916,-0.00539251742885,,0.00414703553723,-0.0146865603086,0.0373071680432,-0.9991873495
176612000000,,470,,176,608204875,"""map""",,,0.0691967457533,-0.0597266964614,-0.00535848224536,,0.00416080471508,-0.014690773347,0.0373455638222,-0.999185790066
176644000000,,471,,176,640204875,"""map""",,,0.0699637308717,-0.0606989972293,-0.00541678164154,,0.00417462493012,-0.0146836663347,0.0373336362641,-0.999186253682
176676000000,,472,,176,672204605,"""map""",,,0.0708629265428,-0.0617909431458,-0.00552320573479,,0.00443150865471,-0.014668845132,0.0372825964306,-0.999187307353
176712000000,,473,,176,704204605,"""map""",,,0.0711303055286,-0.0621968619525,-0.00549224764109,,0.00448394493189,-0.0146395764506,0.0373285786423,-0.999185747919
176744000000,,474,,176,736204605,"""map""",,,0.0708564445376,-0.0619986057281,-0.00547895301133,,0.00451933906501,-0.0146176482356,0.0373022790088,-0.999186928031
176776000000,,475,,176,768204334,"""map""",,,0.0708128288388,-0.0620293207467,-0.00545328715816,,0.00456273616027,-0.0146334990726,0.0372858417379,-0.999187096618
176812000000,,476,,176,808204334,"""map""",,,0.071048900485,-0.0623291060328,-0.0054500834085,,0.00457885930546,-0.0146222346688,0.0372948190166,-0.999186885884
176844000000,,477,,176,840204334,"""map""",,,0.0714580118656,-0.0627660378814,-0.00553910201415,,0.00455016289925,-0.014592456274,0.0372725233338,-0.99918827673
176876000000,,478,,176,872204062,"""map""",,,0.07203438133,-0.0633960068226,-0.00563990790397,,0.00452692352211,-0.0145634440957,0.0373198542446,-0.999186970178
176912000000,,479,,176,904204062,"""map""",,,0.071964815259,-0.0634825527668,-0.0058798850514,,0.0045450604964,-0.0145848250602,0.0372613122721,-0.999188782492
176944000000,,480,,176,936204062,"""map""",,,0.0713360756636,-0.0630639046431,-0.00616560783237,,0.00460599693682,-0.014572170469,0.0372736191518,-0.99918827673
176976000000,,481,,176,968203789,"""map""",,,0.07096542418,-0.0628800541162,-0.00650814408436,,0.00459865284846,-0.0145343686971,0.0372491739797,-0.999189794017
177012000000,,482,,177,8203789,"""map""",,,0.0708209425211,-0.0629244297743,-0.00698958896101,,0.00456796072312,-0.0145279017901,0.0372829336053,-0.999188740346
177044000000,,483,,177,40203789,"""map""",,,0.0709510371089,-0.063170157373,-0.00739861605689,,0.00455873780729,-0.0145366650418,0.0373076316586,-0.999187728821
177076000000,,484,,177,72203516,"""map""",,,0.0712834000587,-0.0636115670204,-0.00786681752652,,0.0045671872626,-0.0145761760659,0.03734505806,-0.999185705772
177112000000,,485,,177,104203516,"""map""",,,0.0711135044694,-0.0634759068489,-0.00795476324856,,0.00456914478615,-0.0145427440662,0.0373507478846,-0.9991860008
177144000000,,486,,177,136203516,"""map""",,,0.0704905614257,-0.0628304108977,-0.00773686822504,,0.00458946648185,-0.014566847783,0.0373265977404,-0.999186380122
177176000000,,487,,177,168203241,"""map""",,,0.070111066103,-0.0624308437109,-0.00759059237316,,0.00454877106543,-0.0145501088987,0.0372425569245,-0.999190004751
177212000000,,488,,177,208203241,"""map""",,,0.0699765980244,-0.0622203573585,-0.00751375593245,,0.0045531243739,-0.0145872201866,0.0372647683136,-0.999188613905
177244000000,,489,,177,240203241,"""map""",,,0.0701209902763,-0.062255743891,-0.00758998282254,,0.00448956264581,-0.0145973897602,0.0372515763501,-0.999189246108
177276000000,,490,,177,272202965,"""map""",,,0.0704647228122,-0.062456574291,-0.00781098427251,,0.00444909245162,-0.0146325915983,0.0372828071648,-0.999187686674
177312000000,,491,,177,304202965,"""map""",,,0.070199996233,-0.0621410794556,-0.00809130724519,,0.00447394756771,-0.0146864062091,0.0372825964306,-0.999186801591
177344000000,,492,,177,336202965,"""map""",,,0.0694047808647,-0.0613443292677,-0.00839007273316,,0.00445346913842,-0.0146921398269,0.0372933438769,-0.999186422269
177376000000,,493,,177,368202688,"""map""",,,0.0689003318548,-0.0607735402882,-0.00866111554205,,0.00446452247871,-0.0147032214846,0.0372636724956,-0.9991873495
177412000000,,494,,177,408202688,"""map""",,,0.0686221420765,-0.0603359974921,-0.008923063986,,0.00445950074757,-0.0146702768078,0.0373049764071,-0.999186337975
177444000000,,495,,177,440202688,"""map""",,,0.0686649084091,-0.0602294206619,-0.00909769441932,,0.00446742665999,-0.0146619847446,0.0372493847139,-0.999188487465
177476000000,,496,,177,472202410,"""map""",,,0.0689119175076,-0.0603009723127,-0.00934282504022,,0.00440005986173,-0.0146624868848,0.0372133070116,-0.999190089045
177512000000,,497,,177,504202410,"""map""",,,0.068636469543,-0.059893719852,-0.00955454166979,,0.00441799334577,-0.0146751612324,0.0372087130051,-0.999190046898
177544000000,,498,,177,536202410,"""map""",,,0.0679179504514,-0.0590762533247,-0.00960145704448,,0.00442852874081,-0.0146615346294,0.0371580946401,-0.9991920278
177576000000,,499,,177,568214131,"""map""",,,0.0674611479044,-0.0584910959005,-0.00972822122276,,0.00438280698344,-0.0146163245611,0.0371452819981,-0.999193376499
177612000000,,500,,177,608214131,"""map""",,,0.0672051757574,-0.0580786950886,-0.00995976570994,,0.00443315435743,-0.0146473219219,0.0371248407766,-0.999193502939
177644000000,,501,,177,640214131,"""map""",,,0.0672509595752,-0.0579949095845,-0.010229117237,,0.0044440608423,-0.0146120282168,0.0371421631313,-0.999193292205
177676000000,,502,,177,672213851,"""map""",,,0.0675054490566,-0.0580771751702,-0.0105914147571,,0.00441906644405,-0.0145926617399,0.0371721295406,-0.999192575709
177712000000,,503,,177,704213851,"""map""",,,0.067167378962,-0.0576922520995,-0.0109033193439,,0.00454176481041,-0.0146033331244,0.0371601598356,-0.999192322828
177744000000,,504,,177,736213851,"""map""",,,0.0663179457188,-0.0569315776229,-0.0109981102869,,0.0045987888379,-0.0145840924295,0.0371890304269,-0.999191269157
177776000000,,505,,177,768213570,"""map""",,,0.0657470673323,-0.0564200393856,-0.0111309960485,,0.00463392811431,-0.0145231750868,0.0371513511443,-0.999193376499
177812000000,,506,,177,808213570,"""map""",,,0.0654147416353,-0.0561014227569,-0.0115136737004,,0.00461010724236,-0.0145748668795,0.0371888196926,-0.999191395597
177844000000,,507,,177,840213570,"""map""",,,0.0654311776161,-0.0560467243195,-0.0118151800707,,0.00462694029853,-0.0146052896601,0.0371521519344,-0.999192238534
177876000000,,508,,177,872213288,"""map""",,,0.0656440556049,-0.0561798028648,-0.0120811741799,,0.00464293897881,-0.0145976992761,0.037186754497,-0.999190931982
177912000000,,509,,177,904213288,"""map""",,,0.0653517693281,-0.055736515671,-0.0121784145012,,0.00463050532923,-0.0145344766984,0.0371836777771,-0.999192069947
177944000000,,510,,177,936213288,"""map""",,,0.0646483376622,-0.0547999516129,-0.012213238515,,0.00462230480374,-0.0145211559894,0.0371684206179,-0.99919282859
177976000000,,511,,177,968213005,"""map""",,,0.0642099678516,-0.0541327521205,-0.0123050669208,,0.00464805455255,-0.0145381036323,0.0371251779514,-0.999194092995
178012000000,,512,,178,8213005,"""map""",,,0.0640058070421,-0.0536176338792,-0.0123528027907,,0.00461640161077,-0.0145940858424,0.0371100472328,-0.999193966555
178044000000,,513,,178,40213005,"""map""",,,0.0641091614962,-0.0534386076033,-0.012502768077,,0.00461749216048,-0.0145623861439,0.0371286761398,-0.999193713674
178076000000,,514,,178,72212720,"""map""",,,0.0644177347422,-0.0534332878888,-0.0127871371806,,0.00465195050186,-0.0145977624964,0.0372230429336,-0.999189541136
178112000000,,515,,178,104212720,"""map""",,,0.0643575936556,-0.0529612116516,-0.0128517318517,,0.00459842367497,-0.0145963930531,0.0372130962774,-0.999190215485
178144000000,,516,,178,136212720,"""map""",,,0.0639682859182,-0.0520953647792,-0.0127349235117,,0.00461485567754,-0.0145994579192,0.0371840570987,-0.999191184863
178176000000,,517,,178,168212435,"""map""",,,0.0638234615326,-0.0514608286321,-0.0126750571653,,0.00451046023868,-0.0146035359561,0.0371704015198,-0.999192112093
178212000000,,518,,178,208212435,"""map""",,,0.063951395452,-0.0509503185749,-0.0127316135913,,0.0045000499671,-0.0146476399989,0.037152826284,-0.99919215424
178244000000,,519,,178,240212435,"""map""",,,0.0642392188311,-0.050771407783,-0.0128289023414,,0.00449444904606,-0.0146281108615,0.0371780300994,-0.999191479891
178276000000,,520,,178,272212149,"""map""",,,0.0647150874138,-0.0507513359189,-0.0129061546177,,0.00446485767787,-0.0146027243,0.0372175638433,-0.99919055266
178312000000,,521,,178,304212149,"""map""",,,0.0646001473069,-0.0504209510982,-0.0127945579588,,0.00444256627554,-0.0146241912046,0.0372254874508,-0.999190046898
178344000000,,522,,178,336212149,"""map""",,,0.0639814063907,-0.0497919842601,-0.0125459972769,,0.00446263278525,-0.0146555333133,0.0372410817848,-0.999188866786
178376000000,,523,,178,368211861,"""map""",,,0.0635861456394,-0.049375358969,-0.01242517028,,0.00446451655181,-0.014641017346,0.0372256138914,-0.999189667576
178412000000,,524,,178,408211861,"""map""",,,0.0633717030287,-0.0491415299475,-0.0125931259245,,0.00447442501248,-0.0145842244676,0.0372038239707,-0.999191311303
178444000000,,525,,178,440211861,"""map""",,,0.0634255483747,-0.0491778887808,-0.012946235016,,0.00446664496766,-0.0145267677764,0.0372027281526,-0.99919215424
178476000000,,526,,178,472211573,"""map""",,,0.0636890381575,-0.0494171641767,-0.0133538646623,,0.00445523074498,-0.0145549524935,0.0372648104605,-0.999189498989
178512000000,,527,,178,504211573,"""map""",,,0.0634557083249,-0.0492663905025,-0.0137176858261,,0.00464571079264,-0.0145380094604,0.0372526721681,-0.999189330401
178544000000,,528,,178,536211573,"""map""",,,0.0627871677279,-0.0487949028611,-0.0139492610469,,0.00465958006925,-0.014561916931,0.0372545266294,-0.999188824639
178576000000,,529,,178,568211283,"""map""",,,0.0623682253063,-0.0485395900905,-0.0141976568848,,0.00462568873469,-0.0145664464001,0.0372577719368,-0.999188782492
178612000000,,530,,178,608211283,"""map""",,,0.0621866174042,-0.0484729930758,-0.0145119279623,,0.0045703202881,-0.0145499650067,0.0372414611064,-0.999189920457
178644000000,,531,,178,640211283,"""map""",,,0.0622807145119,-0.048639960587,-0.0147555805743,,0.00457708288165,-0.0145349179232,0.0372391008829,-0.999190173338
178676000000,,532,,178,672210993,"""map""",,,0.0625786706805,-0.0490145720541,-0.0149519573897,,0.00455115532583,-0.0145009284656,0.0372023066841,-0.99919215424
178712000000,,533,,178,704210993,"""map""",,,0.0625115558505,-0.0490128174424,-0.0150104658678,,0.00453132984341,-0.0145354552956,0.0372375414495,-0.999190468366
178744000000,,534,,178,736210993,"""map""",,,0.0621001571417,-0.0486743301153,-0.014997061342,,0.00453347834487,-0.0145113166759,0.0372579405242,-0.999190046898
178776000000,,535,,178,768210701,"""map""",,,0.0619050860405,-0.048557754606,-0.0152049288154,,0.00451060709411,-0.0144597750314,0.0372649790479,-0.999190679101
178812000000,,536,,178,808210701,"""map""",,,0.0619810149074,-0.0486702658236,-0.0154065480456,,0.004516564617,-0.0144437075333,0.037244917148,-0.999191606331
178844000000,,537,,178,840210701,"""map""",,,0.0622355267406,-0.0489418320358,-0.0154742347077,,0.00449163310974,-0.0144385382881,0.0372486682175,-0.999191648478
178876000000,,538,,178,872210408,"""map""",,,0.0626649260521,-0.0493294335902,-0.0154994912446,,0.0044631033153,-0.0144669429591,0.0371524048155,-0.999194935932
178912000000,,539,,178,904210408,"""map""",,,0.0625764429569,-0.0493605732918,-0.0155436871573,,0.00441731800838,-0.0144752123025,0.0370886366337,-0.999197422596
178944000000,,540,,178,936210408,"""map""",,,0.062054246664,-0.0490834638476,-0.015624714084,,0.00443943753059,-0.0144656617608,0.0371102158201,-0.999196663953
178976000000,,541,,178,968210115,"""map""",,,0.0617597140372,-0.0489794649184,-0.0157335456461,,0.00447014546099,-0.0144629972897,0.0371449026765,-0.999195273107
179012000000,,542,,179,8210115,"""map""",,,0.0616892799735,-0.049088858068,-0.0158454030752,,0.00441610628648,-0.0144750977158,0.0371628150871,-0.999194640904
179044000000,,543,,179,40210115,"""map""",,,0.0618240535259,-0.0493502952158,-0.0159883350134,,0.00439810826508,-0.0145193611263,0.0371516883191,-0.999194472317
179076000000,,544,,179,72209820,"""map""",,,0.0621497929096,-0.0497768931091,-0.0161844603717,,0.00434939474001,-0.0145273700154,0.0371207103854,-0.999195778869
179112000000,,545,,179,104209820,"""map""",,,0.0619929544628,-0.04983907938,-0.0160955525935,,0.00408249784618,-0.0145016360716,0.0371217219098,-0.999197211862
179144000000,,546,,179,136209820,"""map""",,,0.0614309981465,-0.0495578236878,-0.0157951731235,,0.00409181164116,-0.0145081326132,0.0371260630352,-0.999196916834
179176000000,,547,,179,168209525,"""map""",,,0.0611138343811,-0.0494622476399,-0.0155023932457,,0.00413521894386,-0.014518575812,0.0371148519735,-0.999197001128
179212000000,,548,,179,208209525,"""map""",,,0.0610143914819,-0.0495752692223,-0.0151208965108,,0.00411895190669,-0.01452161269,0.0370792800333,-0.999198349827
179244000000,,549,,179,240209525,"""map""",,,0.0611395388842,-0.0498379319906,-0.0148912630975,,0.00411235164436,-0.0145212350147,0.0371226912873,-0.999196748247
179276000000,,550,,179,272209228,"""map""",,,0.0614338740706,-0.0502222217619,-0.0147240022197,,0.00411689889419,-0.014519959414,0.0371651753106,-0.99919523096
179312000000,,551,,179,304209228,"""map""",,,0.0612232089043,-0.0503043867648,-0.0145494071767,,0.00409725648715,-0.0144575063456,0.0371733096524,-0.999195863163
179344000000,,552,,179,336209228,"""map""",,,0.0606141351163,-0.0501456074417,-0.0143048986793,,0.00412260781653,-0.0144716202715,0.0371860801475,-0.999195062373
179376000000,,553,,179,368208930,"""map""",,,0.0602483153343,-0.0501549988985,-0.014172617346,,0.00409732530505,-0.0144778379195,0.0371580524932,-0.999196116044
179412000000,,554,,179,408208930,"""map""",,,0.060101043433,-0.0503737702966,-0.0139338383451,,0.00406087618362,-0.0144594935037,0.0371225226999,-0.999197928359
179444000000,,555,,179,440208930,"""map""",,,0.0602387301624,-0.0507016889751,-0.0138450078666,,0.00415266806841,-0.014440751327,0.0370858127949,-0.999199150617
179476000000,,556,,179,472208632,"""map""",,,0.0605713278055,-0.0511302165687,-0.0137033546343,,0.00420483368379,-0.0144185797797,0.0371145569455,-0.999198139093
179512000000,,557,,179,504208632,"""map""",,,0.0605749972165,-0.0511677190661,-0.0134082157165,,0.00420999601419,-0.0144004836352,0.0371306570417,-0.999197801918
179544000000,,558,,179,536208632,"""map""",,,0.0603051073849,-0.0508845262229,-0.0130361430347,,0.00420762986378,-0.0143954451112,0.0371702750793,-0.999196453219
179576000000,,559,,179,568208332,"""map""",,,0.0602908283472,-0.050773371011,-0.0125549826771,,0.00415709579241,-0.0143856854816,0.0371539221021,-0.99919738045
179612000000,,560,,179,608208332,"""map""",,,0.0605611540377,-0.0508254393935,-0.0118993110955,,0.00415790218016,-0.0144361849793,0.0371792102112,-0.999195694576
179644000000,,561,,179,640208332,"""map""",,,0.0609778948128,-0.0509888492525,-0.0113974679261,,0.00415432924693,-0.014451275856,0.037199272111,-0.999194767345
179676000000,,562,,179,672208031,"""map""",,,0.0615653879941,-0.051258392632,-0.0109426835552,,0.00413711324713,-0.014528581408,0.0371975440903,-0.999193797967
179712000000,,563,,179,704208031,"""map""",,,0.0616640783846,-0.0511099249125,-0.0104638086632,,0.0041118824314,-0.0145393703427,0.0372058891663,-0.999193460793
179744000000,,564,,179,736208031,"""map""",,,0.0613747127354,-0.0506141223013,-0.0100316731259,,0.00410137963431,-0.0145350348149,0.0371818233158,-0.99919443017
179776000000,,565,,179,768207730,"""map""",,,0.0613455548882,-0.0503137111664,-0.00971604324877,,0.00412287255142,-0.0145575524273,0.0371737311209,-0.999194261583
179812000000,,566,,179,808207730,"""map""",,,0.0616176724434,-0.0501841939986,-0.00947052054107,,0.00416605726608,-0.0145937921315,0.0371666083035,-0.999193882261
179844000000,,567,,179,840207730,"""map""",,,0.0620558820665,-0.0502408854663,-0.00935755856335,,0.00418881656427,-0.0146309037487,0.0371331858526,-0.999194514464
179876000000,,568,,179,872207427,"""map""",,,0.0626760870218,-0.0504604019225,-0.00931938458234,,0.00419335755793,-0.0147138688322,0.0371013228351,-0.99919443017
179912000000,,569,,179,904207427,"""map""",,,0.0627889111638,-0.0503604523838,-0.00919295474887,,0.00413970330268,-0.0147290153559,0.0370313169197,-0.999197001128
179944000000,,570,,179,936207427,"""map""",,,0.0624394193292,-0.0499812364578,-0.00901359599084,,0.00413815407673,-0.0147405165065,0.0370221289068,-0.999197169715
179976000000,,571,,179,968207124,"""map""",,,0.0623192079365,-0.0497910864651,-0.00885429326445,,0.00417320214471,-0.0147156389998,0.0370242362492,-0.999197338303
180012000000,,572,,180,8207124,"""map""",,,0.0624656826258,-0.0498123466969,-0.00872275512666,,0.00423341714962,-0.0147064585601,0.0370235618996,-0.999197254009
180044000000,,573,,180,40207124,"""map""",,,0.0627857744694,-0.0499918535352,-0.00865011103451,,0.00426620410504,-0.0147253133479,0.0370291252836,-0.999196579659
180076000000,,574,,180,72206820,"""map""",,,0.0632924735546,-0.0502998456359,-0.00864149816334,,0.00428603551435,-0.0147239804539,0.0370751496422,-0.999194809492
180112000000,,575,,180,104206820,"""map""",,,0.0633295252919,-0.0502703636885,-0.00852612033486,,0.00429362556908,-0.0147701671437,0.0370934413744,-0.999193460793
180144000000,,576,,180,136206820,"""map""",,,0.0629533603787,-0.0499733947217,-0.0084833400324,,0.00435077965911,-0.0147357420588,0.0370961809196,-0.999193587233
180176000000,,577,,180,168206514,"""map""",,,0.062836125493,-0.049864847213,-0.0085352146998,,0.00431653106415,-0.0147374295791,0.0370739695304,-0.999194556611
180212000000,,578,,180,208206514,"""map""",,,0.0630001649261,-0.0499370954931,-0.00869431719184,,0.00429176748575,-0.0146896939926,0.0370304318359,-0.999196958981
180244000000,,579,,180,240206514,"""map""",,,0.0633810758591,-0.0501287542284,-0.00879230163991,,0.00426480272232,-0.0146820008757,0.0370426965688,-0.999196748247
180276000000,,580,,180,272206208,"""map""",,,0.0639359131455,-0.0504702180624,-0.00887278094888,,0.00431609181497,-0.0146376712814,0.0370363745416,-0.999197422596
180312000000,,581,,180,304206208,"""map""",,,0.0641578659415,-0.0503859631717,-0.00876918435097,,0.00437055015306,-0.0146372768132,0.0370547505675,-0.999196495366
180344000000,,582,,180,336206208,"""map""",,,0.0641327947378,-0.0499378703535,-0.00858756434172,,0.00438724985396,-0.0146793838198,0.0371002691639,-0.999194135142
180376000000,,583,,180,368205901,"""map""",,,0.0643292292953,-0.0496307462454,-0.00863211788237,,0.00438798478963,-0.0146891184247,0.0371393814393,-0.999192533562
180412000000,,584,,180,408205901,"""map""",,,0.0648660436273,-0.0494809858501,-0.0087211355567,,0.00462304731267,-0.0146723963333,0.0371177179592,-0.999192533562
180444000000,,585,,180,440205901,"""map""",,,0.065524764359,-0.0495484545827,-0.00874542072415,,0.00464593996613,-0.0146547114498,0.0371160742321,-0.999192744296
180476000000,,586,,180,472205592,"""map""",,,0.0663395002484,-0.049725599587,-0.0088118147105,,0.0046716854344,-0.014701325535,0.0371525734029,-0.99919055266
180508000000,,587,,180,504205592,"""map""",,,0.0666242688894,-0.0495169609785,-0.00874326936901,,0.00459406970796,-0.0146994180608,0.0370739273836,-0.999193840114
180544000000,,588,,180,536205592,"""map""",,,0.0664436593652,-0.0489479713142,-0.00861860159785,,0.00462289617671,-0.0147018816758,0.037094115724,-0.99919295503
180576000000,,589,,180,568205283,"""map""",,,0.0665258839726,-0.0485610440373,-0.00858061760664,,0.00460319087867,-0.0147355691908,0.0371213004413,-0.999191564184
180608000000,,590,,180,600205283,"""map""",,,0.0668325573206,-0.0483628921211,-0.00856573786587,,0.00453310527941,-0.0147797239416,0.0371443126206,-0.999190384073
180644000000,,591,,180,640205283,"""map""",,,0.0674788430333,-0.0483239404857,-0.00850833486766,,0.00450343422733,-0.0148117855102,0.0371778193652,-0.999188740346
180676000000,,592,,180,672204973,"""map""",,,0.0681804418564,-0.0484105087817,-0.00854151695967,,0.00451772530169,-0.0148115504098,0.0372004522228,-0.999187855262
180708000000,,593,,180,704204973,"""map""",,,0.0683556571603,-0.0481197051704,-0.00851923879236,,0.00454571344328,-0.0147843512045,0.037212632662,-0.999187644528
180744000000,,594,,180,736204973,"""map""",,,0.0680941194296,-0.04753658548,-0.00838954560459,,0.00455344706071,-0.0147826116592,0.0372168894937,-0.999187518087
180776000000,,595,,180,768204662,"""map""",,,0.0680957064033,-0.0471104830503,-0.00824260618538,,0.00457767425462,-0.0147831391534,0.037182581959,-0.999188698199
180808000000,,596,,180,800204662,"""map""",,,0.0683173984289,-0.0468553937972,-0.00808416027576,,0.0045597914785,-0.0147786682947,0.0372054676978,-0.999187981702
180844000000,,597,,180,840204662,"""map""",,,0.0688755959272,-0.0467360801995,-0.00781016470864,,0.00456043882775,-0.0148111984178,0.0372029810337,-0.999187602381
180876000000,,598,,180,872204350,"""map""",,,0.0695132687688,-0.0467766337097,-0.00765705807135,,0.00449735092243,-0.0148146142881,0.0371822447843,-0.999188613905
180908000000,,599,,180,904204350,"""map""",,,0.0696865394711,-0.0464594103396,-0.00768840964884,,0.00448031503456,-0.0147990798817,0.0371984713209,-0.999188318877
180944000000,,600,,180,936204350,"""map""",,,0.0694448798895,-0.0458382740617,-0.00776768662035,,0.00450897357446,-0.014779374913,0.0372116632845,-0.999187939555
180976000000,,601,,180,968204038,"""map""",,,0.0694491639733,-0.0454182438552,-0.00789117626846,,0.00446585273862,-0.014796264604,0.0372469401967,-0.999186548709
181008000000,,602,,181,204038,"""map""",,,0.0696937069297,-0.0451703369617,-0.00806401576847,,0.00440148692768,-0.0147967950616,0.0372683507958,-0.999186042947
181044000000,,603,,181,40204038,"""map""",,,0.0703361406922,-0.0450310669839,-0.00826286803931,,0.00438018103721,-0.0148114812626,0.0372935124643,-0.999184989276
181076000000,,604,,181,72215724,"""map""",,,0.0710592567921,-0.0450553111732,-0.00845941342413,,0.00446105557115,-0.0147913126785,0.0372954512194,-0.999184904982
181108000000,,605,,181,104215724,"""map""",,,0.0710790902376,-0.044755730778,-0.00847184564918,,0.00450465615666,-0.0147623225615,0.0373144173012,-0.99918439922
181144000000,,606,,181,136215724,"""map""",,,0.0705054476857,-0.0441843420267,-0.00826663523912,,0.00452561038436,-0.014804136845,0.0373038384422,-0.999184104192
181176000000,,607,,181,168215409,"""map""",,,0.070189870894,-0.0437876582146,-0.00801028031856,,0.00445881454419,-0.0148594226443,0.0373211607969,-0.999182881934
181208000000,,608,,181,200215409,"""map""",,,0.0701368823647,-0.0435586161911,-0.00783031899482,,0.00436092881779,-0.0149318556254,0.0373315710685,-0.999181828262
181244000000,,609,,181,240215409,"""map""",,,0.0703809484839,-0.0434484891593,-0.00769393425435,,0.00437417280639,-0.0148667012074,0.0372873168776,-0.999184441367
181276000000,,610,,181,272215094,"""map""",,,0.0708234533668,-0.0434698909521,-0.00756168784574,,0.00435851920344,-0.0148343126715,0.0373066622811,-0.999184314926
181308000000,,611,,181,304215094,"""map""",,,0.070780493319,-0.043120212853,-0.00748404487967,,0.00431055674838,-0.0147977957199,0.0372648104605,-0.999186548709
181344000000,,612,,181,336215094,"""map""",,,0.0702863484621,-0.0424309149384,-0.00769975036383,,0.00437282674142,-0.0147716166001,0.037260764363,-0.999186885884
181376000000,,613,,181,368214777,"""map""",,,0.0700842067599,-0.0419068522751,-0.00805034860969,,0.00435269371872,-0.0147861480432,0.0372342118485,-0.999187728821
181408000000,,614,,181,400214777,"""map""",,,0.0701513662934,-0.0414717234671,-0.0084215067327,,0.00427541319144,-0.0148344618318,0.0372134334521,-0.999188108143
181444000000,,615,,181,440214777,"""map""",,,0.070459343493,-0.0410145781934,-0.00864377710968,,0.0041677065908,-0.0149053123305,0.0370730844466,-0.999192744296
181476000000,,616,,181,472214459,"""map""",,,0.0707701966166,-0.0407451428473,-0.00786619260907,,0.00321501725142,-0.0142251036838,0.0367381855883,-0.999218538167
181508000000,,617,,181,504214459,"""map""",,,0.070331864059,-0.0402295105159,-0.00579679757357,,0.000643362422896,-0.0116533441467,0.0361469074506,-0.999278344546
181544000000,,618,,181,536214459,"""map""",,,0.0692151859403,-0.0395331382751,-0.00259773968719,,-0.00137295433439,-0.00968053610799,0.0357877741544,-0.999311598409
181576000000,,619,,181,568214141,"""map""",,,0.0681981816888,-0.0390893854201,0.00147308385931,,-0.00647092674175,-0.00433772146238,0.0350276557415,-0.99935597904
181608000000,,620,,181,600214141,"""map""",,,0.0672697201371,-0.0389111563563,0.00642485404387,,-0.0132235924888,0.0037620286859,0.034175067143,-0.999321292184
181644000000,,621,,181,640214141,"""map""",,,0.0661427378654,-0.0389787405729,0.0136197479442,,-0.0159188172674,0.00732087334203,0.0338376394738,-0.999273750539
181676000000,,622,,181,672213821,"""map""",,,0.065271243453,-0.0392686054111,0.0196935385466,,-0.0240318429321,0.0177067106181,0.0328076547899,-0.999015811826
181708000000,,623,,181,704213821,"""map""",,,0.0643627420068,-0.039785258472,0.0260774157941,,-0.0312919191158,0.026797280409,0.0318330932118,-0.998643781594
181744000000,,624,,181,736213821,"""map""",,,0.0634141415358,-0.0406091436744,0.0330679453909,,-0.0357546403107,0.032137431489,0.0312460297589,-0.998354949242
181776000000,,625,,181,768213501,"""map""",,,0.062413264066,-0.0418200418353,0.0406661592424,,-0.0470884257349,0.0445585265795,0.0298172515944,-0.997450815047
181808000000,,626,,181,800213501,"""map""",,,0.0606289543211,-0.042945958674,0.0484923347831,,-0.0574934607358,0.0557202973794,0.028737322895,-0.996375438207
