rosbagTimestamp,header,seq,stamp,secs,nsecs,frame_id,pose,position,x,y,z,orientation,x,y,z,w
485572000000,,8856,,485,564132528,"""map""",,,-0.168757915497,-0.172519475222,0.0327613055706,,0.00251039635985,-0.00871918361561,0.0445576482457,-0.99896561493
485608000000,,8857,,485,604132528,"""map""",,,-0.169320166111,-0.173154130578,0.0323527157307,,0.00253186227663,-0.008690706834,0.044570376594,-0.998965277755
485640000000,,8858,,485,636132528,"""map""",,,-0.169737637043,-0.17322845757,0.0320199877024,,0.00253698739926,-0.00865236472638,0.044554234351,-0.998966331426
485672000000,,8859,,485,668132147,"""map""",,,-0.170102491975,-0.172931373119,0.0317174382508,,0.0025196890814,-0.00863884842963,0.044530589969,-0.998967553685
485708000000,,8860,,485,700132147,"""map""",,,-0.170429110527,-0.172282904387,0.0314407907426,,0.00243060611945,-0.00860871903057,0.0444974203992,-0.998969450293
485740000000,,8861,,485,732132147,"""map""",,,-0.170709162951,-0.171329453588,0.0311340428889,,0.00243600585514,-0.00860083855772,0.0444739024577,-0.998970546111
485768000000,,8862,,485,764131766,"""map""",,,-0.171396791935,-0.172383353114,0.0315235741436,,0.00244337859018,-0.00859422051468,0.0444498787541,-0.998971726223
485808000000,,8863,,485,804131766,"""map""",,,-0.172178387642,-0.173061996698,0.0316932015121,,0.00245792781399,-0.00858946121352,0.0444160348347,-0.998973201362
485840000000,,8864,,485,836131766,"""map""",,,-0.17272464931,-0.173153042793,0.0316486470401,,0.00244685504664,-0.00860296861993,0.0444323035182,-0.998972358425
485872000000,,8865,,485,860131386,"""map""",,,-0.173088923097,-0.172983661294,0.0315272063017,,0.00242433809282,-0.008576736158,0.0444180157366,-0.998973327803
485908000000,,8866,,485,904131386,"""map""",,,-0.173623457551,-0.172297373414,0.0313028432429,,0.00237093573085,-0.00858526595574,0.0444221882746,-0.998973201362
485940000000,,8867,,485,936131386,"""map""",,,-0.174012094736,-0.171393081546,0.0309562925249,,0.00257164659672,-0.0085889547928,0.0444634500393,-0.998970798992
485972000000,,8868,,485,968131005,"""map""",,,-0.174577921629,-0.172512605786,0.0306354667991,,0.00257094360046,-0.00861705324059,0.0445410002406,-0.998967174363
486008000000,,8869,,486,131005,"""map""",,,-0.175090447068,-0.173162564635,0.0302787255496,,0.00256881189189,-0.0086019376685,0.0445389771918,-0.99896734295
486040000000,,8870,,486,32131005,"""map""",,,-0.175569653511,-0.173388406634,0.0299753565341,,0.00252476909374,-0.00857491034335,0.0445380078143,-0.998967722272
486072000000,,8871,,486,64130624,"""map""",,,-0.176022067666,-0.173238486052,0.0296849627048,,0.00251939076074,-0.00855207399545,0.0445532228266,-0.998967258657
486108000000,,8872,,486,104130624,"""map""",,,-0.176535159349,-0.172551870346,0.0292622335255,,0.00248083923597,-0.00857719911479,0.0445567210151,-0.998966963629
486140000000,,8873,,486,136130624,"""map""",,,-0.176970675588,-0.172258257866,0.0289028342813,,0.00249855276615,-0.00860118989121,0.0445576482457,-0.998966710748
486172000000,,8874,,486,168130243,"""map""",,,-0.177524626255,-0.173403918743,0.0284771509469,,0.00247695810391,-0.0085897545951,0.0445153749567,-0.99896869165
486208000000,,8875,,486,200130243,"""map""",,,-0.17806045711,-0.174091279507,0.0280699599534,,0.00244738747987,-0.00862785205343,0.0444615534311,-0.998970841139
486240000000,,8876,,486,232130243,"""map""",,,-0.17858043313,-0.174369335175,0.0277005732059,,0.00247170061383,-0.00859501603645,0.044477442793,-0.998970377523
486272000000,,8877,,486,264129862,"""map""",,,-0.179046601057,-0.174261897802,0.0273559186608,,0.00245047374871,-0.00856737494782,0.0444445682512,-0.998972147691
486308000000,,8878,,486,304129862,"""map""",,,-0.179609537125,-0.17361395061,0.0269609615207,,0.00243731141963,-0.00859151060403,0.0444929949801,-0.998969829614
486340000000,,8879,,486,336129862,"""map""",,,-0.180070713162,-0.173305988312,0.0267080925405,,0.0024150022366,-0.00860457250508,0.0444931635675,-0.998969745321
486372000000,,8880,,486,368129481,"""map""",,,-0.180604070425,-0.174283638597,0.026478940621,,0.00241226005727,-0.00861185337316,0.0445324444303,-0.998967890859
486408000000,,8881,,486,400129481,"""map""",,,-0.181151270866,-0.174821570516,0.0261666998267,,0.00241324392276,-0.00859534168671,0.0445226242146,-0.998968523062
486440000000,,8882,,486,432129481,"""map""",,,-0.181676983833,-0.174974992871,0.0257758740336,,0.00219511817665,-0.00858684382838,0.0445195053478,-0.998969281705
486472000000,,8883,,486,468129101,"""map""",,,-0.18217292428,-0.174739763141,0.0254734735936,,0.00217523968141,-0.00863554220693,0.0445036159859,-0.998969576733
486508000000,,8884,,486,500129101,"""map""",,,-0.182616323233,-0.174178943038,0.0250773914158,,0.00215157883578,-0.00869310294819,0.0444921098963,-0.99896961888
486540000000,,8885,,486,532129101,"""map""",,,-0.183043777943,-0.173300608993,0.0247952789068,,0.002149847193,-0.00867960113942,0.0445225820678,-0.998968396622
486568000000,,8886,,486,564128720,"""map""",,,-0.183444872499,-0.174687922001,0.0246980283409,,0.0021460187445,-0.00865417835796,0.0445576903926,-0.998967005776
486608000000,,8887,,486,604128720,"""map""",,,-0.183924123645,-0.175783023238,0.0244661029428,,0.00212348170507,-0.00873730083357,0.0445530542392,-0.998966584307
486640000000,,8888,,486,636128720,"""map""",,,-0.184321463108,-0.176220118999,0.0242580771446,,0.00205221467696,-0.00879351353423,0.0445370805836,-0.998966963629
486672000000,,8889,,486,668128339,"""map""",,,-0.184723258018,-0.176314070821,0.0239810310304,,0.00208621368355,-0.00878407428652,0.0445686064263,-0.998965530636
486708000000,,8890,,486,700128339,"""map""",,,-0.185131728649,-0.176079556346,0.023685388267,,0.00209128217136,-0.00877196398229,0.0445692807759,-0.99896561493
486740000000,,8891,,486,732128339,"""map""",,,-0.18553853035,-0.175534561276,0.0234377514571,,0.00208743396652,-0.00878538479009,0.0446128606173,-0.998963591881
486772000000,,8892,,486,764127958,"""map""",,,-0.186133846641,-0.176618248224,0.0231139734387,,0.00210536020658,-0.00880854382481,0.0446740156945,-0.998960599455
486808000000,,8893,,486,804127958,"""map""",,,-0.186840727925,-0.177356377244,0.0227573346347,,0.00213196277052,-0.00880825735795,0.0447370673798,-0.998957733469
486840000000,,8894,,486,836127958,"""map""",,,-0.187379553914,-0.177510693669,0.0226193368435,,0.0021431919422,-0.00881185860859,0.0447512708678,-0.998957016972
486872000000,,8895,,486,868127577,"""map""",,,-0.187914177775,-0.177254617214,0.0224233791232,,0.00213141519076,-0.00878535482632,0.0447210937242,-0.998958618553
486908000000,,8896,,486,900127577,"""map""",,,-0.188451230526,-0.176673129201,0.0222406126559,,0.00207126472322,-0.00880488495152,0.0447401862466,-0.998957733469
486940000000,,8897,,486,932127577,"""map""",,,-0.188993066549,-0.175775721669,0.0219841822982,,0.00205113005416,-0.00883531596396,0.044760121706,-0.998956595504
486972000000,,8898,,486,964127196,"""map""",,,-0.18956567347,-0.176656767726,0.0218967404217,,0.00226090578518,-0.00886074664795,0.0447780341166,-0.998955120364
487008000000,,8899,,487,4127196,"""map""",,,-0.190317362547,-0.177157253027,0.0218070428818,,0.00227317940845,-0.00887902948986,0.0447999926247,-0.998953898106
487040000000,,8900,,487,36127196,"""map""",,,-0.190883502364,-0.177133440971,0.0217100102454,,0.00226343492537,-0.00888747137191,0.0448290739501,-0.9989526337
487072000000,,8901,,487,68126815,"""map""",,,-0.191460236907,-0.176780939102,0.0216019190848,,0.00221289986618,-0.00896027445508,0.0448036594005,-0.998953181609
487108000000,,8902,,487,100126815,"""map""",,,-0.192053943872,-0.176123961806,0.0215313080698,,0.00220345600867,-0.00894634393383,0.0447648842998,-0.998955120364
487140000000,,8903,,487,132126815,"""map""",,,-0.192633926868,-0.175169974566,0.0216017123312,,0.00223237664928,-0.00895160702154,0.0447581829509,-0.998955246805
487172000000,,8904,,487,164126434,"""map""",,,-0.192993625998,-0.1761829108,0.0217415429652,,0.00219899436963,-0.00891193169057,0.0447493742596,-0.998956131889
487208000000,,8905,,487,204126434,"""map""",,,-0.193439781666,-0.176889449358,0.0220687072724,,0.00215626207505,-0.0089120179599,0.0447538839724,-0.998956005448
487240000000,,8906,,487,236126434,"""map""",,,-0.193826511502,-0.177020013332,0.0223674569279,,0.00217993411593,-0.00889463501906,0.0447645892719,-0.99895558398
487272000000,,8907,,487,268126053,"""map""",,,-0.194247439504,-0.176796600223,0.0227207988501,,0.00216159727338,-0.00896623230724,0.0447510179867,-0.99895558398
487308000000,,8908,,487,300126053,"""map""",,,-0.194665253162,-0.176241904497,0.0231109894812,,0.00216665555375,-0.00894023362861,0.0447640835097,-0.998955246805
487340000000,,8909,,487,332126053,"""map""",,,-0.195070803165,-0.175366222858,0.0235048234463,,0.00220722090762,-0.0089555260199,0.0447653479152,-0.998954993924
487372000000,,8910,,487,364125672,"""map""",,,-0.195315927267,-0.176387488842,0.0238848589361,,0.00218783862566,-0.00896596131618,0.0447587730068,-0.998955246805
487408000000,,8911,,487,404125672,"""map""",,,-0.195656850934,-0.177035108209,0.0243771225214,,0.00216089164294,-0.00894995275773,0.0447892873251,-0.998954066693
487440000000,,8912,,487,436125672,"""map""",,,-0.195929855108,-0.177082970738,0.0248293075711,,0.00213397429472,-0.00894379273241,0.0447709955929,-0.998954993924
487472000000,,8913,,487,468125291,"""map""",,,-0.196231842041,-0.176770716906,0.0252375323325,,0.00213046491104,-0.0089805994435,0.0447444852252,-0.998955879008
487508000000,,8914,,487,500125291,"""map""",,,-0.196517944336,-0.176143914461,0.025699807331,,0.00211983534413,-0.00895940287142,0.0447544318814,-0.998955626126
487540000000,,8915,,487,532125291,"""map""",,,-0.196808844805,-0.175178438425,0.0260917320848,,0.00214049256826,-0.00899510652047,0.0447358029744,-0.998956131889
487572000000,,8916,,487,564124910,"""map""",,,-0.196865350008,-0.175729572773,0.0262762028724,,0.00214966247126,-0.0090419906089,0.0447658115305,-0.998954277427
487608000000,,8917,,487,604124910,"""map""",,,-0.196957275271,-0.175846025348,0.0266008023173,,0.00214243198184,-0.00912020956211,0.0447970423453,-0.998952212232
487640000000,,8918,,487,636124910,"""map""",,,-0.197048157454,-0.175554826856,0.0268242079765,,0.00215219720907,-0.00913328660967,0.0447848197592,-0.9989526337
487672000000,,8919,,487,668124529,"""map""",,,-0.197171419859,-0.174954622984,0.027064492926,,0.00216813991307,-0.0091537574657,0.0447599531186,-0.998953476637
487708000000,,8920,,487,700124529,"""map""",,,-0.197319224477,-0.174060553312,0.0272328834981,,0.00214973458188,-0.0091847752413,0.044783766088,-0.998952170085
487740000000,,8921,,487,732124529,"""map""",,,-0.197505638003,-0.172889173031,0.0273650083691,,0.00213216198023,-0.00917145683717,0.04480045624,-0.998951580029
487772000000,,8922,,487,764124148,"""map""",,,-0.197645872831,-0.174003213644,0.0277418382466,,0.00211968848871,-0.00916910254056,0.0447970001984,-0.99895183291
487808000000,,8923,,487,804124148,"""map""",,,-0.197839364409,-0.174727648497,0.0281013976783,,0.00212906221123,-0.00919097675493,0.0447813637176,-0.998952296525
487840000000,,8924,,487,836124148,"""map""",,,-0.197979688644,-0.174857586622,0.028313934803,,0.00207808625651,-0.00941511830513,0.0447712906208,-0.998950737092
487876000000,,8925,,487,868123767,"""map""",,,-0.198184490204,-0.174645617604,0.0286107957363,,0.00210003324005,-0.00944202742154,0.0447482784415,-0.998951495735
487908000000,,8926,,487,900123767,"""map""",,,-0.198396652937,-0.174112007022,0.0288465879858,,0.00207691799855,-0.00944487793144,0.0447507229587,-0.998951411442
487940000000,,8927,,487,932123767,"""map""",,,-0.198636040092,-0.173295423388,0.0291893798858,,0.00214039049386,-0.00946310051652,0.0447774019139,-0.998949936302
487972000000,,8928,,487,972123386,"""map""",,,-0.198673456907,-0.174947708845,0.029504429549,,0.0021202772275,-0.00951780712589,0.044776811858,-0.99894943054
488008000000,,8929,,488,4123386,"""map""",,,-0.198730513453,-0.17575275898,0.0298452116549,,0.00214315671007,-0.00953106724883,0.0448032800788,-0.998948081841
488040000000,,8930,,488,36123386,"""map""",,,-0.198813766241,-0.176145255566,0.0300994087011,,0.00212504278483,-0.00950372579795,0.044787643598,-0.998949135512
488072000000,,8931,,488,68123005,"""map""",,,-0.198896095157,-0.176192328334,0.0302589423954,,0.00207903949968,-0.0095050982047,0.0447242547379,-0.998952001498
488108000000,,8932,,488,100123005,"""map""",,,-0.198967978358,-0.175896421075,0.0304573308676,,0.00208196146166,-0.00953329905617,0.0447085761102,-0.998952422966
488140000000,,8933,,488,132123005,"""map""",,,-0.199061363935,-0.17524035275,0.0307042859495,,0.00205225912872,-0.00958249825781,0.0447302817372,-0.99895103212
488172000000,,8934,,488,164122625,"""map""",,,-0.198984891176,-0.176468595862,0.0310218669474,,0.00211105134821,-0.00962093223239,0.0447365616176,-0.998950315624
488208000000,,8935,,488,204122625,"""map""",,,-0.198920071125,-0.17736685276,0.0313784778118,,0.00206606748996,-0.00961508962551,0.0447113999491,-0.998951537882
488240000000,,8936,,488,236122625,"""map""",,,-0.198888748884,-0.177622795105,0.031652353704,,0.00207572438663,-0.0096091442857,0.0446888092383,-0.9989526337
488272000000,,8937,,488,268122244,"""map""",,,-0.198888197541,-0.177525341511,0.0318670831621,,0.00209014288936,-0.00959342186484,0.0446894835879,-0.998952717994
488308000000,,8938,,488,300122244,"""map""",,,-0.198887050152,-0.177115827799,0.0320560745895,,0.00212150804718,-0.00963809093882,0.0447498800218,-0.998949472687
488340000000,,8939,,488,332122244,"""map""",,,-0.198878034949,-0.176399856806,0.0321352593601,,0.00208889758169,-0.00963901092549,0.0447426307638,-0.998949894155
488364000000,,8940,,488,364122244,"""map""",,,-0.198682844639,-0.177531391382,0.0318986177444,,0.00232991663981,-0.00965649297728,0.0447836396474,-0.998947323197
488408000000,,8941,,488,404121863,"""map""",,,-0.198459267616,-0.178317084908,0.0317281335592,,0.00232684518822,-0.00967649692525,0.0447736086975,-0.998947576078
488440000000,,8942,,488,436121863,"""map""",,,-0.198285639286,-0.178489074111,0.0315857417881,,0.00231911453424,-0.00972715414444,0.0447725128794,-0.99894715461
488472000000,,8943,,488,468121482,"""map""",,,-0.1981292665,-0.178291529417,0.0313905999064,,0.00239068844409,-0.00976495262356,0.0448308862646,-0.998943993596
488508000000,,8944,,488,500121482,"""map""",,,-0.1980137676,-0.177762463689,0.0315594486892,,0.00234596668656,-0.00979774945715,0.0448990377187,-0.998940748289
488540000000,,8945,,488,532121482,"""map""",,,-0.197950929403,-0.17691141367,0.0317025482655,,0.00229274509506,-0.00979151765047,0.0449226399538,-0.998939905352
488572000000,,8946,,488,564121102,"""map""",,,-0.197396993637,-0.177566245198,0.0316235907376,,0.00229793310869,-0.00987003986342,0.0449012715016,-0.998940031793
488608000000,,8947,,488,604121102,"""map""",,,-0.196813777089,-0.177815005183,0.031405441463,,0.00230106218292,-0.00987716564427,0.0449583383345,-0.998937418688
488640000000,,8948,,488,636121102,"""map""",,,-0.196419194341,-0.177592292428,0.0312775745988,,0.00231959724737,-0.00990018605537,0.0449361269453,-0.998938135184
488672000000,,8949,,488,668120721,"""map""",,,-0.196072235703,-0.177021756768,0.0310954414308,,0.00239327487765,-0.00997771946374,0.0449636488374,-0.998935985695
488708000000,,8950,,488,700120721,"""map""",,,-0.195747166872,-0.176147088408,0.0309746842831,,0.0024205573888,-0.0100325548186,0.0449798332273,-0.998934636996
488740000000,,8951,,488,732120721,"""map""",,,-0.195458695292,-0.17499910295,0.0308482982218,,0.00242477174438,-0.0100581158944,0.0450084087905,-0.998933035416
488772000000,,8952,,488,764120341,"""map""",,,-0.195098504424,-0.17582629621,0.0309793110937,,0.00251362553284,-0.0100799739744,0.04505696196,-0.998930422311
488808000000,,8953,,488,804120341,"""map""",,,-0.194673493505,-0.176272749901,0.0309916529804,,0.0022555972579,-0.0101343644824,0.0450264476417,-0.998931855304
488840000000,,8954,,488,836120341,"""map""",,,-0.194376602769,-0.176186561584,0.031052114442,,0.0022491675586,-0.0101280276379,0.0450007380641,-0.998933119709
488872000000,,8955,,488,868119960,"""map""",,,-0.194132566452,-0.175741165876,0.0311484150589,,0.002253697357,-0.0101539133761,0.0449724996756,-0.998934131234
488908000000,,8956,,488,900119960,"""map""",,,-0.193884283304,-0.174969017506,0.03123678267,,0.00228807008759,-0.0101706634557,0.0450357620952,-0.998931054514
488940000000,,8957,,488,932119960,"""map""",,,-0.193644970655,-0.173897638917,0.0312964841723,,0.00232307699655,-0.0101619693511,0.0450808592231,-0.998928947171
488972000000,,8958,,488,964119580,"""map""",,,-0.193359658122,-0.174734562635,0.0312030036002,,0.00233288930972,-0.0101928590398,0.0450895414739,-0.998928272822
489008000000,,8959,,489,4119580,"""map""",,,-0.193009570241,-0.175133436918,0.0310032777488,,0.00233627159431,-0.0102492067421,0.0450943883615,-0.998927472032
489040000000,,8960,,489,36119580,"""map""",,,-0.192721143365,-0.175004035234,0.0308634322137,,0.00232023076718,-0.0102233456992,0.0451475776843,-0.998925364689
489072000000,,8961,,489,68119200,"""map""",,,-0.192424669862,-0.17450889945,0.0307671595365,,0.00231370261548,-0.0102765514857,0.0451442480833,-0.998924985368
489108000000,,8962,,489,100119200,"""map""",,,-0.192116707563,-0.173657417297,0.0307398177683,,0.00231195286272,-0.0102496018688,0.0451563442288,-0.99892469034
489140000000,,8963,,489,132119200,"""map""",,,-0.191818520427,-0.172543048859,0.0308272074908,,0.00232918203341,-0.0102611392393,0.0452029586433,-0.99892241441
489172000000,,8964,,489,164118819,"""map""",,,-0.191492378712,-0.173439979553,0.0302705448121,,0.00238967659046,-0.0102502146444,0.0451913682599,-0.998922962319
489208000000,,8965,,489,204118819,"""map""",,,-0.191115960479,-0.173964142799,0.0297134853899,,0.00242315172489,-0.0102279663768,0.0451747202548,-0.998923847403
489240000000,,8966,,489,236118819,"""map""",,,-0.19083763659,-0.173937603831,0.029276303947,,0.00243126663959,-0.010238123438,0.0452121466562,-0.998921992941
489272000000,,8967,,489,268118439,"""map""",,,-0.190542936325,-0.173539876938,0.0288334246725,,0.00244758504322,-0.0102819196112,0.0452485193865,-0.998919843452
489308000000,,8968,,489,300118439,"""map""",,,-0.190251171589,-0.172781273723,0.0284287948161,,0.00242518827378,-0.0102413305497,0.0453133833864,-0.998917356788
489340000000,,8969,,489,332118439,"""map""",,,-0.18994961679,-0.171685397625,0.0282090418041,,0.00244336673638,-0.0102671402261,0.0453098009042,-0.998917314641
489372000000,,8970,,489,372118059,"""map""",,,-0.190076112747,-0.17279855907,0.0283195152879,,0.00243928441897,-0.0102517783584,0.0453466793967,-0.998915755208
489408000000,,8971,,489,404118059,"""map""",,,-0.190108001232,-0.173177406192,0.0283788405359,,0.00247324424216,-0.0102311672324,0.0453409052784,-0.998916134529
489440000000,,8972,,489,436118059,"""map""",,,-0.190099149942,-0.173133507371,0.0283743273467,,0.00247054322186,-0.010231195879,0.0453348361323,-0.998916387411
489472000000,,8973,,489,468117679,"""map""",,,-0.190068021417,-0.172732830048,0.0282758604735,,0.00253419549982,-0.0101484365907,0.0453551509132,-0.998916218823
489508000000,,8974,,489,500117679,"""map""",,,-0.189998492599,-0.172027617693,0.0282339025289,,0.00256760642616,-0.0101129222732,0.0453402730757,-0.998917103907
489540000000,,8975,,489,532117679,"""map""",,,-0.18991240859,-0.171026289463,0.0281534828246,,0.00253747208802,-0.0101318758427,0.0453635802829,-0.998915965942
489572000000,,8976,,489,564117299,"""map""",,,-0.18982103467,-0.171865493059,0.0279625076801,,0.0025548082722,-0.0103089933638,0.0453760136033,-0.998913563572
489608000000,,8977,,489,604117299,"""map""",,,-0.189670756459,-0.172303050756,0.0277905296534,,0.00260036177145,-0.0103887661527,0.045392493021,-0.998911835551
489640000000,,8978,,489,636117299,"""map""",,,-0.18954077363,-0.172203093767,0.0277052950114,,0.00259966898262,-0.0103844079052,0.0453843165324,-0.998912257019
489672000000,,8979,,489,668116919,"""map""",,,-0.189378842711,-0.171722397208,0.0276661664248,,0.00253700880196,-0.0104220960781,0.0453730633239,-0.998912552047
489708000000,,8980,,489,700116919,"""map""",,,-0.189190894365,-0.170917212963,0.0277853235602,,0.00254344311108,-0.0103962729016,0.0453348782791,-0.998914490802
489740000000,,8981,,489,732116919,"""map""",,,-0.188980966806,-0.1698127985,0.0278320908546,,0.00256553563296,-0.010369287394,0.0453026780868,-0.99891626097
489772000000,,8982,,489,764116539,"""map""",,,-0.188871353865,-0.170621246099,0.0279938038439,,0.00260071936111,-0.0103690210128,0.045267569762,-0.99891773611
489808000000,,8983,,489,804116539,"""map""",,,-0.188663259149,-0.170989915729,0.0282228067517,,0.00255131041304,-0.0103683516023,0.0453174294838,-0.99891558662
489840000000,,8984,,489,836116539,"""map""",,,-0.188477411866,-0.170825451612,0.0285108871758,,0.00254841215866,-0.0103731451477,0.0453234143363,-0.998915249446
489872000000,,8985,,489,868116160,"""map""",,,-0.188295349479,-0.170305490494,0.0288340020925,,0.00258928044301,-0.0103176097601,0.0453292727483,-0.99891546018
489908000000,,8986,,489,900116160,"""map""",,,-0.188108861446,-0.16944617033,0.0291390269995,,0.00262518593595,-0.0103240789721,0.0453399780478,-0.998914870124
489940000000,,8987,,489,932116160,"""map""",,,-0.18793335557,-0.16829110682,0.02935372293,,0.00262102755665,-0.010324783944,0.0453455414318,-0.998914617243
489972000000,,8988,,489,964121780,"""map""",,,-0.187725663185,-0.16683383286,0.0295956842601,,0.00269109537521,-0.01029556169,0.0454101946974,-0.998911751257
490008000000,,8989,,490,4121780,"""map""",,,-0.187429785728,-0.164635628462,0.0299743451178,,0.0026770848408,-0.0102521827047,0.0453747913446,-0.9989138586
490040000000,,8990,,490,36121780,"""map""",,,-0.187215209007,-0.163294896483,0.0300483908504,,0.00267378586209,-0.0102494059518,0.0454111640749,-0.998912299166
490076000000,,8991,,490,68121401,"""map""",,,-0.187153220177,-0.163629516959,0.029694063589,,0.00267068642236,-0.0102442577801,0.0454369157994,-0.998911161201
490108000000,,8992,,490,100121401,"""map""",,,-0.187047660351,-0.163526028395,0.0294338874519,,0.00257924949306,-0.0101937559774,0.0454655335095,-0.998910613292
490140000000,,8993,,490,132121401,"""map""",,,-0.186913967133,-0.163052842021,0.0291889403015,,0.00244969205638,-0.0101807345768,0.0454542381541,-0.998911540523
490172000000,,8994,,490,164121021,"""map""",,,-0.186744734645,-0.162211239338,0.0293372347951,,0.00244066143554,-0.0101373516403,0.0454807906687,-0.998910866173
490208000000,,8995,,490,204121021,"""map""",,,-0.186478078365,-0.1607568115,0.0296390783042,,0.00248750436493,-0.0101812982909,0.0455680346451,-0.998906314314
490240000000,,8996,,490,236121021,"""map""",,,-0.186293631792,-0.159967854619,0.0299286842346,,0.00253250304044,-0.0101553381372,0.0455607432403,-0.998906777929
490272000000,,8997,,490,268120642,"""map""",,,-0.186293616891,-0.160842612386,0.0300161410123,,0.00243702396495,-0.0101416963877,0.0455624291142,-0.99890703081
490308000000,,8998,,490,300120642,"""map""",,,-0.186265081167,-0.161253213882,0.0301005002111,,0.00243103219774,-0.0101172146663,0.0455609961214,-0.998907367985
490340000000,,8999,,490,332120642,"""map""",,,-0.186226695776,-0.161264002323,0.0301667526364,,0.00243828376059,-0.0100847816786,0.0455384054106,-0.998908716684
490372000000,,9000,,490,364120262,"""map""",,,-0.186141118407,-0.160899579525,0.0301348567009,,0.00246305096099,-0.010101972983,0.0455856520277,-0.998906314314
490408000000,,9001,,490,404120262,"""map""",,,-0.18598382175,-0.159944042563,0.030241722241,,0.00252693438808,-0.0100864701867,0.0455996026346,-0.998905682111
490440000000,,9002,,490,436120262,"""map""",,,-0.18585087359,-0.159459352493,0.0306418668479,,0.00252467031206,-0.0101073987312,0.0455887708945,-0.998905977139
490472000000,,9003,,490,468119883,"""map""",,,-0.185779571533,-0.160517409444,0.0316390767694,,0.00258111383257,-0.010177570929,0.0455706056028,-0.998905934992
490508000000,,9004,,490,500119883,"""map""",,,-0.18568469584,-0.16108751297,0.0325879342854,,0.00257911449144,-0.0101670144606,0.0456063039835,-0.998904459852
490540000000,,9005,,490,532119883,"""map""",,,-0.185566648841,-0.16118901968,0.0333125963807,,0.00260117178119,-0.0101597638855,0.0455856941746,-0.998905344936
490572000000,,9006,,490,564119504,"""map""",,,-0.185400515795,-0.160866379738,0.0340708643198,,0.0026633946883,-0.0101967322693,0.0456015835365,-0.998904122678
490608000000,,9007,,490,604119504,"""map""",,,-0.185163214803,-0.159941911697,0.0350276827812,,0.00270706376244,-0.0102309676934,0.0456151969686,-0.998903069006
490640000000,,9008,,490,636119504,"""map""",,,-0.185012862086,-0.159462124109,0.0357370749116,,0.00268946646537,-0.0102166835337,0.0456152812622,-0.998903237594
490672000000,,9009,,490,668119124,"""map""",,,-0.185078114271,-0.160487040877,0.0361871309578,,0.0027362995166,-0.0102457003218,0.0456574281108,-0.99890087737
490708000000,,9010,,490,700119124,"""map""",,,-0.185098186135,-0.161011606455,0.0366952009499,,0.00275243747904,-0.010286359189,0.0456771949827,-0.998899570818
490740000000,,9011,,490,732119124,"""map""",,,-0.185070410371,-0.161133170128,0.0370499044657,,0.00274803543828,-0.0103273644506,0.0456836013037,-0.998898812175
490772000000,,9012,,490,764118745,"""map""",,,-0.184984982014,-0.16083753109,0.0371982678771,,0.0029593966152,-0.0103430364928,0.0457150007058,-0.998896578392
490808000000,,9013,,490,804118745,"""map""",,,-0.184826821089,-0.160003423691,0.037559542805,,0.00293681413621,-0.0103893963798,0.0457214913205,-0.998895904042
490840000000,,9014,,490,836118745,"""map""",,,-0.184712007642,-0.159619450569,0.0377785786986,,0.00295225502929,-0.010432714779,0.0457312272425,-0.998894934665
490872000000,,9015,,490,868118366,"""map""",,,-0.184652790427,-0.160793423653,0.0376673713326,,0.00300865739076,-0.0104961662009,0.045730257865,-0.998894133875
490908000000,,9016,,490,900118366,"""map""",,,-0.184544220567,-0.161471813917,0.0375411696732,,0.0030359744755,-0.0104642037432,0.0457795275309,-0.998892152973
490940000000,,9017,,490,932118366,"""map""",,,-0.184413790703,-0.161682039499,0.0375045910478,,0.00303968669089,-0.0104231441517,0.0457748070839,-0.998892827322
490972000000,,9018,,490,964117987,"""map""",,,-0.184242293239,-0.16144707799,0.0376520343125,,0.00308024117878,-0.0104206983174,0.0457637646096,-0.998893248791
491008000000,,9019,,491,4117987,"""map""",,,-0.183965042233,-0.160634443164,0.0378893427551,,0.00305694681317,-0.0104646472729,0.0458062486329,-0.998890888567
491040000000,,9020,,491,36117987,"""map""",,,-0.18371835351,-0.160229891539,0.0381168536842,,0.00309107094321,-0.0104509235347,0.0458109690799,-0.99889071998
491072000000,,9021,,491,68117608,"""map""",,,-0.183631598949,-0.16130810976,0.0383675768971,,0.00302464685142,-0.0104447391432,0.0457804126147,-0.998892363707
491108000000,,9022,,491,100117608,"""map""",,,-0.183487072587,-0.161863535643,0.0386717021465,,0.0030634818796,-0.0104458501078,0.0458492384183,-0.998889034106
491140000000,,9023,,491,132117608,"""map""",,,-0.183291628957,-0.161941558123,0.0390206500888,,0.00303452370195,-0.010445225149,0.0458871284351,-0.998887474672
491172000000,,9024,,491,164117229,"""map""",,,-0.183054104447,-0.161600962281,0.0393524058163,,0.00304106239037,-0.0104023953899,0.0458851475333,-0.998887938288
491208000000,,9025,,491,204117229,"""map""",,,-0.182690948248,-0.160639703274,0.0397035032511,,0.00307487239468,-0.0104501869526,0.0459256928015,-0.998885493771
491240000000,,9026,,491,236117229,"""map""",,,-0.182373702526,-0.160006761551,0.0399066135287,,0.00308655892552,-0.0104421316362,0.045920002977,-0.998885788798
491272000000,,9027,,491,268116850,"""map""",,,-0.182097554207,-0.160615041852,0.0399802327156,,0.0031078444011,-0.0104343081275,0.0459289381089,-0.99888536733
491308000000,,9028,,491,304116850,"""map""",,,-0.181768804789,-0.160738393664,0.0399917550385,,0.00309818289463,-0.0104267671343,0.0459702420204,-0.998883597162
491340000000,,9029,,491,336116850,"""map""",,,-0.181383341551,-0.160393819213,0.0399677939713,,0.00314568305144,-0.0104423779319,0.0459626134408,-0.998883639309
491372000000,,9030,,491,368116472,"""map""",,,-0.180963262916,-0.15966117382,0.0400536991656,,0.0031536287202,-0.0104250861994,0.0459834761308,-0.998882838519
491408000000,,9031,,491,400116472,"""map""",,,-0.180520400405,-0.158544167876,0.0400450192392,,0.0034376079293,-0.0103859130087,0.0460723638344,-0.998878244513
491440000000,,9032,,491,432116472,"""map""",,,-0.180028617382,-0.157106354833,0.0401386804879,,0.00347633693181,-0.0103740763297,0.0461178402839,-0.998876095023
491472000000,,9033,,491,464116093,"""map""",,,-0.17993298173,-0.157897502184,0.0400363095105,,0.00343948148842,-0.0103711701728,0.0461144263892,-0.998876474345
491508000000,,9034,,491,504116093,"""map""",,,-0.179720237851,-0.158183857799,0.0400237888098,,0.00340396223184,-0.0103325597083,0.0461327602683,-0.998876095023
491540000000,,9035,,491,536116093,"""map""",,,-0.179492533207,-0.157917067409,0.0400726124644,,0.00340201722064,-0.0103556742912,0.0461491553923,-0.998875125646
491572000000,,9036,,491,568115715,"""map""",,,-0.179234445095,-0.157247409225,0.0401843525469,,0.00339836954261,-0.0102818573788,0.0462040727359,-0.998873397625
491608000000,,9037,,491,600115715,"""map""",,,-0.178936704993,-0.156192272902,0.040330812335,,0.00345769024407,-0.0102953124309,0.0462861747968,-0.99886918294
491640000000,,9038,,491,632115715,"""map""",,,-0.178587660193,-0.154799595475,0.040566675365,,0.003491953327,-0.0102919930373,0.0463060259625,-0.998868213563
491672000000,,9039,,491,664115336,"""map""",,,-0.178515195847,-0.15577737987,0.0403121523559,,0.0034471041411,-0.0102273973943,0.0463544948383,-0.99886678057
491708000000,,9040,,491,704115336,"""map""",,,-0.17834046483,-0.156231313944,0.0401831828058,,0.00345073239207,-0.0102127477425,0.0463996762599,-0.998864841815
491740000000,,9041,,491,736115336,"""map""",,,-0.178124889731,-0.156046971679,0.0402494594455,,0.00343952758654,-0.0102163832374,0.0464078106016,-0.998864462493
491772000000,,9042,,491,768114958,"""map""",,,-0.177859127522,-0.155459061265,0.0403457209468,,0.00336711436171,-0.0102512133272,0.0464894069004,-0.998860584983
491808000000,,9043,,491,800114958,"""map""",,,-0.177564516664,-0.154493138194,0.0404557473958,,0.0033737495269,-0.0102580612022,0.0465040740036,-0.998859742046
491840000000,,9044,,491,832114958,"""map""",,,-0.177257195115,-0.153160363436,0.0405006445944,,0.00339285686653,-0.0102446581751,0.0465015030459,-0.99885995278
491872000000,,9045,,491,864114580,"""map""",,,-0.177284389734,-0.154340431094,0.0402672924101,,0.00337858423141,-0.0102600200429,0.0465152429185,-0.998859194137
491908000000,,9046,,491,904114580,"""map""",,,-0.177264526486,-0.15502153337,0.0401303805411,,0.00335605114325,-0.0102885616911,0.046508162248,-0.998859362724
491940000000,,9047,,491,936114580,"""map""",,,-0.17719309032,-0.154998719692,0.0401088856161,,0.00335003468063,-0.010277166237,0.0465335346508,-0.998858266906
491972000000,,9048,,491,968114201,"""map""",,,-0.17707900703,-0.154495716095,0.0401522815228,,0.00340113773445,-0.0103303911212,0.0465609301023,-0.998856243858
492008000000,,9049,,492,114201,"""map""",,,-0.176940783858,-0.15356887877,0.0402025841177,,0.00340244428675,-0.0103381975078,0.0465538072849,-0.998856538886
492040000000,,9050,,492,32114201,"""map""",,,-0.176750227809,-0.152246132493,0.0402111448348,,0.0035353013607,-0.010342295301,0.0465446192719,-0.998856454592
492072000000,,9051,,492,64125823,"""map""",,,-0.176736056805,-0.1534435004,0.0402502678335,,0.00367736159414,-0.0103687974369,0.0465739534785,-0.99885434725
492108000000,,9052,,492,104125823,"""map""",,,-0.176642641425,-0.154146194458,0.0404285676777,,0.00370343073703,-0.0104646591267,0.0465938046441,-0.998852282054
492140000000,,9053,,492,136125823,"""map""",,,-0.176505073905,-0.154120236635,0.0406279265881,,0.00375348077819,-0.0104814236943,0.0466363308143,-0.998849879684
492172000000,,9054,,492,168125445,"""map""",,,-0.176336124539,-0.153630569577,0.040872503072,,0.00374885779574,-0.0105025840464,0.0466373844855,-0.998849668949
492208000000,,9055,,492,200125445,"""map""",,,-0.176141217351,-0.152720734477,0.0411567687988,,0.00376192529441,-0.0105564417919,0.0466824816134,-0.998846971551
492240000000,,9056,,492,232125445,"""map""",,,-0.175911396742,-0.151401534677,0.0413979999721,,0.00374445081589,-0.0106004503457,0.0466905316615,-0.998846170761
492272000000,,9057,,492,264125067,"""map""",,,-0.175677925348,-0.152471929789,0.0412316694856,,0.00370728322241,-0.0106198872869,0.046710424974,-0.998845159237
492308000000,,9058,,492,304125067,"""map""",,,-0.175342530012,-0.153034090996,0.0410863980651,,0.00372236751363,-0.0106320061522,0.046696221486,-0.998845622852
492340000000,,9059,,492,336125067,"""map""",,,-0.175019726157,-0.152938917279,0.0410612970591,,0.0037207978728,-0.0106488606111,0.0467027542475,-0.998845159237
492372000000,,9060,,492,368124689,"""map""",,,-0.174655288458,-0.15239366889,0.0410971455276,,0.00371750712589,-0.0106371312748,0.0466914167453,-0.998845791439
492408000000,,9061,,492,400124689,"""map""",,,-0.174258247018,-0.151408582926,0.0411431603134,,0.0037266401504,-0.0106555636063,0.0466961793392,-0.998845412118
492440000000,,9062,,492,432124689,"""map""",,,-0.173847228289,-0.149995937943,0.0412084124982,,0.00373567900305,-0.0106250351293,0.0466909109831,-0.998845875733
492472000000,,9063,,492,464124311,"""map""",,,-0.173644006252,-0.151299402118,0.0410330742598,,0.00372314953524,-0.0107162672513,0.0467371460759,-0.998842799013
492508000000,,9064,,492,504124311,"""map""",,,-0.173310890794,-0.152060225606,0.0408186092973,,0.00370796218179,-0.0107194111428,0.0467161990922,-0.998843852684
492540000000,,9065,,492,536124311,"""map""",,,-0.172981142998,-0.152045115829,0.0407205969095,,0.00371897996068,-0.0107043288272,0.0467693041213,-0.998841492461
492572000000,,9066,,492,568124311,"""map""",,,-0.172622844577,-0.151546537876,0.0407752767205,,0.00371104910918,-0.0106937822369,0.0468394786241,-0.998838331447
492608000000,,9067,,492,600117933,"""map""",,,-0.172211959958,-0.150590315461,0.0409506633878,,0.0036807596838,-0.010680271867,0.0468682649216,-0.998837193482
492640000000,,9068,,492,632117933,"""map""",,,-0.171746969223,-0.149217009544,0.0411531031132,,0.0036656121723,-0.0106563676892,0.0468850393673,-0.998836772014
492672000000,,9069,,492,664117556,"""map""",,,-0.171642199159,-0.150198474526,0.0405301898718,,0.00371097798637,-0.0105425580273,0.0469427805498,-0.99883508614
492708000000,,9070,,492,704117556,"""map""",,,-0.171428456903,-0.150670945644,0.0398878455162,,0.00347446106778,-0.0105713291783,0.0469993416205,-0.998832978797
492740000000,,9071,,492,736117556,"""map""",,,-0.171231165528,-0.150473639369,0.0398193150759,,0.0034684156292,-0.0105433752811,0.0470123649967,-0.998832683769
492772000000,,9072,,492,768117178,"""map""",,,-0.17099159956,-0.149815753102,0.0398868881166,,0.0035143731455,-0.0105076331072,0.0471081647834,-0.998828342644
492808000000,,9073,,492,800117178,"""map""",,,-0.170703843236,-0.148722738028,0.0400439798832,,0.00353407482155,-0.010552780943,0.0471692777137,-0.998824970896
492840000000,,9074,,492,832117178,"""map""",,,-0.170366495848,-0.147223979235,0.040201280266,,0.0035735759675,-0.0106016525187,0.0471679711614,-0.998824338693
492872000000,,9075,,492,864116800,"""map""",,,-0.170457258821,-0.148254260421,0.0402596779168,,0.00360161712192,-0.0105741447854,0.0472221720086,-0.99882197847
492908000000,,9076,,492,904116800,"""map""",,,-0.17043890059,-0.148703247309,0.0403802283108,,0.00359559572021,-0.0106598382187,0.0472400844192,-0.998820250449
492940000000,,9077,,492,936116800,"""map""",,,-0.170343846083,-0.14849871397,0.0405782945454,,0.00360903529653,-0.0106965112453,0.0472617900462,-0.998818775309
492972000000,,9078,,492,968116422,"""map""",,,-0.170217067003,-0.147839993238,0.0408550128341,,0.00361099084445,-0.0107036264894,0.0472679434861,-0.998818438135
493008000000,,9079,,493,116422,"""map""",,,-0.170036107302,-0.146743312478,0.0411154516041,,0.00355172150946,-0.0107133350819,0.0473053698875,-0.998816752261
493040000000,,9080,,493,32116422,"""map""",,,-0.169796317816,-0.145198270679,0.041395150125,,0.00361717951646,-0.0106979067011,0.0473052013001,-0.998816667967
493072000000,,9081,,493,64116045,"""map""",,,-0.169788599014,-0.146129950881,0.0415043495595,,0.00363330200311,-0.0106857447011,0.0472792809883,-0.998817974519
493108000000,,9082,,493,104116045,"""map""",,,-0.169680997729,-0.146454229951,0.0415626838803,,0.00361377023154,-0.0107756419534,0.0472864880994,-0.998816752261
493140000000,,9083,,493,136116045,"""map""",,,-0.169511541724,-0.146138086915,0.0415456481278,,0.0036307363137,-0.0107951816275,0.0472833692326,-0.998816583673
493172000000,,9084,,493,168115667,"""map""",,,-0.16926638782,-0.145363733172,0.0415881797671,,0.00366015975305,-0.0107698227248,0.0473191940538,-0.998815066387
493208000000,,9085,,493,200115667,"""map""",,,-0.168986976147,-0.144141256809,0.0416339226067,,0.00367196548044,-0.010753897143,0.0473618466645,-0.998813211925
493240000000,,9086,,493,232115667,"""map""",,,-0.168646395206,-0.142514660954,0.0416812114418,,0.00365674783395,-0.0107516673113,0.0473348305346,-0.998814518478
493272000000,,9087,,493,264115290,"""map""",,,-0.168592900038,-0.143405586481,0.0419182926416,,0.00370747452959,-0.0107102498008,0.0473607086996,-0.998813591247
493308000000,,9088,,493,304115290,"""map""",,,-0.168416410685,-0.143685653806,0.0422801114619,,0.00395472341875,-0.0106935204654,0.0473773145579,-0.99881207396
493340000000,,9089,,493,336115290,"""map""",,,-0.168218553066,-0.143322557211,0.0425552353263,,0.00397751300999,-0.0107105030112,0.0473688851882,-0.998812158254
493372000000,,9090,,493,368114913,"""map""",,,-0.167972877622,-0.14249022305,0.0427974872291,,0.00396811426277,-0.0107619577278,0.0473697281252,-0.998811568198
493408000000,,9091,,493,400114913,"""map""",,,-0.167672663927,-0.14123941958,0.0430521182716,,0.00402567632113,-0.0107308046213,0.047415963218,-0.998809503003
493440000000,,9092,,493,432114913,"""map""",,,-0.16730992496,-0.139589935541,0.0431033484638,,0.00403540631623,-0.0107738819932,0.0474242240003,-0.998808575772
493472000000,,9093,,493,472114535,"""map""",,,-0.167373850942,-0.140710413456,0.0426604822278,,0.0040446015732,-0.0108743251772,0.0474417149425,-0.998806679164
493508000000,,9094,,493,504114535,"""map""",,,-0.167330488563,-0.140948072076,0.0424853600562,,0.00403069838154,-0.0108529198465,0.0474633362758,-0.998805878374
493540000000,,9095,,493,536114535,"""map""",,,-0.167194098234,-0.140675038099,0.0424721352756,,0.00399008627101,-0.0108506541241,0.0474898044966,-0.998804866849
493572000000,,9096,,493,568114158,"""map""",,,-0.166988343,-0.139926582575,0.0424544848502,,0.00401775304288,-0.0108711203703,0.0475231848006,-0.998802928094
493608000000,,9097,,493,600114158,"""map""",,,-0.166706502438,-0.138760656118,0.0423501469195,,0.00397122456848,-0.0109026300787,0.0475127323822,-0.998803265269
493640000000,,9098,,493,632114158,"""map""",,,-0.166375592351,-0.13719548285,0.0422831252217,,0.0040001201844,-0.0108742863231,0.0475109200677,-0.998803560297
493672000000,,9099,,493,664113781,"""map""",,,-0.166351079941,-0.138359948993,0.041784606874,,0.00397876325674,-0.0108958605704,0.0474951571464,-0.998804150353
493708000000,,9100,,493,704113781,"""map""",,,-0.1662081182,-0.138967439532,0.0410315692425,,0.00396389365102,-0.0109424153866,0.0474968851672,-0.998803602444
493740000000,,9101,,493,736113781,"""map""",,,-0.165982350707,-0.13884934783,0.0406148135662,,0.00391838592061,-0.0109304453523,0.0475279052477,-0.998802422332
493772000000,,9102,,493,768113404,"""map""",,,-0.165657877922,-0.138236165047,0.0403250977397,,0.00394664274836,-0.0109823663184,0.0475734659909,-0.998799598493
493808000000,,9103,,493,800113404,"""map""",,,-0.165254339576,-0.137169733644,0.0402842089534,,0.0039197092658,-0.01098279997,0.0475966467576,-0.998798586969
493840000000,,9104,,493,832113404,"""map""",,,-0.164758056402,-0.135684192181,0.0401469841599,,0.00391934081015,-0.0109680482437,0.0476022944353,-0.998798502675
493872000000,,9105,,493,864113028,"""map""",,,-0.164687797427,-0.13681165874,0.0398152731359,,0.00391648865389,-0.0109074944177,0.0476098387212,-0.998798797703
493908000000,,9106,,493,904113028,"""map""",,,-0.164505973458,-0.137412115932,0.0395182557404,,0.00386516926819,-0.0109464898015,0.0476366862637,-0.998797322563
493940000000,,9107,,493,936113028,"""map""",,,-0.164285585284,-0.137265279889,0.0391293130815,,0.00411224496015,-0.0109757617756,0.0476678749316,-0.998794540871
493972000000,,9108,,493,968124651,"""map""",,,-0.163952350616,-0.136638090014,0.038769736886,,0.00412985411102,-0.010985426904,0.0477129299126,-0.998792138501
494008000000,,9109,,494,124651,"""map""",,,-0.163504570723,-0.13553480804,0.0385637618601,,0.00409121236565,-0.0110174515942,0.0476865038386,-0.998793276466
494040000000,,9110,,494,32124651,"""map""",,,-0.162992179394,-0.133977487683,0.0383877940476,,0.0040912936959,-0.0110109310157,0.0477045005429,-0.998792475676
494072000000,,9111,,494,64136274,"""map""",,,-0.163253679872,-0.13498878479,0.0379605069757,,0.00411744186413,-0.0110758108207,0.047725068205,-0.998790621215
494108000000,,9112,,494,104136274,"""map""",,,-0.163408055902,-0.135439738631,0.0375802218914,,0.00409517384014,-0.0110609935692,0.0478280329559,-0.998785942914
494140000000,,9113,,494,136136274,"""map""",,,-0.163416221738,-0.135177463293,0.0373626425862,,0.00411106616548,-0.0110751954108,0.0478436272899,-0.998785015684
494172000000,,9114,,494,168135897,"""map""",,,-0.163305282593,-0.134397804737,0.0372550040483,,0.00407436284587,-0.0110908700872,0.0478931919837,-0.99878265546
494208000000,,9115,,494,200135897,"""map""",,,-0.163059234619,-0.133164733648,0.0372532382607,,0.00408104114573,-0.0111259079477,0.0479501323761,-0.998779494447
494240000000,,9116,,494,232135897,"""map""",,,-0.162718504667,-0.131496310234,0.0374354422092,,0.00407289264526,-0.0111262895743,0.0479416187127,-0.998779915915
494272000000,,9117,,494,268135521,"""map""",,,-0.162876591086,-0.132476374507,0.0369991846383,,0.00407401151238,-0.0111135750555,0.0479407336288,-0.998780126649
494308000000,,9118,,494,300135521,"""map""",,,-0.162936002016,-0.132799848914,0.036714926362,,0.00406467269271,-0.0111209751201,0.0479731867022,-0.998778440775
494340000000,,9119,,494,332135521,"""map""",,,-0.16285841167,-0.13252133131,0.0365224741399,,0.00404596476033,-0.0111448223338,0.048038050702,-0.998775195468
494372000000,,9120,,494,364135144,"""map""",,,-0.162656217813,-0.131730109453,0.0362834557891,,0.0040393253146,-0.0110980656738,0.0480282304863,-0.998776164846
494408000000,,9121,,494,404135144,"""map""",,,-0.162235125899,-0.130056500435,0.0362667329609,,0.00403075271147,-0.0111140495368,0.0481164438403,-0.99877182372
494440000000,,9122,,494,436135144,"""map""",,,-0.161983281374,-0.129090413451,0.0365002155304,,0.00404473097719,-0.0110657742731,0.0481445979351,-0.998770896489
494472000000,,9123,,494,468134767,"""map""",,,-0.162128299475,-0.130044028163,0.0370808653533,,0.00401455646784,-0.0110670044342,0.0481759551904,-0.99876954779
494508000000,,9124,,494,500134767,"""map""",,,-0.162125736475,-0.130445316434,0.037594076246,,0.00401984984859,-0.0111027159858,0.0481850589097,-0.998768704853
494540000000,,9125,,494,532134767,"""map""",,,-0.162012383342,-0.13029012084,0.0381227582693,,0.00402562396684,-0.0111536188421,0.0482131708576,-0.998766723951
494572000000,,9126,,494,564134389,"""map""",,,-0.16177174449,-0.129685297608,0.0387381985784,,0.00406337601857,-0.0111543376434,0.0481979136985,-0.998767314007
494608000000,,9127,,494,604134389,"""map""",,,-0.161318331957,-0.128281190991,0.0393452122808,,0.00428058441219,-0.0111759899283,0.0482250984157,-0.998764827343
494640000000,,9128,,494,636134389,"""map""",,,-0.161025613546,-0.12752366066,0.0397606343031,,0.00428963511863,-0.0111935852497,0.0482632413136,-0.998762762148
494672000000,,9129,,494,668134012,"""map""",,,-0.161167815328,-0.128710791469,0.0399632379413,,0.00426565323256,-0.0111868908155,0.0483367032706,-0.998759348253
494708000000,,9130,,494,700134012,"""map""",,,-0.161155447364,-0.129283621907,0.0402618348598,,0.00429661898314,-0.011175470666,0.0483214039646,-0.998760064749
494740000000,,9131,,494,732134012,"""map""",,,-0.161033585668,-0.129338413477,0.0406169742346,,0.00432225546229,-0.0111732138339,0.0483518761361,-0.99875858961
494772000000,,9132,,494,764133635,"""map""",,,-0.16077157855,-0.128854721785,0.041054379195,,0.00432075727353,-0.0112045335522,0.0483967203829,-0.998756060799
494808000000,,9133,,494,804133635,"""map""",,,-0.160285010934,-0.127569705248,0.041524823755,,0.00429340232249,-0.0112476343024,0.048458718397,-0.998752646904
494840000000,,9134,,494,836133635,"""map""",,,-0.159879297018,-0.126927599311,0.0418069548905,,0.00426926930045,-0.011268328405,0.0484553045023,-0.998752689051
494868000000,,9135,,494,868133258,"""map""",,,-0.159696131945,-0.128333121538,0.0419152900577,,0.00422309215955,-0.0113295848981,0.0483941072783,-0.998755133568
494908000000,,9136,,494,900133258,"""map""",,,-0.159376218915,-0.129116147757,0.0421044640243,,0.00424602235005,-0.0113988575242,0.0484423654198,-0.998751972554
494940000000,,9137,,494,932133258,"""map""",,,-0.158941045403,-0.12932266295,0.042273517698,,0.00423589459406,-0.0113932855791,0.0484750713743,-0.998750455268
494972000000,,9138,,494,964132880,"""map""",,,-0.158386528492,-0.128995776176,0.0424529463053,,0.00426194266353,-0.011397575338,0.0484259702957,-0.998752689051
495004000000,,9139,,495,4132880,"""map""",,,-0.157548606396,-0.127879783511,0.0427755229175,,0.00421430421236,-0.0113904110323,0.0484679485569,-0.998750918883
495040000000,,9140,,495,36132880,"""map""",,,-0.156765401363,-0.126493141055,0.0430744551122,,0.00422935985691,-0.0113862450797,0.0484623008792,-0.998751171764
495072000000,,9141,,495,68132503,"""map""",,,-0.155869424343,-0.124754570425,0.0434315390885,,0.00428075464594,-0.0113839671743,0.0484988421968,-0.998749190862
495108000000,,9142,,495,100132503,"""map""",,,-0.1548756212,-0.122678600252,0.0436487644911,,0.00428758045977,-0.0114001364176,0.0485324753819,-0.998747336401
495140000000,,9143,,495,132132503,"""map""",,,-0.153754040599,-0.120277091861,0.0438317880034,,0.0042617661736,-0.0114288654217,0.0485210957328,-0.998747673576
495172000000,,9144,,495,164132125,"""map""",,,-0.153434276581,-0.120948851109,0.0438106916845,,0.00426563281768,-0.0114805061772,0.0485338662279,-0.998746451317
495208000000,,9145,,495,204132125,"""map""",,,-0.152801394463,-0.120943702757,0.0436688400805,,0.00449982935469,-0.0115223622783,0.0484877575757,-0.998747209961
495240000000,,9146,,495,236132125,"""map""",,,-0.152135685086,-0.12034381181,0.0437564700842,,0.00451063014317,-0.0115278868081,0.0485112755171,-0.998745945555
495272000000,,9147,,495,268131748,"""map""",,,-0.151352360845,-0.119267210364,0.0439124926925,,0.00449221460454,-0.0115842397788,0.0485769403071,-0.998742152339
495308000000,,9148,,495,300131748,"""map""",,,-0.150449097157,-0.117766916752,0.0441250018775,,0.00450381848805,-0.0115965897932,0.0486164319042,-0.998740087143
495340000000,,9149,,495,332131748,"""map""",,,-0.149424672127,-0.11584328115,0.0443348474801,,0.00451254123933,-0.0116269569268,0.0486407084889,-0.998738485563
495372000000,,9150,,495,364131370,"""map""",,,-0.149387151003,-0.117140389979,0.0447400547564,,0.00450872431536,-0.0116251064168,0.0486477891595,-0.998738148388
495408000000,,9151,,495,404131370,"""map""",,,-0.149068877101,-0.11788970232,0.0451372861862,,0.00452177469187,-0.0116505822111,0.0486440380899,-0.998738021948
495440000000,,9152,,495,436131370,"""map""",,,-0.148595765233,-0.1178336218,0.0455614849925,,0.00449824654296,-0.0116453662093,0.0486619926474,-0.998737347598
495472000000,,9153,,495,468130992,"""map""",,,-0.147960171103,-0.117259934545,0.0460502877831,,0.00448614710472,-0.0116683988035,0.0487042659365,-0.998735029521
495508000000,,9154,,495,500130992,"""map""",,,-0.147184893489,-0.116220869124,0.0464796461165,,0.00449884120866,-0.0116676322576,0.0487630607901,-0.998732121389
495540000000,,9155,,495,532130992,"""map""",,,-0.146278500557,-0.114751890302,0.0468765161932,,0.00449523106766,-0.0116861057482,0.0487341059052,-0.998733343647
495572000000,,9156,,495,564130615,"""map""",,,-0.146221518517,-0.116527430713,0.0471342615783,,0.00451748262804,-0.0116717830637,0.0488080314775,-0.998729803312
495608000000,,9157,,495,604130615,"""map""",,,-0.145858928561,-0.117830492556,0.0473784022033,,0.00453017080508,-0.0116412615014,0.0487720380689,-0.998731910655
495640000000,,9158,,495,636130615,"""map""",,,-0.145361930132,-0.118218123913,0.047563161701,,0.00452248559067,-0.0116455947242,0.0488259017413,-0.998729213256
495672000000,,9159,,495,668130237,"""map""",,,-0.144693031907,-0.118073023856,0.0477468408644,,0.00446296074041,-0.0116512703901,0.0487995178141,-0.998730730543
495704000000,,9160,,495,700130237,"""map""",,,-0.143884211779,-0.117446705699,0.0479333847761,,0.00449501802851,-0.0116611781922,0.0488389672643,-0.998728538907
495740000000,,9161,,495,732130237,"""map""",,,-0.142974987626,-0.116336897016,0.048172108829,,0.00451261795976,-0.01165726545,0.048868259324,-0.998727063767
495772000000,,9162,,495,764129859,"""map""",,,-0.143141582608,-0.11795796454,0.0481855385005,,0.00445829956238,-0.0116832005791,0.0488692287015,-0.998726937326
495808000000,,9163,,495,804129859,"""map""",,,-0.143043771386,-0.119060367346,0.0483277961612,,0.0044333387499,-0.0116578564937,0.0488862138815,-0.998726473711
495840000000,,9164,,495,836129859,"""map""",,,-0.14274315536,-0.119275040925,0.0485086664557,,0.00444855540857,-0.0116871930052,0.0488774051901,-0.998726515858
495872000000,,9165,,495,868129481,"""map""",,,-0.142262920737,-0.118964932859,0.0487411245704,,0.00448438187617,-0.0116933698234,0.0488653090446,-0.99872689518
495908000000,,9166,,495,900129481,"""map""",,,-0.14161875844,-0.118148602545,0.0488760359585,,0.00471583689239,-0.0116382150745,0.048917781871,-0.998723902753
495940000000,,9167,,495,932129481,"""map""",,,-0.140845984221,-0.116916783154,0.0490940734744,,0.00471665480467,-0.0116336184338,0.048935862869,-0.998723101963
495972000000,,9168,,495,964129103,"""map""",,,-0.141063123941,-0.11872561276,0.0489776916802,,0.00471936965441,-0.0116617142474,0.0489590857826,-0.99872154253
496008000000,,9169,,496,4129103,"""map""",,,-0.14099265635,-0.120077587664,0.0488930866122,,0.00471470287875,-0.011672697782,0.0489928875551,-0.998719856656
496040000000,,9170,,496,36129103,"""map""",,,-0.140675053,-0.12048728019,0.0488682352006,,0.00476031531773,-0.0116975983377,0.0489848796538,-0.998719688069
496072000000,,9171,,496,68128725,"""map""",,,-0.140180915594,-0.120324581861,0.0488100759685,,0.00472536405579,-0.011773570337,0.0489662086,-0.998719898803
496108000000,,9172,,496,100128725,"""map""",,,-0.139530256391,-0.119682833552,0.0487071201205,,0.00476245690447,-0.0117929964122,0.0490329270611,-0.998716232027
496140000000,,9173,,496,132128725,"""map""",,,-0.13868150115,-0.118587568402,0.0485755801201,,0.00478117998338,-0.0118088811643,0.0490190186011,-0.998716569202
496172000000,,9174,,496,164128347,"""map""",,,-0.138864472508,-0.12032109499,0.04833349213,,0.00479610523611,-0.0117887665808,0.0490743152664,-0.998714040391
496208000000,,9175,,496,204128347,"""map""",,,-0.138793572783,-0.121594339609,0.0481617599726,,0.0047482774534,-0.0117935927242,0.0490927334392,-0.998713323894
496240000000,,9176,,496,236128347,"""map""",,,-0.138489767909,-0.121959403157,0.0480354651809,,0.00476467356529,-0.0118001587422,0.0491130482202,-0.998712228076
496272000000,,9177,,496,268127969,"""map""",,,-0.13796761632,-0.121806271374,0.0479153133929,,0.00484259485638,-0.0118198100396,0.049140359378,-0.998710205028
496308000000,,9178,,496,300127969,"""map""",,,-0.137271851301,-0.121180318296,0.0478260889649,,0.00485788724767,-0.0118022285476,0.0491291483163,-0.998710879377
496340000000,,9179,,496,332127969,"""map""",,,-0.13639433682,-0.120124019682,0.0478439703584,,0.00486407262696,-0.0117907273971,0.0491837284851,-0.998708308419
496372000000,,9180,,496,364127591,"""map""",,,-0.136598542333,-0.121751368046,0.0477062836289,,0.00488449606779,-0.0117611673097,0.0491746247658,-0.998709067063
496408000000,,9181,,496,404127591,"""map""",,,-0.136532187462,-0.122911855578,0.0474966987967,,0.00483829653637,-0.0117610764306,0.049145922762,-0.99871071079
496440000000,,9182,,496,436127591,"""map""",,,-0.136248886585,-0.123192533851,0.047377537936,,0.004858798344,-0.0117463829855,0.0491190330727,-0.998712059489
496472000000,,9183,,496,468127214,"""map""",,,-0.135814875364,-0.122981488705,0.0472130104899,,0.00480787474356,-0.0117787804119,0.049154562866,-0.998710162881
496508000000,,9184,,496,500127214,"""map""",,,-0.135180696845,-0.122280657291,0.046987336129,,0.004828877045,-0.0117545657303,0.0491795559471,-0.99870910921
496540000000,,9185,,496,532127214,"""map""",,,-0.134394749999,-0.121166877449,0.0466494709253,,0.00484062053994,-0.0117789223282,0.0491897133376,-0.998708308419
496572000000,,9186,,496,564138836,"""map""",,,-0.135011062026,-0.122818678617,0.0461395941675,,0.00491805022756,-0.0117713852863,0.0492718153985,-0.998703925147
496608000000,,9187,,496,604138836,"""map""",,,-0.135399505496,-0.124013327062,0.0455465093255,,0.00495910191655,-0.0118364264347,0.0493112648487,-0.998701059161
496640000000,,9188,,496,636138836,"""map""",,,-0.135463163257,-0.124293424189,0.0450148023665,,0.0049281440685,-0.0118301106636,0.049319820659,-0.998700848427
496672000000,,9189,,496,668138457,"""map""",,,-0.135343059897,-0.124023966491,0.0445549711585,,0.00492946708442,-0.01187318145,0.0494186550187,-0.998695411484
496708000000,,9190,,496,700138457,"""map""",,,-0.135016918182,-0.123252466321,0.044174272567,,0.00492405055584,-0.0118335851444,0.0494151989771,-0.998696085833
496740000000,,9191,,496,732138457,"""map""",,,-0.134480699897,-0.122024670243,0.0437651127577,,0.00491347828231,-0.0118724208311,0.0494506866236,-0.998693978491
496772000000,,9192,,496,764138079,"""map""",,,-0.135033965111,-0.123508170247,0.0432814247906,,0.0049430008326,-0.0118947560266,0.0495144969522,-0.998690353862
496808000000,,9193,,496,804138079,"""map""",,,-0.135353460908,-0.124475903809,0.0427274145186,,0.00493681479477,-0.0118612357819,0.0495689506805,-0.998688077932
496840000000,,9194,,496,836138079,"""map""",,,-0.1353418082,-0.12461515516,0.0423034019768,,0.00491632978003,-0.0118800257031,0.049578265134,-0.998687530023
496872000000,,9195,,496,868137701,"""map""",,,-0.13511377573,-0.124254889786,0.0418938137591,,0.00490411476722,-0.0118541768433,0.0496317916316,-0.998685254093
496908000000,,9196,,496,900137701,"""map""",,,-0.13471095264,-0.123434387147,0.0416104532778,,0.00496503309766,-0.0119055864496,0.0496897014015,-0.998681460877
496940000000,,9197,,496,932137701,"""map""",,,-0.134156942368,-0.122179396451,0.0412154905498,,0.00498412101023,-0.01192263024,0.0496994373235,-0.998680660087
496972000000,,9198,,496,964137322,"""map""",,,-0.134568080306,-0.123701676726,0.0409671291709,,0.00497433273393,-0.0119290612564,0.0497642591765,-0.998677372633
497008000000,,9199,,497,4137322,"""map""",,,-0.134753778577,-0.124756224453,0.0405443608761,,0.00504122505088,-0.0119269262551,0.0497800642447,-0.998676318961
497040000000,,9200,,497,36137322,"""map""",,,-0.134641140699,-0.124989748001,0.0402020066977,,0.00505015458513,-0.0119136345221,0.049825877869,-0.998674169472
497068000000,,9201,,497,68136944,"""map""",,,-0.13432174921,-0.124725058675,0.0398686043918,,0.00507514009304,-0.0119310513779,0.0498966845745,-0.998670291962
497108000000,,9202,,497,100136944,"""map""",,,-0.133792504668,-0.123980820179,0.039554849267,,0.00503808478139,-0.0119619888111,0.0499370612554,-0.998668100326
497140000000,,9203,,497,132136944,"""map""",,,-0.133085221052,-0.122826822102,0.0393073409796,,0.00504768570177,-0.0119801481759,0.049949410282,-0.998667130948
497168000000,,9204,,497,164136565,"""map""",,,-0.133593022823,-0.124396562576,0.0386473610997,,0.00501634458082,-0.0118956763426,0.0499310342561,-0.998669238291
497208000000,,9205,,497,204136565,"""map""",,,-0.133871927857,-0.125434562564,0.0378236621618,,0.00503828794237,-0.0118982677152,0.0499483987577,-0.998668226766
497240000000,,9206,,497,236136565,"""map""",,,-0.133852273226,-0.125625059009,0.0372134782374,,0.00502080062223,-0.0119106710718,0.04998447646,-0.998666372305
497272000000,,9207,,497,268136186,"""map""",,,-0.13358746469,-0.125301629305,0.0366100259125,,0.00523644628973,-0.0119096002784,0.0500469380895,-0.99866215762
497308000000,,9208,,497,300136186,"""map""",,,-0.133138567209,-0.124545812607,0.0359982997179,,0.00524462244907,-0.0119045232295,0.0500879048262,-0.998660134572
497340000000,,9209,,497,332136186,"""map""",,,-0.13247834146,-0.123363278806,0.0354586392641,,0.00526422139217,-0.0119073450927,0.050093805385,-0.998659713103
497372000000,,9210,,497,368135808,"""map""",,,-0.132894307375,-0.124898999929,0.0349770113826,,0.00524405379588,-0.0119697899293,0.0500945640283,-0.998659038754
497408000000,,9211,,497,400135808,"""map""",,,-0.133043304086,-0.125783115625,0.0344419814646,,0.00527774427437,-0.0119936654605,0.0501236875006,-0.998657057852
497440000000,,9212,,497,432135808,"""map""",,,-0.132939428091,-0.126117259264,0.0339486077428,,0.00526305873184,-0.0119929357932,0.0501376802543,-0.998656467796
497472000000,,9213,,497,464135429,"""map""",,,-0.132588356733,-0.125919803977,0.0334964208305,,0.00523599189402,-0.0119958485355,0.0501439601347,-0.998656257062
497508000000,,9214,,497,504135429,"""map""",,,-0.131854042411,-0.124992102385,0.0330342017114,,0.00519245913859,-0.0119898060604,0.0501647806779,-0.998655498418
497540000000,,9215,,497,536135429,"""map""",,,-0.131377026439,-0.124586343765,0.0327239558101,,0.00521285755472,-0.0119796743531,0.0501716506142,-0.99865520339
497572000000,,9216,,497,568135050,"""map""",,,-0.131591022015,-0.125955700874,0.0325147658587,,0.00517497642826,-0.0119721620067,0.0501864863049,-0.998654697628
497608000000,,9217,,497,600135050,"""map""",,,-0.131525054574,-0.1267208606,0.0322702787817,,0.00513545387962,-0.0119847092552,0.0501999311496,-0.998654149719
497640000000,,9218,,497,632135050,"""map""",,,-0.131190210581,-0.12694555521,0.0319899097085,,0.00510948450622,-0.0120166081633,0.0502152726024,-0.998653053901
497672000000,,9219,,497,664134671,"""map""",,,-0.130589857697,-0.126675859094,0.0315581001341,,0.00511299454844,-0.0119064863507,0.050202881429,-0.998654992656
497708000000,,9220,,497,704134671,"""map""",,,-0.129526659846,-0.12571541965,0.0308367405087,,0.00512626422028,-0.0118913767055,0.0502231962099,-0.998654065425
497740000000,,9221,,497,736134671,"""map""",,,-0.128836661577,-0.125239208341,0.0303125549108,,0.00515568700108,-0.0119194211526,0.0501824823543,-0.998655667006
497772000000,,9222,,497,768134292,"""map""",,,-0.12905792892,-0.126497671008,0.0299436934292,,0.00512834752583,-0.011946821214,0.0501791106064,-0.998655667006
497808000000,,9223,,497,800134292,"""map""",,,-0.128998756409,-0.127175062895,0.0295584388077,,0.00512950788125,-0.0118457754618,0.0502049044777,-0.998655498418
497840000000,,9224,,497,832134292,"""map""",,,-0.128648027778,-0.127321377397,0.0291751921177,,0.00509330571402,-0.0118467073022,0.050239886362,-0.998653981132
497872000000,,9225,,497,864133912,"""map""",,,-0.128030896187,-0.126976445317,0.0288648530841,,0.0051384209519,-0.0118894300479,0.050269094128,-0.998651747349
497908000000,,9226,,497,904133912,"""map""",,,-0.1269659549,-0.125945717096,0.0283691771328,,0.00517841962822,-0.0118832924131,0.0503188695561,-0.998649092097
