rosbagTimestamp,header,seq,stamp,secs,nsecs,frame_id,pose,position,x,y,z,orientation,x,y,z,w
2238392000000,,37964,,2238,388226524,"""map""",,,0.158070251346,-0.0704570636153,0.0373906753957,,-0.0012123882234,-0.00130545100648,0.0806851259991,-0.996738111839
2238428000000,,37965,,2238,420226524,"""map""",,,0.15830488503,-0.0700951144099,0.0373238027096,,-0.00114650407636,-0.00125911439491,0.0807335948749,-0.996734318623
2238460000000,,37966,,2238,452226524,"""map""",,,0.158485487103,-0.0694344863296,0.0371720679104,,-0.00116971413284,-0.00149306745053,0.0807428250347,-0.996733264951
2238492000000,,37967,,2238,484225799,"""map""",,,0.158763960004,-0.0701977685094,0.0369694568217,,-0.00118175094761,-0.00147315279707,0.0807204029113,-0.996735035119
2238528000000,,37968,,2238,524225799,"""map""",,,0.159023925662,-0.0706126391888,0.0368049107492,,-0.00113627011463,-0.00146888487301,0.0807245754493,-0.996734824385
2238560000000,,37969,,2238,556225799,"""map""",,,0.159168317914,-0.0705585479736,0.0366983599961,,-0.00113962280588,-0.00146264150065,0.0807192227996,-0.996735119413
2238592000000,,37970,,2238,588225074,"""map""",,,0.159291639924,-0.0702238306403,0.0365387797356,,-0.00110779657429,-0.00148113418158,0.0807369666228,-0.996733728567
2238628000000,,37971,,2238,620225074,"""map""",,,0.159364655614,-0.0696126446128,0.0363479554653,,-0.00108165902509,-0.0014443899499,0.080671807595,-0.996739123363
2238660000000,,37972,,2238,652225074,"""map""",,,0.15937538445,-0.068751655519,0.0363032743335,,-0.00106958135997,-0.00142821589099,0.080664853365,-0.996739671272
2238692000000,,37973,,2238,684224349,"""map""",,,0.159534946084,-0.0692778080702,0.036002330482,,-0.00103707856651,-0.0014298136846,0.0806596271558,-0.996740092741
2238728000000,,37974,,2238,724224349,"""map""",,,0.159711316228,-0.0693977251649,0.0357231833041,,-0.00105493954892,-0.00144794973282,0.0807156824643,-0.996735625175
2238760000000,,37975,,2238,756224349,"""map""",,,0.159785076976,-0.0691369995475,0.0356290899217,,-0.00102462835041,-0.00143537947641,0.0807358286579,-0.996733939301
2238792000000,,37976,,2238,788223624,"""map""",,,0.159825116396,-0.0685876607895,0.0354133434594,,-0.000979814232011,-0.00134145917577,0.0807252076521,-0.996735119413
2238828000000,,37977,,2238,820223624,"""map""",,,0.15983761847,-0.0677774697542,0.0351955965161,,-0.000951851557572,-0.00127117096088,0.0807680288502,-0.996731663371
2238860000000,,37978,,2238,852223624,"""map""",,,0.159788757563,-0.0667181834579,0.0350426919758,,-0.000959812012715,-0.00123909246559,0.0807509172297,-0.996733096364
2238892000000,,37979,,2238,884222900,"""map""",,,0.159954145551,-0.067275159061,0.034454729408,,-0.00093798534731,-0.00119031624502,0.0807967730008,-0.996729471735
2238928000000,,37980,,2238,924222900,"""map""",,,0.160096570849,-0.0674652829766,0.0338944420218,,-0.000958656977097,-0.00116999578409,0.080809796377,-0.99672833377
2238960000000,,37981,,2238,956222900,"""map""",,,0.1601498276,-0.0672516524792,0.0334812514484,,-0.000986617511266,-0.00117467567919,0.0808312069761,-0.996726647896
2238992000000,,37982,,2238,988222176,"""map""",,,0.160157904029,-0.0667304396629,0.0330459140241,,-0.00102268487753,-0.00115278068464,0.0808327242626,-0.996726479309
2239028000000,,37983,,2239,20222176,"""map""",,,0.160121947527,-0.0659345760942,0.0326464436948,,-0.000989038212835,-0.00112318155797,0.0808054131048,-0.996728755239
2239060000000,,37984,,2239,52222176,"""map""",,,0.16003267467,-0.064892321825,0.0324380882084,,-0.000985673055544,-0.00131981141838,0.0808422073035,-0.996725594225
2239092000000,,37985,,2239,84221452,"""map""",,,0.160371899605,-0.0658592954278,0.0322905629873,,-0.000991652547069,-0.00132536781564,0.0808123251879,-0.996727996595
2239128000000,,37986,,2239,124221452,"""map""",,,0.16065505147,-0.0665375366807,0.0322552882135,,-0.000965716872626,-0.00124292286914,0.0808123251879,-0.996728080889
2239160000000,,37987,,2239,156221452,"""map""",,,0.160814255476,-0.06671153754,0.0322749949992,,-0.000958276708803,-0.00123737176081,0.0808364331853,-0.996726226428
2239192000000,,37988,,2239,188220728,"""map""",,,0.160940632224,-0.0665860250592,0.0323023162782,,-0.000965183564762,-0.00121952779767,0.08088852669,-0.996722011743
2239228000000,,37989,,2239,220220728,"""map""",,,0.161020740867,-0.0661502406001,0.0324742756784,,-0.000927949129008,-0.00118963481609,0.0809101480233,-0.996720283722
2239260000000,,37990,,2239,252220728,"""map""",,,0.161061137915,-0.0654162839055,0.0327758230269,,-0.00092145672392,-0.0012230528012,0.0809252787419,-0.996719061463
2239292000000,,37991,,2239,284220004,"""map""",,,0.161479145288,-0.0662545412779,0.0327648445964,,-0.000879382181538,-0.00129080399395,0.0810072122155,-0.996712317968
2239328000000,,37992,,2239,324220004,"""map""",,,0.161946192384,-0.0668091550469,0.03291971609,,-0.000963870581359,-0.00129221103603,0.0810706853693,-0.996707007465
2239360000000,,37993,,2239,356220004,"""map""",,,0.162264660001,-0.0668913424015,0.0331132523715,,-0.000961814605405,-0.00127928314879,0.0810463244909,-0.996709114807
2239392000000,,37994,,2239,388219281,"""map""",,,0.162526130676,-0.0666786134243,0.0334007851779,,-0.000919468300226,-0.00128822692408,0.0811218094966,-0.996703003514
2239428000000,,37995,,2239,420219281,"""map""",,,0.162741824985,-0.066195346415,0.0337339751422,,-0.000922604073089,-0.00126361239281,0.0810942876045,-0.996705321591
2239460000000,,37996,,2239,452219281,"""map""",,,0.162930324674,-0.0654478818178,0.0340755991638,,-0.000926133243976,-0.00127622151364,0.0811439787389,-0.996701233346
2239492000000,,37997,,2239,484230557,"""map""",,,0.163175389171,-0.0663763806224,0.0336922742426,,-0.000942270465554,-0.00124497135415,0.0811981374392,-0.996696723634
2239528000000,,37998,,2239,524230557,"""map""",,,0.163405612111,-0.0670025572181,0.0333635695279,,-0.000959066602071,-0.00125171061053,0.081174830232,-0.996698704536
2239560000000,,37999,,2239,556230557,"""map""",,,0.163544878364,-0.0671252608299,0.0332784093916,,-0.000984323090751,-0.00124224453742,0.0811710370156,-0.996698873123
2239592000000,,38000,,2239,588229834,"""map""",,,0.163624167442,-0.0669284760952,0.0332883782685,,-0.00100837323908,-0.00125292223982,0.0811695618759,-0.996698999564
2239628000000,,38001,,2239,620229834,"""map""",,,0.163674682379,-0.0664613172412,0.0332830622792,,-0.00106537330172,-0.00149550954965,0.0811830067206,-0.996697524424
2239660000000,,38002,,2239,652229834,"""map""",,,0.163633733988,-0.0657107681036,0.0334469564259,,-0.00107959026926,-0.00147772508188,0.0812232569609,-0.996694279116
2239692000000,,38003,,2239,684229111,"""map""",,,0.16386783123,-0.0666311457753,0.0332945846021,,-0.00116125854483,-0.00146188606778,0.0812370389804,-0.996693056858
2239728000000,,38004,,2239,724229111,"""map""",,,0.164056822658,-0.0672805458307,0.0332963168621,,-0.00118407636088,-0.00144104306207,0.0811899188037,-0.996696934368
2239760000000,,38005,,2239,756229111,"""map""",,,0.164124906063,-0.0674226656556,0.033410359174,,-0.00118628388439,-0.0014587805468,0.0812222454366,-0.996694279116
2239792000000,,38006,,2239,788228388,"""map""",,,0.16415913403,-0.067258246243,0.033574398607,,-0.00111569363424,-0.00148341953682,0.0812395677913,-0.996692972564
2239828000000,,38007,,2239,820228388,"""map""",,,0.164156392217,-0.066784799099,0.0338423661888,,-0.00111717519474,-0.00146258318859,0.0812417594274,-0.996692803977
2239860000000,,38008,,2239,852228388,"""map""",,,0.164129465818,-0.0660443231463,0.0341278240085,,-0.00107838146965,-0.00146181040719,0.0811972523554,-0.996696428606
2239892000000,,38009,,2239,884227665,"""map""",,,0.164456740022,-0.0669763535261,0.0341781824827,,-0.00105182547715,-0.00144020144219,0.0811926583489,-0.996696892221
2239928000000,,38010,,2239,924227665,"""map""",,,0.164756566286,-0.0676235929132,0.0343579091132,,-0.00107000319889,-0.00140341078312,0.0811920261462,-0.996696850074
2239960000000,,38011,,2239,956227665,"""map""",,,0.164941698313,-0.0677218362689,0.0345574617386,,-0.00105220156781,-0.00138092562465,0.0811632398486,-0.996699336738
2239992000000,,38012,,2239,988226942,"""map""",,,0.165106773376,-0.0674899145961,0.0348504707217,,-0.00105608689808,-0.0013422484002,0.0811509751157,-0.99670039041
2240028000000,,38013,,2240,20226942,"""map""",,,0.165231287479,-0.0669599995017,0.035225763917,,-0.0010953578107,-0.00131624847651,0.0811740715887,-0.996698535948
2240060000000,,38014,,2240,52226942,"""map""",,,0.165312588215,-0.0661685019732,0.0355655066669,,-0.00109919667243,-0.0012703686273,0.0811494578292,-0.996700643291
2240092000000,,38015,,2240,84226220,"""map""",,,0.165515750647,-0.067021407187,0.0352344401181,,-0.00110937412795,-0.00122488182626,0.0811567913808,-0.996700053235
2240128000000,,38016,,2240,124226220,"""map""",,,0.165696680546,-0.0675911158323,0.0349920243025,,-0.0010790340461,-0.00124388391195,0.0811354229286,-0.996701781256
2240160000000,,38017,,2240,156226220,"""map""",,,0.165770247579,-0.0676678270102,0.0349280051887,,-0.00104924413703,-0.00123343559913,0.0811043607013,-0.996704352213
2240192000000,,38018,,2240,188225497,"""map""",,,0.165810242295,-0.0674277991056,0.0349627584219,,-0.000992811801488,-0.00122084884824,0.081081053494,-0.996706248821
2240228000000,,38019,,2240,220225497,"""map""",,,0.165840834379,-0.066901370883,0.0349785424769,,-0.00102423126866,-0.00145838142767,0.0810787354174,-0.996706122381
2240260000000,,38020,,2240,252225497,"""map""",,,0.165800228715,-0.0661131739616,0.0351707413793,,-0.00100604529453,-0.0014881398398,0.0811312082438,-0.996701865549
2240292000000,,38021,,2240,284224775,"""map""",,,0.165814697742,-0.0669967010617,0.0345712862909,,-0.00103472723334,-0.0014297312019,0.0811841446855,-0.996697566571
2240328000000,,38022,,2240,324224775,"""map""",,,0.165764570236,-0.0675785988569,0.0339777357876,,-0.00103237361585,-0.00138260524242,0.0811149395602,-0.996703214248
2240360000000,,38023,,2240,356224775,"""map""",,,0.165654674172,-0.0676482394338,0.0336730182171,,-0.00107541096059,-0.00134604139019,0.0811020426246,-0.99670439436
2240392000000,,38024,,2240,388224053,"""map""",,,0.165496811271,-0.0673928484321,0.0334657095373,,-0.0010916241,-0.00134790299262,0.0810746893199,-0.996706543849
2240428000000,,38025,,2240,420224053,"""map""",,,0.165293350816,-0.0668651461601,0.0333223119378,,-0.00106994394017,-0.00135126441987,0.081061876678,-0.996707639667
2240460000000,,38026,,2240,452224053,"""map""",,,0.165051281452,-0.0660675764084,0.0332139320672,,-0.00113056696485,-0.00132312788968,0.081105835841,-0.996703972892
2240492000000,,38027,,2240,484223331,"""map""",,,0.164881259203,-0.0669477581978,0.0331109166145,,-0.00113311759519,-0.00128303067349,0.0811499635914,-0.99670039041
2240528000000,,38028,,2240,524223331,"""map""",,,0.164614751935,-0.0675443708897,0.0330105386674,,-0.00118613027374,-0.0012894503197,0.0812055974314,-0.99669583855
2240560000000,,38029,,2240,556223331,"""map""",,,0.164350673556,-0.0676454156637,0.0331019498408,,-0.00117509311923,-0.00130725797029,0.0812044173196,-0.996695922844
2240592000000,,38030,,2240,588222609,"""map""",,,0.164031341672,-0.0674027949572,0.0333247743547,,-0.00117293892239,-0.00129530433277,0.0812430659797,-0.996692846124
2240628000000,,38031,,2240,620222609,"""map""",,,0.163685172796,-0.0668841823936,0.0336813293397,,-0.00118540086367,-0.00130841466256,0.0812312648621,-0.996693773354
2240660000000,,38032,,2240,652222609,"""map""",,,0.163311555982,-0.066109597683,0.0340999662876,,-0.00119851789723,-0.00130353865497,0.0812367860993,-0.996693309739
2240692000000,,38033,,2240,684221887,"""map""",,,0.162925198674,-0.0650504827499,0.034547034651,,-0.00114061836569,-0.00125727834195,0.0812381347984,-0.996693309739
2240728000000,,38034,,2240,724221887,"""map""",,,0.162375658751,-0.0634225457907,0.0352476909757,,-0.00114839979448,-0.00128872245824,0.0812599247191,-0.996691497424
2240760000000,,38035,,2240,756221887,"""map""",,,0.16192483902,-0.0619105510414,0.0359510332346,,-0.00109898872671,-0.00126532204638,0.0812544877757,-0.99669196104
2240792000000,,38036,,2240,788221165,"""map""",,,0.161805734038,-0.062395259738,0.0363454520702,,-0.00106961378814,-0.0012130649602,0.0812868987022,-0.996689474376
2240828000000,,38037,,2240,820221165,"""map""",,,0.161671966314,-0.0625308379531,0.0367004200816,,-0.00108155612751,-0.00119660253597,0.0812908605059,-0.996689137201
2240860000000,,38038,,2240,852221165,"""map""",,,0.161498710513,-0.0623295791447,0.0371164642274,,-0.00108825499659,-0.00138282378659,0.0812750975846,-0.996690233019
2240892000000,,38039,,2240,884220444,"""map""",,,0.161224275827,-0.061809912324,0.0378177799284,,-0.00109259555605,-0.00137371799907,0.0813174551673,-0.996686819124
2240928000000,,38040,,2240,924220444,"""map""",,,0.160784810781,-0.0608012489974,0.0388091690838,,-0.0010583720784,-0.00138245794454,0.0813162329087,-0.996686776977
2240960000000,,38041,,2240,956220444,"""map""",,,0.160417363048,-0.0597460716963,0.039623182267,,-0.0010646410311,-0.0013357441516,0.0813649546656,-0.996682899467
2240992000000,,38042,,2240,988219723,"""map""",,,0.160628572106,-0.060593996197,0.0401607640088,,-0.00111822599511,-0.00138803338814,0.0813596020159,-0.996683278789
2241028000000,,38043,,2241,20219723,"""map""",,,0.160750731826,-0.0610419586301,0.0406788960099,,-0.0011642525557,-0.0013635313548,0.0813759128462,-0.996681887943
2241060000000,,38044,,2241,52219723,"""map""",,,0.160787656903,-0.0611083582044,0.0412284918129,,-0.00118497065918,-0.00133362672007,0.0813748170282,-0.99668205653
2241092000000,,38045,,2241,84219002,"""map""",,,0.160763144493,-0.0608423016965,0.041878670454,,-0.00123571377212,-0.00132931181812,0.0813609085682,-0.996683068055
2241128000000,,38046,,2241,124219002,"""map""",,,0.16067391634,-0.0600700601935,0.0430090427399,,-0.0011694255257,-0.00130245305978,0.0813869131737,-0.996681087153
2241160000000,,38047,,2241,156219002,"""map""",,,0.160546913743,-0.0591404512525,0.0438962504268,,-0.00116832959446,-0.00130195416087,0.0813961854804,-0.996680244216
2241192000000,,38048,,2241,188218281,"""map""",,,0.160866722465,-0.0600335858762,0.0440518781543,,-0.00114877841127,-0.00126631585693,0.0814542216908,-0.996675565916
2241228000000,,38049,,2241,220218281,"""map""",,,0.161115810275,-0.0605518333614,0.044304754585,,-0.00115649627765,-0.00122262335044,0.0813762921679,-0.996682098677
2241260000000,,38050,,2241,252218281,"""map""",,,0.161263942719,-0.0607268922031,0.0446170456707,,-0.00119039570574,-0.00120828631622,0.0813944153127,-0.996680581391
2241292000000,,38051,,2241,284217560,"""map""",,,0.161334574223,-0.0605743415654,0.0451049543917,,-0.00127413899332,-0.00125932519282,0.081379326741,-0.996681592915
2241328000000,,38052,,2241,324217560,"""map""",,,0.161309853196,-0.059958782047,0.0457697883248,,-0.00130742600718,-0.00127378446679,0.0813963962146,-0.996680117775
2241360000000,,38053,,2241,356217560,"""map""",,,0.161192655563,-0.0591972023249,0.0462300106883,,-0.00125348468184,-0.00123242353584,0.0813950053686,-0.99668032851
2241392000000,,38054,,2241,388216840,"""map""",,,0.161128878593,-0.0602480769157,0.0461612530053,,-0.00122147157667,-0.00123989054693,0.0813759549931,-0.996682014384
2241428000000,,38055,,2241,420216840,"""map""",,,0.161020234227,-0.0608820691705,0.0460384339094,,-0.00129659485363,-0.00147550413024,0.0813486859821,-0.996683742404
2241460000000,,38056,,2241,452216840,"""map""",,,0.160854026675,-0.0611424185336,0.0460742227733,,-0.00130974174808,-0.00151192983218,0.0813466629334,-0.996683826698
2241492000000,,38057,,2241,484216120,"""map""",,,0.16065941751,-0.0610379353166,0.0462142266333,,-0.00129743872697,-0.00155856771757,0.0813760392868,-0.996681424328
2241528000000,,38058,,2241,524216120,"""map""",,,0.160370498896,-0.0604630820453,0.0462319105864,,-0.00133061892607,-0.00156261899077,0.0814119905486,-0.996678516195
2241560000000,,38059,,2241,556216120,"""map""",,,0.160071209073,-0.0596727505326,0.0466157011688,,-0.001326859172,-0.00154076136349,0.0814212628552,-0.996677757552
2241592000000,,38060,,2241,588215399,"""map""",,,0.160111024976,-0.0606969147921,0.0464779175818,,-0.00131305391826,-0.00156245367552,0.0814024653608,-0.996679274838
2241628000000,,38061,,2241,620215399,"""map""",,,0.160095915198,-0.0613134913146,0.0464450158179,,-0.00131146587934,-0.00154479245848,0.0814162895271,-0.99667817902
2241660000000,,38062,,2241,652215399,"""map""",,,0.160034492612,-0.0615371130407,0.046459775418,,-0.0012983034062,-0.00150114855308,0.0814329375323,-0.996676872468
2241692000000,,38063,,2241,684214680,"""map""",,,0.159919083118,-0.0614162646234,0.0465064607561,,-0.00129865082959,-0.00150530491559,0.0814278799104,-0.996677293937
2241728000000,,38064,,2241,724214680,"""map""",,,0.159739390016,-0.0608082897961,0.0467724576592,,-0.00133108844772,-0.00148031247238,0.0814122434296,-0.996678516195
2241760000000,,38065,,2241,756214680,"""map""",,,0.159536629915,-0.0599940903485,0.0471147373319,,-0.00132674120507,-0.00146104957734,0.0814143507721,-0.996678431901
2241792000000,,38066,,2241,788213960,"""map""",,,0.159539043903,-0.0610036998987,0.0471147969365,,-0.00133839115582,-0.00147653330668,0.0814321367421,-0.996676914615
2241828000000,,38067,,2241,820213960,"""map""",,,0.15948368609,-0.0616105757654,0.0472385063767,,-0.00138211245305,-0.00141820285808,0.081401285249,-0.996679443426
2241860000000,,38068,,2241,852213960,"""map""",,,0.159352406859,-0.0618405006826,0.0474506393075,,-0.00137509610635,-0.00144225970247,0.0813893998378,-0.996680370656
2241892000000,,38069,,2241,884213241,"""map""",,,0.159163251519,-0.0617392882705,0.0477319248021,,-0.00140541720874,-0.00147038771788,0.08135593524,-0.996683068055
2241928000000,,38070,,2241,924213241,"""map""",,,0.158862456679,-0.0611959472299,0.0482052452862,,-0.0014062355712,-0.00146471719949,0.0813931087604,-0.996680117775
2241960000000,,38071,,2241,956213241,"""map""",,,0.158573105931,-0.0604686141014,0.0485307350755,,-0.00140125781591,-0.00145869989568,0.0814074808358,-0.996678811223
2241992000000,,38072,,2241,988212522,"""map""",,,0.158882007003,-0.061561178416,0.0487030819058,,-0.00138920323779,-0.00140416739223,0.081433569735,-0.996676830321
2242028000000,,38073,,2242,20212522,"""map""",,,0.159124687314,-0.0622376017272,0.0489171743393,,-0.00149851709412,-0.00147609980175,0.0814241288409,-0.996677420377
2242060000000,,38074,,2242,52212522,"""map""",,,0.159310594201,-0.0625376924872,0.0491949990392,,-0.00151005299576,-0.00157526687826,0.0814219372048,-0.996677336083
2242092000000,,38075,,2242,84223803,"""map""",,,0.15941695869,-0.0624944828451,0.049416564405,,-0.00154452646052,-0.00161228072476,0.0814056685213,-0.996678600489
2242128000000,,38076,,2242,124223803,"""map""",,,0.159481942654,-0.0620309822261,0.0496934428811,,-0.00159917476554,-0.00165439763264,0.0814240024004,-0.996676956762
2242160000000,,38077,,2242,156223803,"""map""",,,0.159464746714,-0.0613720864058,0.049953494221,,-0.0016331020776,-0.00163127176761,0.0814038562068,-0.996678558342
2242192000000,,38078,,2242,188223084,"""map""",,,0.15970222652,-0.0625970587134,0.0497948080301,,-0.0016948423211,-0.00165241659442,0.0813825720483,-0.996680117775
2242228000000,,38079,,2242,220223084,"""map""",,,0.159858599305,-0.0634190291166,0.0498198270798,,-0.00167936049794,-0.00162010290356,0.0814070172204,-0.996678263314
2242260000000,,38080,,2242,252223084,"""map""",,,0.159925580025,-0.0638787224889,0.0498672947288,,-0.00164996823399,-0.00164292684459,0.0813774301328,-0.996680623538
2242292000000,,38081,,2242,284222366,"""map""",,,0.159912243485,-0.0640162527561,0.050030477345,,-0.00166660608444,-0.00162696959988,0.0814077758637,-0.996678263314
2242328000000,,38082,,2242,324222366,"""map""",,,0.159853115678,-0.0637386366725,0.0502201057971,,-0.00166446759335,-0.00166372316594,0.0814531258727,-0.996674470098
2242360000000,,38083,,2242,356222366,"""map""",,,0.159755736589,-0.0631762817502,0.0503762625158,,-0.00168097722149,-0.00169811540628,0.0814618081235,-0.996673627161
2242392000000,,38084,,2242,388221647,"""map""",,,0.159851938486,-0.0643956884742,0.0503346435726,,-0.00168797227836,-0.0016901140934,0.0814548538935,-0.996674259363
2242428000000,,38085,,2242,428221647,"""map""",,,0.159832432866,-0.065366178751,0.0504201315343,,-0.00171579148817,-0.00172662249895,0.0814560761521,-0.996673964335
2242460000000,,38086,,2242,452221647,"""map""",,,0.159770101309,-0.0656724125147,0.0505586266518,,-0.00174949552791,-0.00174267808223,0.0814543902782,-0.996674048629
2242492000000,,38087,,2242,484220929,"""map""",,,0.159640312195,-0.0657606050372,0.0507838949561,,-0.00175414907737,-0.00171360076333,0.0815003724899,-0.99667029756
2242528000000,,38088,,2242,524220929,"""map""",,,0.159388557076,-0.0654984787107,0.0511172935367,,-0.00178119712609,-0.001683244187,0.08151508174,-0.996669159595
2242560000000,,38089,,2242,556220929,"""map""",,,0.159146025777,-0.065018504858,0.0513990409672,,-0.00181318245277,-0.00166797963465,0.0815243961935,-0.996668358805
2242592000000,,38090,,2242,588220211,"""map""",,,0.15920072794,-0.0660797730088,0.0514986738563,,-0.00179078103236,-0.00167293456468,0.0815307603677,-0.996667810896
2242628000000,,38091,,2242,620220211,"""map""",,,0.159184709191,-0.0667505189776,0.051642395556,,-0.00173123588555,-0.00164912608676,0.0815554584209,-0.996666040728
2242660000000,,38092,,2242,652220211,"""map""",,,0.159136265516,-0.0670945644379,0.0517953969538,,-0.00173915931043,-0.0017588615164,0.081572401454,-0.996664354854
2242692000000,,38093,,2242,684219493,"""map""",,,0.159013569355,-0.0670889988542,0.0520983859897,,-0.00175734199955,-0.00185989085902,0.0816132417502,-0.996660772372
2242728000000,,38094,,2242,724219493,"""map""",,,0.158810958266,-0.0666762515903,0.0526295751333,,-0.00173519729316,-0.0018889436973,0.081611893051,-0.996660940959
2242760000000,,38095,,2242,756219493,"""map""",,,0.15861466527,-0.0660419985652,0.0531781166792,,-0.00174000732282,-0.00190140268027,0.0816206595955,-0.996660182316
2242792000000,,38096,,2242,788218775,"""map""",,,0.158734381199,-0.0671824365854,0.0534045733511,,-0.00173259375288,-0.00188876686266,0.0816209967703,-0.996660098022
2242828000000,,38097,,2242,820218775,"""map""",,,0.158828467131,-0.0679087638855,0.0536273680627,,-0.00176300362501,-0.00191074223051,0.0816371811601,-0.996658749323
2242860000000,,38098,,2242,852218775,"""map""",,,0.158877149224,-0.0682781785727,0.0538733042777,,-0.00173170911667,-0.00189072854842,0.0816462427326,-0.99665811712
2242892000000,,38099,,2242,884218058,"""map""",,,0.158839538693,-0.0683121532202,0.054264895618,,-0.00177979283395,-0.00183540084155,0.0816606148079,-0.996656979156
2242928000000,,38100,,2242,924218058,"""map""",,,0.158699661493,-0.0679344013333,0.0547368004918,,-0.00177533104056,-0.00184090445235,0.0816312384545,-0.996659381526
2242960000000,,38101,,2242,956218058,"""map""",,,0.158508419991,-0.0673161000013,0.0550852678716,,-0.00177519424659,-0.00179333990416,0.0816181729315,-0.996660477344
2242992000000,,38102,,2242,988217340,"""map""",,,0.158593297005,-0.0684994533658,0.0552045255899,,-0.00180763268727,-0.00171107763237,0.0816244528119,-0.996660013729
2243028000000,,38103,,2243,20217340,"""map""",,,0.158622398973,-0.0693289190531,0.0552981980145,,-0.00181484657417,-0.00170001191864,0.0816204067144,-0.996660435197
2243060000000,,38104,,2243,52217340,"""map""",,,0.158547773957,-0.0698196142912,0.0554273314774,,-0.00185482868398,-0.0016901150854,0.0816319549509,-0.996659423673
2243092000000,,38105,,2243,84216623,"""map""",,,0.158400297165,-0.069972127676,0.0555842518806,,-0.00183351166,-0.00166931917592,0.0816183836657,-0.996660603785
2243128000000,,38106,,2243,124216623,"""map""",,,0.15815629065,-0.0697684437037,0.055914260447,,-0.00178519717174,-0.00162399061077,0.0815994175839,-0.996662289658
2243160000000,,38107,,2243,156216623,"""map""",,,0.157886683941,-0.0693279504776,0.0563453398645,,-0.0017742466004,-0.00164484964278,0.0816010191641,-0.996662205365
2243192000000,,38108,,2243,188215906,"""map""",,,0.157862171531,-0.0705008134246,0.0564602650702,,-0.00179548464535,-0.00162354870683,0.0816346944961,-0.996659381526
2243228000000,,38109,,2243,220215906,"""map""",,,0.157766908407,-0.0712597221136,0.0566444806755,,-0.0017324483303,-0.00165066240678,0.0816454419425,-0.996658580736
2243260000000,,38110,,2243,252215906,"""map""",,,0.157646432519,-0.0716463550925,0.0567968823016,,-0.00176840238832,-0.0017421218938,0.0816481814876,-0.996658201414
2243292000000,,38111,,2243,284215189,"""map""",,,0.157453820109,-0.071729503572,0.0571149885654,,-0.00179260956865,-0.00184151067601,0.0816073833382,-0.996661235987
2243328000000,,38112,,2243,324215189,"""map""",,,0.157176837325,-0.0714181289077,0.057514321059,,-0.00172508430554,-0.00179358847705,0.0815382203598,-0.996667094399
2243360000000,,38113,,2243,356215189,"""map""",,,0.156905129552,-0.0709115713835,0.0577224045992,,-0.0017186017992,-0.00180124977806,0.0815502322117,-0.996666125022
2243392000000,,38114,,2243,388226473,"""map""",,,0.156931653619,-0.071960054338,0.0579986944795,,-0.0017394099908,-0.00176952752834,0.0815703362584,-0.996664481295
2243428000000,,38115,,2243,420226473,"""map""",,,0.156924396753,-0.0726551860571,0.058409947902,,-0.00167176796081,-0.00172544353128,0.0815746773838,-0.996664354854
2243460000000,,38116,,2243,452226473,"""map""",,,0.156862512231,-0.0730006471276,0.0589704290032,,-0.00167075392831,-0.00173401403273,0.08156376135,-0.996665239938
2243492000000,,38117,,2243,484225756,"""map""",,,0.156738594174,-0.0730319693685,0.0595573782921,,-0.00165922730031,-0.00168427659443,0.0815760682298,-0.996664312707
2243528000000,,38118,,2243,524225756,"""map""",,,0.156491011381,-0.0726668462157,0.0602904036641,,-0.00167748248077,-0.00165455483699,0.0815889230186,-0.996663259036
2243560000000,,38119,,2243,556225756,"""map""",,,0.156220823526,-0.0720702186227,0.0609840452671,,-0.00169143477129,-0.00164889592674,0.0815861834734,-0.996663554064
2243592000000,,38120,,2243,588225040,"""map""",,,0.156259641051,-0.0730281099677,0.0611426569521,,-0.00174614552357,-0.00160962606753,0.0815914939764,-0.996663048302
2243628000000,,38121,,2243,620225040,"""map""",,,0.156227111816,-0.0736285299063,0.0613968521357,,-0.00174797398269,-0.00162949566214,0.081612188079,-0.996661320281
2243660000000,,38122,,2243,652225040,"""map""",,,0.156150996685,-0.0738941803575,0.0617720559239,,-0.00171741628275,-0.00164643071039,0.0816012298984,-0.996662331805
2243692000000,,38123,,2243,684224324,"""map""",,,0.156026184559,-0.0738443136215,0.0620871931314,,-0.00175581011183,-0.00159220711769,0.0815980267379,-0.996662584686
2243728000000,,38124,,2243,724224324,"""map""",,,0.155784294009,-0.0733915343881,0.0624667964876,,-0.00178939409132,-0.00157187371225,0.0816033372408,-0.996661994631
2243760000000,,38125,,2243,756224324,"""map""",,,0.155512467027,-0.072761721909,0.0627721995115,,-0.00182895851928,-0.00156266719829,0.0816161920296,-0.996661025253
2243792000000,,38126,,2243,788223608,"""map""",,,0.155552521348,-0.073940359056,0.0629665106535,,-0.00180072019252,-0.00153836058803,0.0815907353331,-0.996663048302
2243828000000,,38127,,2243,820223608,"""map""",,,0.15556897223,-0.0747591629624,0.0631944686174,,-0.00180638177168,-0.00150794465009,0.0815621597698,-0.996665492819
2243860000000,,38128,,2243,852223608,"""map""",,,0.155512228608,-0.0752376392484,0.0633895993233,,-0.00178083531762,-0.00152379403627,0.0815943178152,-0.996662921861
2243892000000,,38129,,2243,884222892,"""map""",,,0.155417442322,-0.0754088759422,0.0635215565562,,-0.00179991437071,-0.00169907780927,0.0816609941296,-0.996657105596
2243928000000,,38130,,2243,924222892,"""map""",,,0.155224099755,-0.0752116963267,0.0637643262744,,-0.0018124223072,-0.00168487576703,0.0816456948235,-0.996658412148
2243960000000,,38131,,2243,956222892,"""map""",,,0.155020937324,-0.074765458703,0.063899576664,,-0.00177952583274,-0.00168222532604,0.0816633543531,-0.996657021302
2243992000000,,38132,,2243,988222176,"""map""",,,0.154936641455,-0.0757750421762,0.0629766881466,,-0.00178240675145,-0.00174692885455,0.0816237784623,-0.996660182316
2244028000000,,38133,,2244,20222176,"""map""",,,0.154803693295,-0.0764164850116,0.0621401257813,,-0.00172577938384,-0.001758259226,0.0816242842245,-0.996660098022
2244060000000,,38134,,2244,52222176,"""map""",,,0.154623016715,-0.0767217501998,0.0614146776497,,-0.00175544413794,-0.0017608545917,0.081610797233,-0.99666119384
2244092000000,,38135,,2244,84221460,"""map""",,,0.154428586364,-0.076740719378,0.0607827082276,,-0.0018232774153,-0.00174684316916,0.0815903560115,-0.996662837567
2244128000000,,38136,,2244,124221460,"""map""",,,0.154168441892,-0.0763771235943,0.0600611679256,,-0.00182840100991,-0.00178326385484,0.0815512015892,-0.996665829994
2244160000000,,38137,,2244,156221460,"""map""",,,0.153917357326,-0.0758228302002,0.0596975386143,,-0.00184615734033,-0.00174127374507,0.0815469447575,-0.996666293609
2244192000000,,38138,,2244,188220745,"""map""",,,0.153952226043,-0.0766374766827,0.0591791681945,,-0.00184200702821,-0.00176656992135,0.0815650679023,-0.996664860616
2244228000000,,38139,,2244,220220745,"""map""",,,0.15392126143,-0.0770713239908,0.0586630813777,,-0.0018310012446,-0.00176314995823,0.0815148710058,-0.996668948861
2244260000000,,38140,,2244,252220745,"""map""",,,0.153830260038,-0.0772062987089,0.0582661144435,,-0.00185147206205,-0.00175203310698,0.0815238904313,-0.996668190217
2244292000000,,38141,,2244,284220030,"""map""",,,0.153668195009,-0.0770613923669,0.0579031631351,,-0.00186223282336,-0.00169764344274,0.0814865904704,-0.996671266937
2244328000000,,38142,,2244,324220030,"""map""",,,0.153377652168,-0.0764690935612,0.0575574561954,,-0.00185450036868,-0.0017257868259,0.0815302546055,-0.996667642308
2244360000000,,38143,,2244,356220030,"""map""",,,0.153095647693,-0.0757330954075,0.0573091544211,,-0.00181005661982,-0.00175987792582,0.0815321090668,-0.996667473721
2244392000000,,38144,,2244,388219314,"""map""",,,0.153111532331,-0.0765026733279,0.0567263737321,,-0.00178874561663,-0.00176612801612,0.0815241854593,-0.99666814807
2244428000000,,38145,,2244,420219314,"""map""",,,0.153087630868,-0.0769388228655,0.0562795437872,,-0.00177846395544,-0.00175739881444,0.0815277257946,-0.996667979483
2244460000000,,38146,,2244,452219314,"""map""",,,0.153020724654,-0.0770472213626,0.0558729954064,,-0.00181063010919,-0.00173197747355,0.0815373774229,-0.996667178693
2244492000000,,38147,,2244,484218599,"""map""",,,0.152923926711,-0.0768546834588,0.0553927384317,,-0.00182293304798,-0.00192258197584,0.0815334999128,-0.996667178693
2244528000000,,38148,,2244,524218599,"""map""",,,0.152752310038,-0.0762240886688,0.0550530403852,,-0.00182608594299,-0.00197901813917,0.0815207715646,-0.996668105924
2244560000000,,38149,,2244,556218599,"""map""",,,0.152577713132,-0.0754909366369,0.0547631829977,,-0.00186814366162,-0.00204032424943,0.0815216566484,-0.996667726602
2244592000000,,38150,,2244,588217885,"""map""",,,0.152788117528,-0.0766517966986,0.0542526245117,,-0.00188359302832,-0.00209825880216,0.0815522974072,-0.996665155644
2244628000000,,38151,,2244,620217885,"""map""",,,0.152928128839,-0.0774291828275,0.0538548603654,,-0.00187850788139,-0.00206375027763,0.0816247478398,-0.996659297232
2244660000000,,38152,,2244,652217885,"""map""",,,0.153022751212,-0.0778597146273,0.0535215288401,,-0.0018786911214,-0.00206414194698,0.0816396256774,-0.996658074974
2244692000000,,38153,,2244,684229170,"""map""",,,0.153053089976,-0.0779745653272,0.0532930754125,,-0.00189354812217,-0.0020776576778,0.0815955400738,-0.996661615309
2244728000000,,38154,,2244,724229170,"""map""",,,0.153031647205,-0.077712662518,0.0531951487064,,-0.00195735968044,-0.00209318558621,0.081579355684,-0.996662711127
2244760000000,,38155,,2244,756229170,"""map""",,,0.152973175049,-0.0772116109729,0.0530717112124,,-0.00198350652901,-0.00205467917432,0.0815887965781,-0.996661952484
2244792000000,,38156,,2244,788228456,"""map""",,,0.153260782361,-0.0781542882323,0.0528507679701,,-0.00203407683704,-0.00201351782094,0.0816071304572,-0.996660477344
2244828000000,,38157,,2244,820228456,"""map""",,,0.153461843729,-0.0787614509463,0.0527064092457,,-0.00203034949699,-0.00204025964518,0.0816390356215,-0.996657822093
2244860000000,,38158,,2244,860228456,"""map""",,,0.15361726284,-0.0791115164757,0.0527160167694,,-0.0020408490811,-0.0020263787643,0.0816433767469,-0.996657527065
2244892000000,,38159,,2244,884227741,"""map""",,,0.153669521213,-0.0791017189622,0.0527599304914,,-0.00207353264761,-0.00208350354653,0.0816376026286,-0.996657822093
2244928000000,,38160,,2244,924227741,"""map""",,,0.153709098697,-0.0787485614419,0.0528221316636,,-0.0020526089419,-0.00204887935225,0.0816150540647,-0.996659718701
2244960000000,,38161,,2244,956227741,"""map""",,,0.153707534075,-0.0781809017062,0.05298512429,,-0.00206988188394,-0.00204006310952,0.081651974704,-0.996656684128
2244992000000,,38162,,2244,988227027,"""map""",,,0.154029741883,-0.0789577290416,0.053422447294,,-0.00207495420725,-0.00210263022189,0.081619690218,-0.996659128645
2245028000000,,38163,,2245,20227027,"""map""",,,0.15429367125,-0.0793747231364,0.0538366660476,,-0.00214748814508,-0.00210233400677,0.0816136210718,-0.996659550113
2245060000000,,38164,,2245,52227027,"""map""",,,0.154471114278,-0.0794680789113,0.0542821586132,,-0.00219965627374,-0.0020403291988,0.0816225140569,-0.996658833617
2245092000000,,38165,,2245,84226312,"""map""",,,0.154605746269,-0.0793018937111,0.0545882917941,,-0.00225810077659,-0.00212722876159,0.0815815051733,-0.996661910337
2245128000000,,38166,,2245,124226312,"""map""",,,0.154681846499,-0.0787398964167,0.0550733171403,,-0.00226260304474,-0.00221715881243,0.0816142532746,-0.996659002204
2245160000000,,38167,,2245,156226312,"""map""",,,0.154699042439,-0.0780606716871,0.0555207058787,,-0.00227925239143,-0.00226760461439,0.0816325871537,-0.996657358477
2245192000000,,38168,,2245,188225598,"""map""",,,0.15465170145,-0.0787556916475,0.055072452873,,-0.00223051661861,-0.0022685992031,0.08170204516,-0.996651710799
2245228000000,,38169,,2245,220225598,"""map""",,,0.154590249062,-0.0791061297059,0.0547015964985,,-0.00218403993514,-0.00225022242343,0.0817243829897,-0.996650024926
2245260000000,,38170,,2245,252225598,"""map""",,,0.154492810369,-0.0791642665863,0.0544112659991,,-0.0021973036595,-0.00225954447079,0.0817202947454,-0.996650319953
2245292000000,,38171,,2245,284224884,"""map""",,,0.154377371073,-0.0789409205317,0.054224640131,,-0.00217545822043,-0.00226284266233,0.0818096882111,-0.996643112842
2245328000000,,38172,,2245,324224884,"""map""",,,0.154198929667,-0.0783351510763,0.0540397316217,,-0.00215639844521,-0.00235122313737,0.0818223322657,-0.996641764143
2245360000000,,38173,,2245,356224884,"""map""",,,0.15404163301,-0.0775997787714,0.0539429932833,,-0.00214388235409,-0.00234163715772,0.0818086345399,-0.996643070696
2245392000000,,38174,,2245,388224170,"""map""",,,0.154016166925,-0.0782071650028,0.0538269691169,,-0.00217889607486,-0.00232290298645,0.0818202249232,-0.996642017024
2245428000000,,38175,,2245,420224170,"""map""",,,0.153990626335,-0.0784962326288,0.0537789687514,,-0.00220714533449,-0.00227054144893,0.0818285699992,-0.996641342675
2245460000000,,38176,,2245,452224170,"""map""",,,0.153964698315,-0.0784922987223,0.053767900914,,-0.00216248525376,-0.00226760555462,0.08183725225,-0.996640836913
2245492000000,,38177,,2245,484223457,"""map""",,,0.153938114643,-0.0782129392028,0.0537808611989,,-0.00215857628019,-0.0022043936963,0.0818046727361,-0.996643576458
2245528000000,,38178,,2245,524223457,"""map""",,,0.153896555305,-0.0775041505694,0.0538386292756,,-0.00226155616991,-0.00214121821228,0.0818190869583,-0.996642312052
2245560000000,,38179,,2245,556223457,"""map""",,,0.153876975179,-0.0766692012548,0.0537257343531,,-0.00226444022957,-0.00212346586399,0.0818063164632,-0.996643365723
2245592000000,,38180,,2245,588222743,"""map""",,,0.154199495912,-0.0774463117123,0.0530156195164,,-0.00223252958081,-0.00209004066576,0.0817545179864,-0.996647875436
2245628000000,,38181,,2245,620222743,"""map""",,,0.154493242502,-0.0778543576598,0.0523421317339,,-0.00225938275695,-0.002066711032,0.0817692693834,-0.996646526737
2245660000000,,38182,,2245,652222743,"""map""",,,0.154791653156,-0.0779583901167,0.0517982468009,,-0.00224292634708,-0.00208128169967,0.081772978306,-0.996646273856
2245692000000,,38183,,2245,684222029,"""map""",,,0.155077025294,-0.0777921378613,0.0514609701931,,-0.00226026030867,-0.00208418217664,0.081828907174,-0.99664167985
2245728000000,,38184,,2245,724222029,"""map""",,,0.155472770333,-0.0772342979908,0.05095333606,,-0.0022697461664,-0.0023404792847,0.0818097725048,-0.996642691374
2245760000000,,38185,,2245,756222029,"""map""",,,0.155766099691,-0.0765345394611,0.0506345704198,,-0.00228863764813,-0.00230213176403,0.0818281906776,-0.996641131941
2245792000000,,38186,,2245,788221316,"""map""",,,0.156085968018,-0.075609728694,0.0503329448402,,-0.00233302198586,-0.00226744712836,0.0817606714263,-0.996646695325
2245828000000,,38187,,2245,820221316,"""map""",,,0.156399950385,-0.0745087116957,0.0501083284616,,-0.00236192051378,-0.00226995853929,0.0817346246739,-0.996648802667
2245860000000,,38188,,2245,852221316,"""map""",,,0.156710997224,-0.0732218176126,0.0499307885766,,-0.0023628968163,-0.00224237967282,0.0817317165414,-0.996649013401
2245892000000,,38189,,2245,884220603,"""map""",,,0.157172650099,-0.0737049952149,0.0497659035027,,-0.00236509015538,-0.00221647774364,0.0817311686323,-0.996649139842
2245928000000,,38190,,2245,924220603,"""map""",,,0.15778850019,-0.0738506093621,0.0496694073081,,-0.00235228314707,-0.00221237958515,0.0818089295678,-0.996642859961
2245960000000,,38191,,2245,956220603,"""map""",,,0.158306613564,-0.0736449807882,0.0495900921524,,-0.00237071718154,-0.00221259783606,0.0818322789219,-0.996640921206
2245992000000,,38192,,2245,988231890,"""map""",,,0.158850073814,-0.0732046067715,0.0494945272803,,-0.0023764674224,-0.00214596647253,0.0818238495522,-0.99664167985
2246028000000,,38193,,2246,20231890,"""map""",,,0.159400433302,-0.0725404769182,0.049496024847,,-0.00240777677887,-0.002125768079,0.0818192976926,-0.996642017024
2246060000000,,38194,,2246,52231890,"""map""",,,0.15993924439,-0.0716949030757,0.0496291480958,,-0.00238683694654,-0.00209740926946,0.0818122591689,-0.996642733521
2246092000000,,38195,,2246,84231177,"""map""",,,0.160397440195,-0.0728664174676,0.049684330821,,-0.00240081716732,-0.00201712020217,0.0818242710207,-0.996641848437
2246128000000,,38196,,2246,124231177,"""map""",,,0.160988733172,-0.0738566741347,0.0496755354106,,-0.00239733433121,-0.00199291354662,0.081881211413,-0.99663725443
2246160000000,,38197,,2246,156231177,"""map""",,,0.161486878991,-0.0742807611823,0.0496577210724,,-0.00238369616256,-0.00199067815845,0.0818697474702,-0.996638265955
2246192000000,,38198,,2246,188230464,"""map""",,,0.161997675896,-0.0744072943926,0.0496342480183,,-0.00241941767463,-0.00200268070833,0.0818529308777,-0.996639488213
2246228000000,,38199,,2246,220230464,"""map""",,,0.162542894483,-0.0742362216115,0.0496831871569,,-0.00241277577994,-0.00193923700376,0.0818524251155,-0.996639656801
2246260000000,,38200,,2246,252230464,"""map""",,,0.163110807538,-0.0738117992878,0.0497982427478,,-0.00241150871972,-0.00193370327484,0.0818950777262,-0.996636200759
2246292000000,,38201,,2246,284229751,"""map""",,,0.163680404425,-0.0747659429908,0.0497016534209,,-0.00235511366398,-0.00191591790158,0.0819188906956,-0.996634472738
2246328000000,,38202,,2246,324229751,"""map""",,,0.164473041892,-0.0754822939634,0.0496204309165,,-0.00234208847679,-0.00215838197098,0.0819312397222,-0.996632829011
2246360000000,,38203,,2246,356229751,"""map""",,,0.165118917823,-0.0756648853421,0.0495150499046,,-0.00235974083435,-0.00216657089991,0.0819031277743,-0.996635147088
2246392000000,,38204,,2246,388229038,"""map""",,,0.165790557861,-0.0755972340703,0.0493834167719,,-0.00233103012538,-0.00209653318918,0.08186506917,-0.996638560983
2246428000000,,38205,,2246,420229038,"""map""",,,0.166472896934,-0.0752709954977,0.0492777265608,,-0.0023161898249,-0.00204764317418,0.081922683912,-0.996633966976
2246460000000,,38206,,2246,452229038,"""map""",,,0.167158663273,-0.0746882110834,0.0492678359151,,-0.00231396974788,-0.00205490737285,0.0819172891153,-0.996634388445
2246492000000,,38207,,2246,484228325,"""map""",,,0.168024331331,-0.0757863968611,0.049178108573,,-0.00233565555679,-0.00207139376707,0.0819076796339,-0.996635062794
2246528000000,,38208,,2246,524228325,"""map""",,,0.169108793139,-0.0766655877233,0.0491291619837,,-0.00238171561054,-0.00202959482557,0.0818786826021,-0.996637423018
2246560000000,,38209,,2246,556228325,"""map""",,,0.169970646501,-0.0769982486963,0.0490951836109,,-0.00237903907986,-0.00205082387212,0.081905698732,-0.996635104941
2246592000000,,38210,,2246,588227612,"""map""",,,0.170826628804,-0.0770357623696,0.0491435155272,,-0.00241270648871,-0.00200440539524,0.0818939397613,-0.996636158612
2246628000000,,38211,,2246,620227612,"""map""",,,0.171668857336,-0.076817587018,0.0491594597697,,-0.00244616283404,-0.00199289998472,0.0818653220511,-0.996638476689
2246660000000,,38212,,2246,652227612,"""map""",,,0.172566652298,-0.076391518116,0.0490812584758,,-0.0024535158539,-0.00198691574962,0.0818585785554,-0.996639066745
2246692000000,,38213,,2246,684226900,"""map""",,,0.173096492887,-0.0774485841393,0.0487309247255,,-0.00247796331036,-0.00199270799842,0.0818912845098,-0.996636200759
2246728000000,,38214,,2246,724226900,"""map""",,,0.173796579242,-0.0782633125782,0.0483214408159,,-0.00244492137474,-0.00205918061671,0.0818817593221,-0.996637043696
2246760000000,,38215,,2246,756226900,"""map""",,,0.174364551902,-0.0785704031587,0.0480496510863,,-0.00243588781104,-0.00205335906268,0.0818920852999,-0.996636074319
2246792000000,,38216,,2246,788226187,"""map""",,,0.174965083599,-0.0785914883018,0.0478533580899,,-0.00243745983909,-0.00204746303139,0.0818502756262,-0.996639614654
2246828000000,,38217,,2246,820226187,"""map""",,,0.175625100732,-0.0783424153924,0.0476253405213,,-0.00238992447073,-0.0020375407207,0.0819152239198,-0.996634430592
2246860000000,,38218,,2246,852226187,"""map""",,,0.176326096058,-0.0778589174151,0.0474186614156,,-0.00238213917813,-0.00203774616601,0.0819160247099,-0.996634304151
2246892000000,,38219,,2246,884225475,"""map""",,,0.176787137985,-0.0789721608162,0.0468540638685,,-0.0023815022627,-0.00202359645234,0.0819131587242,-0.996634641326
2246928000000,,38220,,2246,924225475,"""map""",,,0.177461892366,-0.0798667147756,0.0461922734976,,-0.00234896977299,-0.00198088298802,0.0819267300094,-0.996633714095
2246960000000,,38221,,2246,956225475,"""map""",,,0.178059399128,-0.0802312716842,0.0456711985171,,-0.00240786227647,-0.00215835791352,0.0819429143992,-0.996631859634
2246992000000,,38222,,2246,988224763,"""map""",,,0.178654238582,-0.0802943855524,0.0452725104988,,-0.00250910439842,-0.00218995771899,0.0819556427475,-0.996630426641
2247028000000,,38223,,2247,20224763,"""map""",,,0.179340571165,-0.080104790628,0.0449821725488,,-0.00253523506378,-0.00220824357579,0.0819604896351,-0.996629963026
2247060000000,,38224,,2247,52224763,"""map""",,,0.180053547025,-0.0796803236008,0.0447840206325,,-0.00254070818602,-0.00221037005717,0.0819734708644,-0.996628782914
2247092000000,,38225,,2247,84224050,"""map""",,,0.180384635925,-0.0805713310838,0.0442783124745,,-0.00255562057656,-0.00223270757819,0.081980551535,-0.996628192858
2247128000000,,38226,,2247,124224050,"""map""",,,0.180890440941,-0.0811928957701,0.0437747649848,,-0.00257674307267,-0.00218204508035,0.082002805071,-0.996626338397
2247160000000,,38227,,2247,156224050,"""map""",,,0.181379377842,-0.0813446342945,0.0434252209961,,-0.00259929764584,-0.00216338481013,0.082019495223,-0.996624989698
2247192000000,,38228,,2247,188223338,"""map""",,,0.181908726692,-0.0812418758869,0.0432218536735,,-0.00264952296273,-0.00216218911968,0.0819743138014,-0.996628614326
2247228000000,,38229,,2247,220223338,"""map""",,,0.182467773557,-0.0808985009789,0.0430317483842,,-0.00272619701168,-0.00213854765995,0.0819443473921,-0.996630932403
2247260000000,,38230,,2247,252223338,"""map""",,,0.183057919145,-0.0803437903523,0.0429588370025,,-0.0027244330179,-0.00214423822536,0.0819420714623,-0.996631100991
2247292000000,,38231,,2247,284234626,"""map""",,,0.183194562793,-0.0811786428094,0.0427091568708,,-0.0027182172015,-0.00213263152247,0.0819550526916,-0.996630005172
2247328000000,,38232,,2247,324234626,"""map""",,,0.183521106839,-0.0817694589496,0.0425875112414,,-0.00271383567851,-0.00211973086193,0.0819533246708,-0.996630215907
2247360000000,,38233,,2247,356234626,"""map""",,,0.183877423406,-0.0819274261594,0.0426415801048,,-0.0027834992948,-0.00210705834591,0.0819552634259,-0.996629963026
2247392000000,,38234,,2247,388233915,"""map""",,,0.184310346842,-0.0817943364382,0.0427123904228,,-0.00277818076588,-0.00209122343742,0.0819188485487,-0.996632913305
2247428000000,,38235,,2247,420233915,"""map""",,,0.184817671776,-0.0814170911908,0.0428475737572,,-0.00274004383604,-0.00207048879315,0.081924622667,-0.996632702571
2247460000000,,38236,,2247,452233915,"""map""",,,0.1853877455,-0.0808332487941,0.0430386215448,,-0.00271396913667,-0.00203813215541,0.081876490966,-0.996636748668
2247492000000,,38237,,2247,484233203,"""map""",,,0.185586005449,-0.0816831067204,0.0435388348997,,-0.00270370746978,-0.00203844255625,0.0819117678782,-0.996633924829
2247528000000,,38238,,2247,524233203,"""map""",,,0.185929149389,-0.0823111981153,0.0440880805254,,-0.0027223958722,-0.00194905116909,0.0819131587242,-0.996633798389
2247560000000,,38239,,2247,556233203,"""map""",,,0.186257377267,-0.0824723914266,0.0445535592735,,-0.00271211545736,-0.00193571881205,0.0819156453883,-0.996633756242
2247592000000,,38240,,2247,588232491,"""map""",,,0.186675161123,-0.0823532938957,0.0448695980012,,-0.00274013148419,-0.00214131157125,0.0819721643121,-0.99662857218
2247628000000,,38241,,2247,620232491,"""map""",,,0.187159389257,-0.0819903314114,0.045281957835,,-0.00275041829926,-0.00216556113509,0.0819040971518,-0.996634093417
2247660000000,,38242,,2247,652232491,"""map""",,,0.187700942159,-0.0814008116722,0.0457662083209,,-0.0027575623753,-0.00214234956087,0.0819165304721,-0.996633039746
2247692000000,,38243,,2247,684231779,"""map""",,,0.18785263598,-0.0822113975883,0.0456626042724,,-0.00274867891858,-0.00218563637051,0.0819620069216,-0.99662937297
2247728000000,,38244,,2247,724231779,"""map""",,,0.188179716468,-0.082788772881,0.0454418174922,,-0.00277248266837,-0.00220678025903,0.0819757889411,-0.996627982124
2247760000000,,38245,,2247,756231779,"""map""",,,0.188511908054,-0.0829154551029,0.045160703361,,-0.00277063755013,-0.0022009075649,0.0819674860119,-0.99662869862
2247792000000,,38246,,2247,788231067,"""map""",,,0.188936784863,-0.0827533528209,0.0449023321271,,-0.0027819307241,-0.00222096571932,0.0819537882862,-0.996629752291
2247828000000,,38247,,2247,820231067,"""map""",,,0.189442738891,-0.0823370665312,0.0446946583688,,-0.00280288519876,-0.00221167143372,0.081953282524,-0.996629752291
2247860000000,,38248,,2247,852231067,"""map""",,,0.190016880631,-0.0816971063614,0.0444440916181,,-0.00278833031558,-0.00216541236577,0.0819672331308,-0.996628782914
2247892000000,,38249,,2247,884230356,"""map""",,,0.190141484141,-0.0824626535177,0.0436226986349,,-0.00283071940557,-0.00211124125599,0.0819928162679,-0.996626633425
2247928000000,,38250,,2247,924230356,"""map""",,,0.190428197384,-0.0829799175262,0.0428982414305,,-0.00276831998795,-0.00210563146517,0.0819894023732,-0.996627181334
2247960000000,,38251,,2247,956230356,"""map""",,,0.190741941333,-0.0830481797457,0.0424889214337,,-0.00274594079341,-0.00209357569666,0.0819915940093,-0.99662709704
2247992000000,,38252,,2247,988229644,"""map""",,,0.191129252315,-0.082853987813,0.0420749075711,,-0.00277333153224,-0.00201838582182,0.0819799193322,-0.996628066417
2248028000000,,38253,,2248,20229644,"""map""",,,0.191594496369,-0.0824196189642,0.0416159704328,,-0.00276660425313,-0.00198440615998,0.0820083263081,-0.996625790488
2248060000000,,38254,,2248,52229644,"""map""",,,0.192118450999,-0.0817484930158,0.0412331856787,,-0.00274917323855,-0.00198944929382,0.0819844711919,-0.996627813536
2248092000000,,38255,,2248,84228932,"""map""",,,0.192146763206,-0.0823334306479,0.0406898744404,,-0.00274817788969,-0.00198694513717,0.0820377026615,-0.996623472411
2248128000000,,38256,,2248,124228932,"""map""",,,0.192275032401,-0.082616969943,0.0400739386678,,-0.00275254576845,-0.00195578832636,0.0820867615932,-0.996619510607
2248160000000,,38257,,2248,156228932,"""map""",,,0.192490175366,-0.082559093833,0.0394915565848,,-0.00275515558034,-0.00195752194478,0.082090428369,-0.996619215579
2248192000000,,38258,,2248,188228221,"""map""",,,0.192751184106,-0.0822506099939,0.0390373915434,,-0.0027176767011,-0.00214007159368,0.082148295992,-0.996614200104
2248228000000,,38259,,2248,220228221,"""map""",,,0.193086728454,-0.0816925466061,0.0387347526848,,-0.00266484146942,-0.00213033884092,0.0821415946431,-0.996614832307
2248260000000,,38260,,2248,252228221,"""map""",,,0.193502932787,-0.0809100866318,0.0385636053979,,-0.00265769644673,-0.00211864981996,0.0821745113318,-0.996612177056
2248292000000,,38261,,2248,284227510,"""map""",,,0.193374887109,-0.0814647600055,0.0380717031658,,-0.00262516377181,-0.00211036425992,0.0821554609563,-0.996613947223
2248328000000,,38262,,2248,324227510,"""map""",,,0.193417593837,-0.0817061960697,0.0375262871385,,-0.00261036742917,-0.00214300090255,0.0821606450187,-0.996613399314
2248360000000,,38263,,2248,356227510,"""map""",,,0.193608686328,-0.0815847367048,0.0371850393713,,-0.00260257433694,-0.0020996892946,0.0821689479478,-0.996612851405
2248392000000,,38264,,2248,388226798,"""map""",,,0.193876624107,-0.0812014713883,0.0369723662734,,-0.00260360958948,-0.00212826483731,0.0820920299493,-0.996619131286
2248428000000,,38265,,2248,420226798,"""map""",,,0.194213762879,-0.0806058347225,0.0367841795087,,-0.00259511179289,-0.00208055816505,0.0821115017933,-0.996617613999
2248460000000,,38266,,2248,452226798,"""map""",,,0.194613113999,-0.0797941759229,0.0365721173584,,-0.00259647923998,-0.0020814676356,0.0821056433813,-0.996618161908
2248492000000,,38267,,2248,484226087,"""map""",,,0.194282874465,-0.0804616808891,0.0363987013698,,-0.00259653663625,-0.00203660385882,0.0821214905964,-0.996616813209
2248528000000,,38268,,2248,524226087,"""map""",,,0.194041892886,-0.0808321088552,0.0361572094262,,-0.00259210245028,-0.00195270384794,0.0821896420504,-0.996611376265
2248560000000,,38269,,2248,556226087,"""map""",,,0.193985119462,-0.0807769522071,0.0360032320023,,-0.00262123372224,-0.00191767530991,0.0822119377333,-0.996609648245
2248592000000,,38270,,2248,588225376,"""map""",,,0.194073528051,-0.0804703384638,0.0359764918685,,-0.00268848609839,-0.00192970181435,0.0822388274226,-0.996607203727
2248628000000,,38271,,2248,620225376,"""map""",,,0.194276422262,-0.0799089297652,0.0358878709376,,-0.00276764355984,-0.00191978141757,0.0822892350535,-0.996602820455
2248660000000,,38272,,2248,652225376,"""map""",,,0.194588840008,-0.0791207179427,0.0357388146222,,-0.00277601110868,-0.00190570790984,0.0823396848311,-0.996598647917
2248692000000,,38273,,2248,684224665,"""map""",,,0.194461554289,-0.0796484425664,0.0353859439492,,-0.0027901552453,-0.00193519827377,0.0823280523009,-0.996599490854
2248728000000,,38274,,2248,724224665,"""map""",,,0.194453254342,-0.0798673182726,0.0350863523781,,-0.00278494973908,-0.00185383349461,0.0823756782398,-0.996595697638
2248760000000,,38275,,2248,756224665,"""map""",,,0.194558545947,-0.0797015428543,0.0348789133132,,-0.00277552502051,-0.00183538893887,0.0823937592378,-0.996594306792
2248792000000,,38276,,2248,788223954,"""map""",,,0.194787994027,-0.079268373549,0.0346766747534,,-0.00282505950363,-0.0017909212972,0.0824151698368,-0.99659245233
2248828000000,,38277,,2248,820223954,"""map""",,,0.195129781961,-0.0785563886166,0.0345638543367,,-0.0028643030352,-0.00173218188474,0.0824144533404,-0.996592578771
2248860000000,,38278,,2248,852223954,"""map""",,,0.195561051369,-0.0776383206248,0.0345181040466,,-0.00291276573714,-0.00166671457579,0.0824201010181,-0.996592073009
2248892000000,,38279,,2248,884223243,"""map""",,,0.19547560811,-0.0782397910953,0.0350206457078,,-0.00408853406514,-0.0016117257801,0.0824182887036,-0.996588153352
2248928000000,,38280,,2248,924223243,"""map""",,,0.195419743657,-0.078723423183,0.0370464771986,,-0.0080400306158,-0.00127065339635,0.0822256354591,-0.996580524772
2248960000000,,38281,,2248,956223243,"""map""",,,0.195318639278,-0.0789365917444,0.0399024970829,,-0.0110181279194,-0.000824701872792,0.0820307484315,-0.996568639361
2248992000000,,38282,,2248,988222532,"""map""",,,0.195165410638,-0.0790591463447,0.0438229702413,,-0.0180555907055,0.00175734643443,0.0816487715435,-0.996496104635
2249028000000,,38283,,2249,20222532,"""map""",,,0.194953471422,-0.0791461244226,0.0486654415727,,-0.0258324679237,0.00667599165695,0.0814109790242,-0.996323471143
2249060000000,,38284,,2249,52222532,"""map""",,,0.194680467248,-0.0792143568397,0.0542276203632,,-0.0297569447225,0.00999526473579,0.0814219372048,-0.99618522948
2249092000000,,38285,,2249,84221822,"""map""",,,0.193681851029,-0.0809375867248,0.059874355793,,-0.0377898989483,0.0180370842877,0.0817075663972,-0.995776278609
2249128000000,,38286,,2249,124221822,"""map""",,,0.192407622933,-0.0829683244228,0.0681106001139,,-0.0469856577242,0.0288681802985,0.0824215340109,-0.995070656071
2249160000000,,38287,,2249,156221822,"""map""",,,0.191267460585,-0.0845396667719,0.0753525346518,,-0.0513857235128,0.0344210559072,0.0827913304598,-0.994645900132
2249192000000,,38288,,2249,188221112,"""map""",,,0.189930230379,-0.0861005112529,0.0832559466362,,-0.0597468113691,0.0453888710262,0.083605059664,-0.993670158442
2249228000000,,38289,,2249,220221112,"""map""",,,0.188187748194,-0.0878468602896,0.091810323298,,-0.0696236049357,0.0590417673627,0.0845160216477,-0.992231686502
2249260000000,,38290,,2249,252221112,"""map""",,,0.185377523303,-0.0904166698456,0.100815571845,,-0.0746278164926,0.0660777092403,0.0846188178112,-0.9914152599
2249292000000,,38291,,2249,284220401,"""map""",,,0.180889725685,-0.0956021994352,0.109958916903,,-0.0831668193673,0.0783718619743,0.0840687171444,-0.98988558218
2249328000000,,38292,,2249,324220401,"""map""",,,0.173022329807,-0.103572033346,0.123093962669,,-0.0889683347935,0.0866783613477,0.0828800917227,-0.98878841542
2249360000000,,38293,,2249,356220401,"""map""",,,0.164635747671,-0.111262798309,0.135250136256,,-0.0911801742384,0.0899268990085,0.0822641576786,-0.98834814944
2249392000000,,38294,,2249,388219691,"""map""",,,0.154482007027,-0.120169937611,0.148972079158,,-0.0941070253371,0.0947327302061,0.080948628096,-0.987733184773
2249428000000,,38295,,2249,420219691,"""map""",,,0.142634481192,-0.130256578326,0.164032816887,,-0.095517192756,0.0957512117124,0.079260983988,-0.987636499903
2249460000000,,38296,,2249,452219691,"""map""",,,0.12911953032,-0.14149004221,0.180261462927,,-0.095963591421,0.0950714670206,0.0783555432414,-0.987731203872
2249492000000,,38297,,2249,484218981,"""map""",,,0.11377914995,-0.155160874128,0.196681186557,,-0.0966407748376,0.0936312570585,0.0765855863382,-0.987941558793
2249528000000,,38298,,2249,524218981,"""map""",,,0.0924641042948,-0.173685103655,0.218803182244,,-0.0969151649802,0.093212324299,0.0752426613041,-0.988057420479
2249560000000,,38299,,2249,556218981,"""map""",,,0.0738876610994,-0.18966986239,0.238161876798,,-0.09694945885,0.0927582056711,0.0746719086815,-0.988140112596
2249592000000,,38300,,2249,588218271,"""map""",,,0.0540607608855,-0.206656441092,0.258988440037,,-0.0966468889295,0.0909330551649,0.0737299687642,-0.988410063161
2249628000000,,38301,,2249,620218271,"""map""",,,0.0330045633018,-0.224589794874,0.281205117702,,-0.0961443308957,0.0889710551586,0.0726924819412,-0.988714447701
2249660000000,,38302,,2249,652218271,"""map""",,,0.010811352171,-0.243433684111,0.304762631655,,-0.0960359499454,0.0885492709014,0.072177573893,-0.988800638006
2249692000000,,38303,,2249,684217562,"""map""",,,-0.012890772894,-0.264331459999,0.329307556152,,-0.0962664125351,0.0880523137886,0.0715724715889,-0.98886651353
2249728000000,,38304,,2249,724217562,"""map""",,,-0.043751552701,-0.291544258595,0.361925810575,,-0.0963781375743,0.0869281371544,0.0712012421472,-0.988981911601
2249760000000,,38305,,2249,756217562,"""map""",,,-0.0693980529904,-0.314125388861,0.389543771744,,-0.0964101211054,0.0864480694034,0.0710434021995,-0.989032192791
2249792000000,,38306,,2249,788216852,"""map""",,,-0.0958972126245,-0.337420850992,0.418519347906,,-0.0964921698242,0.0865129024516,0.0708206561052,-0.989034510868
2249828000000,,38307,,2249,820216852,"""map""",,,-0.123250834644,-0.361488908529,0.448848038912,,-0.0969159307028,0.087129410088,0.0708164835672,-0.988939301137
2249860000000,,38308,,2249,852216852,"""map""",,,-0.151383385062,-0.386308789253,0.480487495661,,-0.0971077581325,0.0870806501356,0.0709316287573,-0.988916457545
2249892000000,,38309,,2249,884228143,"""map""",,,-0.181091308594,-0.413313180208,0.512843430042,,-0.0970229082947,0.0860241422423,0.0712206296975,-0.988996494411
2249928000000,,38310,,2249,924228143,"""map""",,,-0.219119414687,-0.447783082724,0.555455565453,,-0.0963017533261,0.0853344736038,0.0713946118882,-0.989114168412
2249960000000,,38311,,2249,956228143,"""map""",,,-0.250182807446,-0.475988477468,0.591304004192,,-0.0960310503743,0.0851707479146,0.0714848482908,-0.989148096625
2249992000000,,38312,,2249,988227434,"""map""",,,-0.281813442707,-0.504725635052,0.628660678864,,-0.095559280284,0.0844974092043,0.0717004715678,-0.989235846363
2250028000000,,38313,,2250,20227434,"""map""",,,-0.313958525658,-0.533942162991,0.667509078979,,-0.0949044842114,0.0835939519938,0.0719241448929,-0.98935946307
2250060000000,,38314,,2250,52227434,"""map""",,,-0.346570432186,-0.563598930836,0.707896113396,,-0.0944081293376,0.0832443563977,0.0720524398997,-0.989427150909
2250092000000,,38315,,2250,84226725,"""map""",,,-0.380500197411,-0.594936668873,0.749745965004,,-0.0937722786026,0.0827588375445,0.0722256213003,-0.989515617144
2250128000000,,38316,,2250,124226725,"""map""",,,-0.423314124346,-0.634490907192,0.804042696953,,-0.0930517311414,0.0819435222358,0.0724595784564,-0.98963442911
2250160000000,,38317,,2250,156226725,"""map""",,,-0.457876503468,-0.666461348534,0.848981499672,,-0.0927704318792,0.0817209453874,0.0725323660637,-0.989673920707
2250192000000,,38318,,2250,188226016,"""map""",,,-0.492700129747,-0.698723018169,0.895422160625,,-0.0920742390402,0.0812956000508,0.0726277022351,-0.989766980948
2250228000000,,38319,,2250,220226016,"""map""",,,-0.527774095535,-0.731265604496,0.943101704121,,-0.0913563359644,0.0807233037999,0.0727369890133,-0.989872221629
2250260000000,,38320,,2250,252226016,"""map""",,,-0.563053369522,-0.764076113701,0.992326557636,,-0.0910919609668,0.080455796106,0.0727688941776,-0.989916096498
2250292000000,,38321,,2250,284225307,"""map""",,,-0.599318683147,-0.797899007797,1.04283249378,,-0.0904349689775,0.0800758491814,0.072900940254,-0.989997397769
2250328000000,,38322,,2250,324225307,"""map""",,,-0.644777774811,-0.840386927128,1.10774004459,,-0.089823401742,0.0795615265792,0.0730170126748,-0.990085906151
2250360000000,,38323,,2250,356225307,"""map""",,,-0.681255698204,-0.874546408653,1.16135931015,,-0.0895818341163,0.0793712365217,0.0730846583666,-0.990118232784
2250392000000,,38324,,2250,388224598,"""map""",,,-0.717825174332,-0.908830106258,1.2164618969,,-0.0891207452887,0.0789494647768,0.0731586682326,-0.990188027965
