rosbagTimestamp,header,seq,stamp,secs,nsecs,frame_id,pose,position,x,y,z,orientation,x,y,z,w
2382052000000,,30668,,2382,44252908,"""map""",,,-0.464869111776,-0.247230678797,-0.0247957296669,,-0.00670722823396,-0.00138400125388,0.055601681989,-0.998429549163
2382084000000,,30669,,2382,76252209,"""map""",,,-0.464900314808,-0.247445017099,-0.0245340801775,,-0.00672432618966,-0.00138245614383,0.0555842331937,-0.9984303921
2382116000000,,30670,,2382,108252209,"""map""",,,-0.464951038361,-0.247524380684,-0.0242805741727,,-0.0068032010532,-0.00142437875793,0.0555753823555,-0.998430307807
2382152000000,,30671,,2382,148252209,"""map""",,,-0.46499568224,-0.24837090075,-0.0239704251289,,-0.00683515725472,-0.0014432114845,0.0555787541034,-0.998429886338
2382184000000,,30672,,2382,180251510,"""map""",,,-0.46497631073,-0.249590873718,-0.0237429961562,,-0.00683455419259,-0.00142031767859,0.0556210695393,-0.998427610408
2382216000000,,30673,,2382,212251510,"""map""",,,-0.464941710234,-0.251250654459,-0.0234797168523,,-0.00686476821461,-0.00143104273445,0.0555970036888,-0.998428748373
2382252000000,,30674,,2382,244251510,"""map""",,,-0.464895606041,-0.253322154284,-0.0232737325132,,-0.00688492823764,-0.0014539508637,0.0556027356602,-0.998428158317
2382284000000,,30675,,2382,276250811,"""map""",,,-0.465048104525,-0.253465116024,-0.0228711925447,,-0.00697271732427,-0.00142254306512,0.0556297939369,-0.998426135269
2382316000000,,30676,,2382,308250811,"""map""",,,-0.465227991343,-0.253418564796,-0.0225182212889,,-0.0070185997665,-0.0014369312748,0.0556511623891,-0.998424575835
2382352000000,,30677,,2382,348250811,"""map""",,,-0.465358734131,-0.254158586264,-0.0221852678806,,-0.00704373212983,-0.00144336163265,0.0556257899863,-0.998425840241
2382384000000,,30678,,2382,380250112,"""map""",,,-0.465406000614,-0.255370885134,-0.0217951927334,,-0.00710548812889,-0.00142578672609,0.0556459783268,-0.998424280807
2382416000000,,30679,,2382,412250112,"""map""",,,-0.465418577194,-0.25706499815,-0.0213696826249,,-0.00713446902632,-0.00146000897927,0.0556463155015,-0.998424027926
2382452000000,,30680,,2382,444250112,"""map""",,,-0.46544149518,-0.259187847376,-0.021086262539,,-0.00712421417124,-0.00124060499826,0.0556123451416,-0.998426219562
2382484000000,,30681,,2382,476249412,"""map""",,,-0.465419471264,-0.259326010942,-0.0205755755305,,-0.00711491815697,-0.0012353722036,0.0555839803126,-0.998427947583
2382516000000,,30682,,2382,508249412,"""map""",,,-0.465388506651,-0.259292244911,-0.0201729983091,,-0.00715162937911,-0.00126684470418,0.0555661521957,-0.99842866408
2382552000000,,30683,,2382,548249412,"""map""",,,-0.465360403061,-0.260114997625,-0.0198112763464,,-0.0071492108744,-0.00128742323224,0.0555328983322,-0.998430476394
2382584000000,,30684,,2382,580248712,"""map""",,,-0.465314030647,-0.261381357908,-0.0194499958307,,-0.00718813217192,-0.00131984667109,0.0555098018592,-0.998431403625
2382616000000,,30685,,2382,612248712,"""map""",,,-0.46523308754,-0.263182073832,-0.0194257833064,,-0.00723789903893,-0.00136090099426,0.0555087903348,-0.99843106645
2382652000000,,30686,,2382,644248712,"""map""",,,-0.465095996857,-0.265438348055,-0.0194836053997,,-0.0072371077977,-0.00137715749472,0.0555181469352,-0.998430560688
2382680000000,,30687,,2382,676248013,"""map""",,,-0.464839309454,-0.265635371208,-0.0193717591465,,-0.00723691484416,-0.00139478014575,0.0555054607338,-0.99843119289
2382716000000,,30688,,2382,712248013,"""map""",,,-0.464500486851,-0.26565054059,-0.0190878268331,,-0.00730433366744,-0.001462975393,0.0554949661685,-0.998431235037
2382752000000,,30689,,2382,744248013,"""map""",,,-0.464116156101,-0.266320317984,-0.018839051947,,-0.00736184271296,-0.00151673402755,0.0555210972146,-0.998429211989
2382784000000,,30690,,2382,776247313,"""map""",,,-0.463695585728,-0.267568171024,-0.0185452681035,,-0.00736161255165,-0.00149573600664,0.0555075259294,-0.998430054926
2382816000000,,30691,,2382,808247313,"""map""",,,-0.463293761015,-0.26936507225,-0.0182974282652,,-0.00736522598537,-0.00161987625621,0.0555467646454,-0.998427652555
2382852000000,,30692,,2382,848247313,"""map""",,,-0.46277692914,-0.272300750017,-0.0180485229939,,-0.00731768796224,-0.00162201685513,0.0556125558759,-0.998424322954
2382884000000,,30693,,2382,880246613,"""map""",,,-0.462593227625,-0.272629857063,-0.0177529174834,,-0.00731896850204,-0.00164707546148,0.0556357366426,-0.998422974255
2382916000000,,30694,,2382,912246613,"""map""",,,-0.462452113628,-0.272808432579,-0.0174832623452,,-0.00738155229154,-0.00162210312446,0.0556506144801,-0.998421751996
2382952000000,,30695,,2382,944246613,"""map""",,,-0.462249904871,-0.273636490107,-0.017245689407,,-0.00741003928059,-0.00164448672301,0.0557605756079,-0.998415387822
2382984000000,,30696,,2382,976245913,"""map""",,,-0.462014883757,-0.275051087141,-0.0170932933688,,-0.00737936427741,-0.0016577201749,0.0557076391661,-0.998418506689
2383016000000,,30697,,2383,8245913,"""map""",,,-0.461762100458,-0.27703332901,-0.017014246434,,-0.00739518350431,-0.00165200828911,0.055662879213,-0.998420866913
2383052000000,,30698,,2383,48245913,"""map""",,,-0.461426615715,-0.280237883329,-0.0169946551323,,-0.00747056347214,-0.00167700367519,0.0556045058278,-0.998423522164
2383084000000,,30699,,2383,80245213,"""map""",,,-0.461508482695,-0.280643492937,-0.0167128909379,,-0.00746886014677,-0.0016700741406,0.0556195101059,-0.998422763521
2383116000000,,30700,,2383,112245213,"""map""",,,-0.46165651083,-0.280833482742,-0.0167025495321,,-0.00753935865344,-0.00143007878992,0.0556144524841,-0.998422847814
2383152000000,,30701,,2383,144245213,"""map""",,,-0.461743354797,-0.281743466854,-0.0167220961303,,-0.00759938696098,-0.00144684269892,0.0555755930897,-0.998424533688
2383184000000,,30702,,2383,176244512,"""map""",,,-0.461776971817,-0.283299982548,-0.0167794898152,,-0.00763329344206,-0.00144581668657,0.0555778268727,-0.998424154367
2383216000000,,30703,,2383,208244512,"""map""",,,-0.461770713329,-0.285423189402,-0.0168747492135,,-0.0076556273205,-0.00142518119442,0.0556066974639,-0.998422426346
2383252000000,,30704,,2383,248244512,"""map""",,,-0.461680084467,-0.288842439651,-0.0172465890646,,-0.00769174420623,-0.00142689176378,0.0555119092016,-0.998427441821
2383284000000,,30705,,2383,280255812,"""map""",,,-0.461718440056,-0.289246767759,-0.0171744152904,,-0.00770863488504,-0.00142978573762,0.055475367884,-0.998429338429
2383316000000,,30706,,2383,312255812,"""map""",,,-0.461808472872,-0.289463460445,-0.0169337708503,,-0.00769142942195,-0.00150554305145,0.0554553481309,-0.998430476394
2383352000000,,30707,,2383,344255812,"""map""",,,-0.461885720491,-0.290411949158,-0.0167785510421,,-0.00770295856065,-0.00149747127142,0.0553914113617,-0.998433890289
2383384000000,,30708,,2383,376255111,"""map""",,,-0.461952149868,-0.29203531146,-0.0165400076658,,-0.00772181861682,-0.00152502411509,0.0553470307303,-0.998436208365
2383416000000,,30709,,2383,408255111,"""map""",,,-0.4619987607,-0.29428422451,-0.016395278275,,-0.00775934577561,-0.00150716504658,0.0553666711617,-0.998434859666
2383452000000,,30710,,2383,448255111,"""map""",,,-0.462014734745,-0.297892987728,-0.0165013838559,,-0.00776908136834,-0.00155201028121,0.0553669240428,-0.998434691079
2383484000000,,30711,,2383,480254410,"""map""",,,-0.461953788996,-0.301368534565,-0.0167311374098,,-0.00774261413529,-0.0015690293762,0.0553739204196,-0.998434438198
2383516000000,,30712,,2383,512254410,"""map""",,,-0.461810916662,-0.305349081755,-0.0170174669474,,-0.00776909717341,-0.00160466486589,0.0553844992786,-0.998433637408
2383552000000,,30713,,2383,544254410,"""map""",,,-0.461623430252,-0.309799104929,-0.0174233037978,,-0.00780365100374,-0.00157426250013,0.0553771235801,-0.998433763848
2383584000000,,30714,,2383,576253709,"""map""",,,-0.46155154705,-0.311111956835,-0.0174234546721,,-0.0078609364734,-0.00159788778436,0.0553674298049,-0.998433848142
2383616000000,,30715,,2383,608253709,"""map""",,,-0.461484134197,-0.311987578869,-0.0172603856772,,-0.00793015213537,-0.0016344554438,0.0553942773474,-0.998431782946
2383652000000,,30716,,2383,648253709,"""map""",,,-0.461340367794,-0.314117461443,-0.0171428360045,,-0.00792285908421,-0.00166964312322,0.0553173172021,-0.998435997631
2383684000000,,30717,,2383,680253008,"""map""",,,-0.461187541485,-0.316566765308,-0.0171970762312,,-0.00794741587965,-0.00167509554247,0.0553261680403,-0.998435323282
2383716000000,,30718,,2383,712253008,"""map""",,,-0.461037844419,-0.319626837969,-0.0173946749419,,-0.0079710609202,-0.00171045477274,0.055300079141,-0.998436461247
2383752000000,,30719,,2383,744253008,"""map""",,,-0.460872411728,-0.323261290789,-0.0176314953715,,-0.00797407112715,-0.00167496515066,0.0552939257011,-0.998436882715
2383784000000,,30720,,2383,776252307,"""map""",,,-0.460861772299,-0.323760211468,-0.0174338649958,,-0.00793721173249,-0.00170893485202,0.0552898796037,-0.998437388477
2383816000000,,30721,,2383,808252307,"""map""",,,-0.460874974728,-0.323898643255,-0.0171012952924,,-0.00795420843697,-0.0017345400503,0.0552646336414,-0.998438610736
2383852000000,,30722,,2383,848252307,"""map""",,,-0.460844784975,-0.32522726059,-0.0168903209269,,-0.00801734935513,-0.00174531746045,0.0552571736492,-0.998438484295
2383884000000,,30723,,2383,880251605,"""map""",,,-0.460789501667,-0.327152282,-0.0169373229146,,-0.00804323739828,-0.00174366912355,0.0552206744784,-0.998440338757
2383916000000,,30724,,2383,912251605,"""map""",,,-0.460766732693,-0.329760998487,-0.0170684475452,,-0.00802165689475,-0.00149574423845,0.0552278815895,-0.998440465197
2383952000000,,30725,,2383,944251605,"""map""",,,-0.460724323988,-0.333057641983,-0.0170898195356,,-0.0080671333443,-0.00146571592597,0.0551725427774,-0.998443204742
2383984000000,,30726,,2383,976250904,"""map""",,,-0.460994750261,-0.333017259836,-0.0169397387654,,-0.00808435922226,-0.00147050321527,0.0552008233128,-0.998441476721
2384016000000,,30727,,2384,8250904,"""map""",,,-0.461324036121,-0.332591623068,-0.0168856736273,,-0.00808432069741,-0.00149286903313,0.055222739674,-0.998440212316
2384052000000,,30728,,2384,48250904,"""map""",,,-0.461665272713,-0.33328589797,-0.0169856026769,,-0.00809052517449,-0.00158185650613,0.0552478170489,-0.998438652883
2384084000000,,30729,,2384,80250202,"""map""",,,-0.461873412132,-0.334736049175,-0.0171540230513,,-0.00808417779325,-0.00158910938607,0.0552825881989,-0.998436756274
2384116000000,,30730,,2384,108250202,"""map""",,,-0.461992949247,-0.336313933134,-0.0173981413245,,-0.00815996507086,-0.00164956245481,0.0552895845757,-0.998435660456
2384152000000,,30731,,2384,148250202,"""map""",,,-0.462163567543,-0.339805692434,-0.0180762801319,,-0.00817741781741,-0.00162677615629,0.0553261258934,-0.998433595261
2384184000000,,30732,,2384,180249500,"""map""",,,-0.462245166302,-0.33945608139,-0.0182342678308,,-0.00820561570543,-0.00161037280041,0.0553069069305,-0.998434438198
2384216000000,,30733,,2384,212249500,"""map""",,,-0.46228069067,-0.338743895292,-0.0183127280325,,-0.00820125910424,-0.00163679130117,0.0552805230033,-0.998435871191
2384252000000,,30734,,2384,244249500,"""map""",,,-0.462311565876,-0.33893981576,-0.0186097845435,,-0.00820815373596,-0.00171760821246,0.0552719671931,-0.998436166219
2384284000000,,30735,,2384,276248798,"""map""",,,-0.462338745594,-0.33998939395,-0.0191430319101,,-0.00820144020398,-0.00171654235817,0.0552471848461,-0.998437599211
2384316000000,,30736,,2384,308248798,"""map""",,,-0.4623734653,-0.341847032309,-0.019850185141,,-0.00817894234795,-0.00176454630154,0.0552538861951,-0.998437304183
2384352000000,,30737,,2384,348248798,"""map""",,,-0.462455332279,-0.345156699419,-0.0207546502352,,-0.00822193213343,-0.00177940372418,0.0552629056206,-0.998436461247
2384384000000,,30738,,2384,380248095,"""map""",,,-0.462675094604,-0.34461992979,-0.0210860297084,,-0.00822013364838,-0.00178622295256,0.0552698598506,-0.998436081925
2384416000000,,30739,,2384,408248095,"""map""",,,-0.462850362062,-0.343883991241,-0.0212770737708,,-0.0082285188956,-0.00180795426278,0.0552421272243,-0.998437430624
2384452000000,,30740,,2384,448248095,"""map""",,,-0.46308863163,-0.343813478947,-0.0217264890671,,-0.00821335228631,-0.00180991376196,0.0552529589644,-0.998436967009
2384488000000,,30741,,2384,480247393,"""map""",,,-0.463248580694,-0.344745457172,-0.0221268236637,,-0.00822755742062,-0.00183350974096,0.0552490814543,-0.998437051302
2384516000000,,30742,,2384,512247393,"""map""",,,-0.46338608861,-0.346498697996,-0.0225049257278,,-0.00821458113036,-0.00183721570018,0.0552719250462,-0.998435871191
2384552000000,,30743,,2384,544247393,"""map""",,,-0.463512867689,-0.348997980356,-0.0227971933782,,-0.00826465883038,-0.00181321109432,0.0552356366096,-0.998437514918
2384584000000,,30744,,2384,576258691,"""map""",,,-0.463785350323,-0.34818226099,-0.0229524075985,,-0.00823678066572,-0.00160123417827,0.0552428858676,-0.998437683505
2384616000000,,30745,,2384,608258691,"""map""",,,-0.464082151651,-0.347038269043,-0.022969821468,,-0.00826916195773,-0.00162417918602,0.0552345829384,-0.998437894239
2384648000000,,30746,,2384,648258691,"""map""",,,-0.464439660311,-0.346968531609,-0.0230421964079,,-0.00825488076153,-0.00160497536962,0.0552004018443,-0.998439959435
2384684000000,,30747,,2384,680257988,"""map""",,,-0.464726924896,-0.347936809063,-0.023285401985,,-0.0082278079968,-0.00166525524116,0.0552104749411,-0.99843949582
2384716000000,,30748,,2384,712257988,"""map""",,,-0.464969962835,-0.349766939878,-0.0237029399723,,-0.00819571909856,-0.00166879689353,0.0552158275908,-0.998439453673
2384752000000,,30749,,2384,744257988,"""map""",,,-0.46518599987,-0.352346211672,-0.0242806002498,,-0.00823146818718,-0.0016377794472,0.0552462997623,-0.998437472771
2384784000000,,30750,,2384,776257285,"""map""",,,-0.465400338173,-0.351781398058,-0.0246269479394,,-0.00825789623683,-0.00164386044719,0.055233023505,-0.99843802068
2384816000000,,30751,,2384,808257285,"""map""",,,-0.465620368719,-0.350966632366,-0.0249867532402,,-0.00820713365052,-0.00167030957026,0.0552821667304,-0.998435660456
2384852000000,,30752,,2384,848257285,"""map""",,,-0.465893894434,-0.35134807229,-0.0255894996226,,-0.00818681393045,-0.00172682487212,0.0552959908967,-0.998434986107
2384884000000,,30753,,2384,880256582,"""map""",,,-0.466076314449,-0.35268637538,-0.0262794755399,,-0.00816152647989,-0.0017349934582,0.0553116695244,-0.998434311757
2384916000000,,30754,,2384,912256582,"""map""",,,-0.466240823269,-0.354856312275,-0.026872349903,,-0.00818197461614,-0.00178248011485,0.0552749596193,-0.998436039778
2384952000000,,30755,,2384,944256582,"""map""",,,-0.466384202242,-0.357774913311,-0.0275363195688,,-0.00819271942833,-0.00179591047155,0.0552614304809,-0.998436671981
2384984000000,,30756,,2384,976255878,"""map""",,,-0.466330587864,-0.357378333807,-0.0278696268797,,-0.00821667365553,-0.00184266680234,0.0552164176467,-0.998438947911
2385016000000,,30757,,2385,8255878,"""map""",,,-0.466235995293,-0.356685489416,-0.0282405372709,,-0.00823769373769,-0.00188019527822,0.0552192836324,-0.998438526442
2385052000000,,30758,,2385,48255878,"""map""",,,-0.466157436371,-0.35717946291,-0.0288020260632,,-0.00819186793028,-0.00192561805638,0.0552169234089,-0.998438947911
2385084000000,,30759,,2385,80255175,"""map""",,,-0.466107189655,-0.358605742455,-0.0293877590448,,-0.00821412442974,-0.00194214258445,0.055247774902,-0.998437009156
2385116000000,,30760,,2385,112255175,"""map""",,,-0.466069757938,-0.360866010189,-0.0301030576229,,-0.00821744579897,-0.00196864208618,0.0552316748059,-0.998437852093
2385152000000,,30761,,2385,144255175,"""map""",,,-0.466034203768,-0.363911092281,-0.0309591013938,,-0.00818814155618,-0.00200034474807,0.0552312111906,-0.998438062827
2385184000000,,30762,,2385,176254471,"""map""",,,-0.466103345156,-0.363648891449,-0.0313023775816,,-0.00813396935568,-0.0020302785594,0.0552560356843,-0.998437093449
2385216000000,,30763,,2385,208254471,"""map""",,,-0.466221034527,-0.36313071847,-0.0316565334797,,-0.00811841782713,-0.00185249129858,0.055228303058,-0.998439032204
2385252000000,,30764,,2385,248254471,"""map""",,,-0.46628600359,-0.363923281431,-0.0320721194148,,-0.00814215901518,-0.00195223905957,0.055250556594,-0.998437430624
2385284000000,,30765,,2385,280253767,"""map""",,,-0.466329604387,-0.365572571754,-0.0325568057597,,-0.00813880373092,-0.00198215937075,0.0552630320612,-0.998436756274
2385316000000,,30766,,2385,312253767,"""map""",,,-0.466400295496,-0.368080914021,-0.0333192683756,,-0.00810444614685,-0.00201534342851,0.0552787949825,-0.998436081925
2385352000000,,30767,,2385,344253767,"""map""",,,-0.466476231813,-0.371378451586,-0.0340921021998,,-0.00809866478461,-0.00205036745962,0.0552988147356,-0.99843494396
2385384000000,,30768,,2385,376253063,"""map""",,,-0.466557353735,-0.370964318514,-0.0344502665102,,-0.00808873393343,-0.00210083238381,0.0553333330045,-0.998432963058
2385416000000,,30769,,2385,408253063,"""map""",,,-0.466636300087,-0.370184928179,-0.0348162166774,,-0.00802767105247,-0.00214675466799,0.0553030715673,-0.998435070401
2385452000000,,30770,,2385,448253063,"""map""",,,-0.46676671505,-0.370719730854,-0.0352389030159,,-0.00800642937009,-0.0022186054958,0.055322332677,-0.998434016729
2385484000000,,30771,,2385,480252359,"""map""",,,-0.466879189014,-0.37224060297,-0.0357489846647,,-0.00798364241303,-0.00221554326384,0.0553053896439,-0.998435112547
2385516000000,,30772,,2385,512252359,"""map""",,,-0.467018038034,-0.374620974064,-0.0364172048867,,-0.00800410767143,-0.00223808293744,0.0552127508709,-0.998440085875
2385552000000,,30773,,2385,544252359,"""map""",,,-0.467184215784,-0.377797156572,-0.0371991172433,,-0.00805286235554,-0.00229784782718,0.0551775161056,-0.998441434575
2385584000000,,30774,,2385,576251654,"""map""",,,-0.467339545488,-0.377392947674,-0.0379144623876,,-0.00803919130082,-0.00233019454559,0.0551701404071,-0.99844189819
2385616000000,,30775,,2385,608251654,"""map""",,,-0.467499047518,-0.376644849777,-0.0386639274657,,-0.00802566084536,-0.00235321462741,0.0552079461302,-0.998439917288
2385652000000,,30776,,2385,648251654,"""map""",,,-0.467658668756,-0.377156347036,-0.0398275740445,,-0.00802477082246,-0.00235626796902,0.0551521437027,-0.998442951861
2385684000000,,30777,,2385,680250950,"""map""",,,-0.467800170183,-0.378631800413,-0.0408053770661,,-0.00803225320516,-0.00238677372627,0.0551465803187,-0.998443120449
2385716000000,,30778,,2385,712250950,"""map""",,,-0.46795886755,-0.380990892649,-0.0417717881501,,-0.00804445603489,-0.00235811452782,0.0550980271493,-0.998445817847
2385752000000,,30779,,2385,752250950,"""map""",,,-0.468166261911,-0.385079085827,-0.0431022197008,,-0.00801164109133,-0.00235296964885,0.0550690301175,-0.998447672308
2385784000000,,30780,,2385,776250245,"""map""",,,-0.468261450529,-0.383654087782,-0.0433325022459,,-0.00805358774231,-0.00235688667159,0.0550614015379,-0.998447714455
2385816000000,,30781,,2385,808250245,"""map""",,,-0.468390524387,-0.382789462805,-0.0437314920127,,-0.00805679880533,-0.00242055673025,0.055115897413,-0.998444553441
2385852000000,,30782,,2385,848250245,"""map""",,,-0.468553811312,-0.383222699165,-0.0441289283335,,-0.00806046195916,-0.00243465979016,0.0551504578288,-0.998442614686
2385884000000,,30783,,2385,880261540,"""map""",,,-0.468703001738,-0.384647250175,-0.0444390401244,,-0.00807903620701,-0.00247186162796,0.0551571591777,-0.998441982484
2385916000000,,30784,,2385,912261540,"""map""",,,-0.468871444464,-0.387015908957,-0.0447979383171,,-0.00806747381181,-0.00242668580399,0.0551406376131,-0.998443078302
2385952000000,,30785,,2385,944261540,"""map""",,,-0.469050675631,-0.390228956938,-0.0451430790126,,-0.00810628414457,-0.00243126301759,0.0551115562876,-0.998444342707
2385984000000,,30786,,2385,976260835,"""map""",,,-0.469126224518,-0.389712452888,-0.0451436601579,,-0.00813168881605,-0.00222826140465,0.0551151387698,-0.998444469148
2386016000000,,30787,,2386,8260835,"""map""",,,-0.469167917967,-0.388901263475,-0.0450369156897,,-0.00816073787284,-0.00224659923502,0.0551697189386,-0.998441139547
2386052000000,,30788,,2386,48260835,"""map""",,,-0.469202905893,-0.389470428228,-0.0450563542545,,-0.00812998483214,-0.00227276353759,0.0552822088773,-0.998435112547
2386084000000,,30789,,2386,80260130,"""map""",,,-0.469250798225,-0.391098976135,-0.0452162325382,,-0.00813141420299,-0.00228722945553,0.0552752125004,-0.998435449722
2386116000000,,30790,,2386,112260130,"""map""",,,-0.469308316708,-0.393678933382,-0.0454093627632,,-0.00813371449896,-0.00231169833527,0.0552618519494,-0.998436081925
2386152000000,,30791,,2386,144260130,"""map""",,,-0.46935737133,-0.397118091583,-0.0457172356546,,-0.0081474385665,-0.00228067562058,0.0552761818779,-0.998435238988
2386184000000,,30792,,2386,176259424,"""map""",,,-0.469434499741,-0.396832108498,-0.0452825501561,,-0.00814066214352,-0.00228188800102,0.0552686797389,-0.99843574475
2386216000000,,30793,,2386,208259424,"""map""",,,-0.469528108835,-0.396195143461,-0.0448261909187,,-0.00807362362969,-0.00234785045312,0.0553418466679,-0.998432120121
2386252000000,,30794,,2386,248259424,"""map""",,,-0.469634771347,-0.396984159946,-0.0446253195405,,-0.00805828546956,-0.00237654982278,0.055362962239,-0.998430982156
2386284000000,,30795,,2386,280258719,"""map""",,,-0.469748049974,-0.398759007454,-0.0447995066643,,-0.0080391880081,-0.00240071083296,0.0553572724145,-0.998431361478
2386316000000,,30796,,2386,312258719,"""map""",,,-0.469864040613,-0.401466786861,-0.0451604612172,,-0.00801098122973,-0.0024442149417,0.0553080870422,-0.99843426961
2386352000000,,30797,,2386,344258719,"""map""",,,-0.469972014427,-0.405022263527,-0.0456753782928,,-0.00800362989739,-0.00247704075125,0.0552532961392,-0.99843721989
2386384000000,,30798,,2386,376258013,"""map""",,,-0.469839781523,-0.404735893011,-0.0458497926593,,-0.00800502732884,-0.00248144773109,0.0552689747668,-0.998436376953
2386416000000,,30799,,2386,408258013,"""map""",,,-0.469671756029,-0.404100954533,-0.046080134809,,-0.00801434672144,-0.00250113590698,0.0552660666343,-0.9984364191
2386452000000,,30800,,2386,448258013,"""map""",,,-0.469494014978,-0.404943585396,-0.0464925840497,,-0.00800370184338,-0.00256751011403,0.0552827567863,-0.998435407575
2386484000000,,30801,,2386,480257307,"""map""",,,-0.469377815723,-0.406779229641,-0.0468842536211,,-0.00800675106909,-0.00254991759141,0.0553135239857,-0.998433721701
2386516000000,,30802,,2386,512257307,"""map""",,,-0.469273597002,-0.40958866477,-0.0473871044815,,-0.00796892015664,-0.00258872841808,0.0553281489421,-0.998433089499
2386552000000,,30803,,2386,544257307,"""map""",,,-0.469210982323,-0.413270741701,-0.0477964840829,,-0.00800579864909,-0.00263238399205,0.0553104894126,-0.998433637408
2386584000000,,30804,,2386,576256600,"""map""",,,-0.469285100698,-0.412998050451,-0.0479475781322,,-0.00801538261195,-0.00262997816433,0.0552820402899,-0.998435196841
2386616000000,,30805,,2386,608256600,"""map""",,,-0.469412446022,-0.412365883589,-0.0479966178536,,-0.00800973048908,-0.00262560262998,0.0553104051189,-0.998433637408
2386652000000,,30806,,2386,648256600,"""map""",,,-0.469588160515,-0.413226723671,-0.0480439066887,,-0.00804442771748,-0.00252391496151,0.0552437288046,-0.99843734633
2386684000000,,30807,,2386,680255894,"""map""",,,-0.46973669529,-0.415139883757,-0.0482272580266,,-0.00806017055321,-0.00249782770864,0.0552361845187,-0.998437725652
2386716000000,,30808,,2386,712255894,"""map""",,,-0.469868957996,-0.418045520782,-0.0485667139292,,-0.00801488277667,-0.00243908652635,0.0552366902809,-0.99843814712
2386752000000,,30809,,2386,744255894,"""map""",,,-0.470022082329,-0.421825379133,-0.0490404777229,,-0.00795247613564,-0.00237018005103,0.05523803898,-0.998438737176
2386784000000,,30810,,2386,776255187,"""map""",,,-0.46997782588,-0.421324968338,-0.0493462346494,,-0.00798199934448,-0.00239518827872,0.0552728522769,-0.99843654554
2386816000000,,30811,,2386,808255187,"""map""",,,-0.469881504774,-0.420363098383,-0.0496140643954,,-0.00799023180938,-0.00238935028165,0.0552689747668,-0.998436714128
2386852000000,,30812,,2386,848255187,"""map""",,,-0.46982267499,-0.42085725069,-0.0502198152244,,-0.0079426006022,-0.00239209641225,0.055233318533,-0.998439074351
2386884000000,,30813,,2386,880254480,"""map""",,,-0.469801813364,-0.42247030139,-0.0508514493704,,-0.00800269213001,-0.00240077932159,0.0552610933061,-0.998437009156
2386916000000,,30814,,2386,912254480,"""map""",,,-0.46982255578,-0.425075143576,-0.0515664890409,,-0.0080409384194,-0.00244067460643,0.0553364518713,-0.998432457296
2386952000000,,30815,,2386,944254480,"""map""",,,-0.46987375617,-0.428627669811,-0.0523332618177,,-0.00801568389607,-0.00235879513357,0.0553376741299,-0.998432752324
2386984000000,,30816,,2386,976253773,"""map""",,,-0.469889104366,-0.427685797215,-0.0527762919664,,-0.00799961178808,-0.00237035423605,0.0553342180883,-0.998433005205
2387016000000,,30817,,2387,8253773,"""map""",,,-0.469923883677,-0.426276981831,-0.0531531311572,,-0.00797849522915,-0.00240666802658,0.0553321950396,-0.998433258086
2387052000000,,30818,,2387,48253773,"""map""",,,-0.469968438148,-0.426269978285,-0.0536859631538,,-0.00798489397687,-0.00242337760565,0.0552704920534,-0.99843654554
2387084000000,,30819,,2387,80253066,"""map""",,,-0.470014095306,-0.42752301693,-0.0541479364038,,-0.00798530918918,-0.00243100190469,0.0552721779273,-0.998436461247
2387116000000,,30820,,2387,112253066,"""map""",,,-0.470093637705,-0.429826080799,-0.0546482615173,,-0.00798752716708,-0.00236048891005,0.0552715457246,-0.998436671981
2387152000000,,30821,,2387,144253066,"""map""",,,-0.470191955566,-0.433095961809,-0.0552944876254,,-0.0079769104418,-0.00237677175228,0.0552448246226,-0.998438189267
2387184000000,,30822,,2387,176264358,"""map""",,,-0.470234930515,-0.432054519653,-0.0551906190813,,-0.00801177971495,-0.00238867033445,0.0552703656128,-0.9984364191
2387216000000,,30823,,2387,208264358,"""map""",,,-0.470247656107,-0.430617928505,-0.0550212524831,,-0.00800723773348,-0.00237702002356,0.0552336978546,-0.998438526442
2387252000000,,30824,,2387,248264358,"""map""",,,-0.470265001059,-0.430658757687,-0.0552093461156,,-0.00806772208309,-0.00236872005785,0.0552292724355,-0.998438315708
2387284000000,,30825,,2387,280263651,"""map""",,,-0.470278978348,-0.432009607553,-0.0556137412786,,-0.0080708287668,-0.00235988864673,0.055222739674,-0.998438695029
2387316000000,,30826,,2387,312263651,"""map""",,,-0.470313161612,-0.43440246582,-0.0561796687543,,-0.00801908165645,-0.00235462292484,0.0551891064889,-0.998440970959
2387352000000,,30827,,2387,344263651,"""map""",,,-0.470375299454,-0.437755554914,-0.0568762347102,,-0.00799686598675,-0.00214377771754,0.0551923096494,-0.998441476721
2387384000000,,30828,,2387,376262943,"""map""",,,-0.470519334078,-0.436746031046,-0.0568436309695,,-0.00801235034377,-0.0021765712584,0.0551450630322,-0.998443879092
2387416000000,,30829,,2387,408262943,"""map""",,,-0.470694124699,-0.435329049826,-0.0566833764315,,-0.00795341028103,-0.00218112278877,0.0551330933272,-0.99844497491
2387452000000,,30830,,2387,448262943,"""map""",,,-0.470943063498,-0.435335785151,-0.0565438270569,,-0.00793894502164,-0.00219848827817,0.0550990386736,-0.998446913665
2387484000000,,30831,,2387,480262235,"""map""",,,-0.471157044172,-0.436660051346,-0.0565525814891,,-0.007945775116,-0.00220764435174,0.055104770645,-0.99844657649
2387516000000,,30832,,2387,512262235,"""map""",,,-0.471344411373,-0.439049988985,-0.0567772127688,,-0.00795038393974,-0.00220619193183,0.0550752678511,-0.998448093777
2387552000000,,30833,,2387,544262235,"""map""",,,-0.471503823996,-0.442433416843,-0.0570678673685,,-0.00801905366831,-0.00227950900899,0.055105613582,-0.998445817847
2387584000000,,30834,,2387,576261526,"""map""",,,-0.471650183201,-0.441536515951,-0.0568314678967,,-0.00802077707929,-0.00229026962625,0.0551205335664,-0.998444890616
2387616000000,,30835,,2387,608261526,"""map""",,,-0.471767812967,-0.440228492022,-0.0564843676984,,-0.00800042509054,-0.00221807240402,0.0551029583305,-0.998446197169
2387652000000,,30836,,2387,648261526,"""map""",,,-0.471853405237,-0.440418213606,-0.0562585517764,,-0.00796472769767,-0.00223866278588,0.0550857202695,-0.998447419427
2387684000000,,30837,,2387,680260818,"""map""",,,-0.471916466951,-0.441877067089,-0.0562664493918,,-0.00798517748028,-0.00225907634854,0.0550837815145,-0.99844725084
2387716000000,,30838,,2387,712260818,"""map""",,,-0.471961706877,-0.444374412298,-0.0563367530704,,-0.00798824201715,-0.00228303847828,0.0550734133897,-0.998447756602
2387752000000,,30839,,2387,744260818,"""map""",,,-0.471998751163,-0.447862923145,-0.0564119815826,,-0.00801665524921,-0.00226071151455,0.0550170630533,-0.998450749028
2387784000000,,30840,,2387,776260109,"""map""",,,-0.472059309483,-0.447046875954,-0.0559307262301,,-0.00803245307342,-0.0022577856013,0.0550148714171,-0.998450664734
2387816000000,,30841,,2387,808260109,"""map""",,,-0.472116291523,-0.445812255144,-0.0553236454725,,-0.00805683502528,-0.00227202069939,0.0550469451689,-0.998448683833
2387852000000,,30842,,2387,848260109,"""map""",,,-0.472198069096,-0.446088254452,-0.0547683648765,,-0.00805671319455,-0.00230382444786,0.0551013567503,-0.998445607113
2387884000000,,30843,,2387,880259400,"""map""",,,-0.472266405821,-0.447650551796,-0.0544550791383,,-0.00804190187002,-0.00232006481397,0.0551207021538,-0.998444637735
2387916000000,,30844,,2387,912259400,"""map""",,,-0.472325563431,-0.450281500816,-0.0539294965565,,-0.00796792690689,-0.00230812671913,0.0550938967581,-0.998446745078
2387952000000,,30845,,2387,944259400,"""map""",,,-0.472381085157,-0.453879565001,-0.0534140840173,,-0.00793582582558,-0.00232385177416,0.0551243267827,-0.998445312085
2387984000000,,30846,,2387,976258690,"""map""",,,-0.472423642874,-0.452983260155,-0.0525020770729,,-0.00793102931665,-0.00230429596573,0.0551107133507,-0.998446112875
2388016000000,,30847,,2388,8258690,"""map""",,,-0.472477078438,-0.45164334774,-0.051822848618,,-0.0079093648487,-0.00230421661111,0.0550528878745,-0.998449484623
2388052000000,,30848,,2388,48258690,"""map""",,,-0.472559332848,-0.451778650284,-0.0511133931577,,-0.00797811788315,-0.00224127391486,0.0551178783149,-0.998445522819
2388084000000,,30849,,2388,80257981,"""map""",,,-0.472636014223,-0.453219622374,-0.0506127104163,,-0.00797586072185,-0.0022272426363,0.0551113455534,-0.998445902141
2388116000000,,30850,,2388,112257981,"""map""",,,-0.472708046436,-0.455738484859,-0.050111733377,,-0.00798368752333,-0.00220445633778,0.0551250011323,-0.998445143497
2388152000000,,30851,,2388,144257981,"""map""",,,-0.472765147686,-0.459250241518,-0.0497392080724,,-0.00792764011734,-0.00223479416617,0.0551435878925,-0.998444511295
2388184000000,,30852,,2388,176257271,"""map""",,,-0.472773939371,-0.458208054304,-0.0490205213428,,-0.00792011756343,-0.00222475202097,0.0551084795677,-0.998446492196
2388216000000,,30853,,2388,208257271,"""map""",,,-0.472764521837,-0.456731140614,-0.0481546297669,,-0.00785228089366,-0.00222723802648,0.055099207261,-0.998447588015
2388252000000,,30854,,2388,248257271,"""map""",,,-0.472735345364,-0.456757754087,-0.0471960604191,,-0.0077892634526,-0.00215757060299,0.0550439105958,-0.998451212643
2388284000000,,30855,,2388,280256561,"""map""",,,-0.472705334425,-0.458119302988,-0.0465483814478,,-0.00777203823318,-0.00218855413427,0.0550470294626,-0.99845112835
2388316000000,,30856,,2388,312256561,"""map""",,,-0.472669571638,-0.460543096066,-0.0460273176432,,-0.0077897916053,-0.00217349486773,0.0550077907466,-0.998453193545
2388352000000,,30857,,2388,344256561,"""map""",,,-0.472635805607,-0.463963627815,-0.0456749163568,,-0.00770052128743,-0.00196575173433,0.0550426883372,-0.998452434902
2388384000000,,30858,,2388,376255851,"""map""",,,-0.472637325525,-0.462809890509,-0.0452503561974,,-0.00769845609185,-0.0020040065848,0.0550398644983,-0.998452477049
2388416000000,,30859,,2388,408255851,"""map""",,,-0.472650259733,-0.461253851652,-0.0448547042906,,-0.00768275474442,-0.00203207473955,0.0550428569246,-0.998452434902
2388452000000,,30860,,2388,448255851,"""map""",,,-0.472654432058,-0.461192965508,-0.0444496497512,,-0.0075946052693,-0.00204908757837,0.0550649418732,-0.998451844846
2388484000000,,30861,,2388,480267141,"""map""",,,-0.47264033556,-0.462531119585,-0.0443389974535,,-0.00756474653204,-0.00207224496672,0.0550408338758,-0.998453362133
2388516000000,,30862,,2388,512267141,"""map""",,,-0.472619771957,-0.464981049299,-0.044319473207,,-0.00755587988879,-0.00204676390407,0.0550141127739,-0.998454963713
2388552000000,,30863,,2388,544267141,"""map""",,,-0.472587436438,-0.468452572823,-0.0442751087248,,-0.00751205045906,-0.00206987157231,0.0550141970676,-0.998455216594
2388584000000,,30864,,2388,576266431,"""map""",,,-0.472517490387,-0.47289955616,-0.0444772131741,,-0.00751543257901,-0.0020989734773,0.0550047140267,-0.998455595916
2388616000000,,30865,,2388,608266431,"""map""",,,-0.472410917282,-0.478203594685,-0.0447723045945,,-0.00745959475482,-0.00211805661542,0.0550170209064,-0.998455343035
2388652000000,,30866,,2388,648266431,"""map""",,,-0.472258657217,-0.485935211182,-0.0453125350177,,-0.00746513854712,-0.00212666692022,0.055016852319,-0.998455258741
2388684000000,,30867,,2388,680265720,"""map""",,,-0.472035884857,-0.486630946398,-0.0454465821385,,-0.00744982080187,-0.00217377524306,0.0549908055666,-0.998456691734
2388716000000,,30868,,2388,712265720,"""map""",,,-0.471789866686,-0.48652023077,-0.0455053560436,,-0.00746076910431,-0.00218056615402,0.0550003307544,-0.998456101678
2388752000000,,30869,,2388,744265720,"""map""",,,-0.471549272537,-0.487642794847,-0.0457659140229,,-0.00740734715064,-0.0022786887918,0.0550026909779,-0.998456185972
2388784000000,,30870,,2388,776265009,"""map""",,,-0.471318542957,-0.489916861057,-0.0461285151541,,-0.00738822647549,-0.00229987466253,0.0550023538031,-0.998456270265
2388816000000,,30871,,2388,808265009,"""map""",,,-0.471065402031,-0.493227988482,-0.0464663915336,,-0.00733981011863,-0.00233132362015,0.0549999514328,-0.998456733881
2388852000000,,30872,,2388,848265009,"""map""",,,-0.470691084862,-0.498727560043,-0.0468711405993,,-0.00733234024827,-0.00239455838089,0.0549628622061,-0.998458672636
2388884000000,,30873,,2388,880264298,"""map""",,,-0.470311015844,-0.497682660818,-0.0464941486716,,-0.00728446258082,-0.00240130269984,0.0549786251274,-0.99845808258
2388916000000,,30874,,2388,912264298,"""map""",,,-0.469906002283,-0.495896548033,-0.0459575355053,,-0.00727025530624,-0.00242130911735,0.0549839356303,-0.998457829699
2388952000000,,30875,,2388,944264298,"""map""",,,-0.469496786594,-0.495519280434,-0.0455486178398,,-0.00719742719837,-0.00243550173932,0.055011583963,-0.998456818174
2388984000000,,30876,,2388,976263586,"""map""",,,-0.469110459089,-0.496451735497,-0.0454006567597,,-0.00720369868236,-0.00246751539885,0.0549846521268,-0.99845820902
2389016000000,,30877,,2389,8263586,"""map""",,,-0.468697428703,-0.498563796282,-0.045301374048,,-0.00730183712521,-0.00241019617878,0.0549026343596,-0.998462170824
2389052000000,,30878,,2389,48263586,"""map""",,,-0.468153834343,-0.502697765827,-0.0454172231257,,-0.0072954128589,-0.00239193292858,0.0548629741751,-0.998464404607
2389084000000,,30879,,2389,80262875,"""map""",,,-0.46785569191,-0.500862300396,-0.0452548526227,,-0.00728572171792,-0.00244793423645,0.054838233975,-0.998465711159
2389116000000,,30880,,2389,112262875,"""map""",,,-0.467590034008,-0.498448222876,-0.045143648982,,-0.00721711323399,-0.00242713279107,0.0548775148379,-0.998464109579
2389152000000,,30881,,2389,144262875,"""map""",,,-0.467348515987,-0.497459709644,-0.0450465045869,,-0.00709738819607,-0.00235231851297,0.0548689168808,-0.998465626866
2389184000000,,30882,,2389,176262163,"""map""",,,-0.467077672482,-0.497818648815,-0.0449999533594,,-0.00711438424201,-0.00238265732918,0.0548514259386,-0.998466343362
2389216000000,,30883,,2389,208262163,"""map""",,,-0.466818034649,-0.499392360449,-0.0450961999595,,-0.00716841419689,-0.00231134650786,0.0548525217567,-0.998466090481
2389252000000,,30884,,2389,248262163,"""map""",,,-0.466457486153,-0.502856016159,-0.0451970994473,,-0.00713494910527,-0.00212330554442,0.0547997117555,-0.998469672963
2389284000000,,30885,,2389,280261451,"""map""",,,-0.466349214315,-0.500617563725,-0.0449729189277,,-0.00716670296899,-0.00199149374524,0.0547900179803,-0.998470263019
2389316000000,,30886,,2389,312261451,"""map""",,,-0.466419965029,-0.497846871614,-0.0438941307366,,-0.00709520824912,-0.000409869211418,0.0547328247069,-0.998475784256
2389352000000,,30887,,2389,344261451,"""map""",,,-0.466682165861,-0.496553003788,-0.0417663380504,,-0.00740588468793,0.00441113015955,0.0546146870905,-0.998470347313
2389384000000,,30888,,2389,376260738,"""map""",,,-0.467171102762,-0.496627867222,-0.0386063680053,,-0.00822330931463,0.00743013558943,0.0544316433275,-0.998456059531
2389416000000,,30889,,2389,408260738,"""map""",,,-0.467920333147,-0.497954666615,-0.0345496013761,,-0.011010308115,0.0137009054659,0.0539066200356,-0.998391279825
2389452000000,,30890,,2389,448260738,"""map""",,,-0.469205021858,-0.501213848591,-0.0284804627299,,-0.016527086512,0.0226449215272,0.0526717173742,-0.998218309159
2389484000000,,30891,,2389,480260025,"""map""",,,-0.47071826458,-0.498963683844,-0.0228031724691,,-0.0190380241954,0.0262469206049,0.0520521165542,-0.998117873219
2389516000000,,30892,,2389,512260025,"""map""",,,-0.472547501326,-0.496295809746,-0.0165450777858,,-0.0262029864666,0.0359613865723,0.0502090348688,-0.997747149539
2389552000000,,30893,,2389,544260025,"""map""",,,-0.474668741226,-0.495240062475,-0.00954305846244,,-0.0355384399841,0.0479442779154,0.0477716826195,-0.997073895781
2389584000000,,30894,,2389,576259313,"""map""",,,-0.477193444967,-0.495793968439,-0.00183204794303,,-0.0403127223723,0.0538437586695,0.0465943947,-0.996646737471
2389616000000,,30895,,2389,608259313,"""map""",,,-0.480655014515,-0.498170554638,0.00655410252512,,-0.050109007885,0.0656787004156,0.0445238886201,-0.995586828525
2389652000000,,30896,,2389,648259313,"""map""",,,-0.486688643694,-0.503819525242,0.0183698814362,,-0.0578958528329,0.0747833008265,0.0429482286885,-0.994590856348
2389684000000,,30897,,2389,680258600,"""map""",,,-0.493310660124,-0.504523038864,0.0288955494761,,-0.060730105906,0.077979724403,0.0423574563129,-0.994201630202
2389716000000,,30898,,2389,712258600,"""map""",,,-0.501468658447,-0.505757272243,0.0405126400292,,-0.0645349995832,0.0820357237353,0.0415668657285,-0.993668809743
2389752000000,,30899,,2389,744258600,"""map""",,,-0.511069834232,-0.509509205818,0.0533674620092,,-0.0676575166852,0.0845485985274,0.0410407044717,-0.993272207898
2389784000000,,30900,,2389,776269886,"""map""",,,-0.522101461887,-0.515703856945,0.0674136057496,,-0.0692576527405,0.0854033583472,0.040834479942,-0.993097340624
2389816000000,,30901,,2389,808269886,"""map""",,,-0.534539401531,-0.52422952652,0.0825928300619,,-0.0711361417299,0.0862647622225,0.040725698926,-0.992894572136
2389852000000,,30902,,2389,848269886,"""map""",,,-0.551906466484,-0.537892878056,0.103241704404,,-0.0720336654544,0.0862013140933,0.0407084187181,-0.992835988016
2389884000000,,30903,,2389,880269173,"""map""",,,-0.566164970398,-0.544291079044,0.121252797544,,-0.0722217069117,0.0855457271087,0.0407090930676,-0.992879062096
2389916000000,,30904,,2389,912269173,"""map""",,,-0.581311106682,-0.551012814045,0.140486180782,,-0.0725734421189,0.0834631367371,0.04085643845,-0.993024553017
2389952000000,,30905,,2389,944269173,"""map""",,,-0.597659707069,-0.56025582552,0.160996749997,,-0.0731110297814,0.0823711599659,0.0414284976249,-0.993052580671
2389984000000,,30906,,2389,976268459,"""map""",,,-0.615160822868,-0.57187128067,0.183063521981,,-0.073538538766,0.0824334921914,0.0418408623907,-0.992998632705
2390016000000,,30907,,2390,8268459,"""map""",,,-0.633712649345,-0.585686028004,0.206641077995,,-0.0741519179868,0.0821465087022,0.0427453337597,-0.992938278418
2390052000000,,30908,,2390,48268459,"""map""",,,-0.658223152161,-0.605778694153,0.237933278084,,-0.0742525086847,0.0811437436385,0.0438210899211,-0.992966263925
2390084000000,,30909,,2390,80267745,"""map""",,,-0.678412854671,-0.616641283035,0.264172196388,,-0.0742998718643,0.0809205648804,0.0441731003999,-0.992965336694
2390116000000,,30910,,2390,112267745,"""map""",,,-0.699407219887,-0.627544343472,0.291670709848,,-0.0748160048053,0.0811782902248,0.0449552616146,-0.992870506285
2390152000000,,30911,,2390,144267745,"""map""",,,-0.721272408962,-0.64090949297,0.320494234562,,-0.0759965434651,0.0810861412443,0.0460637237304,-0.992737490831
2390184000000,,30912,,2390,176267031,"""map""",,,-0.74396276474,-0.656561791897,0.350681036711,,-0.0763533527577,0.0806723494125,0.0466189663127,-0.992717934694
2390216000000,,30913,,2390,208267031,"""map""",,,-0.767402529716,-0.674298882484,0.382147729397,,-0.0765038575074,0.0799049939247,0.0475186750879,-0.992725731861
2390252000000,,30914,,2390,248267031,"""map""",,,-0.79771053791,-0.699234843254,0.423417359591,,-0.0764909610656,0.0792076843589,0.048333247229,-0.992743307097
2390284000000,,30915,,2390,280266316,"""map""",,,-0.823149323463,-0.713964045048,0.457488059998,,-0.0765012010211,0.078929021662,0.0487767163691,-0.992743054215
2390316000000,,30916,,2390,312266316,"""map""",,,-0.849299132824,-0.72863638401,0.492843836546,,-0.0764798607217,0.0783592945579,0.049456123567,-0.992756204032
2390352000000,,30917,,2390,344266316,"""map""",,,-0.875951886177,-0.745561718941,0.529503107071,,-0.0765119669068,0.0779124106999,0.0501628419229,-0.99275342234
2390384000000,,30918,,2390,376265602,"""map""",,,-0.903081476688,-0.764590919018,0.567510187626,,-0.076465374142,0.0776439346987,0.0504546245551,-0.992763242556
2390416000000,,30919,,2390,416265602,"""map""",,,-0.93759894371,-0.791065514088,0.616995692253,,-0.076508573715,0.0772558158541,0.0509343821317,-0.99276572922
2390452000000,,30920,,2390,448265602,"""map""",,,-0.965669512749,-0.814265489578,0.658233582973,,-0.0765295969973,0.076712951367,0.0513850583828,-0.992782967281
2390484000000,,30921,,2390,480264886,"""map""",,,-0.995225191116,-0.831878781319,0.70084297657,,-0.0765589145756,0.0764399407106,0.0515925894649,-0.992790975182
2390516000000,,30922,,2390,512264886,"""map""",,,-1.02541589737,-0.849327206612,0.744868397713,,-0.076473848766,0.0759921017676,0.0518915370614,-0.992816305438
2390552000000,,30923,,2390,544264886,"""map""",,,-1.05581665039,-0.868894219398,0.790372610092,,-0.0764882561352,0.0755867718418,0.0522697628799,-0.992826336388
2390584000000,,30924,,2390,576264171,"""map""",,,-1.08638429642,-0.890425503254,0.837202012539,,-0.0765021835284,0.0753890104321,0.0523847394827,-0.992834259996
2390616000000,,30925,,2390,608264171,"""map""",,,-1.11710059643,-0.91377466917,0.885365009308,,-0.0764891821723,0.0750427731249,0.0526054625283,-0.992849812183
2390652000000,,30926,,2390,648264171,"""map""",,,-1.15536308289,-0.944923758507,0.942615449429,,-0.0765664806449,0.0724980716999,0.0527177838796,-0.993026955387
2390684000000,,30927,,2390,680263456,"""map""",,,-1.18691921234,-0.963736593723,0.980135202408,,-0.0766394875476,0.0687231595786,0.0527437884851,-0.993288307995
2390716000000,,30928,,2390,712263456,"""map""",,,-1.21843886375,-0.981640517712,1.00931537151,,-0.0767321684675,0.0567446459101,0.0528702290307,-0.994030682584
2390752000000,,30929,,2390,744263456,"""map""",,,-1.24943959713,-1.00095188618,1.02994346619,,-0.0752548312066,0.0374719306108,0.0527725747827,-0.995061636646
2390784000000,,30930,,2390,776262740,"""map""",,,-1.27990174294,-1.02151226997,1.04201376438,,-0.0733364607618,0.029286184181,0.0525936614107,-0.995488879249
2390816000000,,30931,,2390,808262740,"""map""",,,-1.30970156193,-1.04327654839,1.04663586617,,-0.0577678798543,0.00540782788812,0.0513772612159,-0.996992552363
2390852000000,,30932,,2390,848262740,"""map""",,,-1.34489369392,-1.07238423824,1.05390262604,,-0.0344089162978,-0.00565647058673,0.0504507891919,-0.998117620338
2390884000000,,30933,,2390,880262024,"""map""",,,-1.37245690823,-1.0900144577,1.07488954067,,-0.0285990364508,-0.00543565007649,0.0504636439807,-0.998301591331
2390916000000,,30934,,2390,912262024,"""map""",,,-1.39821481705,-1.10659205914,1.11053788662,,-0.0190882378849,-0.0040496759879,0.0510106679275,-0.998507478686
2390952000000,,30935,,2390,944262024,"""map""",,,-1.42175662518,-1.12406539917,1.16016542912,,-0.00986822359767,-0.00117470708353,0.0518756898464,-0.998604163557
2390984000000,,30936,,2390,976261308,"""map""",,,-1.44322431087,-1.14209473133,1.22358882427,,-0.00775650448533,6.13908361232e-05,0.0523074421625,-0.998600960396
2391016000000,,30937,,2391,8261308,"""map""",,,-1.46295571327,-1.16049516201,1.29743921757,,-0.00958801406198,0.0058142198199,0.053331146966,-0.998514011448
2391052000000,,30938,,2391,48261308,"""map""",,,-1.48603272438,-1.18411338329,1.39570486546,,-0.0247417241948,0.0234322764354,0.0535880741545,-0.997981528164
2391084000000,,30939,,2391,80272591,"""map""",,,-1.50688815117,-1.19758367538,1.4685806036,,-0.0313103602554,0.0319789121703,0.0535539773541,-0.997561534818
2391116000000,,30940,,2391,112272591,"""map""",,,-1.52812826633,-1.21049582958,1.53768396378,,-0.0461106005748,0.0525435708691,0.0534155249567,-0.996122430676
2391152000000,,30941,,2391,144272591,"""map""",,,-1.54903185368,-1.2249969244,1.60511517525,,-0.0542676058174,0.0623804987854,0.0535232523015,-0.995137711707
2391184000000,,30942,,2391,176271875,"""map""",,,-1.57001745701,-1.24110102654,1.67259061337,,-0.0576992983707,0.0670491038779,0.0536531910355,-0.994633930427
2391216000000,,30943,,2391,208271875,"""map""",,,-1.59130060673,-1.2588968277,1.74144995213,,-0.0610882853004,0.0720618067075,0.0538578982787,-0.99406979486
2391252000000,,30944,,2391,248271875,"""map""",,,-1.61825525761,-1.28339469433,1.8288820982,,-0.0641574570045,0.0731721799195,0.0540749545485,-0.993783449171
2391284000000,,30945,,2391,280271158,"""map""",,,-1.64240527153,-1.29768240452,1.89950406551,,-0.0652412819825,0.0727538852897,0.0541012963288,-0.993742187406
2391316000000,,30946,,2391,312271158,"""map""",,,-1.66722905636,-1.31154346466,1.96874439716,,-0.0651305190768,0.074203527132,0.0742663295583,-0.992338823791
2391352000000,,30947,,2391,344271158,"""map""",,,-1.69176590443,-1.32715809345,2.03507709503,,-0.0667447851924,0.0744900733476,0.0738062967068,-0.992244456998
2391384000000,,30948,,2391,376270440,"""map""",,,-1.7160025835,-1.34436440468,2.09847760201,,-0.0674344577821,0.073956797176,0.0734247412873,-0.992265994037
2391416000000,,30949,,2391,408270440,"""map""",,,-1.74007248878,-1.36301410198,2.15914392471,,-0.0688934912924,0.0726141311145,0.0718833045967,-0.992377809626
2391452000000,,30950,,2391,448270440,"""map""",,,-1.76998007298,-1.38829898834,2.23190546036,,-0.0700467803682,0.0724769182625,0.0700140918652,-0.992440777018
2391484000000,,30951,,2391,480269723,"""map""",,,-1.79554903507,-1.40320837498,2.2893743515,,-0.0705551122733,0.0721363413512,0.0692360188948,-0.992484146125
2391516000000,,30952,,2391,512269723,"""map""",,,-1.82148122787,-1.41778063774,2.34540224075,,-0.0715771421512,0.0707002713703,0.0673394528587,-0.992644767765
2391552000000,,30953,,2391,544269723,"""map""",,,-1.847178936,-1.43428122997,2.39969468117,,-0.0722390720718,0.0704731388756,0.0651574683644,-0.992758606403
2391584000000,,30954,,2391,576269005,"""map""",,,-1.87263166904,-1.45254647732,2.45217514038,,-0.072604299045,0.0705655739937,0.0642239999636,-0.992786170441
2391616000000,,30955,,2391,608269005,"""map""",,,-1.89785504341,-1.47246158123,2.50283122063,,-0.0733259505561,0.0700601147421,0.0626315234395,-0.99287071702
2391652000000,,30956,,2391,648269005,"""map""",,,-1.92913639545,-1.49949419498,2.56365132332,,-0.0737578344165,0.0694128288756,0.0608610607741,-0.992994249433
2391684000000,,30957,,2391,680268287,"""map""",,,-1.95605909824,-1.51595890522,2.61144018173,,-0.0739931829125,0.069517278809,0.0598988482226,-0.993027966911
2391716000000,,30958,,2391,712268287,"""map""",,,-1.98333775997,-1.5321842432,2.65816926956,,-0.0766652346622,0.0712602780282,0.0582626232697,-0.99279902523
2391752000000,,30959,,2391,744268287,"""map""",,,-2.01054096222,-1.55063641071,2.70498228073,,-0.103882830445,0.0924103845232,0.0540007339483,-0.988813787822
2391784000000,,30960,,2391,776267568,"""map""",,,-2.03826117516,-1.57165598869,2.75310468674,,-0.123526393889,0.109185765364,0.0509124236236,-0.98500139464
2391816000000,,30961,,2391,808267568,"""map""",,,-2.0670580864,-1.59563863277,2.80132269859,,-0.155720716544,0.13947422992,0.0449259695549,-0.976872447674
2391852000000,,30962,,2391,848267568,"""map""",,,-2.1049489975,-1.62994945049,2.85888624191,,-0.186542403271,0.171696789646,0.038321347659,-0.966568006829
2391884000000,,30963,,2391,880266850,"""map""",,,-2.13917088509,-1.65429615974,2.90242815018,,-0.195690079736,0.181278498309,0.0361243167398,-0.963088025841
2391916000000,,30964,,2391,912266850,"""map""",,,-2.17557120323,-1.68012166023,2.94242095947,,-0.212062350337,0.198478510624,0.031251846024,-0.956378205411
2391952000000,,30965,,2391,944266850,"""map""",,,-2.21358203888,-1.70972979069,2.97855067253,,-0.217054495712,0.203600934542,0.0268722827015,-0.954312251191
2391984000000,,30966,,2391,976266131,"""map""",,,-2.25338220596,-1.74316298962,3.01139760017,,-0.215330881903,0.201678340193,0.0256301307822,-0.955144820036
2392016000000,,30967,,2392,8266131,"""map""",,,-2.2949886322,-1.78031599522,3.04161047935,,-0.203735442258,0.188735041698,0.023352430795,-0.960377857041
2392052000000,,30968,,2392,48266131,"""map""",,,-2.34927725792,-1.83164930344,3.07674002647,,-0.181898537061,0.165038451592,0.0223318027114,-0.969111189815
2392084000000,,30969,,2392,80265412,"""map""",,,-2.39587473869,-1.86934113503,3.10464072227,,-0.170185123777,0.152446451689,0.0222683717044,-0.973294053795
2392116000000,,30970,,2392,112265412,"""map""",,,-2.44360399246,-1.9078785181,3.13228106499,,-0.147868353003,0.128916049241,0.0228420324595,-0.980302948262
2392152000000,,30971,,2392,144265412,"""map""",,,-2.49131703377,-1.94896972179,3.15944504738,,-0.121813536746,0.101811804115,0.0243466328045,-0.987017320552
2392184000000,,30972,,2392,176264693,"""map""",,,-2.53856515884,-1.99199998379,3.18615269661,,-0.113369634283,0.0930486656167,0.0251041802596,-0.988867567201
2392216000000,,30973,,2392,208264693,"""map""",,,-2.58500552177,-2.03645300865,3.21235585213,,-0.0954530129324,0.0746449557719,0.0273917847563,-0.992253265689
2392252000000,,30974,,2392,248264693,"""map""",,,-2.64156031609,-2.09341168404,3.24400544167,,-0.081303733734,0.0607249817711,0.0300745159577,-0.994383114532
2392284000000,,30975,,2392,280263973,"""map""",,,-2.68782162666,-2.13321185112,3.26867032051,,-0.0775840438623,0.0574014696413,0.0310363070407,-0.994847994271
2392316000000,,30976,,2392,312263973,"""map""",,,-2.7334177494,-2.1719083786,3.29233622551,,-0.0706675583365,0.052233832033,0.0335890573613,-0.995564912164
2392352000000,,30977,,2392,344263973,"""map""",,,-2.77753925323,-2.21154761314,3.31484246254,,-0.0661908794554,0.05040142272,0.0363149890824,-0.995871361899
2392384000000,,30978,,2392,376275253,"""map""",,,-2.82027959824,-2.25195264816,3.33624577522,,-0.0649419609913,0.0503357388322,0.037470276347,-0.995914056657
2392416000000,,30979,,2392,408275253,"""map""",,,-2.8617310524,-2.29300642014,3.35673594475,,-0.0635981515319,0.0507087588564,0.0394972447324,-0.995903562092
2392452000000,,30980,,2392,448275253,"""map""",,,-2.91187381744,-2.34509372711,3.38132429123,,-0.0627853903881,0.0512355009494,0.041713916083,-0.995837813008
2392484000000,,30981,,2392,480274533,"""map""",,,-2.95344209671,-2.38140892982,3.40132474899,,-0.0624022287785,0.0513275964233,0.0427337855233,-0.995813873598
2392516000000,,30982,,2392,512274533,"""map""",,,-2.99461078644,-2.416711092,3.42090344429,,-0.0615187376497,0.0512914327809,0.0443993868296,-0.995797899942
2392552000000,,30983,,2392,544274533,"""map""",,,-3.03449892998,-2.45292162895,3.4396982193,,-0.0603171556941,0.0506470776021,0.0460940694613,-0.995827360589
2392584000000,,30984,,2392,576273813,"""map""",,,-3.07319808006,-2.48987722397,3.45770478249,,-0.0597140807193,0.0501150325794,0.0468813725915,-0.995853913104
2392616000000,,30985,,2392,608273813,"""map""",,,-3.11076068878,-2.52747654915,3.47495961189,,-0.0584876258668,0.0485762959213,0.0484104602555,-0.995929777431
2392652000000,,30986,,2392,648273813,"""map""",,,-3.15616893768,-2.57524037361,3.49551415443,,-0.0574117913386,0.0467928671731,0.0496428762528,-0.996017063555
2392684000000,,30987,,2392,680273092,"""map""",,,-3.19405341148,-2.6082777977,3.51163744926,,-0.056927911932,0.0460078735585,0.0501161432147,-0.99605765097
2392716000000,,30988,,2392,712273092,"""map""",,,-3.23158049583,-2.64037871361,3.52723526955,,-0.0552460376616,0.0438857840165,0.0513781041528,-0.996183838634
2392752000000,,30989,,2392,744273092,"""map""",,,-3.26787567139,-2.67336583138,3.54215621948,,-0.0536170777717,0.0422924276769,0.0522929436466,-0.996294179084
2392784000000,,30990,,2392,776272371,"""map""",,,-3.30293273926,-2.7071158886,3.55649161339,,-0.0526917180294,0.0413100208581,0.0527166037679,-0.996362456978
2392816000000,,30991,,2392,808272371,"""map""",,,-3.33686065674,-2.74152302742,3.57020759583,,-0.0508442912674,0.0391955806398,0.0536579536293,-0.996493575824
2392852000000,,30992,,2392,848272371,"""map""",,,-3.37773036957,-2.78525924683,3.58665680885,,-0.0494046945337,0.0373330824282,0.0543860404374,-0.996598057861
2392884000000,,30993,,2392,880271650,"""map""",,,-3.411465168,-2.81511592865,3.59975743294,,-0.0486717871799,0.0364781336061,0.054703869822,-0.996648339052
2392916000000,,30994,,2392,912271650,"""map""",,,-3.44470000267,-2.84401392937,3.61244440079,,-0.0473265578985,0.0350927107193,0.0552013712218,-0.996735414441
2392952000000,,30995,,2392,944271650,"""map""",,,-3.47672247887,-2.87376070023,3.62464261055,,-0.045722268403,0.0337795584824,0.0557127389348,-0.996827252424
2392984000000,,30996,,2392,976270928,"""map""",,,-3.50757026672,-2.90423774719,3.63633370399,,-0.0449860439605,0.0331514841703,0.0559396575672,-0.996869146391
2393016000000,,30997,,2393,8270928,"""map""",,,-3.53731703758,-2.93532538414,3.64751267433,,-0.0436991505273,0.031750009261,0.0563654671777,-0.996948003145
2393052000000,,30998,,2393,48270928,"""map""",,,-3.57302117348,-2.97487092018,3.66081357002,,-0.0427844249617,0.030585046002,0.0567035270496,-0.997004943537
2393084000000,,30999,,2393,80270206,"""map""",,,-3.60284495354,-3.0013358593,3.6713540554,,-0.0424544072354,0.0301584803824,0.056824446358,-0.997025131877
2393116000000,,31000,,2393,112270206,"""map""",,,-3.63223624229,-3.02681970596,3.68153977394,,-0.0413954044463,0.0291496797583,0.0571557205873,-0.997080765717
2393152000000,,31001,,2393,144270206,"""map""",,,-3.66041207314,-3.05318784714,3.6912753582,,-0.0403077661663,0.0282340572551,0.0573698265777,-0.997139349837
2393184000000,,31002,,2393,176269484,"""map""",,,-3.68746614456,-3.08028626442,3.7005712986,,-0.0399690925309,0.0278767915911,0.0574822743695,-0.997156545751
2393216000000,,31003,,2393,208269484,"""map""",,,-3.71347570419,-3.10799598694,3.70959949493,,-0.0393129563202,0.0270615128317,0.0576634215244,-0.997194646502
2393252000000,,31004,,2393,248269484,"""map""",,,-3.74462842941,-3.14339470863,3.72041702271,,-0.0385992804416,0.0261281583591,0.0578110197879,-0.997238900693
2393284000000,,31005,,2393,280268762,"""map""",,,-3.77102684975,-3.16656064987,3.72902464867,,-0.0382946305083,0.0258387642678,0.0578734814174,-0.997254495027
2393316000000,,31006,,2393,312268762,"""map""",,,-3.79712295532,-3.18875670433,3.73738861084,,-0.037398708364,0.0250736685755,0.0580320378615,-0.997298833512
2393352000000,,31007,,2393,344268762,"""map""",,,-3.82208323479,-3.211830616,3.74554538727,,-0.0363140473638,0.0242522383518,0.0581363513116,-0.997353160799
2393384000000,,31008,,2393,376268039,"""map""",,,-3.84597802162,-3.23568058014,3.75332665443,,-0.035851153795,0.0238182101058,0.0581830500197,-0.997377690265
2393416000000,,31009,,2393,408268039,"""map""",,,-3.86886191368,-3.26019120216,3.76073908806,,-0.0353091282009,0.0229069912898,0.0581806897962,-0.997418488414
2393452000000,,31010,,2393,448268039,"""map""",,,-3.89610767365,-3.29162120819,3.76949453354,,-0.0348561035801,0.022125835014,0.058194092494,-0.997451278663
2393484000000,,31011,,2393,480267316,"""map""",,,-3.91923761368,-3.31174993515,3.77682614326,,-0.0345817559137,0.0218018449455,0.0581956940743,-0.997467884521
2393516000000,,31012,,2393,512267316,"""map""",,,-3.94205713272,-3.33099508286,3.78393864632,,-0.0339012970201,0.0211795447516,0.0582174839949,-0.99750333002
2393552000000,,31013,,2393,544267316,"""map""",,,-3.96382141113,-3.35118746758,3.79078149796,,-0.0331159023519,0.0207343410054,0.0582153766525,-0.997539239135
2393584000000,,31014,,2393,576266593,"""map""",,,-3.98462104797,-3.372215271,3.79733633995,,-0.0327524990532,0.0205169765367,0.058255036837,-0.99755335833
2393616000000,,31015,,2393,608266593,"""map""",,,-4.00449180603,-3.39395546913,3.80355167389,,-0.0321994540339,0.0198777398952,0.0582378409228,-0.997585305641
2393652000000,,31016,,2393,648266593,"""map""",,,-4.02810716629,-3.42203593254,3.81077980995,,-0.0316254626895,0.0191358855557,0.0582382623913,-0.997618180183
2393684000000,,31017,,2393,680277870,"""map""",,,-4.0460691452,-3.44512915611,3.81613993645,,-0.0314158585093,0.0188766323879,0.0582253654556,-0.997630487062
2393716000000,,31018,,2393,712277870,"""map""",,,-4.06325244904,-3.46868252754,3.82121920586,,-0.030721405545,0.0182818764766,0.0581948089904,-0.997665005331
2393752000000,,31019,,2393,744277870,"""map""",,,-4.07968759537,-3.49264550209,3.82608890533,,-0.0296501228764,0.0177708136697,0.058227472798,-0.997704665516
2393784000000,,31020,,2393,776277146,"""map""",,,-4.09814739227,-3.51068162918,3.83106660843,,-0.029172979063,0.0176401630492,0.0582271356233,-0.997721102787
2393816000000,,31021,,2393,808277146,"""map""",,,-4.11660051346,-3.52750921249,3.83591532707,,-0.0278801666317,0.0175149974458,0.0581380371855,-0.997765441271
2393852000000,,31022,,2393,848277146,"""map""",,,-4.13839960098,-3.54974079132,3.8416056633,,-0.0264956755854,0.0173912082005,0.0580838784852,-0.997808557497
2393884000000,,31023,,2393,880276422,"""map""",,,-4.15489578247,-3.56834053993,3.84585475922,,-0.0261073714017,0.0172430672963,0.0580819397301,-0.997821454433
2393916000000,,31024,,2393,912276422,"""map""",,,-4.17063808441,-3.58754253387,3.84982991219,,-0.0255968891018,0.0166916834556,0.0580842578068,-0.997843918703
2393952000000,,31025,,2393,944276422,"""map""",,,-4.18567228317,-3.60728216171,3.85370802879,,-0.0253832750441,0.0162476644309,0.0580572416769,-0.997858290779
2393984000000,,31026,,2393,976275698,"""map""",,,-4.20277929306,-3.62150359154,3.85821342468,,-0.0252383758253,0.0159217491075,0.0580352831688,-0.997868448169
2394016000000,,31027,,2394,8275698,"""map""",,,-4.21990013123,-3.63470578194,3.86283946037,,-0.0239981886735,0.0149529646111,0.0579149960632,-0.997921047436
2394052000000,,31028,,2394,48275698,"""map""",,,-4.24003076553,-3.65249538422,3.86929130554,,0.00923657602303,-0.00200076555801,0.0560177556775,-0.998385126385
2394084000000,,31029,,2394,80274973,"""map""",,,-4.25489807129,-3.66718196869,3.87409281731,,0.0306338961751,-0.0127519195339,0.0548848905363,-0.99794119363
2394116000000,,31030,,2394,112274973,"""map""",,,-4.26823425293,-3.68130302429,3.87769198418,,0.0872139072753,-0.0414730336729,0.0516271920275,-0.993986133365
2394152000000,,31031,,2394,144274973,"""map""",,,-4.27969503403,-3.6941177845,3.87986135483,,0.119359406099,-0.0598335680226,0.0492862296207,-0.989820296712
