rosbagTimestamp,header,seq,stamp,secs,nsecs,frame_id,pose,position,x,y,z,orientation,x,y,z,w
310980000000,,6202,,310,976088497,"""map""",,,0.174674943089,-0.134713917971,-0.0418990813196,,0.00216468024949,-0.0120513911671,0.0346664151029,-0.999323989582
311012000000,,6203,,311,8088497,"""map""",,,0.175933003426,-0.134799405932,-0.0420963540673,,0.00212921729847,-0.0120536621579,0.0346592501387,-0.999324242464
311048000000,,6204,,311,40088497,"""map""",,,0.176779732108,-0.134912014008,-0.0420902445912,,0.00210328216938,-0.0120315024645,0.0347038415044,-0.999322978058
311080000000,,6205,,311,72088196,"""map""",,,0.175525024533,-0.135255232453,-0.041541531682,,0.00206419426011,-0.0120344217923,0.0346719363401,-0.999324200317
311112000000,,6206,,311,104088196,"""map""",,,0.175005838275,-0.135554656386,-0.0410622619092,,0.0020846822383,-0.012006446163,0.034730098991,-0.999322430149
311148000000,,6207,,311,144088196,"""map""",,,0.175294727087,-0.135799080133,-0.0404040627182,,0.00204832234965,-0.0119864504468,0.0347753647063,-0.999321165744
311180000000,,6208,,311,176087894,"""map""",,,0.176217824221,-0.135879606009,-0.0399789772928,,0.00232098117865,-0.0120366430629,0.0348056682904,-0.999318931961
311212000000,,6209,,311,208087894,"""map""",,,0.177657872438,-0.135914698243,-0.0395609512925,,0.00236444050637,-0.0120770177681,0.0348390064476,-0.99931720394
311248000000,,6210,,311,240087894,"""map""",,,0.178612753749,-0.136025980115,-0.039122518152,,0.00233800290782,-0.0121100078845,0.0348336537978,-0.999317077499
311280000000,,6211,,311,272087592,"""map""",,,0.177303254604,-0.136428505182,-0.038363199681,,0.00233620113005,-0.0121037135161,0.0348274582111,-0.999317372527
311312000000,,6212,,311,304087592,"""map""",,,0.176707297564,-0.136709883809,-0.0376592800021,,0.00229783169283,-0.0121133638273,0.0348297341409,-0.99931720394
311348000000,,6213,,311,344087592,"""map""",,,0.176889121532,-0.136916995049,-0.0369114726782,,0.00233510597053,-0.0121229028445,0.0348151091845,-0.999317583261
311380000000,,6214,,311,376087291,"""map""",,,0.17773526907,-0.137022837996,-0.0364931561053,,0.00229615569706,-0.0121635495287,0.0347861964464,-0.999318173317
311412000000,,6215,,311,408087291,"""map""",,,0.179123848677,-0.137060403824,-0.0362879633904,,0.00229685243715,-0.0121636983597,0.0347669774835,-0.999318847667
311448000000,,6216,,311,440087291,"""map""",,,0.180035099387,-0.137079790235,-0.0359988771379,,0.00221546522632,-0.0121321372849,0.0347642800852,-0.999319522017
311480000000,,6217,,311,472098990,"""map""",,,0.178659841418,-0.137199923396,-0.0354959480464,,0.00217081360377,-0.0121054000486,0.0347506666531,-0.999320322807
311512000000,,6218,,311,504098990,"""map""",,,0.177999287844,-0.137252673507,-0.0350089035928,,0.00217371152888,-0.0120946351508,0.0347541226947,-0.999320322807
311548000000,,6219,,311,544098990,"""map""",,,0.178059414029,-0.137215301394,-0.0345165282488,,0.00221503881875,-0.0120689693664,0.0347773456082,-0.999319774898
311580000000,,6220,,311,576098689,"""map""",,,0.178828686476,-0.137096613646,-0.034252692014,,0.00246673354188,-0.0125349827899,0.0347690005322,-0.999313705751
311612000000,,6221,,311,608098689,"""map""",,,0.180103763938,-0.136923953891,-0.0340906009078,,0.0024574530034,-0.0125338398859,0.0347618777148,-0.999314085073
311648000000,,6222,,311,640098689,"""map""",,,0.181873723865,-0.136690035462,-0.0339443944395,,0.00243080335353,-0.012550802346,0.0346978145051,-0.999316108122
311680000000,,6223,,311,672098387,"""map""",,,0.184114411473,-0.136387094855,-0.0340126156807,,0.00263548326715,-0.0125320348154,0.0346648978164,-0.999316993206
311712000000,,6224,,311,704098387,"""map""",,,0.186795979738,-0.136063218117,-0.0339618213475,,0.00260885041015,-0.0125659854189,0.0346452995318,-0.999317288234
311748000000,,6225,,311,744098387,"""map""",,,0.188520103693,-0.135795876384,-0.0338851362467,,0.00263276907596,-0.0125754681306,0.0345715425469,-0.999319648457
311780000000,,6226,,311,776110086,"""map""",,,0.187948182225,-0.135773584247,-0.0337782762945,,0.00262406706883,-0.0125526495634,0.0345652626665,-0.999320196366
311812000000,,6227,,311,808110086,"""map""",,,0.188055738807,-0.135658681393,-0.0338057056069,,0.00261600121569,-0.0125529353717,0.0345370664249,-0.999321165744
311848000000,,6228,,311,840110086,"""map""",,,0.18876299262,-0.135494023561,-0.0338343642652,,0.00253301538806,-0.0125428161768,0.0345756307912,-0.999320196366
311880000000,,6229,,311,872109785,"""map""",,,0.190029785037,-0.135273441672,-0.0337504409254,,0.00248295415166,-0.0125277078487,0.0345223571747,-0.999322388002
311912000000,,6230,,311,904109785,"""map""",,,0.191815078259,-0.134979888797,-0.0336648672819,,0.00249309870053,-0.0125540848611,0.0345418711656,-0.999321334331
311948000000,,6231,,311,944109785,"""map""",,,0.192586153746,-0.134613931179,-0.0334292277694,,0.00242963180285,-0.0125808774152,0.0345087015958,-0.999322303709
311980000000,,6232,,311,976109483,"""map""",,,0.191443786025,-0.134355545044,-0.033163331449,,0.00245215336647,-0.0124997440732,0.0344983334711,-0.999323568114
312012000000,,6233,,312,8109483,"""map""",,,0.191051781178,-0.134035125375,-0.0329415425658,,0.00246450963708,-0.0124858744674,0.0345004829604,-0.999323694555
312048000000,,6234,,312,40109483,"""map""",,,0.191330969334,-0.133645072579,-0.0327138975263,,0.00244679742399,-0.0125055399235,0.0345197019233,-0.999322851618
312080000000,,6235,,312,72109182,"""map""",,,0.192225500941,-0.133206292987,-0.0325672328472,,0.00247895217668,-0.0124367674619,0.0345013258973,-0.999324200317
312112000000,,6236,,312,104109182,"""map""",,,0.193676561117,-0.132710203528,-0.0324273817241,,0.00244213031906,-0.0124108445159,0.034472750334,-0.99932563331
312148000000,,6237,,312,144109182,"""map""",,,0.194076672196,-0.132306799293,-0.0318523049355,,0.00246904305747,-0.0124230914681,0.0344881760806,-0.999324874666
312180000000,,6238,,312,176108880,"""map""",,,0.192592337728,-0.132246032357,-0.0309533271939,,0.00242568745052,-0.0124558695332,0.0344742676206,-0.999325043254
312212000000,,6239,,312,208108880,"""map""",,,0.191840410233,-0.132073864341,-0.0301340818405,,0.00240629133912,-0.0124379156343,0.0345186482521,-0.999323820995
312248000000,,6240,,312,248108880,"""map""",,,0.191865518689,-0.131779700518,-0.0293528661132,,0.00240087020073,-0.0124994737407,0.0345356755789,-0.999322472296
312280000000,,6241,,312,272108579,"""map""",,,0.19232596457,-0.131547257304,-0.0290153939277,,0.00238957846733,-0.0124703887933,0.0345525343183,-0.999322219415
312312000000,,6242,,312,304108579,"""map""",,,0.193422943354,-0.131187140942,-0.0286598820239,,0.00239477405422,-0.012470721029,0.034542039753,-0.999322598736
312348000000,,6243,,312,344108579,"""map""",,,0.193478450179,-0.130934610963,-0.0278345756233,,0.00234830089757,-0.0123979936784,0.0345280891461,-0.999324073876
312380000000,,6244,,312,376108277,"""map""",,,0.191868558526,-0.130953595042,-0.0269038751721,,0.00231879053035,-0.0123795435662,0.0345336525301,-0.99932415817
312412000000,,6245,,312,408108277,"""map""",,,0.191025286913,-0.130882173777,-0.0260295253247,,0.00233814614125,-0.0123371573368,0.0345585613176,-0.999323778848
312448000000,,6246,,312,440108277,"""map""",,,0.190869301558,-0.130735993385,-0.0252807233483,,0.00226956893819,-0.0123497161098,0.0345830907834,-0.999322935911
312480000000,,6247,,312,472107975,"""map""",,,0.191321879625,-0.130487889051,-0.024602631107,,0.00227813100461,-0.0123055860545,0.0345960298659,-0.999323062352
312512000000,,6248,,312,512107975,"""map""",,,0.192683905363,-0.130069106817,-0.0237671677023,,0.00231724196294,-0.0122749387102,0.0345659370161,-0.999324326757
312548000000,,6249,,312,544107975,"""map""",,,0.19219212234,-0.129890024662,-0.0231124255806,,0.0022694359122,-0.0122726005479,0.0345705731694,-0.999324326757
312580000000,,6250,,312,576107673,"""map""",,,0.190259516239,-0.129852712154,-0.0224649421871,,0.00226263676942,-0.0122335162606,0.0346183676956,-0.999323146645
312612000000,,6251,,312,608107673,"""map""",,,0.189123466611,-0.129714384675,-0.0220470372587,,0.00229775069186,-0.0122015370101,0.0345997809354,-0.999324116023
312648000000,,6252,,312,640107673,"""map""",,,0.188668236136,-0.129466444254,-0.0217088721693,,0.00221676749808,-0.0122097628895,0.0346151223883,-0.999323694555
312680000000,,6253,,312,672107372,"""map""",,,0.188878178596,-0.129150420427,-0.0214205421507,,0.00219211323806,-0.0121704895999,0.0346411269938,-0.999323315233
312712000000,,6254,,312,704107372,"""map""",,,0.189695969224,-0.12878832221,-0.0211521182209,,0.0022014737897,-0.0121839858111,0.0346699554382,-0.999322135121
312748000000,,6255,,312,744107372,"""map""",,,0.189434081316,-0.128649920225,-0.0207402817905,,0.0022370984134,-0.0121399621107,0.0346579014395,-0.999322978058
312780000000,,6256,,312,776107070,"""map""",,,0.187607288361,-0.128841206431,-0.0204211752862,,0.00246639537928,-0.0120531662739,0.0346771625493,-0.999322851618
312812000000,,6257,,312,808107070,"""map""",,,0.186527237296,-0.12891484797,-0.0199901740998,,0.00244383002244,-0.0120450803351,0.0346785955422,-0.999322935911
312848000000,,6258,,312,840107070,"""map""",,,0.18612664938,-0.12887147069,-0.019668046385,,0.00247971378341,-0.0120583279457,0.0346756874096,-0.999322809471
312880000000,,6259,,312,872106768,"""map""",,,0.186367973685,-0.128761693835,-0.0195545423776,,0.00220094201501,-0.0120686216549,0.034676403906,-0.999323273086
312912000000,,6260,,312,904106768,"""map""",,,0.187188193202,-0.128587424755,-0.0194694194943,,0.002234972961,-0.0120631820773,0.0346952435473,-0.999322640883
312948000000,,6261,,312,944106768,"""map""",,,0.186938896775,-0.128506660461,-0.0192155428231,,0.00225552580583,-0.0120546687432,0.0346840746325,-0.999323104499
312980000000,,6262,,312,976106465,"""map""",,,0.185153931379,-0.128622055054,-0.0188473407179,,0.0022675050597,-0.0119988054004,0.0346953699879,-0.99932335738
313012000000,,6263,,313,8106465,"""map""",,,0.184154838324,-0.128620058298,-0.0184911601245,,0.00226729531327,-0.0119198159501,0.0346842432199,-0.999324706079
313048000000,,6264,,313,40106465,"""map""",,,0.18385347724,-0.128498256207,-0.0182417649776,,0.00220498547829,-0.0119267566799,0.0346808293251,-0.999324832519
313080000000,,6265,,313,72106163,"""map""",,,0.184188008308,-0.128275424242,-0.0180722400546,,0.00212776290292,-0.0119440095582,0.0346580278801,-0.99932563331
313112000000,,6266,,313,104106163,"""map""",,,0.18511210382,-0.127969413996,-0.0179779045284,,0.00211412247053,-0.011940048413,0.0346781740737,-0.99932495896
313148000000,,6267,,313,144106163,"""map""",,,0.184982225299,-0.127808526158,-0.0176181830466,,0.0021084833539,-0.011977741525,0.0346643920542,-0.999325001107
313180000000,,6268,,313,176105861,"""map""",,,0.183335885406,-0.12793815136,-0.017147526145,,0.00214130784636,-0.0119956684236,0.0346246897229,-0.999326096925
313212000000,,6269,,313,208105861,"""map""",,,0.182474687696,-0.127975955606,-0.0167819019407,,0.00213538193361,-0.0119725459381,0.0346427285741,-0.99932575975
313248000000,,6270,,313,240105861,"""map""",,,0.182305157185,-0.127933248878,-0.0164549313486,,0.00212604047976,-0.0119740191022,0.0346651085506,-0.999325043254
313280000000,,6271,,313,272105559,"""map""",,,0.18274512887,-0.127792343497,-0.0161640234292,,0.00210434538949,-0.0119386210178,0.0346594187261,-0.999325675456
313312000000,,6272,,313,304105559,"""map""",,,0.183753430843,-0.127546042204,-0.0159756001085,,0.00209305398536,-0.0119002226046,0.0346673423336,-0.999325928337
313348000000,,6273,,313,344105559,"""map""",,,0.183763042092,-0.127466514707,-0.0155901517719,,0.0021471484776,-0.0118922222766,0.0346629590614,-0.999326012631
313380000000,,6274,,313,376105257,"""map""",,,0.182203248143,-0.12768240273,-0.01517815236,,0.00216696013058,-0.0118429684158,0.0345726805118,-0.999329721554
313412000000,,6275,,313,408105257,"""map""",,,0.18138115108,-0.127749398351,-0.0148437162861,,0.00217774544326,-0.0118621152681,0.034592110209,-0.99932883647
313448000000,,6276,,313,440105257,"""map""",,,0.181224420667,-0.127716422081,-0.014644539915,,0.00216055315106,-0.0118826424297,0.0346206436255,-0.999327529918
313480000000,,6277,,313,472104954,"""map""",,,0.181693926454,-0.127573102713,-0.0144195081666,,0.0021374991542,-0.011919685229,0.0346735379203,-0.999325380428
313512000000,,6278,,313,504104954,"""map""",,,0.182681664824,-0.12734156847,-0.0141446627676,,0.0021057075888,-0.0119295446281,0.0346750973537,-0.999325253988
313548000000,,6279,,313,544104954,"""map""",,,0.182625800371,-0.127277299762,-0.0135744968429,,0.00209873722446,-0.0119430991204,0.034682810227,-0.999324874666
313580000000,,6280,,313,576116652,"""map""",,,0.180967733264,-0.127456516027,-0.0128572005779,,0.00204811820085,-0.0119185123612,0.034647491168,-0.999326476247
313612000000,,6281,,313,608116652,"""map""",,,0.180067703128,-0.127537891269,-0.0121868308634,,0.00204097924911,-0.0119404290517,0.0346377130991,-0.99932656054
313648000000,,6282,,313,640116652,"""map""",,,0.179864928126,-0.12753020227,-0.0115672545508,,0.00212062790245,-0.0119229891468,0.0345808570005,-0.999328541442
313680000000,,6283,,313,672116350,"""map""",,,0.18027856946,-0.127436414361,-0.0110043650493,,0.00211832661867,-0.0119584112681,0.0345738184768,-0.999328415002
313712000000,,6284,,313,704116350,"""map""",,,0.181265369058,-0.127268373966,-0.0105282301083,,0.00210511226457,-0.0119789762959,0.0345749142948,-0.999328077827
313748000000,,6285,,313,744116350,"""map""",,,0.181341037154,-0.127279907465,-0.00972624868155,,0.00208439774707,-0.0119621774841,0.0345645883169,-0.999328710029
313780000000,,6286,,313,776116047,"""map""",,,0.179890081286,-0.127591624856,-0.00882375147194,,0.0020559097702,-0.0118661873781,0.0345449478855,-0.999330564491
313812000000,,6287,,313,808116047,"""map""",,,0.179166391492,-0.127791777253,-0.00800315197557,,0.00206467368051,-0.0118153609129,0.034544273536,-0.99933123884
313844000000,,6288,,313,840116047,"""map""",,,0.179090470076,-0.127893924713,-0.00736613385379,,0.00230476748359,-0.0117505281939,0.0345302386354,-0.999331955337
313880000000,,6289,,313,872115744,"""map""",,,0.179593101144,-0.127927809954,-0.00672928802669,,0.00224472172463,-0.0117548755755,0.0345140120987,-0.99933258754
313912000000,,6290,,313,904115744,"""map""",,,0.180619955063,-0.127871677279,-0.00605627615005,,0.00225299040947,-0.0117859680959,0.0344944981079,-0.999332882567
313944000000,,6291,,313,936115744,"""map""",,,0.181188836694,-0.127934277058,-0.00543164182454,,0.00224044217314,-0.011754761318,0.0345185218115,-0.999332461099
313980000000,,6292,,313,976115441,"""map""",,,0.179301947355,-0.128601416945,-0.0046402788721,,0.00221718402748,-0.0117388821636,0.0344960996881,-0.999333472623
314012000000,,6293,,314,8115441,"""map""",,,0.178569793701,-0.129024833441,-0.00402938760817,,0.00216437929465,-0.0117640807106,0.034542587662,-0.999331660309
314044000000,,6294,,314,40115441,"""map""",,,0.178452581167,-0.129390865564,-0.00356176751666,,0.00218051791564,-0.0116828462821,0.0345784967769,-0.999331323134
314080000000,,6295,,314,72115138,"""map""",,,0.178933367133,-0.129660189152,-0.00324383820407,,0.00216561999251,-0.0116752233002,0.0345404381727,-0.999332798274
314112000000,,6296,,314,104115138,"""map""",,,0.179943114519,-0.129830121994,-0.0030926624313,,0.00215999503459,-0.0116995627759,0.0345585191708,-0.99933191319
314144000000,,6297,,314,136115138,"""map""",,,0.180501505733,-0.130099520087,-0.00299444817938,,0.00215869934827,-0.0117224692588,0.0345812363221,-0.999330859519
314180000000,,6298,,314,176114835,"""map""",,,0.178661182523,-0.131008535624,-0.00303654605523,,0.00212270495183,-0.0117341264844,0.0346014246625,-0.999330058729
314212000000,,6299,,314,208114835,"""map""",,,0.178003355861,-0.131572514772,-0.00317269423977,,0.00209714157112,-0.011726322732,0.0346112870251,-0.999329890141
314244000000,,6300,,314,240114835,"""map""",,,0.177946448326,-0.132030844688,-0.00330758397467,,0.00208095685202,-0.0117639048793,0.0346517058528,-0.999328077827
314280000000,,6301,,314,272114532,"""map""",,,0.178486958146,-0.132428556681,-0.00347935059108,,0.00207884160706,-0.0117862519286,0.0346394832667,-0.999328246414
314312000000,,6302,,314,304114532,"""map""",,,0.179564088583,-0.132761731744,-0.00374175142497,,0.00208125319704,-0.0117862492944,0.034685591919,-0.999326644834
314344000000,,6303,,314,336114532,"""map""",,,0.180100798607,-0.13321557641,-0.00398552743718,,0.00204281724684,-0.0117809447184,0.0346718520464,-0.99932723489
314380000000,,6304,,314,376114228,"""map""",,,0.17794534564,-0.134302034974,-0.00428727129474,,0.00205640071513,-0.0117221179253,0.0346868141776,-0.999327445624
314412000000,,6305,,314,408114228,"""map""",,,0.176982671022,-0.135062545538,-0.00455184653401,,0.00180480049313,-0.0116894402883,0.0346918717994,-0.999328119974
314444000000,,6306,,314,440114228,"""map""",,,0.176659762859,-0.135690644383,-0.00452898675576,,0.00178869578719,-0.0117059177304,0.0346824730522,-0.999328246414
314480000000,,6307,,314,472113925,"""map""",,,0.176928654313,-0.136197715998,-0.00445061782375,,0.00178945113774,-0.0117061778555,0.0346611888937,-0.999328962911
314512000000,,6308,,314,504113925,"""map""",,,0.177731767297,-0.136600926518,-0.00434356089681,,0.00175952457039,-0.0117082769661,0.0346653614317,-0.999328920764
314544000000,,6309,,314,536113925,"""map""",,,0.178068011999,-0.136969342828,-0.00408578198403,,0.00170224634472,-0.0117174327104,0.0346778368989,-0.999328499295
314580000000,,6310,,314,576113621,"""map""",,,0.175917550921,-0.137514799833,-0.00353451771662,,0.00165579195658,-0.0116630652515,0.0346580278801,-0.999329847994
314612000000,,6311,,314,608113621,"""map""",,,0.174971967936,-0.137832984328,-0.00312607875094,,0.00167758187726,-0.0116530171794,0.0346803657098,-0.999329173645
314644000000,,6312,,314,640113621,"""map""",,,0.174676507711,-0.138040974736,-0.00288958544843,,0.00197141390001,-0.0116686694652,0.034708688392,-0.999327487771
314680000000,,6313,,314,672113318,"""map""",,,0.174924492836,-0.13821773231,-0.00256922608241,,0.00192013896608,-0.0116259305852,0.0346943163167,-0.999328541442
314712000000,,6314,,314,704113318,"""map""",,,0.175700515509,-0.138353735209,-0.00227966532111,,0.00190024828776,-0.0116343546866,0.0346799020945,-0.999328962911
314744000000,,6315,,314,736113318,"""map""",,,0.176070943475,-0.138656795025,-0.00196218886413,,0.00189834180141,-0.0116233089195,0.0345819106717,-0.999332461099
314780000000,,6316,,314,776113014,"""map""",,,0.174090966582,-0.13963906467,-0.00131706218235,,0.00189537604622,-0.0116111531757,0.034575420057,-0.999332882567
314812000000,,6317,,314,808113014,"""map""",,,0.173231363297,-0.140295818448,-0.000846448703669,,0.00190853211912,-0.0116417547512,0.03456066866,-0.999333051155
314844000000,,6318,,314,840113014,"""map""",,,0.172968387604,-0.140867456794,-0.000276717502857,,0.00186864243191,-0.0116593869511,0.0345637032331,-0.999332798274
314880000000,,6319,,314,872112710,"""map""",,,0.17326118052,-0.141354352236,0.000235924715525,,0.00182274747734,-0.0116291910391,0.0345449478855,-0.999333851945
314912000000,,6320,,314,904112710,"""map""",,,0.17408183217,-0.141788944602,0.00067675759783,,0.00178866384778,-0.0116552535965,0.0345194068953,-0.999334526295
314944000000,,6321,,314,936112710,"""map""",,,0.17440097034,-0.142189994454,0.00113459606655,,0.00181304547037,-0.0115914225237,0.034533694677,-0.999334652735
314980000000,,6322,,314,976112406,"""map""",,,0.172134295106,-0.142700642347,0.00178467843216,,0.00178111528136,-0.0115197043926,0.0345533772552,-0.999334947763
315012000000,,6323,,315,8112406,"""map""",,,0.171069249511,-0.143044650555,0.00211900705472,,0.00177722888094,-0.0115133477918,0.0345666956594,-0.999334526295
315044000000,,6324,,315,40112406,"""map""",,,0.17065051198,-0.14329944551,0.00236488203518,,0.00171854071148,-0.0114782157594,0.0346002024039,-0.999333894092
315080000000,,6325,,315,72112102,"""map""",,,0.170806542039,-0.143465980887,0.00265189749189,,0.00166920354476,-0.0114177880446,0.0346663729561,-0.999332376805
315112000000,,6326,,315,104112102,"""map""",,,0.171496421099,-0.143543899059,0.00280602485873,,0.00165557529544,-0.0113898371108,0.0346578171458,-0.999333009008
315144000000,,6327,,315,136112102,"""map""",,,0.171819478273,-0.143705397844,0.00306151714176,,0.00175187985647,-0.0113644182806,0.0346616525091,-0.999332966861
315180000000,,6328,,315,176111797,"""map""",,,0.169907167554,-0.144302755594,0.0038416357711,,0.00207302797614,-0.0115611719525,0.034641084847,-0.999330859519
315212000000,,6329,,315,208111797,"""map""",,,0.169084623456,-0.144720479846,0.00447127921507,,0.00206306749046,-0.0115320544071,0.0346873199398,-0.999329552966
315244000000,,6330,,315,240111797,"""map""",,,0.168842926621,-0.14508678019,0.00503277219832,,0.00199270168051,-0.0114522114831,0.0346468168184,-0.999332039631
315280000000,,6331,,315,272111493,"""map""",,,0.169124439359,-0.145395085216,0.00541399652138,,0.00193654166341,-0.0114375173795,0.0346606409847,-0.999331871043
315312000000,,6332,,315,304111493,"""map""",,,0.169900536537,-0.145646214485,0.00551842711866,,0.00195820909481,-0.0114290985465,0.0346725685428,-0.999331491721
315344000000,,6333,,315,336111493,"""map""",,,0.170221328735,-0.14592653513,0.00558008207008,,0.00197813138327,-0.0116182667735,0.0346426442804,-0.99933031161
315380000000,,6334,,315,376111189,"""map""",,,0.168105557561,-0.146426901221,0.00575081119314,,0.00194812480276,-0.0115898551878,0.0346717256059,-0.99932963726
315412000000,,6335,,315,408111189,"""map""",,,0.167181700468,-0.146762907505,0.0058680344373,,0.00194409352256,-0.0116389216927,0.0346754345285,-0.999328962911
315444000000,,6336,,315,440111189,"""map""",,,0.166845887899,-0.147030681372,0.00604563113302,,0.00187528945091,-0.0116395058217,0.0346503150068,-0.999329974435
315480000000,,6337,,315,472110884,"""map""",,,0.167033240199,-0.147253632545,0.00628033559769,,0.00186302241308,-0.011630562458,0.034615206682,-0.999331280987
315512000000,,6338,,315,504110884,"""map""",,,0.167688652873,-0.147425740957,0.00647691823542,,0.00186353772416,-0.0116240372698,0.0346026047743,-0.999331828896
315544000000,,6339,,315,544110884,"""map""",,,0.167298212647,-0.147608190775,0.00674679363146,,0.00184199574549,-0.0116305631166,0.0345677493306,-0.999333051155
315580000000,,6340,,315,576110579,"""map""",,,0.165475487709,-0.14777135849,0.00706467963755,,0.00178799015675,-0.0116222032233,0.0345200812449,-0.999334863469
315612000000,,6341,,315,608110579,"""map""",,,0.16434033215,-0.147903338075,0.00723102642223,,0.00180332535343,-0.0116416233716,0.0344848464796,-0.9993357907
315644000000,,6342,,315,640110579,"""map""",,,0.163790851831,-0.148002400994,0.00735116563737,,0.00183651237464,-0.0116355051638,0.0344792409487,-0.999336001434
315680000000,,6343,,315,672110275,"""map""",,,0.163795411587,-0.148057818413,0.00722831394523,,0.00182845738749,-0.0116243267001,0.0344709801664,-0.999336422903
315712000000,,6344,,315,704110275,"""map""",,,0.164308100939,-0.148053601384,0.00699792196974,,0.0018423243592,-0.0116071446153,0.034473593271,-0.999336507196
315744000000,,6345,,315,736110275,"""map""",,,0.164428859949,-0.148051247001,0.00682945456356,,0.00186057592024,-0.011617563448,0.0345075636309,-0.999335242791
315780000000,,6346,,315,776109970,"""map""",,,0.162268072367,-0.148156180978,0.00659565813839,,0.0018590609386,-0.011734330304,0.0345164987628,-0.999333556917
315812000000,,6347,,315,808109970,"""map""",,,0.161272913218,-0.148210674524,0.00635344348848,,0.00188415214289,-0.0117361037643,0.0344922643249,-0.999334357707
315844000000,,6348,,315,840109970,"""map""",,,0.160864308476,-0.148228824139,0.00608635274693,,0.00189416399505,-0.0117455874638,0.0345313344535,-0.999332798274
315880000000,,6349,,315,872109665,"""map""",,,0.160977870226,-0.148234724998,0.00578842824325,,0.00192267139898,-0.0117321014601,0.0345551895697,-0.999332123924
315912000000,,6350,,315,904109665,"""map""",,,0.161533772945,-0.148204728961,0.00556404329836,,0.00192397992692,-0.0117146019569,0.0345803090914,-0.999331449575
315944000000,,6351,,315,936109665,"""map""",,,0.161715522408,-0.14816391468,0.00545893283561,,0.00190434278824,-0.0117316905283,0.0345148971825,-0.999333556917
315980000000,,6352,,315,976109360,"""map""",,,0.159695848823,-0.148200243711,0.00539812399074,,0.00188718902089,-0.011720633566,0.0345497104794,-0.999332461099
316012000000,,6353,,316,8109360,"""map""",,,0.158754169941,-0.14819252491,0.00535212317482,,0.00187188378798,-0.0117281245098,0.0345427983963,-0.999332629686
316040000000,,6354,,316,40109360,"""map""",,,0.158381402493,-0.148185387254,0.00518101919442,,0.00187870433345,-0.0117231439377,0.0345710367848,-0.999331786749
316080000000,,6355,,316,72109055,"""map""",,,0.158508092165,-0.148143991828,0.00492274481803,,0.00186909419345,-0.0117000586599,0.0346108234098,-0.999330606638
316112000000,,6356,,316,104109055,"""map""",,,0.159083873034,-0.148035392165,0.00463417731225,,0.00189066613589,-0.0116801765427,0.0345929952928,-0.999331491721
316144000000,,6357,,316,136109055,"""map""",,,0.159290269017,-0.148008704185,0.00427776388824,,0.00188164177123,-0.0116998153277,0.034587094734,-0.999331407428
316180000000,,6358,,316,176108750,"""map""",,,0.157363384962,-0.148342266679,0.00387028767727,,0.00187220976751,-0.0116635667331,0.0345330203274,-0.999333809798
316212000000,,6359,,316,208108750,"""map""",,,0.156511023641,-0.148553043604,0.00360009633005,,0.00187882550564,-0.0116498018358,0.0344969847719,-0.99933511635
316244000000,,6360,,316,240108750,"""map""",,,0.156182274222,-0.148712009192,0.00336316949688,,0.00194443695352,-0.0116057471839,0.0345114832878,-0.999335032057
316280000000,,6361,,316,272108445,"""map""",,,0.156350418925,-0.14884313941,0.00315439654514,,0.00193865987182,-0.0115740306925,0.0345335260896,-0.999334652735
316312000000,,6362,,316,304108445,"""map""",,,0.156994760036,-0.148921772838,0.00298697198741,,0.00185219264865,-0.0117983233787,0.0345404803196,-0.999331997484
316344000000,,6363,,316,336108445,"""map""",,,0.157216697931,-0.148952648044,0.00305456994101,,0.00188203064176,-0.0118226796473,0.0344786930397,-0.999333767651
316380000000,,6364,,316,376108140,"""map""",,,0.155229225755,-0.14894901216,0.00368377449922,,0.00182307477396,-0.0118536921546,0.034509207358,-0.999332418952
316412000000,,6365,,316,408108140,"""map""",,,0.154337391257,-0.148875117302,0.0041415556334,,0.00181886865018,-0.0118698548124,0.0345401852916,-0.999331196694
316444000000,,6366,,316,440108140,"""map""",,,0.153973639011,-0.148736819625,0.00455403840169,,0.00182522590959,-0.0117710036598,0.034525054573,-0.999332840421
316480000000,,6367,,316,472107835,"""map""",,,0.154115304351,-0.148524522781,0.0047277091071,,0.00180299673973,-0.0117325650754,0.0345483617803,-0.999332545393
316512000000,,6368,,316,504107835,"""map""",,,0.154689311981,-0.148258730769,0.00471580820158,,0.00184471059522,-0.011747979956,0.0345901293071,-0.999330901666
316544000000,,6369,,316,536107835,"""map""",,,0.155688554049,-0.147944301367,0.00463054189458,,0.00182100595638,-0.0117379038957,0.0346386824766,-0.999329300085
316580000000,,6370,,316,576107529,"""map""",,,0.157492786646,-0.147512763739,0.00463450839743,,0.00188039975629,-0.0117110724876,0.0346675952147,-0.999328541442
316612000000,,6371,,316,608107529,"""map""",,,0.159303814173,-0.14711548388,0.00452154967934,,0.00187814852189,-0.0116888851353,0.0346761931718,-0.999328541442
316644000000,,6372,,316,640107529,"""map""",,,0.160478100181,-0.146780535579,0.00449987221509,,0.00186723742721,-0.0116591469117,0.0346836110171,-0.999328625736
316680000000,,6373,,316,672107224,"""map""",,,0.15932905674,-0.146670594811,0.00463705509901,,0.00181333424214,-0.0116800464802,0.0347325856551,-0.999326771274
316712000000,,6374,,316,704107224,"""map""",,,0.158741280437,-0.146491900086,0.0048005040735,,0.00182145244956,-0.0116831827984,0.0346885000516,-0.999328288561
316744000000,,6375,,316,736107224,"""map""",,,0.158658802509,-0.146238207817,0.00483372388408,,0.00180913536236,-0.011623656631,0.0346482919581,-0.999330395903
316780000000,,6376,,316,776106919,"""map""",,,0.159196645021,-0.145834118128,0.00477255042642,,0.00198347580122,-0.0115878884446,0.0346466060841,-0.999330480197
316812000000,,6377,,316,808106919,"""map""",,,0.160097241402,-0.145468041301,0.00479407748207,,0.00201740598991,-0.0115495512761,0.0346429393083,-0.999331028106
316844000000,,6378,,316,840106919,"""map""",,,0.160524338484,-0.145110249519,0.00473128259182,,0.00196961113442,-0.01150079297,0.0346713884311,-0.999330648785
316880000000,,6379,,316,872106613,"""map""",,,0.158864438534,-0.144860163331,0.00425301957875,,0.00196024761934,-0.0114826543493,0.034661947537,-0.99933123884
316912000000,,6380,,316,904106613,"""map""",,,0.157833054662,-0.144568428397,0.00385518372059,,0.00194847317281,-0.0114615200097,0.0346506943284,-0.999331871043
316944000000,,6381,,316,936106613,"""map""",,,0.157373026013,-0.144262984395,0.00347804487683,,0.00195880672395,-0.0114273339765,0.0346893008417,-0.999330943812
316980000000,,6382,,316,976106308,"""map""",,,0.15752966702,-0.14384098351,0.00285989558324,,0.0019515433073,-0.0113865908156,0.034710079238,-0.999330648785
317012000000,,6383,,317,8106308,"""map""",,,0.158155754209,-0.143489047885,0.00247458019294,,0.00199309318522,-0.0113920465276,0.0346885000516,-0.999331323134
317044000000,,6384,,317,40106308,"""map""",,,0.158330842853,-0.1431953758,0.00203098566271,,0.00203684819942,-0.0113571884497,0.0346359007846,-0.999333430477
317080000000,,6385,,317,80106002,"""map""",,,0.156086206436,-0.143138721585,0.00170886074193,,0.00198558413146,-0.0113211782482,0.0346161760595,-0.999334610588
317112000000,,6386,,317,104106002,"""map""",,,0.155206307769,-0.143032461405,0.00163612316828,,0.00195661739274,-0.0113503346477,0.0346259962752,-0.999333978386
317144000000,,6387,,317,136106002,"""map""",,,0.154519453645,-0.142822161317,0.00136819086038,,0.00188588016368,-0.0113205674481,0.0346646027885,-0.999333135449
317180000000,,6388,,317,176105697,"""map""",,,0.154378980398,-0.142458990216,0.000876229896676,,0.00188440930452,-0.0112951486179,0.034701186253,-0.999332123924
317212000000,,6389,,317,208105697,"""map""",,,0.154800727963,-0.142107576132,0.000455152010545,,0.00186831085475,-0.0112804614291,0.0347112172029,-0.999331955337
317244000000,,6390,,317,240105697,"""map""",,,0.154820889235,-0.141811534762,0.000158870854648,,0.00185324796622,-0.0113014261935,0.0347204052159,-0.999331449575
317280000000,,6391,,317,272105391,"""map""",,,0.152954414487,-0.141705781221,0.000546200491954,,0.00182244257123,-0.0112899135184,0.0347252942503,-0.999331533868
317312000000,,6392,,317,304105391,"""map""",,,0.151684716344,-0.141519665718,0.000891294912435,,0.00185681167983,-0.011340965535,0.0346922089742,-0.999331997484
317340000000,,6393,,317,336105391,"""map""",,,0.150977298617,-0.141230329871,0.00124090642203,,0.00176960161845,-0.0113180643205,0.034660008782,-0.99933351477
317380000000,,6394,,317,376105085,"""map""",,,0.150780558586,-0.140781015158,0.00145555636846,,0.0016038067824,-0.01131459873,0.0346611888937,-0.999333767651
317412000000,,6395,,317,408105085,"""map""",,,0.151096537709,-0.140355139971,0.00169851549435,,0.00163236258935,-0.0113192111757,0.0346497249509,-0.999334104826
317444000000,,6396,,317,440105085,"""map""",,,0.151032239199,-0.139935672283,0.00186055817176,,0.00155676233838,-0.0113139171364,0.0346904388066,-0.999332924714
317480000000,,6397,,317,472104780,"""map""",,,0.149157375097,-0.13955077529,0.00173518073279,,0.0015509352073,-0.0112830686068,0.0346609781595,-0.999334231267
317512000000,,6398,,317,504104780,"""map""",,,0.147879689932,-0.139103099704,0.00159242376685,,0.00154989503625,-0.011273813093,0.0346783426611,-0.999333725504
317544000000,,6399,,317,536104780,"""map""",,,0.147146090865,-0.138618186116,0.00140776054468,,0.00156456806643,-0.0112743774656,0.0346234253175,-0.999335622113
317580000000,,6400,,317,576104474,"""map""",,,0.146898075938,-0.137894541025,0.00110387406312,,0.00177884791262,-0.0112291697022,0.0346163446469,-0.999336043581
317612000000,,6401,,317,608104474,"""map""",,,0.147194489837,-0.137306749821,0.00103544909507,,0.00176986306062,-0.0112215223541,0.0346345520855,-0.999335537819
317644000000,,6402,,317,640104474,"""map""",,,0.147106051445,-0.136832758784,0.00109148921911,,0.00172522757242,-0.0112277238678,0.0346468168184,-0.999335074204
317680000000,,6403,,317,672104168,"""map""",,,0.145188435912,-0.136788696051,0.00121056009084,,0.00176805140468,-0.0112396211328,0.0346104440881,-0.999336127875
317712000000,,6404,,317,704104168,"""map""",,,0.143870607018,-0.136675685644,0.00124559749383,,0.00176271719417,-0.0112348493193,0.0346300002258,-0.999335537819
317744000000,,6405,,317,736104168,"""map""",,,0.143071636558,-0.136480495334,0.00117695808876,,0.00172321012132,-0.0111826883138,0.0346285250861,-0.999336254315
317780000000,,6406,,317,776103863,"""map""",,,0.142714351416,-0.136148780584,0.00104656361509,,0.00169794868326,-0.0111583402769,0.034563450352,-0.999338783126
317812000000,,6407,,317,808103863,"""map""",,,0.142916560173,-0.135842487216,0.000920519465581,,0.00168128717794,-0.0111269741313,0.0345908879504,-0.999338235217
317844000000,,6408,,317,840103863,"""map""",,,0.142818242311,-0.135624825954,0.000789066136349,,0.00178269117837,-0.0110945105212,0.0345583084365,-0.99933954177
317880000000,,6409,,317,872103557,"""map""",,,0.141111716628,-0.135734930634,0.00085644266801,,0.00179041360054,-0.0110541743409,0.034542587662,-0.999340511147
317912000000,,6410,,317,904103557,"""map""",,,0.139949098229,-0.13577568531,0.000973353395239,,0.00178428123408,-0.0110515928464,0.0345276255308,-0.999341059056
317944000000,,6411,,317,936103557,"""map""",,,0.139310270548,-0.135757088661,0.00110153434798,,0.00181198949425,-0.0110123600573,0.0345319666562,-0.99934126979
317980000000,,6412,,317,976103251,"""map""",,,0.139181911945,-0.135603353381,0.00119029660709,,0.00176588512252,-0.0110433587351,0.0345054141416,-0.99934194414
318012000000,,6413,,318,8103251,"""map""",,,0.139488637447,-0.135401263833,0.00126823526807,,0.00177566813046,-0.0110411015738,0.0345181424899,-0.999341522671
318044000000,,6414,,318,40103251,"""map""",,,0.139457657933,-0.13519282639,0.00137556507252,,0.00175524205546,-0.0110186840602,0.0345229050838,-0.999341649112
318080000000,,6415,,318,72102945,"""map""",,,0.137861803174,-0.135098412633,0.00135688506998,,0.00177461248361,-0.0110131773111,0.0344965633034,-0.99934261849
318112000000,,6416,,318,104102945,"""map""",,,0.136773079634,-0.134935751557,0.0013597359648,,0.00172154499153,-0.0109918859086,0.0344762063756,-0.999343587867
318144000000,,6417,,318,136102945,"""map""",,,0.136145889759,-0.134683281183,0.00139965128619,,0.0017579140998,-0.0109833574279,0.0345250124262,-0.999341986287
318180000000,,6418,,318,176102640,"""map""",,,0.135955959558,-0.134288802743,0.00134372152388,,0.00177275242465,-0.0109979468229,0.0345338211175,-0.999341438378
318212000000,,6419,,318,208102640,"""map""",,,0.13624060154,-0.133939340711,0.00117750989739,,0.00173250811122,-0.0109561944426,0.0345497947731,-0.999341480525
318244000000,,6420,,318,240102640,"""map""",,,0.136219158769,-0.133631154895,0.00107190338895,,0.001735634222,-0.0109327614534,0.0345320509499,-0.999342281315
318280000000,,6421,,318,272102334,"""map""",,,0.134653165936,-0.133514150977,0.00106613477692,,0.0016983790421,-0.0108752099317,0.0344955517791,-0.999344304363
318312000000,,6422,,318,304102334,"""map""",,,0.133598163724,-0.133310392499,0.00102362746838,,0.00171753708965,-0.0109048987645,0.0344800838857,-0.999344430804
318344000000,,6423,,318,336102334,"""map""",,,0.133013159037,-0.13298663497,0.000805917312391,,0.00195209253342,-0.0108382642677,0.0344454391762,-0.999345948091
318380000000,,6424,,318,376102028,"""map""",,,0.13288128376,-0.132467344403,0.000505888892803,,0.00194449688107,-0.0108087377662,0.0344775972216,-0.9993451473
318412000000,,6425,,318,408102028,"""map""",,,0.133187174797,-0.131968379021,0.000185233162483,,0.00193200462102,-0.0107916376702,0.0344567766784,-0.999346074531
318444000000,,6426,,318,440102028,"""map""",,,0.133164763451,-0.131521478295,-0.000234728737269,,0.00190970465762,-0.010810555349,0.0344024915376,-0.999347760405
318480000000,,6427,,318,472101722,"""map""",,,0.131565585732,-0.131335228682,-0.000771449529566,,0.00188865362388,-0.010821622848,0.0343697012894,-0.999348856223
318512000000,,6428,,318,504101722,"""map""",,,0.130456387997,-0.131091549993,-0.00117330346256,,0.00189448108423,-0.0107851072136,0.0343524210815,-0.999349867747
318544000000,,6429,,318,536101722,"""map""",,,0.12980414927,-0.130804762244,-0.00153683358803,,0.00185054036048,-0.0107835332922,0.0343615669477,-0.99934957272
318580000000,,6430,,318,576101416,"""map""",,,0.12954582274,-0.130368158221,-0.0019344688626,,0.00186213041455,-0.0107689679341,0.0343549498924,-0.999349952041
318612000000,,6431,,318,608101416,"""map""",,,0.129750326276,-0.12995390594,-0.00228665350005,,0.0018435443129,-0.0107541539754,0.0343260793012,-0.9993511743
318644000000,,6432,,318,640101416,"""map""",,,0.129647523165,-0.129574984312,-0.00246753101237,,0.00181510473905,-0.0106977242843,0.0343463097885,-0.999351090006
318680000000,,6433,,318,672101111,"""map""",,,0.128097116947,-0.129477843642,-0.00251425011083,,0.00185960950617,-0.0109046215173,0.0343388497963,-0.999349109104
318712000000,,6434,,318,704101111,"""map""",,,0.126997947693,-0.129311412573,-0.00251835817471,,0.0018356750353,-0.0108821509908,0.0343083776248,-0.999350415656
318744000000,,6435,,318,736101111,"""map""",,,0.126364037395,-0.12905561924,-0.00258434866555,,0.00186411658478,-0.010895311015,0.0343095155897,-0.999350120629
318780000000,,6436,,318,776100805,"""map""",,,0.12616199255,-0.128607228398,-0.00259813386947,,0.00186084263076,-0.0109096946149,0.0343324856222,-0.999349235545
318812000000,,6437,,318,808100805,"""map""",,,0.126397326589,-0.128174349666,-0.00259861210361,,0.00188116498501,-0.0108854657746,0.0343301675455,-0.999349530573
318844000000,,6438,,318,840100805,"""map""",,,0.126351967454,-0.127745002508,-0.00258322176524,,0.00188112909433,-0.010870701536,0.0343391869711,-0.999349361985
318880000000,,6439,,318,872100499,"""map""",,,0.12495085597,-0.127522394061,-0.00268418481573,,0.00201599209485,-0.0108622303487,0.0343605975701,-0.999348519048
318912000000,,6440,,318,904100499,"""map""",,,0.124043285847,-0.12723942101,-0.00264281360433,,0.00205517549307,-0.0108427808952,0.0343673832128,-0.999348392608
318944000000,,6441,,318,936100499,"""map""",,,0.123541086912,-0.12684597075,-0.0025132719893,,0.00205279485468,-0.0108005675337,0.0344097407955,-0.999347338937
318980000000,,6442,,318,976100193,"""map""",,,0.123479522765,-0.126207664609,-0.0022671027109,,0.00205792623348,-0.0107987301946,0.034361187626,-0.99934902481
319012000000,,6443,,319,8100193,"""map""",,,0.123850494623,-0.125641390681,-0.00213045999408,,0.00206489528074,-0.010787198751,0.0343245198678,-0.99935037351
319044000000,,6444,,319,40100193,"""map""",,,0.123899526894,-0.125137552619,-0.0019931527786,,0.00211176488119,-0.0107616633584,0.0343112436105,-0.999351090006
319080000000,,6445,,319,72099888,"""map""",,,0.122404769063,-0.124888367951,-0.00188024435192,,0.00215606714587,-0.0107546505179,0.0343240983993,-0.999350626391
319112000000,,6446,,319,104099888,"""map""",,,0.121374808252,-0.124580480158,-0.00179523113184,,0.00216720774332,-0.0107280446613,0.0343305047203,-0.999350626391
319144000000,,6447,,319,136099888,"""map""",,,0.120758801699,-0.124187402427,-0.00165521574672,,0.00213575565761,-0.0106741151344,0.0343000746957,-0.999352312265
319180000000,,6448,,319,176099582,"""map""",,,0.120520457625,-0.123566135764,-0.00145889783744,,0.00214493741442,-0.010661209967,0.0343365317196,-0.9993511743
319212000000,,6449,,319,208099582,"""map""",,,0.120724305511,-0.122995749116,-0.00128833588678,,0.00215769605571,-0.0106359271262,0.0343422215442,-0.999351216447
319244000000,,6450,,319,240099582,"""map""",,,0.120679877698,-0.122497111559,-0.00111045828089,,0.00214810336714,-0.0105977568987,0.0343665824226,-0.999350794978
319280000000,,6451,,319,272099276,"""map""",,,0.119340345263,-0.122341610491,-0.000753386411816,,0.00214197725685,-0.0105861747472,0.0343841155116,-0.99935037351
319312000000,,6452,,319,304099276,"""map""",,,0.1184547171,-0.122067883611,-0.000432868546341,,0.00209545569718,-0.0105622280932,0.0344077177468,-0.999349867747
319344000000,,6453,,319,336099276,"""map""",,,0.117978081107,-0.121667437255,2.59547960013e-06,,0.00212971910938,-0.0105100496362,0.0344495695673,-0.999348982664
319380000000,,6454,,319,376098971,"""map""",,,0.117922246456,-0.121044009924,0.000506197684444,,0.00211850080369,-0.0104987878666,0.0344403394075,-0.999349361985
319412000000,,6455,,319,408098971,"""map""",,,0.118247978389,-0.120462365448,0.000821711611934,,0.00212512082235,-0.0104604339052,0.0344745626485,-0.999348603342
319444000000,,6456,,319,440098971,"""map""",,,0.11828674376,-0.119950369,0.000753894157242,,0.00211447610893,-0.0104061487643,0.0344775129279,-0.999349109104
319480000000,,6457,,319,472098665,"""map""",,,0.116990059614,-0.119884893298,0.000728754035663,,0.00262393470138,-0.0106835072962,0.0345177631682,-0.999343587867
319512000000,,6458,,319,504098665,"""map""",,,0.116111464798,-0.119743548334,0.000869165407494,,0.00259201768326,-0.0106860137166,0.0345094602391,-0.999343882895
319544000000,,6459,,319,540098665,"""map""",,,0.115667283535,-0.119467414916,0.00104130106047,,0.00259063902033,-0.010676288002,0.0345076479246,-0.999344093629
319580000000,,6460,,319,580098359,"""map""",,,0.115648426116,-0.118952088058,0.00146871048491,,0.00254817639973,-0.010621604771,0.0344795781235,-0.999345695209
319612000000,,6461,,319,604098359,"""map""",,,0.115897543728,-0.11853800714,0.00165563204791,,0.00254256033216,-0.0105962876859,0.0344754477323,-0.999346200972
319644000000,,6462,,319,636098359,"""map""",,,0.116481296718,-0.117884963751,0.00193836085964,,0.00251206148964,-0.0106029090217,0.0344946666953,-0.999345526622
319680000000,,6463,,319,676098054,"""map""",,,0.11482860893,-0.117919303477,0.00169742712751,,0.002449261039,-0.0105531194349,0.0344529413152,-0.999347633964
319712000000,,6464,,319,708098054,"""map""",,,0.113978862762,-0.117772318423,0.00140090333298,,0.00241073881946,-0.0105299544733,0.034449653861,-0.999348055433
319744000000,,6465,,319,740098054,"""map""",,,0.11351864785,-0.11748265475,0.00112329015974,,0.00238878426265,-0.0104899650166,0.034492517206,-0.999347086055
319780000000,,6466,,319,772097748,"""map""",,,0.113418422639,-0.117113038898,0.000911089940928,,0.00237393276691,-0.0104626472733,0.0345152343573,-0.99934662244
319812000000,,6467,,319,804097748,"""map""",,,0.113681703806,-0.11667278409,0.00081426469842,,0.00236226434604,-0.0104348860003,0.0345110618193,-0.999347086055
319844000000,,6468,,319,836097748,"""map""",,,0.113720983267,-0.116366520524,0.00081466557458,,0.00238185999642,-0.010373078964,0.0344580832307,-0.999349488426
319880000000,,6469,,319,876097443,"""map""",,,0.112375229597,-0.116586409509,0.000689591106493,,0.00239607435035,-0.0103715797874,0.0344510025602,-0.999349741307
319912000000,,6470,,319,908097443,"""map""",,,0.111879326403,-0.116533815861,0.00075089657912,,0.00279034330092,-0.01049412603,0.034438822121,-0.999347844699
319944000000,,6471,,319,940097443,"""map""",,,0.111775577068,-0.116419523954,0.00121512729675,,0.00306907687374,-0.0107500647432,0.0344185494868,-0.99934502086
319980000000,,6472,,319,972097137,"""map""",,,0.112045481801,-0.116171978414,0.00154833274428,,0.00307272422249,-0.0109664384317,0.0343789735961,-0.999343967189
320012000000,,6473,,320,4097137,"""map""",,,0.112600535154,-0.11580965668,0.00192651443649,,0.00304992771653,-0.0109840864367,0.0343902268046,-0.999343503573
320044000000,,6474,,320,36097137,"""map""",,,0.112977027893,-0.115540198982,0.00250960467383,,0.00306049472171,-0.0110482536965,0.0344397072048,-0.999341059056
320084000000,,6475,,320,76096832,"""map""",,,0.112172216177,-0.115786060691,0.00389048433863,,0.00307546146274,-0.0110642398644,0.0344208675635,-0.999341522671
320112000000,,6476,,320,108096832,"""map""",,,0.111980088055,-0.115820758045,0.00499700102955,,0.00308750064416,-0.0110608355186,0.034400426342,-0.999342154874
320144000000,,6477,,320,140096832,"""map""",,,0.112109832466,-0.115677677095,0.00611838093027,,0.00314092177465,-0.0110654624523,0.034372314394,-0.999342955664
320180000000,,6478,,320,172096526,"""map""",,,0.112572938204,-0.115363657475,0.00720615172759,,0.00314046342767,-0.0110849909311,0.0343838626305,-0.999342281315
320212000000,,6479,,320,204096526,"""map""",,,0.113324135542,-0.114911586046,0.00817570649087,,0.00316849108193,-0.0110628862262,0.0344087292711,-0.999341606965
320244000000,,6480,,320,236096526,"""map""",,,0.113770961761,-0.114597454667,0.00917727965862,,0.00313843708622,-0.0110338582428,0.0343971388878,-0.999342407755
320280000000,,6481,,320,276096221,"""map""",,,0.11267066747,-0.114916071296,0.010512012057,,0.00311155595795,-0.011033853633,0.0343637164369,-0.999343630014
320312000000,,6482,,320,308096221,"""map""",,,0.112268619239,-0.114987961948,0.0115137575194,,0.00308599060161,-0.011011727196,0.0343383440341,-0.999344894419
320344000000,,6483,,320,340096221,"""map""",,,0.112231239676,-0.114917904139,0.0124734351411,,0.00303258856891,-0.011029829926,0.0343385126215,-0.999344810126
320380000000,,6484,,320,372095916,"""map""",,,0.11250975728,-0.114701278508,0.0135388309136,,0.00298664389422,-0.0110027104046,0.0343367846007,-0.999345358035
320412000000,,6485,,320,404095916,"""map""",,,0.113085620105,-0.114363089204,0.014456638135,,0.00293976079361,-0.0110138490265,0.0343327806501,-0.999345484475
320444000000,,6486,,320,436095916,"""map""",,,0.113429747522,-0.114128790796,0.0152880707756,,0.00296928433172,-0.0109952164974,0.0343031514156,-0.99934662244
320480000000,,6487,,320,476095610,"""map""",,,0.112465083599,-0.114453934133,0.0159466229379,,0.00298638837895,-0.0109954255853,0.0343233397561,-0.99934582165
320512000000,,6488,,320,508095610,"""map""",,,0.11212194711,-0.11450176686,0.0163674075156,,0.00295094386717,-0.0110110162973,0.0343187036027,-0.999345990237
320544000000,,6489,,320,540095610,"""map""",,,0.112103268504,-0.114379651845,0.0168501418084,,0.00293930771499,-0.0109274018889,0.0342969979757,-0.999347633964
320580000000,,6490,,320,572095305,"""map""",,,0.112401843071,-0.114115826786,0.0171014964581,,0.00292792345608,-0.0109268454188,0.0343154582954,-0.999347043909
320612000000,,6491,,320,604095305,"""map""",,,0.112988680601,-0.113710932434,0.0171516761184,,0.00291055599104,-0.0109045224063,0.0343337078808,-0.999346748881
320644000000,,6492,,320,636095305,"""map""",,,0.113287061453,-0.113348960876,0.0172289349139,,0.00281237951725,-0.0108513047661,0.0343338764682,-0.999347591818
320680000000,,6493,,320,676095000,"""map""",,,0.112026423216,-0.113307006657,0.0173797421157,,0.00275656293111,-0.010835829958,0.0342918139134,-0.999349361985
320712000000,,6494,,320,708095000,"""map""",,,0.111444942653,-0.113096468151,0.0175929311663,,0.00275833211093,-0.0107830828478,0.0342974194442,-0.999349741307
320744000000,,6495,,320,740095000,"""map""",,,0.111199997365,-0.112729310989,0.0178368501365,,0.00271996069809,-0.0107646152841,0.0342877256691,-0.999350331363
320780000000,,6496,,320,772094695,"""map""",,,0.111242122948,-0.112222917378,0.0179786253721,,0.00276480395708,-0.0106747657764,0.0342440193872,-0.999352733733
320812000000,,6497,,320,804094695,"""map""",,,0.111563548446,-0.111581787467,0.0181163195521,,0.00278874369631,-0.0106479732223,0.0342431764502,-0.999352902321
320844000000,,6498,,320,836094695,"""map""",,,0.111576527357,-0.110952071846,0.0181436017156,,0.00278685729557,-0.0106104878811,0.0342800549426,-0.99935210153
320880000000,,6499,,320,876094390,"""map""",,,0.110010042787,-0.110513374209,0.0176582075655,,0.00274811775634,-0.0106346301228,0.0343036571778,-0.999351090006
320908000000,,6500,,320,908094390,"""map""",,,0.109204337001,-0.110007658601,0.0174741484225,,0.00271906079702,-0.010601023938,0.0343171863162,-0.999351132153
320944000000,,6501,,320,940094390,"""map""",,,0.108734600246,-0.109365426004,0.0173215251416,,0.00273564130136,-0.0105994780048,0.0343309261888,-0.999350626391
320980000000,,6502,,320,972094085,"""map""",,,0.108568117023,-0.108578585088,0.0171922557056,,0.00269519580259,-0.0106209297629,0.0343199680082,-0.999350879272
321012000000,,6503,,321,4094085,"""map""",,,0.108686581254,-0.107648096979,0.0171894133091,,0.00268927812164,-0.0105736620722,0.0343442867398,-0.999350584244
321044000000,,6504,,321,36094085,"""map""",,,0.108515895903,-0.106862664223,0.0172816645354,,0.00266780924141,-0.0105847997062,0.0343595860458,-0.999349952041
321080000000,,6505,,321,76093780,"""map""",,,0.106681227684,-0.106695890427,0.0172631200403,,0.00267678750796,-0.010571372313,0.0343611454792,-0.999349994188
321112000000,,6506,,321,108093780,"""map""",,,0.10568922013,-0.106386698782,0.0174089688808,,0.00267066930021,-0.0105365040277,0.0343748432049,-0.999349952041
321144000000,,6507,,321,140093780,"""map""",,,0.105090208352,-0.105908215046,0.0176216829568,,0.00275194620484,-0.0105542050455,0.0344333008838,-0.999347465377
321180000000,,6508,,321,172093475,"""map""",,,0.104792542756,-0.105259239674,0.0178317222744,,0.00269234298778,-0.0106277865283,0.0343833147215,-0.999348645489
321212000000,,6509,,321,204093475,"""map""",,,0.104826383293,-0.104478508234,0.0180138982832,,0.00271961693785,-0.0107252791036,0.0343164698198,-0.999349825601
321244000000,,6510,,321,236093475,"""map""",,,0.104597352445,-0.103853069246,0.0182297173887,,0.00276556984435,-0.010667384151,0.0343071553662,-0.999350626391
321280000000,,6511,,321,276093171,"""map""",,,0.102867163718,-0.103914767504,0.0183187555522,,0.00273842694463,-0.0107213969837,0.0343072396599,-0.999350120629
321312000000,,6512,,321,308093171,"""map""",,,0.101917296648,-0.103751994669,0.0183889716864,,0.00271984676989,-0.010695019642,0.0343199680082,-0.999350036335
321344000000,,6513,,321,340093171,"""map""",,,0.101308941841,-0.103445895016,0.018537081778,,0.00273045592191,-0.0107251612241,0.0343729887436,-0.999347844699
321380000000,,6514,,321,372092866,"""map""",,,0.10099824518,-0.102992042899,0.0187458731234,,0.00272440620279,-0.0107031885573,0.0343402406423,-0.999349235545
321412000000,,6515,,321,404092866,"""map""",,,0.100969411433,-0.102408066392,0.0189421251416,,0.00269665151523,-0.0107119244795,0.0343003697236,-0.999350584244
321444000000,,6516,,321,436092866,"""map""",,,0.100718967617,-0.10201215744,0.0190633758903,,0.00271681944078,-0.0107229531244,0.0343293246085,-0.999349361985
321480000000,,6517,,321,476092562,"""map""",,,0.0990848392248,-0.102424122393,0.0193138569593,,0.00275617965821,-0.0106491312729,0.0342707404891,-0.999352059384
321512000000,,6518,,321,508092562,"""map""",,,0.0981852561235,-0.102515034378,0.0195585358888,,0.00273745262803,-0.0106380104318,0.0342476018693,-0.999353028761
321544000000,,6519,,321,540092562,"""map""",,,0.0975995361805,-0.102429948747,0.01979342103,,0.00274382865596,-0.0105793446528,0.0342577592598,-0.999353239495
321580000000,,6520,,321,572092257,"""map""",,,0.0973014459014,-0.10216537863,0.0200902242213,,0.00268634792785,-0.0105842313823,0.0342830473689,-0.999352565146
321612000000,,6521,,321,604092257,"""map""",,,0.0972836688161,-0.101731613278,0.0204171985388,,0.00271297979703,-0.0105921480751,0.0342918139134,-0.999352059384
321644000000,,6522,,321,636092257,"""map""",,,0.097501590848,-0.101160690188,0.0207950882614,,0.00275592611857,-0.0105446419914,0.0342877256691,-0.999352607293
321680000000,,6523,,321,676091953,"""map""",,,0.098065495491,-0.100246831775,0.021271077916,,0.00273946283514,-0.0105668504171,0.0342417856042,-0.999354040285
321712000000,,6524,,321,708091953,"""map""",,,0.0987464487553,-0.0993684083223,0.0218001790345,,0.00277359190427,-0.0105377170666,0.0342235781656,-0.999354798929
321744000000,,6525,,321,740091953,"""map""",,,0.0990892872214,-0.0986663624644,0.0223167985678,,0.0030173854104,-0.0104555580416,0.0342013667765,-0.999355768306
321780000000,,6526,,321,772091648,"""map""",,,0.09815659374,-0.0987915173173,0.0228523556143,,0.00298235117185,-0.0104632495122,0.0341285791691,-0.99935825497
321812000000,,6527,,321,804091648,"""map""",,,0.0975289940834,-0.0987133383751,0.0235085040331,,0.0029544716901,-0.0104632778296,0.0341732126817,-0.999356864124
321844000000,,6528,,321,836091648,"""map""",,,0.0971666127443,-0.0984516739845,0.0243217349052,,0.0029260706411,-0.0104900088098,0.0341756993457,-0.999356569096
321880000000,,6529,,321,876091344,"""map""",,,0.0970586165786,-0.0978738740087,0.0253515467048,,0.00290929553685,-0.0104817289297,0.0341772587791,-0.999356611243
321912000000,,6530,,321,908091344,"""map""",,,0.0972140729427,-0.0972719267011,0.0260562561452,,0.00270286850465,-0.0104482758565,0.0341039232627,-0.999360067285
321944000000,,6531,,321,940091344,"""map""",,,0.0970923826098,-0.0967501550913,0.0269126463681,,0.00267816320744,-0.0104252761895,0.0341159351145,-0.999359940844
321980000000,,6532,,321,972091040,"""map""",,,0.0958271324635,-0.0967969447374,0.0276468712837,,0.00265918362544,-0.0104580628157,0.0341371349793,-0.999358971467
322012000000,,6533,,322,4091040,"""map""",,,0.0948957651854,-0.0966502726078,0.0283827837557,,0.00266076314445,-0.0104487677892,0.0341683657941,-0.999357917796
322044000000,,6534,,322,36091040,"""map""",,,0.0942575111985,-0.0963466018438,0.0291866473854,,0.00261286193402,-0.0104502613682,0.0341067049547,-0.999360151578
322084000000,,6535,,322,76090736,"""map""",,,0.0938391834497,-0.0957652106881,0.0302648637444,,0.00266438184652,-0.0103829232166,0.0340814168456,-0.999361584571
322112000000,,6536,,322,108090736,"""map""",,,0.0937459245324,-0.0951427742839,0.0310282371938,,0.00266910624482,-0.0103501000412,0.0340742518814,-0.999362174627
322144000000,,6537,,322,140090736,"""map""",,,0.0934169888496,-0.0947331413627,0.0317153409123,,0.00267954680945,-0.0103714658592,0.0340512818489,-0.999362722536
322180000000,,6538,,322,172090432,"""map""",,,0.0919781848788,-0.0951256975532,0.0323390327394,,0.00266965448312,-0.0103320621779,0.0340184494539,-0.99936428197
322212000000,,6539,,322,204090432,"""map""",,,0.0908796042204,-0.0952806249261,0.0330007039011,,0.00266496795113,-0.010296623593,0.0340382163259,-0.999363986942
322244000000,,6540,,322,236090432,"""map""",,,0.0901184380054,-0.0952264368534,0.0337464474142,,0.0026471434562,-0.0103001352816,0.0340413351927,-0.999363902648
322280000000,,6541,,322,276090128,"""map""",,,0.0894808471203,-0.0948949530721,0.0347216613591,,0.00261793997073,-0.0103069126924,0.0340355610744,-0.999364029089
322312000000,,6542,,322,308090128,"""map""",,,0.0892361626029,-0.0944141075015,0.03548097983,,0.0026262343388,-0.0102895067025,0.0340248136281,-0.999364576998
322344000000,,6543,,322,340090128,"""map""",,,0.0888053327799,-0.0940099805593,0.0362851731479,,0.00258667128967,-0.0102480398012,0.0340163842584,-0.999365419935
322380000000,,6544,,322,372089824,"""map""",,,0.0875086635351,-0.094191417098,0.0371965691447,,0.00250529724972,-0.0101846394165,0.0339846898283,-0.99936735869
322412000000,,6545,,322,404089824,"""map""",,,0.0865565985441,-0.0941500738263,0.0380834080279,,0.00249527025105,-0.0102110114899,0.0340084606508,-0.999366262872
322444000000,,6546,,322,436089824,"""map""",,,0.0858996734023,-0.0939271077514,0.0389058999717,,0.00250325115194,-0.0102243806019,0.0340041195254,-0.999366305018
322480000000,,6547,,322,476089521,"""map""",,,0.0854414924979,-0.0933843329549,0.0398939475417,,0.00246893637326,-0.010240664432,0.0340383849133,-0.999364998466
322516000000,,6548,,322,508089521,"""map""",,,0.0853343307972,-0.092751391232,0.0406967811286,,0.00246112899885,-0.0102216176784,0.0340345074032,-0.999365419935
322544000000,,6549,,322,540089521,"""map""",,,0.0850327387452,-0.0923107266426,0.0416662357748,,0.00247851720803,-0.0102017032925,0.0340526726949,-0.999364956319
322580000000,,6550,,322,572089217,"""map""",,,0.0838064029813,-0.0926715582609,0.0428766310215,,0.00248878688036,-0.0102338478378,0.0340248979218,-0.999365504228
322612000000,,6551,,322,604089217,"""map""",,,0.0828553065658,-0.092773810029,0.0439376160502,,0.00251227815078,-0.0102251856726,0.0340240971316,-0.999365546375
322644000000,,6552,,322,636089217,"""map""",,,0.0821373164654,-0.0926502048969,0.0449445210397,,0.00251596764639,-0.010242092815,0.034053768513,-0.999364366263
322680000000,,6553,,322,676088914,"""map""",,,0.0815411731601,-0.0922047123313,0.0460333153605,,0.00255565285553,-0.0103214632333,0.0341126476604,-0.999361458131
322712000000,,6554,,322,708088914,"""map""",,,0.081302434206,-0.0916343778372,0.0468775629997,,0.00257036836183,-0.0102704355828,0.0341137856253,-0.999361921746
322744000000,,6555,,322,740088914,"""map""",,,0.080853074789,-0.0913117602468,0.0476497672498,,0.00255833741221,-0.0103004764076,0.0341189275408,-0.999361415984
322780000000,,6556,,322,772100610,"""map""",,,0.0794854834676,-0.0919198840857,0.0483873412013,,0.00254881979771,-0.0103392202274,0.0340954517462,-0.999361879599
322812000000,,6557,,322,804100610,"""map""",,,0.0783698782325,-0.0922588333488,0.0492089129984,,0.00259571080086,-0.0102982192463,0.0341006358085,-0.99936200604
322844000000,,6558,,322,836100610,"""map""",,,0.0775095522404,-0.0923374667764,0.0501007884741,,0.00260261992056,-0.0103128484833,0.0341343111405,-0.999360699488
322880000000,,6559,,322,876100307,"""map""",,,0.0767038017511,-0.0920990183949,0.0512728393078,,0.00258624356501,-0.0103133960631,0.0341179581633,-0.999361289543
322912000000,,6560,,322,908100307,"""map""",,,0.0762387365103,-0.0916970670223,0.0522143729031,,0.00262239304869,-0.010266736209,0.0341173681074,-0.999361711012
322944000000,,6561,,322,940100307,"""map""",,,0.0756275206804,-0.0915393084288,0.0529854036868,,0.00264925738407,-0.0103327437714,0.0341255024491,-0.999360657341
322980000000,,6562,,322,972100004,"""map""",,,0.0742688775063,-0.0923587307334,0.0535130910575,,0.00269959652626,-0.0103759851209,0.0341471659293,-0.999359308642
323012000000,,6563,,323,4100004,"""map""",,,0.0731698051095,-0.0928997248411,0.0541246198118,,0.0026671625507,-0.010381053938,0.0341860253236,-0.999358044236
323044000000,,6564,,323,36100004,"""map""",,,0.0723544210196,-0.0931566432118,0.0546943023801,,0.00287411543069,-0.0103231547049,0.0342186469844,-0.999356948418
323080000000,,6565,,323,76099700,"""map""",,,0.0716454386711,-0.0932254195213,0.0556075982749,,0.00273686882833,-0.0102740779925,0.0341949604555,-0.999358634292
323112000000,,6566,,323,108099700,"""map""",,,0.0713074207306,-0.0930823385715,0.0563051328063,,0.00259251620145,-0.0102751800667,0.0341947918681,-0.99935905576
323144000000,,6567,,323,140099700,"""map""",,,0.0708101168275,-0.0930102169514,0.0569834709167,,0.00256312206734,-0.0102697872458,0.0342087003281,-0.999358718586
323180000000,,6568,,323,172099397,"""map""",,,0.0696197599173,-0.0935734659433,0.057443190366,,0.0025292732089,-0.0102208807671,0.0342061293704,-0.999359350788
323212000000,,6569,,323,204099397,"""map""",,,0.0686835572124,-0.0939017906785,0.0579530000687,,0.00253781881171,-0.0101851623008,0.0342290572559,-0.99935892932
323244000000,,6570,,323,236099397,"""map""",,,0.0679759308696,-0.093983605504,0.0585496537387,,0.00254435980503,-0.0101465475558,0.0342602459238,-0.99935825497
323280000000,,6571,,323,276111094,"""map""",,,0.0673433244228,-0.093814663589,0.0594531334937,,0.00257735321415,-0.0101291932617,0.0342689703215,-0.999358044236
323312000000,,6572,,323,308111094,"""map""",,,0.0669922754169,-0.0934643596411,0.0601595416665,,0.00258364560693,-0.0101208646493,0.0342693496431,-0.999358086383
