rosbagTimestamp,header,seq,stamp,secs,nsecs,frame_id,pose,position,x,y,z,orientation,x,y,z,w
204212000000,,142,,204,208174133,"""map""",,,0.139281883836,0.169072091579,0.0193026270717,,0.0100326875153,-0.0158314135939,0.0316506395046,-0.999323315233
204248000000,,143,,204,240173770,"""map""",,,0.13820117712,0.167561262846,0.0190058816224,,0.00999945307887,-0.015761011564,0.0316740310055,-0.999323947436
204280000000,,144,,204,272173770,"""map""",,,0.137664854527,0.16672155261,0.0184886027128,,0.00994254923575,-0.0157752048445,0.0316596589302,-0.999324748226
204312000000,,145,,204,304173770,"""map""",,,0.137667953968,0.166487246752,0.0179059524089,,0.00989657229238,-0.0157516473904,0.031656919385,-0.999325717603
204348000000,,146,,204,344173407,"""map""",,,0.138374432921,0.166955336928,0.0171345733106,,0.00981032930361,-0.0156778614295,0.0316447810926,-0.999328077827
204380000000,,147,,204,376173407,"""map""",,,0.139455527067,0.167894870043,0.0164788402617,,0.00973251008692,-0.0156149760266,0.0316782878372,-0.999328794323
204412000000,,148,,204,408173407,"""map""",,,0.138687893748,0.16663710773,0.0152494153008,,0.0099494257575,-0.0160200793514,0.0316877708781,-0.999319901338
204448000000,,149,,204,440173043,"""map""",,,0.137661263347,0.16515211761,0.0139954313636,,0.0100423085213,-0.0160752690032,0.031671122873,-0.999318594786
204480000000,,150,,204,472173043,"""map""",,,0.137281149626,0.164368733764,0.0126911671832,,0.010604357161,-0.0163811872933,0.0316953994577,-0.999307130843
204512000000,,151,,204,504173043,"""map""",,,0.137417972088,0.164131447673,0.0115138888359,,0.0106209719097,-0.0163261662289,0.0317181166091,-0.999307088696
204548000000,,152,,204,544172679,"""map""",,,0.138280600309,0.164604648948,0.00999546796083,,0.0105118869754,-0.0163680743551,0.0316673296566,-0.999309153892
204580000000,,153,,204,576172679,"""map""",,,0.139459133148,0.16555647552,0.00882259197533,,0.0105058033412,-0.0163069232292,0.0316943457865,-0.999309364626
204612000000,,154,,204,608172679,"""map""",,,0.138682231307,0.164334341884,0.00799511000514,,0.0104894513518,-0.0162769584662,0.0316707856982,-0.999310755472
204648000000,,155,,204,640172314,"""map""",,,0.137735828757,0.162961304188,0.00717217335477,,0.0104413973591,-0.0161935327309,0.031662777797,-0.999312862814
204680000000,,156,,204,672172314,"""map""",,,0.137371078134,0.16227221489,0.00640651490539,,0.0104399024631,-0.0161920957867,0.0316429266313,-0.999313579311
204712000000,,157,,204,704172314,"""map""",,,0.137521073222,0.162192225456,0.00568097038195,,0.0104408152057,-0.0161870658238,0.031646340526,-0.999313537164
204748000000,,158,,204,744171949,"""map""",,,0.138396129012,0.162831261754,0.00478726811707,,0.0103465386325,-0.0161874155109,0.031633822912,-0.99931492801
204780000000,,159,,204,776171949,"""map""",,,0.139602273703,0.163904443383,0.00405379058793,,0.0103602436023,-0.0161280813093,0.0316065117542,-0.999316613884
204812000000,,160,,204,808171949,"""map""",,,0.138830900192,0.162848770618,0.00354423187673,,0.0103744638831,-0.0161240842734,0.0316134238374,-0.999316276709
204848000000,,161,,204,848171583,"""map""",,,0.137816727161,0.161404624581,0.00311374547891,,0.0109218032728,-0.0165133953716,0.0315876299661,-0.99930489706
204880000000,,162,,204,872171583,"""map""",,,0.137634217739,0.160982862115,0.00282507902011,,0.0108384028914,-0.0164871718001,0.0316234969341,-0.999305107794
204912000000,,163,,204,904171583,"""map""",,,0.137876629829,0.160917565227,0.00245407270268,,0.010776838858,-0.016443987744,0.0316462983792,-0.999305739997
204948000000,,164,,204,944171217,"""map""",,,0.138946384192,0.161608338356,0.00190993060824,,0.0107413298089,-0.0163735764944,0.0316168377321,-0.999308226661
204980000000,,165,,204,976171217,"""map""",,,0.140349641442,0.162700384855,0.00134631164838,,0.0107374457134,-0.0163217450904,0.0316505552109,-0.999308058074
205012000000,,166,,205,8171217,"""map""",,,0.139737665653,0.161500498652,0.000755948596634,,0.0107051767032,-0.0163189874353,0.0316690998242,-0.999307889486
205048000000,,167,,205,48170850,"""map""",,,0.138860046864,0.159858778119,5.78769686399e-06,,0.010671438151,-0.0163111744632,0.0317344695863,-0.999306245759
205080000000,,168,,205,72170850,"""map""",,,0.138803258538,0.159366562963,-0.000384493236197,,0.0106413588013,-0.0162484490867,0.0317782601619,-0.999306203612
205112000000,,169,,205,104170850,"""map""",,,0.139209896326,0.15919496119,-0.000908299756702,,0.0106077279211,-0.0162239989754,0.0317600105765,-0.999307594458
205148000000,,170,,205,144170483,"""map""",,,0.140414878726,0.15970517695,-0.00167035160121,,0.0105757858783,-0.0162362795134,0.0318043490611,-0.999306330053
205180000000,,171,,205,176170483,"""map""",,,0.141864970326,0.160712987185,-0.00247544562444,,0.0109421025779,-0.0164462840887,0.0318150965075,-0.99929861718
205212000000,,172,,205,208170483,"""map""",,,0.141171038151,0.159452974796,-0.00306508480571,,0.0110750989341,-0.0165683209471,0.0318161080318,-0.999295076844
205248000000,,173,,205,240170116,"""map""",,,0.140257149935,0.15797162056,-0.00375694106333,,0.0109650502199,-0.0164973384102,0.0317589990521,-0.999299249382
205280000000,,174,,205,272170116,"""map""",,,0.139954164624,0.157143518329,-0.00448383809999,,0.0109360729444,-0.0164682452309,0.0318028317746,-0.999298659327
205312000000,,175,,205,304170116,"""map""",,,0.14020049572,0.156904906034,-0.00518714915961,,0.0109342665568,-0.0164619567894,0.0318129891651,-0.999298448592
205348000000,,176,,205,344169748,"""map""",,,0.141197755933,0.157340481877,-0.00609014229849,,0.0108773390061,-0.0164086281844,0.0318450207699,-0.999298954354
205380000000,,177,,205,376169748,"""map""",,,0.142521858215,0.158251017332,-0.00679334951565,,0.0108244463576,-0.0163271619482,0.0318917616249,-0.99929941797
205412000000,,178,,205,408169748,"""map""",,,0.14176723361,0.157071173191,-0.00704877404496,,0.010790025224,-0.0163339242125,0.0318883477302,-0.999299712998
205448000000,,179,,205,440169380,"""map""",,,0.140794485807,0.155722618103,-0.00735290953889,,0.0107196301088,-0.0162333664418,0.0319524952336,-0.999300050173
205480000000,,180,,205,472169380,"""map""",,,0.140426278114,0.155012309551,-0.00776754459366,,0.0106549180681,-0.0161513784737,0.0319713348749,-0.999301525312
205512000000,,181,,205,504169380,"""map""",,,0.140625789762,0.15486574173,-0.00820527039468,,0.0106087997023,-0.016117383583,0.0319717563434,-0.999302536837
205548000000,,182,,205,544169011,"""map""",,,0.141685530543,0.155461803079,-0.00886925961822,,0.0110196116202,-0.0165395962234,0.0319694804136,-0.999291241481
205580000000,,183,,205,576169011,"""map""",,,0.143063291907,0.156404465437,-0.00930630788207,,0.0111117999488,-0.016612386465,0.0319441501576,-0.999289850635
205612000000,,184,,205,608169011,"""map""",,,0.142209902406,0.155252844095,-0.00930327456445,,0.0110737476007,-0.0165792053707,0.0319554876599,-0.999290482838
205648000000,,185,,205,640168642,"""map""",,,0.141125649214,0.15391856432,-0.00922302994877,,0.0109348082097,-0.016462323928,0.0319939677326,-0.999292716621
205680000000,,186,,205,672168642,"""map""",,,0.140703305602,0.15321148932,-0.00922847446054,,0.0109175750877,-0.0164561392072,0.0319719670776,-0.999293643852
205712000000,,187,,205,704168642,"""map""",,,0.140863507986,0.153075709939,-0.00936084147543,,0.0108822188209,-0.0164275218264,0.0319802278599,-0.999294233907
205748000000,,188,,205,744168272,"""map""",,,0.141853556037,0.153676688671,-0.00968372356147,,0.0108460362454,-0.0163255733743,0.031947943374,-0.999297352774
205780000000,,189,,205,776168272,"""map""",,,0.143180504441,0.154685690999,-0.00995073560625,,0.0107500528894,-0.0162525425993,0.0319207165098,-0.999300471641
205812000000,,190,,205,808168272,"""map""",,,0.142394945025,0.153745263815,-0.0101749077439,,0.0111272839765,-0.0164079712863,0.0319438129828,-0.999293053796
205848000000,,191,,205,840167902,"""map""",,,0.141379907727,0.152573540807,-0.0103178583086,,0.0112289413519,-0.0164837178988,0.0319626526241,-0.999290061369
205880000000,,192,,205,872167902,"""map""",,,0.140995189548,0.152036651969,-0.0105297230184,,0.0111539639194,-0.0164782659734,0.0319831781393,-0.999290356397
205912000000,,193,,205,904167902,"""map""",,,0.141202658415,0.152071833611,-0.010857090354,,0.0111401488081,-0.0164619223805,0.0319854119223,-0.999290651425
205948000000,,194,,205,944167532,"""map""",,,0.142200946808,0.152898147702,-0.0114490827546,,0.0111028424264,-0.0164054704635,0.0320213210372,-0.999290904306
205980000000,,195,,205,976167532,"""map""",,,0.143564447761,0.154106035829,-0.0120053039864,,0.011005660684,-0.0163933048415,0.0320494329852,-0.999291283628
206012000000,,196,,206,8167532,"""map""",,,0.142781361938,0.153531640768,-0.0120146460831,,0.0109999501153,-0.0163893427085,0.0320501494816,-0.999291410069
206048000000,,197,,206,40167161,"""map""",,,0.141813904047,0.152871996164,-0.0118149220943,,0.0113268759752,-0.0169352122268,0.0320606019001,-0.999278260252
206080000000,,198,,206,72167161,"""map""",,,0.141470715404,0.152829453349,-0.0117510482669,,0.0112727492143,-0.0168597242577,0.0320533526421,-0.999280367594
206112000000,,199,,206,104167161,"""map""",,,0.141727596521,0.153371214867,-0.0118260746822,,0.0112648624853,-0.016809319261,0.0320530154673,-0.999281294825
206148000000,,200,,206,144166790,"""map""",,,0.142789870501,0.154777765274,-0.0119739240035,,0.0112568715416,-0.0167071541478,0.0321016107837,-0.999281589853
206180000000,,201,,206,176166790,"""map""",,,0.144194349647,0.156450659037,-0.0122696049511,,0.0116191449426,-0.0169289201633,0.0321417345834,-0.999272486134
206212000000,,202,,206,208166790,"""map""",,,0.143602803349,0.155939847231,-0.0124544901773,,0.0116786725917,-0.0170472601175,0.0321608271058,-0.999269072239
206248000000,,203,,206,240166419,"""map""",,,0.142798498273,0.155196800828,-0.0126635041088,,0.0116222613399,-0.0169318781806,0.0321387000103,-0.999272486134
206280000000,,204,,206,272166419,"""map""",,,0.142634913325,0.155089899898,-0.0129104312509,,0.0115583563454,-0.0169588440965,0.0321706051747,-0.999271685343
206312000000,,205,,206,304166419,"""map""",,,0.143077746034,0.155531078577,-0.0131507329643,,0.0115269561201,-0.0169168692927,0.0321518498271,-0.999273329071
206348000000,,206,,206,344166047,"""map""",,,0.144380122423,0.156797915697,-0.0136290099472,,0.0113827450803,-0.0168071113259,0.0321861152149,-0.999275815735
206380000000,,207,,206,376166047,"""map""",,,0.145982459188,0.158346250653,-0.014082569629,,0.0113559877584,-0.0167130731458,0.0321416502897,-0.999279145336
206412000000,,208,,206,408166047,"""map""",,,0.14546777308,0.157930135727,-0.0145305534825,,0.0113423534175,-0.016669495774,0.0321480987576,-0.999279777538
206448000000,,209,,206,440165674,"""map""",,,0.144807979465,0.157358244061,-0.0150253660977,,0.0112721449997,-0.0166216745767,0.032172459636,-0.999280536182
206480000000,,210,,206,480165674,"""map""",,,0.14491327107,0.157496497035,-0.0158604048193,,0.0111870236769,-0.0165626852878,0.0321837549914,-0.999282137762
206512000000,,211,,206,504165674,"""map""",,,0.145419105887,0.157976642251,-0.0163685791194,,0.0111614632596,-0.0165397636584,0.0321625129798,-0.999283486461
206548000000,,212,,206,544165302,"""map""",,,0.147004500031,0.159460991621,-0.0173420272768,,0.0115831931869,-0.016850290443,0.0321725017829,-0.999273160483
206580000000,,213,,206,576165302,"""map""",,,0.148768037558,0.161100372672,-0.0181000959128,,0.0115399681364,-0.0167982030297,0.0321623443924,-0.999274888504
206612000000,,214,,206,608165302,"""map""",,,0.148414835334,0.160526648164,-0.0186521653086,,0.0115069643552,-0.0167769480118,0.0321536199947,-0.999275857881
206648000000,,215,,206,640164929,"""map""",,,0.147857561707,0.159734487534,-0.0191527307034,,0.0114351620951,-0.0166774075277,0.0322713782895,-0.999274593476
206680000000,,216,,206,672164929,"""map""",,,0.147951096296,0.159554034472,-0.0197604093701,,0.0113946943704,-0.0166308946938,0.032227545567,-0.999277206581
206712000000,,217,,206,704164929,"""map""",,,0.148610666394,0.159965485334,-0.0204169750214,,0.0113324439691,-0.0166194065495,0.0322649719685,-0.9992769537
206748000000,,218,,206,744164555,"""map""",,,0.150154665112,0.161233663559,-0.0214536916465,,0.0112956375872,-0.016544320951,0.0322550253122,-0.999278892455
206780000000,,219,,206,776164555,"""map""",,,0.151916712523,0.162824511528,-0.0223935004324,,0.011251343719,-0.0164448545532,0.0322947697904,-0.999279777538
206812000000,,220,,206,808164555,"""map""",,,0.151540145278,0.162240311503,-0.0231349300593,,0.0112032421464,-0.0164142811305,0.0322997852654,-0.999280662622
206848000000,,221,,206,840164182,"""map""",,,0.150991857052,0.161449059844,-0.0239157434553,,0.0110885897122,-0.0163605094897,0.0323403726805,-0.999281547706
206880000000,,222,,206,872164182,"""map""",,,0.151105076075,0.161378666759,-0.0247798468918,,0.0115038607996,-0.0165882807726,0.0323407098553,-0.999273034043
206908000000,,223,,206,904164182,"""map""",,,0.151768118143,0.16185836494,-0.0254516713321,,0.0115144913543,-0.0165571826545,0.032376113208,-0.999272275399
206948000000,,224,,206,944163807,"""map""",,,0.153363823891,0.163209989667,-0.0263327993453,,0.0114379650251,-0.0164592394701,0.0324176700006,-0.999273455511
206980000000,,225,,206,976163807,"""map""",,,0.15521299839,0.164801239967,-0.0270647853613,,0.0113872118231,-0.0163807203853,0.0324041830091,-0.999275731441
207012000000,,226,,207,8163807,"""map""",,,0.154780253768,0.164216220379,-0.0275231655687,,0.01132348266,-0.0163624554887,0.0324076390507,-0.999276658672
207048000000,,227,,207,40163433,"""map""",,,0.154118537903,0.163430050015,-0.0279059819877,,0.0112755580713,-0.0162964018282,0.0324173328259,-0.999278007371
207080000000,,228,,207,80163433,"""map""",,,0.154210150242,0.163371309638,-0.0285384934396,,0.0111632393542,-0.0162081068147,0.0324869594196,-0.999278428839
207112000000,,229,,207,112163433,"""map""",,,0.154910385609,0.163944363594,-0.0291578955948,,0.0111593043861,-0.0161708880194,0.0325211405137,-0.999277965224
207148000000,,230,,207,144157058,"""map""",,,0.156109586358,0.165042534471,-0.0297032929957,,0.0111092528632,-0.0160641348266,0.0325812840666,-0.999278260252
207180000000,,231,,207,176157058,"""map""",,,0.157835841179,0.166656881571,-0.0303287617862,,0.011263460444,-0.016446851754,0.0326007559106,-0.999269662295
207212000000,,232,,207,208157058,"""map""",,,0.157348796725,0.166130587459,-0.0308396685869,,0.011342282624,-0.016528906729,0.0325988593024,-0.999267512805
207248000000,,233,,207,240156683,"""map""",,,0.156653746963,0.165440931916,-0.031430952251,,0.0117374679393,-0.0166836297855,0.0325813683603,-0.999260980044
207280000000,,234,,207,272156683,"""map""",,,0.156561613083,0.165362223983,-0.031845279038,,0.0117487468311,-0.0166765655786,0.0325920736598,-0.999260558575
207312000000,,235,,207,304156683,"""map""",,,0.157075598836,0.165897727013,-0.0321429148316,,0.0116960171723,-0.0166131385228,0.0326242317052,-0.999261190778
207348000000,,236,,207,344156308,"""map""",,,0.158474758267,0.167340576649,-0.0325461775064,,0.0115752269386,-0.0164957358421,0.0326392359833,-0.999264056764
207380000000,,237,,207,376156308,"""map""",,,0.160169228911,0.169096559286,-0.032782446593,,0.0115327870378,-0.0163644358967,0.0326702982106,-0.999265700491
207412000000,,238,,207,408156308,"""map""",,,0.16233175993,0.171307072043,-0.0330859646201,,0.0114421871186,-0.0163427170988,0.0326392359833,-0.999268102861
207448000000,,239,,207,440155932,"""map""",,,0.164918601513,0.173913806677,-0.0336829572916,,0.011398444946,-0.0163559370505,0.0326285306837,-0.999268692917
207480000000,,240,,207,472155932,"""map""",,,0.167901679873,0.176925882697,-0.0342805609107,,0.0113654836409,-0.0162839737762,0.0326168138599,-0.999270631672
207512000000,,241,,207,504155932,"""map""",,,0.169137969613,0.178273037076,-0.0347461551428,,0.0113496965181,-0.0162323075022,0.0326318181379,-0.999271137434
207548000000,,242,,207,544155556,"""map""",,,0.16886420548,0.178221747279,-0.0352913029492,,0.011218588703,-0.0161267186161,0.032624273852,-0.999274635623
207580000000,,243,,207,576155556,"""map""",,,0.169353470206,0.178935840726,-0.0359608083963,,0.0115591424829,-0.0162725763464,0.0326194691113,-0.999268566477
207612000000,,244,,207,608155556,"""map""",,,0.170401528478,0.180184528232,-0.036374360323,,0.0116934807881,-0.0164182406293,0.032627055544,-0.999264351792
207648000000,,245,,207,640155180,"""map""",,,0.171982675791,0.181940093637,-0.0369329079986,,0.0116326393428,-0.0163314390302,0.0326825629435,-0.99926464682
207680000000,,246,,207,680155180,"""map""",,,0.174609839916,0.184804573655,-0.0376598648727,,0.0115423125549,-0.0162579041394,0.0326508685135,-0.999267934274
207712000000,,247,,207,704155180,"""map""",,,0.174411118031,0.184574231505,-0.037822291255,,0.0114932676173,-0.0162319303209,0.0326601408201,-0.999268608624
207748000000,,248,,207,744154803,"""map""",,,0.173213392496,0.183201447129,-0.0380647778511,,0.0114632607075,-0.016192489761,0.0326620374283,-0.999269578001
207780000000,,249,,207,776154803,"""map""",,,0.173063978553,0.182885974646,-0.0383651815355,,0.0113979679952,-0.0161323192078,0.0326185840275,-0.999272654721
207812000000,,250,,207,808154803,"""map""",,,0.17356531322,0.183235794306,-0.0388080514967,,0.0113371484464,-0.0161118585593,0.0326197219924,-0.999273708392
207848000000,,251,,207,840154427,"""map""",,,0.174623027444,0.184207096696,-0.03933044523,,0.0112679084183,-0.016046552676,0.0326534816181,-0.999274424889
207880000000,,252,,207,872154427,"""map""",,,0.176188752055,0.18569663167,-0.0397572442889,,0.0111999383932,-0.015973825984,0.0326165188319,-0.999277501609
207912000000,,253,,207,904154427,"""map""",,,0.176101356745,0.185592621565,-0.0398812368512,,0.0111760681305,-0.0159447071215,0.0326152965733,-0.999278302399
207948000000,,254,,207,944154049,"""map""",,,0.17439468205,0.183966681361,-0.0399888642132,,0.0116180005569,-0.0162173639749,0.0326720683783,-0.99926704919
207980000000,,255,,207,976154049,"""map""",,,0.173813790083,0.183457091451,-0.0402095429599,,0.0115268884547,-0.0161732057668,0.0327413577972,-0.999266543428
208012000000,,256,,208,8154049,"""map""",,,0.173895403743,0.183616712689,-0.0404581315815,,0.0114867022578,-0.0160771601784,0.0327700176542,-0.999267639246
208048000000,,257,,208,40153672,"""map""",,,0.17457652092,0.184357970953,-0.0409273803234,,0.0114111984836,-0.0159797881167,0.0327606610538,-0.999270336644
208080000000,,258,,208,72153672,"""map""",,,0.175790682435,0.185636356473,-0.0413931645453,,0.0113328257602,-0.0158923156254,0.0327377753151,-0.999273413364
208112000000,,259,,208,104153672,"""map""",,,0.17546440661,0.185417711735,-0.0415538586676,,0.0113119752533,-0.0158815586301,0.032745024573,-0.999273581952
208148000000,,260,,208,144153295,"""map""",,,0.173560544848,0.183659031987,-0.0416849702597,,0.0111884756029,-0.015844794889,0.0327605767601,-0.999274972798
208180000000,,261,,208,176153295,"""map""",,,0.172835350037,0.183084502816,-0.0418414138258,,0.0111019481229,-0.0157636121563,0.0327958115255,-0.999276152909
208212000000,,262,,208,208153295,"""map""",,,0.172789186239,0.183149501681,-0.0419433042407,,0.0110490396693,-0.0157321953027,0.0327963172877,-0.999277164434
208248000000,,263,,208,240152917,"""map""",,,0.173358514905,0.183823153377,-0.0419800058007,,0.0109734132412,-0.0157108787109,0.0328074019088,-0.999277965224
208280000000,,264,,208,272152917,"""map""",,,0.174535214901,0.185088634491,-0.0423575006425,,0.0115210596772,-0.0162725979138,0.0328366518217,-0.999261865128
208312000000,,265,,208,304152917,"""map""",,,0.174228578806,0.184713155031,-0.0424640849233,,0.011690327677,-0.0164391797105,0.0328382955488,-0.999257102534
208348000000,,266,,208,344152539,"""map""",,,0.172366738319,0.182626545429,-0.042522829026,,0.0116041946652,-0.0163847398117,0.0328532998268,-0.999258535527
208380000000,,267,,208,376152539,"""map""",,,0.171705707908,0.18178139627,-0.0425633974373,,0.0114993097631,-0.0163299250364,0.0328888296201,-0.999259504904
208412000000,,268,,208,408152539,"""map""",,,0.17173448205,0.181578576565,-0.0425659306347,,0.0114606500724,-0.0163092577694,0.0328760169782,-0.999260685016
208448000000,,269,,208,440152161,"""map""",,,0.172370284796,0.181971237063,-0.0427814610302,,0.0113141337976,-0.016197282154,0.0328975118709,-0.999263466708
208480000000,,270,,208,472152161,"""map""",,,0.173566073179,0.182930216193,-0.0430413149297,,0.011202679914,-0.0161576711958,0.0329610271716,-0.999263255974
208512000000,,271,,208,504152161,"""map""",,,0.173210039735,0.182301327586,-0.043347813189,,0.0111551501227,-0.0161228908261,0.0329491839072,-0.999264731113
208548000000,,272,,208,544151782,"""map""",,,0.171227023005,0.180010408163,-0.043756891042,,0.0110448315699,-0.0160805113468,0.033028251395,-0.999264056764
208580000000,,273,,208,576151782,"""map""",,,0.170457780361,0.179031983018,-0.0440929122269,,0.0110040737564,-0.0160107390501,0.0329850087284,-0.999267007043
208612000000,,274,,208,608151782,"""map""",,,0.17034946382,0.178733989596,-0.0443933010101,,0.0109751962505,-0.0159716231526,0.033020454228,-0.999266796309
208648000000,,275,,208,640151403,"""map""",,,0.170897886157,0.1791164428,-0.0448269061744,,0.0114184192595,-0.0161438600357,0.0330529915951,-0.999258029765
208680000000,,276,,208,672151403,"""map""",,,0.171959787607,0.180024549365,-0.0451796241105,,0.0114151186344,-0.0161747457731,0.0330313702618,-0.999258240499
208712000000,,277,,208,704151403,"""map""",,,0.171827480197,0.179430440068,-0.0453686825931,,0.01138914745,-0.0161232984652,0.0330238681228,-0.999259673492
208748000000,,278,,208,744151024,"""map""",,,0.170508354902,0.177222594619,-0.0454027578235,,0.0113165170701,-0.016042166605,0.0330738542851,-0.99926009496
208780000000,,279,,208,776151024,"""map""",,,0.170230254531,0.176304981112,-0.0453628413379,,0.0112887291261,-0.0159635495616,0.0330194427037,-0.999263508855
208812000000,,280,,208,808151024,"""map""",,,0.170566692948,0.176058575511,-0.0452365092933,,0.0112396048339,-0.0159144637943,0.0330918088426,-0.99926237089
208848000000,,281,,208,840150645,"""map""",,,0.171468421817,0.176464602351,-0.0450440198183,,0.011186293845,-0.0158590938659,0.0331257792025,-0.999262792358
208880000000,,282,,208,872150645,"""map""",,,0.17293843627,0.177444368601,-0.0448614917696,,0.011112539165,-0.0157472443618,0.0331015026177,-0.999266164106
208912000000,,283,,208,904150645,"""map""",,,0.17288556695,0.176983505487,-0.0448348969221,,0.0111042456201,-0.0156694160901,0.0330954756184,-0.999267639246
208948000000,,284,,208,944150266,"""map""",,,0.171352908015,0.174983307719,-0.0450295172632,,0.0110354122432,-0.0156705985068,0.033129530272,-0.999267302071
208980000000,,285,,208,976150266,"""map""",,,0.170975998044,0.174252331257,-0.0453469753265,,0.0113552263163,-0.0158255792188,0.0331527953324,-0.999260474282
209012000000,,286,,209,8150266,"""map""",,,0.171253472567,0.174165815115,-0.0455593988299,,0.0114493845162,-0.0159477133772,0.0331440709347,-0.99925781903
209048000000,,287,,209,40149886,"""map""",,,0.172100007534,0.174660086632,-0.0457913391292,,0.0114212388178,-0.015872248951,0.0332012220613,-0.999257397562
209080000000,,288,,209,72149886,"""map""",,,0.17350949347,0.175677850842,-0.0459820106626,,0.0112963980415,-0.0158101447466,0.0331888308878,-0.999260263548
209112000000,,289,,209,104149886,"""map""",,,0.173441320658,0.175255522132,-0.0460699386895,,0.0112336117496,-0.0157642132428,0.0331970916702,-0.999261359366
209148000000,,290,,209,144149507,"""map""",,,0.171840637922,0.17327837646,-0.0459525175393,,0.0111621817317,-0.0157315326423,0.0332336751347,-0.999261527953
209180000000,,291,,209,176149507,"""map""",,,0.171373426914,0.172487154603,-0.0458706617355,,0.0110352355886,-0.0156529233368,0.0332153834024,-0.999264731113
209212000000,,292,,209,208149507,"""map""",,,0.171531781554,0.172325104475,-0.0456967353821,,0.0109889468244,-0.0156387682519,0.0332222111919,-0.999265236876
209248000000,,293,,209,240149127,"""map""",,,0.172262579203,0.172739759088,-0.0455393455923,,0.0109246229957,-0.0155237361668,0.0332181229476,-0.999267892127
209280000000,,294,,209,280149127,"""map""",,,0.173920243979,0.174030259252,-0.0453769601882,,0.0108779293913,-0.0154697067058,0.0332668868513,-0.999267597099
209312000000,,295,,209,304149127,"""map""",,,0.173149988055,0.173180326819,-0.0452368035913,,0.0108538804983,-0.0154216792195,0.0332738410813,-0.999268397889
209348000000,,296,,209,344148746,"""map""",,,0.171108677983,0.171051621437,-0.0448657944798,,0.0113085374863,-0.0156888028172,0.0333071370916,-0.999258114058
209380000000,,297,,209,376148746,"""map""",,,0.170307472348,0.170074343681,-0.0446069091558,,0.0112219574874,-0.0156306768802,0.0333303600051,-0.999259167729
209412000000,,298,,209,408148746,"""map""",,,0.170210927725,0.169713035226,-0.0443696007133,,0.0112295855731,-0.0155952924606,0.0332903626459,-0.999260980044
209448000000,,299,,209,440148366,"""map""",,,0.170713916421,0.169936746359,-0.0441592670977,,0.0111710249966,-0.0155060440393,0.0332729981443,-0.999263593149
209480000000,,300,,209,472148366,"""map""",,,0.171767264605,0.170718833804,-0.0439974106848,,0.0111481754778,-0.0153944240379,0.0333188960623,-0.999264056764
209512000000,,301,,209,504148366,"""map""",,,0.171393722296,0.170061856508,-0.0434557795525,,0.0111319739658,-0.0153417575994,0.033321509167,-0.999264983995
209548000000,,302,,209,544147985,"""map""",,,0.169524922967,0.167830213904,-0.0424204207957,,0.0113355409392,-0.0157485797254,0.0333848558803,-0.999254236548
209580000000,,303,,209,576147985,"""map""",,,0.168776497245,0.166820436716,-0.0415151156485,,0.0113887203839,-0.0157145007057,0.0334298687145,-0.999252634968
209612000000,,304,,209,608147985,"""map""",,,0.168670848012,0.166446462274,-0.040674995631,,0.0113484708021,-0.0156615899472,0.0334054656892,-0.999254784457
209648000000,,305,,209,640147604,"""map""",,,0.169144392014,0.166663974524,-0.0398279502988,,0.0112313601859,-0.015554919237,0.0334368650913,-0.999256681065
209680000000,,306,,209,672147604,"""map""",,,0.170198082924,0.167398050427,-0.0391916297376,,0.0111804081034,-0.0155456355705,0.0334098489614,-0.999258324792
209712000000,,307,,209,704147604,"""map""",,,0.169831395149,0.166924729943,-0.0386593937874,,0.0116457983791,-0.0157425118963,0.0334065615073,-0.999249979716
209748000000,,308,,209,744147223,"""map""",,,0.167911991477,0.164999753237,-0.0378121063113,,0.0116845051558,-0.0157855357615,0.0334814564571,-0.999246397234
209780000000,,309,,209,776147223,"""map""",,,0.167206823826,0.164239794016,-0.0370398983359,,0.0116285583424,-0.0157203657031,0.0335032042309,-0.999247324465
209812000000,,310,,209,808147223,"""map""",,,0.167138263583,0.164089530706,-0.0362215302885,,0.0116025869934,-0.0156649488534,0.0335330863465,-0.999247535199
209848000000,,311,,209,840146842,"""map""",,,0.167680427432,0.164520904422,-0.0354916006327,,0.0115380771259,-0.0156492400974,0.0334916981412,-0.999249895423
209880000000,,312,,209,872146842,"""map""",,,0.168766692281,0.16550065577,-0.0347337275743,,0.0115264230283,-0.0155538938832,0.0334818357787,-0.999251834178
209912000000,,313,,209,904146842,"""map""",,,0.168443247676,0.165169775486,-0.0338971279562,,0.0114909103572,-0.0155523621087,0.0334928361062,-0.999251876325
209948000000,,314,,209,944146461,"""map""",,,0.166651666164,0.163477912545,-0.0327467657626,,0.0114584627168,-0.0154961696583,0.0335175763062,-0.999252255646
209980000000,,315,,209,976146461,"""map""",,,0.16602858901,0.162899658084,-0.0318489782512,,0.0113811866347,-0.0154594727595,0.0335035414057,-0.999254236548
210012000000,,316,,210,8146461,"""map""",,,0.16606938839,0.162937536836,-0.0309450831264,,0.0113209882581,-0.0154010593677,0.0334919931692,-0.999256259597
210048000000,,317,,210,40146079,"""map""",,,0.16672500968,0.163578256965,-0.0302142444998,,0.0117038615898,-0.0156234990743,0.0334777053875,-0.999248799605
210080000000,,318,,210,72146079,"""map""",,,0.167919129133,0.164673000574,-0.0295121110976,,0.0117361569418,-0.0156969080184,0.0334935104557,-0.999246734409
210112000000,,319,,210,104146079,"""map""",,,0.16771364212,0.164343610406,-0.0288129299879,,0.0117001506915,-0.0156717328497,0.0334737435838,-0.999248209549
210148000000,,320,,210,144145698,"""map""",,,0.166062876582,0.162492960691,-0.0280344747007,,0.0115642541054,-0.0156400193218,0.033539619108,-0.999248167402
210180000000,,321,,210,176145698,"""map""",,,0.165522068739,0.1617757231,-0.027397274971,,0.011469274042,-0.015613845635,0.033540167017,-0.999249642542
210212000000,,322,,210,208145698,"""map""",,,0.165621429682,0.161689206958,-0.0267720725387,,0.0113898710258,-0.0155699506801,0.0335592173926,-0.999250569772
210248000000,,323,,210,240145316,"""map""",,,0.166294723749,0.162156388164,-0.0261809043586,,0.0112871850038,-0.0155514197315,0.0335912068506,-0.999250949094
210280000000,,324,,210,272145316,"""map""",,,0.167481616139,0.163135513663,-0.0255410932004,,0.0112311739824,-0.01555459441,0.0335870764594,-0.999251623444
210312000000,,325,,210,304145316,"""map""",,,0.167150035501,0.162815630436,-0.0248737558722,,0.0112071634497,-0.0154949487168,0.0335908696758,-0.999252719262
210348000000,,326,,210,344144934,"""map""",,,0.165205538273,0.161160111427,-0.0241031553596,,0.0110983534577,-0.0153798720153,0.0336185180084,-0.999254826604
210380000000,,327,,210,376144934,"""map""",,,0.164489194751,0.160634681582,-0.0237574558705,,0.0113303148947,-0.0154594126673,0.0336268630844,-0.999250696213
210412000000,,328,,210,408144934,"""map""",,,0.164432391524,0.16069175303,-0.02331584692,,0.0114979632042,-0.015637863741,0.0336253457979,-0.99924606006
210448000000,,329,,210,448144552,"""map""",,,0.1651686728,0.161522105336,-0.0228567793965,,0.0114267684514,-0.0155799995754,0.03365982192,-0.999246650115
210480000000,,330,,210,472144552,"""map""",,,0.166014030576,0.162413209677,-0.022637071088,,0.0113315437387,-0.0155328232578,0.0336433425022,-0.999248968192
210512000000,,331,,210,504144552,"""map""",,,0.165941596031,0.162222757936,-0.0223836936057,,0.0113176505899,-0.0155058471345,0.0336482736835,-0.999249347514
210548000000,,332,,210,544144169,"""map""",,,0.164716392756,0.160676434636,-0.0220447480679,,0.0112604173099,-0.0154399615675,0.0337138963266,-0.999248799605
210580000000,,333,,210,576144169,"""map""",,,0.164473444223,0.160195097327,-0.0217592343688,,0.0111423458772,-0.0153951512357,0.0337310079471,-0.999250316891
210612000000,,334,,210,608144169,"""map""",,,0.164845898747,0.160338580608,-0.0214456506073,,0.0111006333388,-0.0153653590114,0.0337758100471,-0.999249684689
210648000000,,335,,210,640143787,"""map""",,,0.165830478072,0.161075428128,-0.021239278838,,0.0112431392422,-0.015668363736,0.0338147115882,-0.999242056109
210680000000,,336,,210,672143787,"""map""",,,0.167302086949,0.162297815084,-0.0208593737334,,0.0113560338565,-0.0156704667979,0.0338056921626,-0.999241044585
210712000000,,337,,210,704143787,"""map""",,,0.167298287153,0.16209371388,-0.020597293973,,0.011293243284,-0.0156042063544,0.033820907175,-0.999242266843
210748000000,,338,,210,744143404,"""map""",,,0.165833726525,0.160483270884,-0.0204452071339,,0.0114978431845,-0.0156108043118,0.0338273134959,-0.999239653739
210780000000,,339,,210,776143404,"""map""",,,0.165441915393,0.159904107451,-0.0201174709946,,0.0117132809166,-0.0157859203515,0.0338187576857,-0.999234638264
210812000000,,340,,210,808143404,"""map""",,,0.165636703372,0.159933686256,-0.0196703691036,,0.0117068452904,-0.0156962927732,0.0337999180444,-0.999236787753
210848000000,,341,,210,840143022,"""map""",,,0.166397452354,0.160528212786,-0.0191689319909,,0.0115830199897,-0.0156115886383,0.0337713424811,-0.999240580969
210880000000,,342,,210,872143022,"""map""",,,0.167685851455,0.16160030663,-0.0186123624444,,0.0114842116425,-0.0155860084647,0.0337385943798,-0.999243236221
210912000000,,343,,210,904143022,"""map""",,,0.167515039444,0.161268785596,-0.0179924182594,,0.0114346415156,-0.0155708937158,0.0337492153856,-0.999243657689
210952000000,,344,,210,944142639,"""map""",,,0.165904268622,0.159437194467,-0.0171451158822,,0.0113119079171,-0.0155170926051,0.0337167623123,-0.999246945143
210980000000,,345,,210,976142639,"""map""",,,0.165429219604,0.158722311258,-0.0163567233831,,0.0112480289352,-0.0154519469129,0.0337864310529,-0.999246312941
211012000000,,346,,211,8142639,"""map""",,,0.165566816926,0.158601716161,-0.0155609641224,,0.0111988753378,-0.0154192961115,0.0338088531763,-0.999246650115
211048000000,,347,,211,40142256,"""map""",,,0.166240826249,0.159044861794,-0.014798249118,,0.0111129705116,-0.0153362869056,0.0338029104706,-0.99924913678
211080000000,,348,,211,80142256,"""map""",,,0.16779910028,0.160347014666,-0.0138878598809,,0.0111571627994,-0.0152919444697,0.0338882578389,-0.999246397234
211112000000,,349,,211,104142256,"""map""",,,0.16717363894,0.159679532051,-0.0133843226358,,0.0114900886583,-0.0155299608941,0.033926063562,-0.999237672837
211148000000,,350,,211,144141872,"""map""",,,0.165352731943,0.157821640372,-0.0125529095531,,0.0115811752419,-0.0155093728172,0.0339086147667,-0.999237504249
211180000000,,351,,211,176141872,"""map""",,,0.164698198438,0.157087370753,-0.0119521962479,,0.0115275899692,-0.0154666604435,0.0339169598427,-0.999238515774
211212000000,,352,,211,208141872,"""map""",,,0.164672851562,0.157003447413,-0.0113482568413,,0.0115155942517,-0.0154089162976,0.0339156954373,-0.999239611592
211248000000,,353,,211,240141489,"""map""",,,0.165237948298,0.157473295927,-0.0107908500358,,0.0114231537006,-0.0153472205554,0.0339361788056,-0.999240875997
211280000000,,354,,211,280141489,"""map""",,,0.166677027941,0.158792063594,-0.0102193998173,,0.0113303140715,-0.0152782215546,0.0339471369863,-0.999242646165
211312000000,,355,,211,304141489,"""map""",,,0.166015401483,0.158220633864,-0.00996094662696,,0.0112851183265,-0.0152477742432,0.033983383276,-0.999242393284
211348000000,,356,,211,344141106,"""map""",,,0.164258807898,0.156676828861,-0.00959378294647,,0.0111795297697,-0.0152118363169,0.0340271738516,-0.999242604018
211380000000,,357,,211,376141106,"""map""",,,0.16365519166,0.156178474426,-0.00936486013234,,0.011112698862,-0.0151377018214,0.0340232541947,-0.999244669214
211412000000,,358,,211,408141106,"""map""",,,0.163693219423,0.156260117888,-0.0090816244483,,0.0110657678523,-0.0151101698865,0.0340183230134,-0.999245722885
211448000000,,359,,211,440140722,"""map""",,,0.164309293032,0.156909301877,-0.0089399619028,,0.011322943806,-0.0151663083363,0.0339841419192,-0.999243151927
211480000000,,360,,211,472140722,"""map""",,,0.165436670184,0.158016487956,-0.00867427140474,,0.0115018333057,-0.0152921774298,0.0339830461012,-0.999239274417
211512000000,,361,,211,504140722,"""map""",,,0.165171653032,0.157855764031,-0.00830520689487,,0.0115016953406,-0.015278053955,0.0340052996372,-0.999238684361
211548000000,,362,,211,544140338,"""map""",,,0.163465902209,0.156426116824,-0.00770572759211,,0.0114093868277,-0.0152026285476,0.0339961537711,-0.999241171025
211576000000,,363,,211,576140338,"""map""",,,0.162887856364,0.156005829573,-0.00707156676799,,0.0113427521662,-0.0150489036799,0.0339840997724,-0.99924471136
211612000000,,364,,211,608140338,"""map""",,,0.16296736896,0.156140983105,-0.00637756753713,,0.0113113575386,-0.015005450773,0.0339798429407,-0.999245849325
211648000000,,365,,211,640139955,"""map""",,,0.163623571396,0.156813874841,-0.00573671795428,,0.0112066255835,-0.0149315749208,0.0339204580311,-0.999250190451
211680000000,,366,,211,672139955,"""map""",,,0.164778783917,0.157976821065,-0.00512216612697,,0.0111437061009,-0.0148666419384,0.0339792950317,-0.999249853276
211712000000,,367,,211,704139955,"""map""",,,0.164628103375,0.157834842801,-0.00464962655678,,0.0111464935552,-0.0148308982828,0.0339887359257,-0.999250021863
211748000000,,368,,211,744139571,"""map""",,,0.163185954094,0.156365782022,-0.00434154644608,,0.011059043125,-0.0147940313149,0.034041798808,-0.999249726835
211780000000,,369,,211,776139571,"""map""",,,0.162781208754,0.155917495489,-0.00402926281095,,0.0112582986075,-0.0151986611462,0.0340205567964,-0.999242224696
211812000000,,370,,211,808139571,"""map""",,,0.163000166416,0.156075000763,-0.00375301809981,,0.011498207195,-0.0152330073704,0.0340250665091,-0.999238810802
211848000000,,371,,211,840139187,"""map""",,,0.163750693202,0.156758785248,-0.00333955045789,,0.0117031834536,-0.0154044314449,0.0340260780335,-0.999233668886
211880000000,,372,,211,872139187,"""map""",,,0.165037497878,0.15792581439,-0.00297919264995,,0.0116025761274,-0.0153533259215,0.0339886937789,-0.999236914193
211912000000,,373,,211,904150803,"""map""",,,0.164998695254,0.15772716701,-0.00268538179807,,0.0115686306276,-0.0152917613943,0.0340429367729,-0.999236450578
211948000000,,374,,211,944150803,"""map""",,,0.163678959012,0.156174093485,-0.00248208316043,,0.011476012928,-0.0152520485263,0.0340669183297,-0.999237335662
211980000000,,375,,211,976150803,"""map""",,,0.163386881351,0.155682682991,-0.00220344262198,,0.0114226973292,-0.0151217671846,0.0341315294485,-0.999237714984
212012000000,,376,,212,8150803,"""map""",,,0.163710147142,0.15576800704,-0.00188227498438,,0.0113662687906,-0.0150757736129,0.0341262610924,-0.999239190123
212048000000,,377,,212,40150418,"""map""",,,0.16460031271,0.156375989318,-0.00156784045976,,0.0113446545367,-0.0149853220309,0.034137219273,-0.999240454529
212080000000,,378,,212,72150418,"""map""",,,0.165986940265,0.157499670982,-0.00125147309154,,0.0112978051865,-0.0149282293501,0.0341111725207,-0.999242730459
212112000000,,379,,212,104150418,"""map""",,,0.165964543819,0.15734526515,-0.000787737953942,,0.0112920531295,-0.0149035118698,0.0341042604375,-0.999243404808
212148000000,,380,,212,144150034,"""map""",,,0.164542973042,0.15592007339,-0.000149592888192,,0.0112061041808,-0.0147938046109,0.0341301386025,-0.999245090682
212180000000,,381,,212,176150034,"""map""",,,0.164225205779,0.155506044626,0.000422607554356,,0.011658245035,-0.0151589649064,0.0341417711327,-0.999234048208
212212000000,,382,,212,208150034,"""map""",,,0.164526879787,0.155643254519,0.000970437075011,,0.0116430575169,-0.0151345712654,0.0341723275978,-0.999233500299
212248000000,,383,,212,240149649,"""map""",,,0.165397524834,0.156339928508,0.0014804948587,,0.0115541805147,-0.0150973580677,0.0341790710936,-0.999234933292
212280000000,,384,,212,272149649,"""map""",,,0.166796341538,0.157537207007,0.00199925270863,,0.011465534497,-0.0150375576166,0.0341657105426,-0.999237335662
212312000000,,385,,212,304149649,"""map""",,,0.166870370507,0.157421544194,0.00209843693301,,0.0114503282104,-0.01498249457,0.0341692087311,-0.999238220746
212348000000,,386,,212,344149264,"""map""",,,0.165647044778,0.155993685126,0.00179130490869,,0.011413658312,-0.0149508075486,0.0341780174224,-0.999238768655
212380000000,,387,,212,376149264,"""map""",,,0.165443539619,0.155572250485,0.00154168484733,,0.011275464558,-0.0148666345298,0.0341813048766,-0.999241466053
212412000000,,388,,212,408149264,"""map""",,,0.165853723884,0.15572167933,0.00133443437517,,0.0112370776693,-0.0148096878813,0.0341931059942,-0.999242393284
212448000000,,389,,212,440148879,"""map""",,,0.166803747416,0.156409874558,0.00124930217862,,0.0111675681319,-0.0147742491318,0.034162549529,-0.99924471136
212480000000,,390,,212,472148879,"""map""",,,0.168268173933,0.157573014498,0.0012222827645,,0.0110789221142,-0.0147298533538,0.0342116084607,-0.99924471136
212512000000,,391,,212,504148879,"""map""",,,0.168304845691,0.157378211617,0.00100175407715,,0.0113643185111,-0.0148408665064,0.0342171296978,-0.999239611592
212548000000,,392,,212,544148494,"""map""",,,0.166882663965,0.155729606748,0.000963953614701,,0.011524811076,-0.014988422623,0.0342761352857,-0.999233542446
212580000000,,393,,212,576148494,"""map""",,,0.166504740715,0.15517668426,0.00100628170185,,0.0114418728282,-0.0149463717574,0.0342985152623,-0.999234343236
212612000000,,394,,212,608148494,"""map""",,,0.166718423367,0.155226543546,0.00121734722052,,0.0113623812378,-0.0149409479848,0.0342943005774,-0.999235523347
212648000000,,395,,212,640148109,"""map""",,,0.167512148619,0.155796453357,0.00158054451458,,0.0113282299428,-0.0148610077609,0.0343092627087,-0.999236577019
212680000000,,396,,212,672148109,"""map""",,,0.168824523687,0.156895622611,0.00192428706214,,0.0112500462217,-0.0147989083309,0.0343318112726,-0.99923763069
212712000000,,397,,212,704148109,"""map""",,,0.170593395829,0.158468276262,0.00216915761121,,0.0112246729957,-0.0147873293074,0.0343592067241,-0.999237124928
212748000000,,398,,212,744147723,"""map""",,,0.173409253359,0.161021351814,0.00233795796521,,0.0111504365904,-0.0146668314675,0.0343282287905,-0.999240791704
212780000000,,399,,212,776147723,"""map""",,,0.17614479363,0.163470908999,0.00247328798287,,0.0110607301514,-0.0145887012532,0.0342997796677,-0.999243952717
212812000000,,400,,212,808147723,"""map""",,,0.17617058754,0.163262188435,0.00237520108931,,0.0110046918004,-0.0145798914094,0.0343282287905,-0.999243657689
212848000000,,401,,212,840147337,"""map""",,,0.175859749317,0.162748605013,0.00233213510364,,0.0113998733291,-0.0151969691807,0.0343377539783,-0.999229749229
212880000000,,402,,212,872147337,"""map""",,,0.17615956068,0.162822708488,0.00231568352319,,0.0115174645181,-0.0153191777546,0.0343185771622,-0.999227178271
212912000000,,403,,212,904147337,"""map""",,,0.177061229944,0.16354650259,0.00216297945008,,0.0117809445538,-0.0153167842746,0.0343385969152,-0.999223427202
212948000000,,404,,212,944146951,"""map""",,,0.178953155875,0.165175378323,0.00234499410726,,0.0122837075596,-0.0158380790521,0.0343294931959,-0.999209603036
212980000000,,405,,212,976146951,"""map""",,,0.181009709835,0.167007684708,0.00271648704074,,0.0121549968465,-0.0158298599228,0.0343375853909,-0.999211036028
213012000000,,406,,213,8146951,"""map""",,,0.180360913277,0.166125223041,0.00301975989714,,0.0121274935583,-0.0158358367081,0.0343196308334,-0.999211878965
213048000000,,407,,213,40146565,"""map""",,,0.179372474551,0.164890438318,0.003392691724,,0.0120172102376,-0.015791859929,0.0342987259965,-0.999214576364
213080000000,,408,,213,72146565,"""map""",,,0.179037556052,0.164305046201,0.00385764637031,,0.011922535245,-0.0157000772639,0.0342951013676,-0.999217358056
213112000000,,409,,213,104146565,"""map""",,,0.179358109832,0.164328709245,0.00420423271134,,0.0118897836863,-0.0156584633425,0.0342904230674,-0.999218580314
213148000000,,410,,213,144146179,"""map""",,,0.180551722646,0.165140509605,0.00446455040947,,0.0118168786934,-0.0155680572,0.0343256156859,-0.999219549692
213180000000,,411,,213,176146179,"""map""",,,0.182099625468,0.16637866199,0.00464803725481,,0.0117605874613,-0.0154422898516,0.0343246041615,-0.99922224709
213212000000,,412,,213,208146179,"""map""",,,0.181142419577,0.165395230055,0.00483166566119,,0.0117350533858,-0.0154551772383,0.0343049215833,-0.99922304788
213248000000,,413,,213,240145792,"""map""",,,0.179909840226,0.164215072989,0.0051220250316,,0.011657250962,-0.0153872701043,0.0342887371934,-0.999225492397
213280000000,,414,,213,272145792,"""map""",,,0.179409563541,0.163708820939,0.00540449377149,,0.0115999892,-0.0152733287335,0.0342460424359,-0.999229412054
213312000000,,415,,213,304145792,"""map""",,,0.179552212358,0.163793027401,0.00573925906792,,0.0115884654943,-0.015225235722,0.0342234517251,-0.999231097928
213348000000,,416,,213,344145406,"""map""",,,0.180557280779,0.164724871516,0.00620993925259,,0.0115229457487,-0.0150844466441,0.0341638560813,-0.999235986963
213380000000,,417,,213,376145406,"""map""",,,0.181915640831,0.16608594358,0.00648018438369,,0.0114458945595,-0.0149468808123,0.0341898606868,-0.999238052158
213412000000,,418,,213,408145406,"""map""",,,0.180676937103,0.165195375681,0.00659907143563,,0.011662861432,-0.0149528496951,0.0341907457706,-0.999235396907
213448000000,,419,,213,440145019,"""map""",,,0.179180279374,0.164038687944,0.00690136896446,,0.0120878080199,-0.0153845140955,0.034147798132,-0.99922532381
213480000000,,420,,213,472145019,"""map""",,,0.178342550993,0.163551777601,0.00720379361883,,0.0120129320032,-0.0153232110105,0.0341641089624,-0.999226546069
213512000000,,421,,213,504145019,"""map""",,,0.178145617247,0.163669034839,0.00728883594275,,0.0119896063568,-0.0152982969546,0.0341526028727,-0.99922759974
213548000000,,422,,213,544144632,"""map""",,,0.178756937385,0.164658814669,0.00746500538662,,0.0122229790546,-0.0157543782098,0.0341058198709,-0.999219338958
213580000000,,423,,213,576144632,"""map""",,,0.179792717099,0.166007727385,0.00766565557569,,0.012097800445,-0.0157372111069,0.0341076321854,-0.999221066978
213612000000,,424,,213,608144632,"""map""",,,0.178238376975,0.164954006672,0.00760763185099,,0.0120206881758,-0.0157429055413,0.0340823440763,-0.999222752852
213648000000,,425,,213,640144245,"""map""",,,0.176432400942,0.16366161406,0.00760361459106,,0.0119359832177,-0.0156445351261,0.0340899726559,-0.999225070929
213680000000,,426,,213,672144245,"""map""",,,0.175370246172,0.16307759285,0.00780514022335,,0.0118532491188,-0.015568357167,0.0340355189276,-0.999229117026
213712000000,,427,,213,704144245,"""map""",,,0.174955263734,0.163137316704,0.00816245749593,,0.0117791615445,-0.0155588991508,0.0340434003883,-0.999229833523
213748000000,,428,,213,744143858,"""map""",,,0.175313428044,0.164016515017,0.00886630173773,,0.0116934313973,-0.0154633346291,0.0340844092719,-0.999230971488
213780000000,,429,,213,776143858,"""map""",,,0.176231384277,0.165294721723,0.00954689644277,,0.0115622590448,-0.0154098853459,0.0340572245546,-0.999234216795
213812000000,,430,,213,808143858,"""map""",,,0.17461578548,0.164083093405,0.0102041959763,,0.0115299413024,-0.0153408636253,0.0340809953771,-0.999234806851
213848000000,,431,,213,840143471,"""map""",,,0.172750413418,0.162631630898,0.0108583681285,,0.0114319325928,-0.0152881341311,0.0340812904051,-0.999236787753
213880000000,,432,,213,872143471,"""map""",,,0.171630114317,0.16190251708,0.0114835929126,,0.0113416910864,-0.0151743927933,0.0340825548105,-0.999239485151
213912000000,,433,,213,904143471,"""map""",,,0.17116497457,0.161831796169,0.0120757427067,,0.0113113670875,-0.0151470783427,0.0340681827352,-0.99924070741
213948000000,,434,,213,944143083,"""map""",,,0.171482145786,0.162626117468,0.0127048538998,,0.0118805219164,-0.0155414663252,0.0339959851837,-0.999230550019
213980000000,,435,,213,976143083,"""map""",,,0.172303855419,0.163791835308,0.0133561817929,,0.0118030573259,-0.0155217297463,0.033944987497,-0.999233500299
214012000000,,436,,214,8143083,"""map""",,,0.170848801732,0.162697479129,0.0140208005905,,0.0117695635876,-0.0154931991287,0.0339210059402,-0.999235144026
214048000000,,437,,214,40142696,"""map""",,,0.169185698032,0.161374688148,0.0146636739373,,0.0116445634435,-0.0154201512316,0.0339259792683,-0.999237588543
214080000000,,438,,214,72142696,"""map""",,,0.168222025037,0.160732060671,0.015229688026,,0.011564971425,-0.0153289563174,0.0339073082144,-0.999240496676
214112000000,,439,,214,104142696,"""map""",,,0.167871102691,0.160702511668,0.0156962200999,,0.0115446479183,-0.015280965051,0.0339275387017,-0.99924083385
214148000000,,440,,214,144142308,"""map""",,,0.168223291636,0.161476865411,0.0163089483976,,0.0114482751979,-0.0152198955846,0.0339290981351,-0.999242730459
214180000000,,441,,214,176142308,"""map""",,,0.169086158276,0.162696808577,0.0167948380113,,0.0113506759384,-0.0151775646729,0.0339220174645,-0.999244837801
214212000000,,442,,214,208142308,"""map""",,,0.167608633637,0.161662310362,0.0173809677362,,0.0113461360972,-0.0151850073783,0.0339635742572,-0.999243320514
214248000000,,443,,214,240141920,"""map""",,,0.165876865387,0.160401180387,0.0179578382522,,0.011283881086,-0.0150933605379,0.0339751224937,-0.999245006388
214280000000,,444,,214,272141920,"""map""",,,0.164823383093,0.159809559584,0.0185348335654,,0.0111463794623,-0.0150247113889,0.0339685475853,-0.999247872374
214312000000,,445,,214,304141920,"""map""",,,0.164399027824,0.159853845835,0.0191148072481,,0.011132370245,-0.0149590209157,0.0339610454463,-0.999249221073
214348000000,,446,,214,344141532,"""map""",,,0.164641469717,0.160707429051,0.0196762029082,,0.0110858849053,-0.0148272250862,0.0339756704027,-0.999251201975
214380000000,,447,,214,376141532,"""map""",,,0.165450006723,0.162035763264,0.0200055483729,,0.0114791790453,-0.015141818877,0.0339898317438,-0.999241592494
214412000000,,448,,214,408141532,"""map""",,,0.16415938735,0.161161914468,0.0203313119709,,0.0116402988739,-0.0153414892425,0.0339542176568,-0.999237841424
214448000000,,449,,214,440141144,"""map""",,,0.162682399154,0.160104364157,0.020782802254,,0.0115935871595,-0.015473263834,0.0339724250954,-0.999235734082
214480000000,,450,,214,472141144,"""map""",,,0.161900579929,0.159701481462,0.0212013144046,,0.0115576628981,-0.0154797801319,0.0339843526535,-0.999235691935
214512000000,,451,,214,504141144,"""map""",,,0.161738991737,0.159926727414,0.0216895807534,,0.0115365097899,-0.0155114857572,0.0339629420544,-0.999236197697
214548000000,,452,,214,544140756,"""map""",,,0.162290781736,0.160981342196,0.0221425015479,,0.0114777080215,-0.0155200721898,0.0339776513046,-0.99923615555
214580000000,,453,,214,576140756,"""map""",,,0.163256347179,0.162382975221,0.0224354863167,,0.0114202801416,-0.0155267658008,0.0339770191018,-0.999236787753
214612000000,,454,,214,608140756,"""map""",,,0.161936998367,0.161581426859,0.0224875025451,,0.0113515257901,-0.0155142794676,0.0339562828524,-0.999238473627
214648000000,,455,,214,640140368,"""map""",,,0.160388946533,0.160553604364,0.0224684271961,,0.0112310763532,-0.0154862086787,0.0339791264443,-0.999239485151
214680000000,,456,,214,672140368,"""map""",,,0.159493297338,0.160166859627,0.0224561169744,,0.0111678661233,-0.0154474525112,0.0339910540024,-0.999240370235
214712000000,,457,,214,704140368,"""map""",,,0.159186288714,0.160339668393,0.0224892795086,,0.0111321097907,-0.0154629098679,0.0340239285442,-0.999239443004
214748000000,,458,,214,744139980,"""map""",,,0.159555837512,0.161320000887,0.0224888753146,,0.0110794942247,-0.0154321695042,0.0340321471797,-0.999240159501
214780000000,,459,,214,776139980,"""map""",,,0.160357117653,0.162627696991,0.0226820446551,,0.0110650177701,-0.015402836944,0.0340399021998,-0.999240496676
214812000000,,460,,214,808139980,"""map""",,,0.158928319812,0.161453977227,0.0228834189475,,0.0110410683173,-0.0153653810727,0.0340517033174,-0.999241002438
214848000000,,461,,214,840139591,"""map""",,,0.157267525792,0.160002544522,0.0231237951666,,0.0109926858755,-0.0152721922503,0.0340487951849,-0.999243067633
214880000000,,462,,214,872139591,"""map""",,,0.156231328845,0.159206226468,0.0233034752309,,0.0108803187554,-0.0151851626302,0.0339714557178,-0.999248251696
214912000000,,463,,214,904139591,"""map""",,,0.155762866139,0.159044116735,0.0235629398376,,0.010826879021,-0.0151924647363,0.0339662716555,-0.999248883898
214948000000,,464,,214,944139203,"""map""",,,0.155903458595,0.159605115652,0.0239569302648,,0.0107596121569,-0.0151265501933,0.034024265719,-0.999248631017
214980000000,,465,,214,976139203,"""map""",,,0.15654912591,0.16062477231,0.0243237968534,,0.0106828844777,-0.0151269499298,0.0339908432682,-0.999250611919
215012000000,,466,,215,8139203,"""map""",,,0.155057117343,0.159383147955,0.0246176831424,,0.0106757845447,-0.0151126392638,0.0340026443857,-0.999250443332
215048000000,,467,,215,40138814,"""map""",,,0.153399959207,0.157948076725,0.0248282589018,,0.0106081046086,-0.0150707242229,0.0339737316477,-0.999252803555
215080000000,,468,,215,72138814,"""map""",,,0.152333676815,0.157165586948,0.0251115430146,,0.0107072353133,-0.0150128236727,0.033981697402,-0.999252424234
215112000000,,469,,215,104138814,"""map""",,,0.151818498969,0.156990036368,0.0254479516298,,0.0106359686145,-0.0149961457037,0.0339798850875,-0.999253477905
215148000000,,470,,215,144138425,"""map""",,,0.151868626475,0.157545998693,0.0258425790817,,0.0105799429405,-0.0149326455496,0.0339912225898,-0.99925461587
215180000000,,471,,215,176138425,"""map""",,,0.152422875166,0.158518210053,0.0261736158282,,0.0104738484568,-0.0148778997568,0.0340397336124,-0.999254910898
215212000000,,472,,215,208138425,"""map""",,,0.150913640857,0.157321363688,0.0262862928212,,0.0104766556674,-0.0148126151116,0.0340739147066,-0.99925461587
215248000000,,473,,215,240138037,"""map""",,,0.149219617248,0.155918121338,0.0263870377094,,0.0103927240052,-0.014723212591,0.0340833134538,-0.999256512478
215280000000,,474,,215,272138037,"""map""",,,0.148141890764,0.155161991715,0.0265305675566,,0.010318031064,-0.0146419490219,0.0340764435175,-0.999258746261
215312000000,,475,,215,304138037,"""map""",,,0.147629857063,0.154977679253,0.0268641803414,,0.0102815045635,-0.0146066625608,0.0341017737734,-0.999258704114
215348000000,,476,,215,344137648,"""map""",,,0.147687211633,0.155480280519,0.0273104012012,,0.0102820253076,-0.0145251197688,0.0340383427664,-0.999262118009
215380000000,,477,,215,376137648,"""map""",,,0.14825950563,0.156441017985,0.0277525540441,,0.0103596705039,-0.0144462286063,0.0340126331888,-0.999263298121
215412000000,,478,,215,408137648,"""map""",,,0.146838545799,0.155259147286,0.0282098632306,,0.0107963903859,-0.0148522533995,0.0339968281206,-0.999253309318
215448000000,,479,,215,440137259,"""map""",,,0.14512835443,0.15379691124,0.0287457890809,,0.0107808266743,-0.0148834772995,0.0339869657581,-0.999253393611
215480000000,,480,,215,472137259,"""map""",,,0.143983259797,0.152963504195,0.0293397661299,,0.010765426611,-0.0148162010511,0.0340333694383,-0.999252929996
215512000000,,481,,215,504137259,"""map""",,,0.143386080861,0.15270191431,0.0299523361027,,0.0107288724517,-0.0148115171533,0.03402371781,-0.999253646492
215548000000,,482,,215,544136870,"""map""",,,0.14334538579,0.153100579977,0.0308626517653,,0.0106474977532,-0.0147723334258,0.0340415037801,-0.999254573723
215580000000,,483,,215,576136870,"""map""",,,0.143787205219,0.15391997993,0.0316089205444,,0.0105836605889,-0.0146694639992,0.0339954372746,-0.999258324792
215612000000,,484,,215,608136870,"""map""",,,0.142378181219,0.15297806263,0.0322680659592,,0.0105582972411,-0.0146467193536,0.033962520586,-0.999260052813
215648000000,,485,,215,640136481,"""map""",,,0.140810459852,0.151905536652,0.0329230688512,,0.0105234920114,-0.0145695930904,0.0339924027016,-0.999260516429
215680000000,,486,,215,672136481,"""map""",,,0.139799937606,0.151454910636,0.0335437469184,,0.0104718288654,-0.0144884646876,0.0340270052642,-0.999261064338
215712000000,,487,,215,704136481,"""map""",,,0.139327198267,0.151527777314,0.0340574160218,,0.0104631150045,-0.0144633109215,0.0340248136281,-0.9992615701
215748000000,,488,,215,744136092,"""map""",,,0.139404758811,0.152271836996,0.034705426544,,0.0103788692166,-0.0144347506694,0.0340125488951,-0.999263298121
215780000000,,489,,215,776136092,"""map""",,,0.14002750814,0.153423666954,0.035052228719,,0.0108985161511,-0.0147367433757,0.034010652287,-0.999253393611
215812000000,,490,,215,808136092,"""map""",,,0.138923242688,0.152258217335,0.0351719073951,,0.0109600549951,-0.0148051669733,0.0339857856463,-0.999252550674
215848000000,,491,,215,840135703,"""map""",,,0.137678518891,0.150852635503,0.0352058708668,,0.0109017924101,-0.0146801408167,0.0339586430759,-0.999256006716
215880000000,,492,,215,872135703,"""map""",,,0.136935055256,0.150077074766,0.03522163257,,0.0108740031489,-0.0145832175531,0.0339700648718,-0.999257313268
215912000000,,493,,215,904135703,"""map""",,,0.13665856421,0.149861037731,0.0352798104286,,0.0108260150106,-0.0145244951393,0.0339353358687,-0.999259842079
215948000000,,494,,215,944135313,"""map""",,,0.13693420589,0.150294169784,0.0355677865446,,0.0107570642482,-0.0144242789885,0.0339310368901,-0.999262202303
215980000000,,495,,215,976135313,"""map""",,,0.137625068426,0.151128724217,0.0358588397503,,0.0107201365295,-0.0143218876653,0.0338786483574,-0.999265869078
216012000000,,496,,216,8135313,"""map""",,,0.136491984129,0.149945542216,0.0359018854797,,0.010686798537,-0.0142580798062,0.0338553411502,-0.999267934274
216048000000,,497,,216,40134924,"""map""",,,0.135136157274,0.148548677564,0.0360393337905,,0.0108298218918,-0.0146289160968,0.0338169032244,-0.999262286596
216080000000,,498,,216,72134924,"""map""",,,0.134314417839,0.14777572453,0.0361880511045,,0.0107497018852,-0.0145544994149,0.0338098225538,-0.999264478232
216112000000,,499,,216,104134924,"""map""",,,0.133995503187,0.147563800216,0.0363352522254,,0.0107582591772,-0.0145434291171,0.033845942403,-0.999263340267
216148000000,,500,,216,144134535,"""map""",,,0.134178951383,0.148032695055,0.0365507006645,,0.0106839681127,-0.0144729062443,0.0338272292022,-0.999265784785
216180000000,,501,,216,176134535,"""map""",,,0.134754702449,0.148930191994,0.0365793444216,,0.0108798380179,-0.0144341703271,0.0337520392245,-0.999266796309
216212000000,,502,,216,208134535,"""map""",,,0.133635997772,0.147762969136,0.0363057143986,,0.0108801200396,-0.0144322393099,0.0337832700392,-0.999265742638
216248000000,,503,,216,240134146,"""map""",,,0.132386893034,0.146386578679,0.0358509086072,,0.0108512400641,-0.0144067919977,0.033812267071,-0.999265489757
216280000000,,504,,216,272134146,"""map""",,,0.13163086772,0.145572692156,0.0355584621429,,0.0107159336985,-0.0143781919036,0.0337416289529,-0.999269704442
216312000000,,505,,216,304145756,"""map""",,,0.131312146783,0.145279690623,0.0354064330459,,0.0106594717387,-0.0143426472931,0.0337579819301,-0.999270294497
216348000000,,506,,216,344145756,"""map""",,,0.131479099393,0.145589545369,0.0353846214712,,0.0105608716562,-0.0142830755215,0.0338076730645,-0.999270505232
216380000000,,507,,216,376145756,"""map""",,,0.132029354572,0.146374493837,0.0355258248746,,0.0105148451573,-0.014240483003,0.0338433714452,-0.999270378791
216412000000,,508,,216,408145756,"""map""",,,0.130821585655,0.145259410143,0.0354888625443,,0.0105288930641,-0.0142142941696,0.0338546668006,-0.999270294497
216448000000,,509,,216,440145367,"""map""",,,0.129444375634,0.143978729844,0.035546194762,,0.0104888741376,-0.0141550388287,0.0339105535217,-0.999269620148
216480000000,,510,,216,472145367,"""map""",,,0.128593876958,0.143289223313,0.0357615612447,,0.0104395615016,-0.0141183034051,0.0339801801155,-0.999268271449
216512000000,,511,,216,504145367,"""map""",,,0.128214612603,0.143114700913,0.0361240580678,,0.0104273771111,-0.0141033030783,0.0339824138985,-0.999268566477
216548000000,,512,,216,544144977,"""map""",,,0.128333881497,0.143538028002,0.0366956964135,,0.0103338723521,-0.0140494545524,0.0340612285052,-0.999267554952
216580000000,,513,,216,576144977,"""map""",,,0.128841087222,0.144349008799,0.0371850095689,,0.0102913715359,-0.0140054147177,0.0340272581453,-0.999269830882
216612000000,,514,,216,608144977,"""map""",,,0.12770204246,0.143026024103,0.0375646539032,,0.0102457248526,-0.0139828757026,0.0339898738906,-0.999271896078
216648000000,,515,,216,640144587,"""map""",,,0.126440182328,0.141466632485,0.0378983803093,,0.0101949625956,-0.0139370426512,0.0339576736984,-0.999274087714
216680000000,,516,,216,672144587,"""map""",,,0.125651374459,0.140510201454,0.0383552238345,,0.0100836967265,-0.0139240069273,0.0339331442325,-0.99927627935
216712000000,,517,,216,704144587,"""map""",,,0.125289157033,0.140061110258,0.0388862714171,,0.0100444792486,-0.013901121024,0.0339688004664,-0.999275773588
216748000000,,518,,216,744144197,"""map""",,,0.125352218747,0.140134498477,0.0396588221192,,0.00996243316398,-0.0138697578418,0.0340003263091,-0.999275942175
216780000000,,519,,216,776144197,"""map""",,,0.125747784972,0.140656650066,0.0404694452882,,0.00995106339305,-0.0138777242547,0.0339529111045,-0.999277585902
216812000000,,520,,216,808144197,"""map""",,,0.124681383371,0.139315679669,0.0411674268544,,0.00987178566491,-0.0138445410201,0.033991433324,-0.999277501609
