rosbagTimestamp,header,seq,stamp,secs,nsecs,frame_id,pose,position,x,y,z,orientation,x,y,z,w
2875788000000,,56847,,2875,780388579,"""map""",,,0.0942194461823,0.0970460027456,0.0210959222168,,0.00398783701224,0.000939779232839,0.0442166380944,-0.99901362019
2875820000000,,56848,,2875,812387509,"""map""",,,0.0944832339883,0.097321793437,0.0206970237195,,0.00398505219215,0.000895950297019,0.0442047105363,-0.999014168099
2875852000000,,56849,,2875,844387509,"""map""",,,0.0946521759033,0.0977508500218,0.0204172413796,,0.00391388460426,0.000848385602841,0.0442013809353,-0.999014631714
2875888000000,,56850,,2875,880387509,"""map""",,,0.0947378948331,0.0983045548201,0.0201666969806,,0.00390579998261,0.000828249945965,0.0442247724362,-0.999013662337
2875920000000,,56851,,2875,912386439,"""map""",,,0.0947967097163,0.0989891961217,0.0199847128242,,0.00388676755242,0.000817682446881,0.0442315580788,-0.999013451603
2875952000000,,56852,,2875,944386439,"""map""",,,0.0948297157884,0.0998005345464,0.0199089180678,,0.00385686880858,0.000793699408353,0.0442173967377,-0.999014210246
2875988000000,,56853,,2875,984386439,"""map""",,,0.0946530401707,0.0999847128987,0.0197504814714,,0.00386702669298,0.000805201711366,0.0442375429313,-0.999013283015
2876020000000,,56854,,2876,16397369,"""map""",,,0.0944221615791,0.100056260824,0.0197426564991,,0.00383258563839,0.000761371787729,0.0442858010728,-0.999011302113
2876052000000,,56855,,2876,48397369,"""map""",,,0.0941713750362,0.100280791521,0.0199056547135,,0.00379777020125,0.000791344617829,0.0443347757108,-0.999009194771
2876088000000,,56856,,2876,80397369,"""map""",,,0.093893237412,0.100634858012,0.0201927125454,,0.00382651797393,0.000744773008769,0.044335281473,-0.999009110477
2876120000000,,56857,,2876,112396298,"""map""",,,0.0935593396425,0.101088553667,0.0205472111702,,0.00384801154958,0.000740875413099,0.0443212465724,-0.999009658386
2876152000000,,56858,,2876,144396298,"""map""",,,0.0931844189763,0.10165463388,0.020901510492,,0.00382654892552,0.000722689047966,0.0443198135796,-0.999009826974
2876188000000,,56859,,2876,184396298,"""map""",,,0.0933840349317,0.101526074111,0.0217401590198,,0.0038358390129,0.000706544829353,0.0443048514483,-0.999010459176
2876220000000,,56860,,2876,216395226,"""map""",,,0.0936112999916,0.10141697526,0.0224815942347,,0.00379720204198,0.0006718268568,0.0442778353185,-0.999011850022
2876252000000,,56861,,2876,248395226,"""map""",,,0.0937682166696,0.101463139057,0.0232378691435,,0.00377424616825,0.00064683476345,0.0442678043685,-0.999012440078
2876288000000,,56862,,2876,280395226,"""map""",,,0.0938373208046,0.101626418531,0.0239783450961,,0.00379274237857,0.000665364888816,0.044247363147,-0.999013240868
2876320000000,,56863,,2876,312394155,"""map""",,,0.0938120558858,0.101907864213,0.024596164003,,0.00384493729918,0.000912243675963,0.0442544859644,-0.999012524372
2876352000000,,56864,,2876,344394155,"""map""",,,0.0937821343541,0.102290049195,0.0253504682332,,0.00381632716231,0.000880345426358,0.0442404510638,-0.999013240868
2876388000000,,56865,,2876,384394155,"""map""",,,0.0940095484257,0.102057531476,0.0259617269039,,0.00380400431284,0.000893284673487,0.0442337497149,-0.99901362019
2876420000000,,56866,,2876,416393083,"""map""",,,0.0942003205419,0.101908937097,0.0263831578195,,0.0038011180769,0.000854573945582,0.0442914908974,-0.999011091379
2876452000000,,56867,,2876,448393083,"""map""",,,0.0943447723985,0.101925007999,0.0268165562302,,0.00381050118368,0.00081836733317,0.0442749271859,-0.999011807876
2876488000000,,56868,,2876,480393083,"""map""",,,0.094427138567,0.102078422904,0.0272866692394,,0.00379376773237,0.000795506454483,0.0442655705855,-0.999012313638
2876520000000,,56869,,2876,512392011,"""map""",,,0.0944650173187,0.102380119264,0.0277917832136,,0.00380042051363,0.000775697929592,0.044248206084,-0.999013072281
2876552000000,,56870,,2876,544392011,"""map""",,,0.0944257304072,0.102793589234,0.0283430963755,,0.00381785021112,0.00071669728076,0.044228439212,-0.999013957365
2876588000000,,56871,,2876,584392011,"""map""",,,0.0946127027273,0.102639317513,0.0287171415985,,0.00378464524457,0.000748639817484,0.0442010859073,-0.999015263917
2876620000000,,56872,,2876,616390938,"""map""",,,0.0947319939733,0.102541983128,0.0290180556476,,0.00381226822323,0.00071351766324,0.0441650503518,-0.999016739057
2876652000000,,56873,,2876,648390938,"""map""",,,0.0948008671403,0.102592542768,0.0293950475752,,0.00382641194827,0.00068720140152,0.0441360533201,-0.999018003462
2876688000000,,56874,,2876,680390938,"""map""",,,0.0948160067201,0.102786041796,0.0297538265586,,0.00383525290829,0.000656980464776,0.044112408938,-0.999019057133
2876720000000,,56875,,2876,712389865,"""map""",,,0.0947570204735,0.103071272373,0.0301921013743,,0.00383107329093,0.000681721488033,0.0441191524338,-0.999018719959
2876752000000,,56876,,2876,744389865,"""map""",,,0.0946678295732,0.103440903127,0.030724491924,,0.00381594356013,0.000678269397722,0.0441498774864,-0.999017413406
2876788000000,,56877,,2876,784389865,"""map""",,,0.0948565229774,0.103184081614,0.0310385730118,,0.00382729472718,0.000657443421565,0.0441946795863,-0.999015432505
2876820000000,,56878,,2876,816388792,"""map""",,,0.0950017869473,0.10302927345,0.0313548110425,,0.00384051747772,0.000663537757078,0.0442337497149,-0.99901362019
2876852000000,,56879,,2876,848388792,"""map""",,,0.0950980260968,0.103048563004,0.0317652821541,,0.00389636814353,0.000621180668233,0.0442499762516,-0.999012735106
2876888000000,,56880,,2876,880388792,"""map""",,,0.0951631814241,0.103216648102,0.0322812311351,,0.00390807969906,0.000588301516583,0.0442735784868,-0.999011639288
2876920000000,,56881,,2876,912387719,"""map""",,,0.095199406147,0.103510290384,0.0328794755042,,0.0039268771935,0.000555991018116,0.0442926288623,-0.999010712057
2876952000000,,56882,,2876,944387719,"""map""",,,0.09522742033,0.103937521577,0.0335422679782,,0.00395914702684,0.000590179520884,0.0443309824944,-0.999008857596
2876988000000,,56883,,2876,984387719,"""map""",,,0.0955586135387,0.10366794467,0.0342554524541,,0.00393312217107,0.000551639685279,0.0443561863098,-0.999007930365
2877020000000,,56884,,2877,16386645,"""map""",,,0.0957979559898,0.103463999927,0.0348046757281,,0.00386475389125,0.00057422068255,0.0443349442982,-0.999009110477
2877052000000,,56885,,2877,48386645,"""map""",,,0.0960223302245,0.103461675346,0.0353002697229,,0.0038587045014,0.000606482777996,0.0443653743228,-0.999007761778
2877088000000,,56886,,2877,80386645,"""map""",,,0.0962003991008,0.103633090854,0.0357386767864,,0.00389302586552,0.000610917745985,0.0443237753833,-0.999009489799
2877120000000,,56887,,2877,112385571,"""map""",,,0.0963563472033,0.103944927454,0.0361330769956,,0.00387278023171,0.000639075792057,0.0443281586556,-0.999009321211
2877152000000,,56888,,2877,144385571,"""map""",,,0.0964831188321,0.104409150779,0.0364967361093,,0.00386116367123,0.000621584685289,0.0443041349519,-0.999010501323
2877188000000,,56889,,2877,184385571,"""map""",,,0.0967592671514,0.104277536273,0.036704018712,,0.00384931250426,0.000628567561979,0.0442821764439,-0.999011470701
2877220000000,,56890,,2877,212384497,"""map""",,,0.0969077646732,0.104152403772,0.0367853716016,,0.00380934988325,0.000675042200361,0.0442650648234,-0.999012397931
2877252000000,,56891,,2877,244384497,"""map""",,,0.0970927476883,0.104136087,0.0369411632419,,0.00381194915842,0.000644154816575,0.0442644326206,-0.999012355785
2877288000000,,56892,,2877,284384497,"""map""",,,0.0972761362791,0.104326151311,0.0372453480959,,0.0038175917324,0.000656845463152,0.0442140671367,-0.999014589568
2877320000000,,56893,,2877,316383423,"""map""",,,0.0973947644234,0.104648798704,0.0376508012414,,0.00378802654135,0.000706355662443,0.044214530752,-0.999014631714
2877352000000,,56894,,2877,348383423,"""map""",,,0.0974774137139,0.105089843273,0.0381820462644,,0.00382929472685,0.000719092736408,0.0442026453407,-0.999015053183
2877388000000,,56895,,2877,380383423,"""map""",,,0.097724288702,0.10500241816,0.0383761562407,,0.00386651055872,0.00070457890936,0.0441869245662,-0.999015601092
2877420000000,,56896,,2877,412394348,"""map""",,,0.0979980826378,0.104800567031,0.0386451967061,,0.00407130357736,0.000737585654009,0.0442005379983,-0.999014125952
2877452000000,,56897,,2877,444394348,"""map""",,,0.0982125476003,0.104747526348,0.0390144772828,,0.00413158196717,0.000696137027313,0.0442229179748,-0.999012987987
2877488000000,,56898,,2877,484394348,"""map""",,,0.0984012559056,0.104852817953,0.0394829548895,,0.00413853027028,0.000681392545051,0.0441877675032,-0.99901442098
2877520000000,,56899,,2877,516393273,"""map""",,,0.098481439054,0.10508517921,0.0399665273726,,0.0041095819708,0.000694464982807,0.0442146150457,-0.999013367309
2877552000000,,56900,,2877,548393273,"""map""",,,0.0985031202435,0.105437792838,0.0405069179833,,0.00413558476533,0.000706226752356,0.0441709930575,-0.999015179623
2877588000000,,56901,,2877,580393273,"""map""",,,0.0986747220159,0.10479491204,0.040783457458,,0.00415817382977,0.000713095700846,0.0441366855228,-0.999016612616
2877620000000,,56902,,2877,612392198,"""map""",,,0.0988042503595,0.104319505394,0.041000533849,,0.0041496242757,0.000759608370173,0.0442040361867,-0.999013662337
2877652000000,,56903,,2877,644392198,"""map""",,,0.098903387785,0.104008205235,0.0412966273725,,0.00411806748142,0.000749655457751,0.0441738590432,-0.99901509533
2877688000000,,56904,,2877,684392198,"""map""",,,0.0989076197147,0.103860706091,0.0417340397835,,0.00410781723615,0.000742316308482,0.0441613414292,-0.999015727532
2877720000000,,56905,,2877,716391122,"""map""",,,0.0988382548094,0.103908419609,0.0421226844192,,0.00402315738838,0.000761437148271,0.0441972926909,-0.999014505274
2877752000000,,56906,,2877,748391122,"""map""",,,0.0987212955952,0.104089304805,0.0424771942198,,0.00405446475893,0.000786548602814,0.0441965340477,-0.999014336686
2877788000000,,56907,,2877,780391122,"""map""",,,0.0986739546061,0.103458568454,0.042515847832,,0.00407548566426,0.000785921503806,0.0441983463622,-0.999014210246
2877820000000,,56908,,2877,812390046,"""map""",,,0.0985405296087,0.103036083281,0.0426672101021,,0.00401938952598,0.000800018966088,0.0441511840387,-0.999016444029
2877852000000,,56909,,2877,844390046,"""map""",,,0.0983540341258,0.102786414325,0.0428465530276,,0.00397850905856,0.000746198099084,0.0441014929043,-0.999018846399
2877888000000,,56910,,2877,884390046,"""map""",,,0.0980429202318,0.102685496211,0.0430753193796,,0.00394082384909,0.000743872778427,0.0440986690654,-0.999019141427
2877920000000,,56911,,2877,916388970,"""map""",,,0.0977606326342,0.102737307549,0.0430607460439,,0.00393291505882,0.00079748027701,0.0440989640934,-0.99901909928
2877952000000,,56912,,2877,948388970,"""map""",,,0.0974313467741,0.102893292904,0.0430850423872,,0.00392302898867,0.000798462825416,0.0441225663285,-0.999018087756
2877988000000,,56913,,2877,980388970,"""map""",,,0.0970416590571,0.103128999472,0.0432018861175,,0.00393696593072,0.000843762620395,0.0440996805898,-0.999019057133
2878020000000,,56914,,2878,12387894,"""map""",,,0.096610955894,0.103477098048,0.0433771386743,,0.00388117749737,0.00087117535872,0.0441521534162,-0.999016907644
2878052000000,,56915,,2878,44387894,"""map""",,,0.0961756855249,0.103981129825,0.043512955308,,0.0039328862475,0.000868596004519,0.0441450305988,-0.999017034085
2878088000000,,56916,,2878,84387894,"""map""",,,0.0959717407823,0.103686451912,0.0435029268265,,0.00395772061944,0.000883709600977,0.0441525748847,-0.999016570469
2878120000000,,56917,,2878,116386817,"""map""",,,0.095781840384,0.103452317417,0.0434327572584,,0.00392288855405,0.00091212349159,0.0441867559788,-0.999015179623
2878152000000,,56918,,2878,148386817,"""map""",,,0.0955156832933,0.103358209133,0.0433575212955,,0.00398721929749,0.000922851675534,0.0441701922674,-0.999015643239
2878188000000,,56919,,2878,180386817,"""map""",,,0.0951897054911,0.103406555951,0.0433641076088,,0.00396058150142,0.000914889213888,0.0441604984922,-0.999016233295
2878220000000,,56920,,2878,212385740,"""map""",,,0.094851128757,0.103615708649,0.043483812362,,0.00399544945748,0.000911825664837,0.0441170450914,-0.999017961315
2878252000000,,56921,,2878,244385740,"""map""",,,0.0945120602846,0.103947728872,0.0436540730298,,0.00402203341754,0.000925962804426,0.0440491465184,-0.999020869448
2878288000000,,56922,,2878,284385740,"""map""",,,0.0946212112904,0.103664197028,0.0434366501868,,0.00397955219306,0.000930596158948,0.044037851163,-0.999021543798
2878320000000,,56923,,2878,316384663,"""map""",,,0.0947489067912,0.103468522429,0.0433167889714,,0.00416446984454,0.000996090056628,0.0440915041012,-0.999018382784
2878352000000,,56924,,2878,348384663,"""map""",,,0.0948490351439,0.103442594409,0.0432296097279,,0.0041602775502,0.00100744533958,0.0441130832876,-0.99901737126
2878388000000,,56925,,2878,380384663,"""map""",,,0.0949291586876,0.10355617851,0.0431776456535,,0.0041710602287,0.000980921471703,0.0441072670225,-0.999017624141
2878420000000,,56926,,2878,412383585,"""map""",,,0.0949781164527,0.103798180819,0.043341897428,,0.00414470198477,0.000947804256214,0.0441346203272,-0.999016570469
2878452000000,,56927,,2878,444383585,"""map""",,,0.0949953347445,0.104174181819,0.0436679683626,,0.00416505529061,0.000974251732926,0.0441097536866,-0.999017581994
2878488000000,,56928,,2878,484383585,"""map""",,,0.0953350067139,0.103798352182,0.0435839183629,,0.00417650392224,0.000972432997632,0.044105201827,-0.999017666287
2878520000000,,56929,,2878,516382508,"""map""",,,0.0956051573157,0.103516437113,0.0435838289559,,0.00414654064104,0.000982639943597,0.0440984583312,-0.99901817205
2878552000000,,56930,,2878,548382508,"""map""",,,0.0958323404193,0.103407286108,0.0436811521649,,0.00417014271157,0.00100770892202,0.0441620579256,-0.999015179623
2878588000000,,56931,,2878,588382508,"""map""",,,0.0960308536887,0.103436857462,0.0438220575452,,0.00418907817108,0.0010074408944,0.044184480049,-0.999014168099
2878624000000,,56932,,2878,612393430,"""map""",,,0.0961156114936,0.103558063507,0.0440465509892,,0.00412418404281,0.00103676835089,0.0442135192276,-0.999013114428
2878652000000,,56933,,2878,644393430,"""map""",,,0.0962163135409,0.103844173253,0.0443268306553,,0.00410197627564,0.00095849704339,0.0441437661933,-0.999016359735
2878688000000,,56934,,2878,684393430,"""map""",,,0.0965715944767,0.103353701532,0.045051060617,,0.00407586926644,0.000980708761827,0.0441470957944,-0.999016233295
2878720000000,,56935,,2878,716392352,"""map""",,,0.0968645960093,0.102959632874,0.045598577708,,0.00400880490474,0.000977379983976,0.0441846486364,-0.999014842449
2878752000000,,56936,,2878,748392352,"""map""",,,0.097132563591,0.102733574808,0.0462541803718,,0.00397851778427,0.000937386905278,0.0442033196903,-0.999014210246
2878788000000,,56937,,2878,780392352,"""map""",,,0.0973388031125,0.102678872645,0.0469037406147,,0.00393703869989,0.000907819903231,0.0441890740555,-0.999015053183
2878820000000,,56938,,2878,812391273,"""map""",,,0.0974753051996,0.102746270597,0.0477075092494,,0.00391594058022,0.000962770174066,0.0442280598904,-0.999013325162
2878852000000,,56939,,2878,844391273,"""map""",,,0.0975658148527,0.10292416811,0.0485860519111,,0.00394561805311,0.000987145705121,0.0441994000334,-0.999014505274
2878888000000,,56940,,2878,884391273,"""map""",,,0.0979631915689,0.102347530425,0.0494172163308,,0.00392447663413,0.000971821209784,0.0441690121556,-0.999015980414
2878920000000,,56941,,2878,916390195,"""map""",,,0.0982895195484,0.10187548399,0.0500515438616,,0.00386393861315,0.00102518372981,0.0441938366494,-0.999015011036
2878952000000,,56942,,2878,948390195,"""map""",,,0.0985831320286,0.101564235985,0.0507256053388,,0.00381168030762,0.0010095503771,0.0441553565767,-0.999016907644
2878988000000,,56943,,2878,980390195,"""map""",,,0.0988518372178,0.101409338415,0.051390402019,,0.00381811708628,0.000987648668488,0.0441761771198,-0.999016064707
2879020000000,,56944,,2879,12389116,"""map""",,,0.0990854352713,0.10137693584,0.0518107675016,,0.00384996034742,0.00101195422919,0.0441920243349,-0.999015137477
2879052000000,,56945,,2879,44389116,"""map""",,,0.0992683321238,0.10147228837,0.0523585304618,,0.00390777215878,0.00106492606769,0.0441708666169,-0.999015811826
2879088000000,,56946,,2879,84389116,"""map""",,,0.0996335297823,0.100838430226,0.0527096092701,,0.00391848075102,0.00101567023121,0.0441781580217,-0.999015516798
2879116000000,,56947,,2879,116388036,"""map""",,,0.0999308153987,0.100339382887,0.0528684556484,,0.00392040188999,0.00105264437725,0.0441731425468,-0.999015643239
2879152000000,,56948,,2879,148388036,"""map""",,,0.100180722773,0.100033827126,0.0529791377485,,0.00396436747379,0.00104312462248,0.0442097681581,-0.999013915218
2879188000000,,56949,,2879,180388036,"""map""",,,0.100372456014,0.0998923629522,0.0531688667834,,0.0039392316531,0.00101272966535,0.0442349719735,-0.999012903694
2879220000000,,56950,,2879,212386957,"""map""",,,0.100521475077,0.0998926535249,0.0533495508134,,0.00391244551988,0.00105383782453,0.0442354777357,-0.999012987987
2879252000000,,56951,,2879,244386957,"""map""",,,0.100637979805,0.0999849811196,0.0535484589636,,0.00412653241252,0.00100921912921,0.0442856324854,-0.999009869121
2879288000000,,56952,,2879,284386957,"""map""",,,0.100989617407,0.0994031205773,0.0531512387097,,0.00412330225171,0.00101712956584,0.044254865286,-0.999011302113
2879320000000,,56953,,2879,316385877,"""map""",,,0.10127530992,0.0989587157965,0.0528204292059,,0.00406801661709,0.000989727034956,0.0442503555732,-0.999011765729
2879352000000,,56954,,2879,344385877,"""map""",,,0.101473361254,0.0987345799804,0.0526867359877,,0.0040601364735,0.000956671064105,0.0441892426429,-0.999014547421
2879388000000,,56955,,2879,384385877,"""map""",,,0.101750507951,0.0985607653856,0.052618086338,,0.00403751975019,0.000967119860541,0.0442087566337,-0.999013746631
2879420000000,,56956,,2879,416384797,"""map""",,,0.101926326752,0.098571613431,0.0526065416634,,0.00406952945846,0.000990898750271,0.0441826677345,-0.999014716008
2879452000000,,56957,,2879,448384797,"""map""",,,0.102064073086,0.0986753627658,0.0527113117278,,0.00399190599412,0.000987435300068,0.0441706137358,-0.999015558945
2879488000000,,56958,,2879,480384797,"""map""",,,0.102299146354,0.098344899714,0.0524275451899,,0.00394270152412,0.000960102080992,0.0441843536085,-0.99901522177
2879520000000,,56959,,2879,512383717,"""map""",,,0.102543063462,0.0979945510626,0.0518945679069,,0.00391799326345,0.000974615743403,0.0441814454759,-0.999015432505
2879552000000,,56960,,2879,548383717,"""map""",,,0.102759964764,0.0978329405189,0.0515344664454,,0.00383515873642,0.000996738722968,0.0442087987806,-0.999014547421
2879588000000,,56961,,2879,580383717,"""map""",,,0.102957122028,0.0978272557259,0.051229968667,,0.00382484329525,0.000977290915831,0.0442205577513,-0.999013999512
2879620000000,,56962,,2879,612382636,"""map""",,,0.10311960429,0.0979393199086,0.051044806838,,0.0038132601559,0.000919038044288,0.0442133084934,-0.99901442098
2879652000000,,56963,,2879,644382636,"""map""",,,0.103229776025,0.0981607288122,0.050784278661,,0.00373376362634,0.000919579367874,0.0442196726675,-0.999014463127
2879688000000,,56964,,2879,684382636,"""map""",,,0.103490538895,0.0980265662074,0.050380833447,,0.00375235845371,0.000923584470935,0.0442267954849,-0.999014083805
2879720000000,,56965,,2879,716381556,"""map""",,,0.103695966303,0.097933165729,0.0502776876092,,0.0037463625706,0.000889436468654,0.0442313894914,-0.999013873071
2879752000000,,56966,,2879,748381556,"""map""",,,0.103817798197,0.0979584753513,0.0502016171813,,0.00371208565823,0.000893676836741,0.0442341711834,-0.999013957365
2879788000000,,56967,,2879,780381556,"""map""",,,0.103900544345,0.0980964824557,0.0501300208271,,0.00372955371594,0.000935063889526,0.0442447921892,-0.999013367309
2879820000000,,56968,,2879,812380475,"""map""",,,0.103954866529,0.0983342528343,0.0501022897661,,0.00371010129899,0.000891512694852,0.0442286077994,-0.999014210246
2879852000000,,56969,,2879,844380475,"""map""",,,0.104002304375,0.0986614897847,0.0501225478947,,0.00364676569862,0.000898186137942,0.0441875146221,-0.999016191148
2879888000000,,56970,,2879,884380475,"""map""",,,0.104292690754,0.0983157008886,0.0500579066575,,0.00368347486281,0.000918720296563,0.0441824148534,-0.999016317588
2879920000000,,56971,,2879,916391394,"""map""",,,0.104525201023,0.0980276167393,0.0499078854918,,0.0036395985941,0.000959181024179,0.0442084616058,-0.99901522177
2879952000000,,56972,,2879,948391394,"""map""",,,0.104759991169,0.097880423069,0.0498382039368,,0.00368101799789,0.00100586269249,0.0442171438566,-0.999014631714
2879988000000,,56973,,2879,980391394,"""map""",,,0.104954950511,0.0978313088417,0.0499357543886,,0.00369474165384,0.000979291821,0.0442332439527,-0.999013957365
2880020000000,,56974,,2880,12390312,"""map""",,,0.105150856078,0.0979227051139,0.0498895160854,,0.00365654310893,0.000998728103609,0.0442416733224,-0.999013704484
2880052000000,,56975,,2880,44390312,"""map""",,,0.105332821608,0.0980909392238,0.0498518310487,,0.00393222194073,0.000947697901276,0.0442591221177,-0.999011934316
2880088000000,,56976,,2880,84390312,"""map""",,,0.105634905398,0.0978513807058,0.0497304983437,,0.00393749737614,0.00090821272503,0.0442613137538,-0.999011850022
2880120000000,,56977,,2880,116389231,"""map""",,,0.105885975063,0.0977014675736,0.0496662817895,,0.00390958546108,0.00084321191255,0.0443008896446,-0.999010290589
2880152000000,,56978,,2880,148389231,"""map""",,,0.106144979596,0.0976890325546,0.0497152768075,,0.00381948323686,0.000840925281382,0.0443832445866,-0.999006918841
2880188000000,,56979,,2880,180389231,"""map""",,,0.106403902173,0.0978093668818,0.0497526451945,,0.003822296539,0.000841720473876,0.0443645313858,-0.999007761778
2880220000000,,56980,,2880,212388149,"""map""",,,0.106675848365,0.0980514734983,0.0497161149979,,0.00381531662576,0.000864603578439,0.0443720756717,-0.99900746675
2880252000000,,56981,,2880,244388149,"""map""",,,0.106966428459,0.0983887389302,0.0496610067785,,0.00376504564293,0.000886359584077,0.0443765853845,-0.999007424603
2880288000000,,56982,,2880,284388149,"""map""",,,0.107483744621,0.0983299911022,0.0494533777237,,0.00374234907109,0.00084173348013,0.0443581250649,-0.999008351834
2880320000000,,56983,,2880,316387067,"""map""",,,0.107902042568,0.0983285680413,0.0492932759225,,0.0037581236816,0.000905251250377,0.0443816851532,-0.999007213869
2880352000000,,56984,,2880,348387067,"""map""",,,0.10827640444,0.0984483212233,0.0492023155093,,0.00368639163875,0.000948864759826,0.0443536153521,-0.999008646862
2880388000000,,56985,,2880,380387067,"""map""",,,0.108639061451,0.0986725464463,0.0489705316722,,0.00373306589844,0.000951189174985,0.0443831602929,-0.999007171722
2880420000000,,56986,,2880,412385985,"""map""",,,0.108973048627,0.0989771783352,0.0488154105842,,0.00368129870248,0.000953991281866,0.0443762903566,-0.999007719631
2880452000000,,56987,,2880,444385985,"""map""",,,0.109278179705,0.0993672162294,0.0486983954906,,0.00364927549406,0.000938011864016,0.0443575771558,-0.999008646862
2880488000000,,56988,,2880,484385985,"""map""",,,0.109722189605,0.0992232486606,0.0483102053404,,0.00363761579891,0.000895805911136,0.0443426150246,-0.999009363358
2880520000000,,56989,,2880,516384902,"""map""",,,0.110082425177,0.0991093367338,0.0479872785509,,0.00362271277205,0.000804426110572,0.0443387375146,-0.999009700533
2880552000000,,56990,,2880,548384902,"""map""",,,0.110410645604,0.0991013273597,0.0477015785873,,0.0035688355995,0.000784494273221,0.044300215295,-0.999011639288
2880588000000,,56991,,2880,580384902,"""map""",,,0.110700987279,0.0991799682379,0.047399520874,,0.00360844606383,0.000782643433881,0.0442437806649,-0.999013957365
2880620000000,,56992,,2880,620383819,"""map""",,,0.111011736095,0.0994071289897,0.0471131764352,,0.0035959388219,0.000811542177889,0.0441866716851,-0.999016528323
2880652000000,,56993,,2880,644383819,"""map""",,,0.111197307706,0.0995952859521,0.0470121130347,,0.00353848229531,0.000779061939575,0.0441454520673,-0.999018551371
2880688000000,,56994,,2880,684383819,"""map""",,,0.111490748823,0.0992927327752,0.0466258153319,,0.00358399562334,0.000772239418472,0.0440963088419,-0.99902057442
2880720000000,,56995,,2880,716382736,"""map""",,,0.111691206694,0.0990572348237,0.0462664663792,,0.00356479147767,0.000795559796589,0.0440775956412,-0.999021501651
2880752000000,,56996,,2880,748382736,"""map""",,,0.11186683923,0.0989573001862,0.0460258349776,,0.00359238399865,0.000809187552001,0.0440925577724,-0.999020700861
2880788000000,,56997,,2880,780382736,"""map""",,,0.112050026655,0.0989717915654,0.0458328202367,,0.00361764609525,0.000793400923055,0.0440995120024,-0.999020321539
2880820000000,,56998,,2880,812381653,"""map""",,,0.112246870995,0.0990973711014,0.0456832423806,,0.00361289090999,0.000808198582786,0.0441151063364,-0.999019647189
2880852000000,,56999,,2880,844381653,"""map""",,,0.112468227744,0.0993545800447,0.0455097407103,,0.003631413956,0.000870848720644,0.0440997648835,-0.999020152952
2880888000000,,57000,,2880,884381653,"""map""",,,0.112954184413,0.0988607853651,0.0451680161059,,0.00360670849415,0.000831770195632,0.0440795765431,-0.999021206623
2880920000000,,57001,,2880,916380570,"""map""",,,0.113391160965,0.0984413772821,0.0450852103531,,0.00360056913066,0.000946778161552,0.0440545834619,-0.999022176
2880952000000,,57002,,2880,948380570,"""map""",,,0.113851755857,0.0982072427869,0.044811733067,,0.0038019748433,0.000895455071549,0.044085982864,-0.999020110805
2880988000000,,57003,,2880,980380570,"""map""",,,0.114309713244,0.0980670228601,0.0445844717324,,0.00381402472607,0.000915449305992,0.0441255587548,-0.99901829849
2881020000000,,57004,,2881,12379486,"""map""",,,0.114767603576,0.0980809032917,0.0444319844246,,0.00382737325861,0.000900729025241,0.044192277216,-0.999015306064
2881052000000,,57005,,2881,44379486,"""map""",,,0.115256987512,0.0982400476933,0.044280461967,,0.00372539434883,0.000979146200346,0.0441977563063,-0.999015390358
2881088000000,,57006,,2881,84379486,"""map""",,,0.11580336839,0.0977902263403,0.0439255274832,,0.00371505742264,0.000953943455071,0.0441659354357,-0.999016865497
2881120000000,,57007,,2881,116378403,"""map""",,,0.116242997348,0.0974639281631,0.043648250401,,0.00373372477222,0.000917466757092,0.0441518162414,-0.9990174977
2881152000000,,57008,,2881,148378403,"""map""",,,0.11666636169,0.0972646549344,0.0434301272035,,0.00371287739337,0.000965192300766,0.0441567895695,-0.999017244819
2881188000000,,57009,,2881,180378403,"""map""",,,0.11707547307,0.0972209870815,0.0431321263313,,0.00373079112107,0.000981309189782,0.0441610885481,-0.999016991938
2881220000000,,57010,,2881,212389319,"""map""",,,0.117513373494,0.0972597077489,0.0430748052895,,0.00373799345772,0.000971905668117,0.0441760506793,-0.999016275441
2881252000000,,57011,,2881,244389319,"""map""",,,0.117946699262,0.0973627716303,0.0430597104132,,0.00370813793086,0.000989417107447,0.0441199953708,-0.999018888546
2881296000000,,57012,,2881,284389319,"""map""",,,0.118313081563,0.0969463512301,0.0429263301194,,0.00368537937353,0.00101242360679,0.0441264859855,-0.999018719959
2881320000000,,57013,,2881,316388235,"""map""",,,0.118611305952,0.0966446772218,0.0428440161049,,0.00367180224372,0.000980172953552,0.0440916726886,-0.999020321539
2881352000000,,57014,,2881,348388235,"""map""",,,0.118913039565,0.0964819863439,0.0426618680358,,0.00366025935791,0.000960378669685,0.044121049042,-0.99901909928
2881388000000,,57015,,2881,380388235,"""map""",,,0.119215093553,0.0964615643024,0.0424704141915,,0.00367838414913,0.000946904849052,0.0441284668873,-0.999018677812
2881420000000,,57016,,2881,412387150,"""map""",,,0.119531817734,0.0965752005577,0.0422227978706,,0.00364189567966,0.000907830933851,0.0440925577724,-0.999020447979
2881452000000,,57017,,2881,444387150,"""map""",,,0.119849473238,0.0968044176698,0.0420697145164,,0.0035489778484,0.000905777756712,0.044066806048,-0.999021923119
2881488000000,,57018,,2881,484387150,"""map""",,,0.120000436902,0.0965482890606,0.0417815446854,,0.00354962396288,0.000889745737619,0.0440626756568,-0.999022091707
2881520000000,,57019,,2881,516386066,"""map""",,,0.120148867369,0.09636182338,0.0415109619498,,0.00354574859309,0.000955093603054,0.0441250108458,-0.999019267868
2881552000000,,57020,,2881,548386066,"""map""",,,0.120327211916,0.096287958324,0.0412334352732,,0.00351924036565,0.00101168974125,0.0440995120024,-0.999020490126
2881588000000,,57021,,2881,580386066,"""map""",,,0.120528966188,0.0963415205479,0.0410303622484,,0.00351733017498,0.000960269022025,0.0441100487145,-0.999020068658
2881620000000,,57022,,2881,612384981,"""map""",,,0.12077806145,0.0965028107166,0.0408409461379,,0.00353650666178,0.00096972868461,0.0441261488107,-0.999019310015
2881652000000,,57023,,2881,644384981,"""map""",,,0.121043257415,0.0967469140887,0.0407431833446,,0.00348292534034,0.00102155860693,0.0441458735358,-0.999018551371
2881688000000,,57024,,2881,684384981,"""map""",,,0.12151709199,0.0963442325592,0.0406208857894,,0.00352099127086,0.000998908874076,0.0441688014214,-0.99901737126
2881720000000,,57025,,2881,716383896,"""map""",,,0.121948473155,0.0960206463933,0.0406178683043,,0.00361809999705,0.000953671393871,0.0441530806469,-0.999017834875
2881752000000,,57026,,2881,748383896,"""map""",,,0.122381284833,0.0958311855793,0.0407493375242,,0.00361395873991,0.000950237742807,0.0441409002076,-0.999018382784
2881788000000,,57027,,2881,780383896,"""map""",,,0.122844293714,0.0957728773355,0.0408939495683,,0.00358551521479,0.000934633201418,0.0441400994175,-0.999018509224
2881820000000,,57028,,2881,812382811,"""map""",,,0.123313039541,0.0957889258862,0.0410494171083,,0.00361691148885,0.000933723586816,0.0441695179178,-0.999017076232
2881852000000,,57029,,2881,844382811,"""map""",,,0.123800262809,0.095931507647,0.0412157699466,,0.00362524841536,0.000985671470921,0.0441427125221,-0.99901817205
2881888000000,,57030,,2881,884382811,"""map""",,,0.124227032065,0.0956145003438,0.0410629361868,,0.00362223425715,0.00100634680502,0.0441339459776,-0.999018593518
2881920000000,,57031,,2881,916381725,"""map""",,,0.12452108413,0.0954139232635,0.0409061051905,,0.00361227121961,0.00102065623632,0.0441994000334,-0.999015685386
2881952000000,,57032,,2881,948381725,"""map""",,,0.124819777906,0.0953610539436,0.0407544448972,,0.00380115215657,0.00100895208941,0.044143850487,-0.999017455553
2881988000000,,57033,,2881,980381725,"""map""",,,0.125175744295,0.0953871309757,0.0408645533025,,0.00378076378324,0.000987983867643,0.0441610885481,-0.999016823351
2882020000000,,57034,,2882,12380640,"""map""",,,0.125571712852,0.0955211818218,0.0410832799971,,0.00378705650529,0.000978782354505,0.0441558623389,-0.999016991938
2882052000000,,57035,,2882,44380640,"""map""",,,0.125998824835,0.0957656055689,0.0412807948887,,0.00378788215547,0.000954624472411,0.0441558623389,-0.999016991938
2882088000000,,57036,,2882,84380640,"""map""",,,0.126362517476,0.0953006148338,0.0414362773299,,0.00371262442996,0.000960555571204,0.0441800546299,-0.999016317588
2882120000000,,57037,,2882,116379554,"""map""",,,0.12667529285,0.094935439527,0.0415114685893,,0.00369358286246,0.000878094027321,0.0442285656525,-0.999014252393
2882152000000,,57038,,2882,148379554,"""map""",,,0.127037420869,0.0947035774589,0.0416810363531,,0.00369351766656,0.000908415721374,0.0442085037527,-0.999015179623
2882188000000,,57039,,2882,180379554,"""map""",,,0.127414658666,0.0945994853973,0.0419130250812,,0.00368573762174,0.000880526032189,0.0441882732654,-0.99901602256
2882220000000,,57040,,2882,212378468,"""map""",,,0.127814382315,0.0946253016591,0.0421334654093,,0.00372936125631,0.000833647212116,0.0442447500424,-0.999013493749
2882252000000,,57041,,2882,244378468,"""map""",,,0.128240451217,0.0947765484452,0.042318250984,,0.00362116634491,0.000827303782143,0.0442541487896,-0.999013451603
2882288000000,,57042,,2882,284378468,"""map""",,,0.128690436482,0.094424881041,0.0424626767635,,0.00363222758774,0.000777330461427,0.0442670878721,-0.9990128194
2882320000000,,57043,,2882,316377382,"""map""",,,0.129098832607,0.0941562950611,0.042652476579,,0.00360440951527,0.000750101457019,0.0442209792198,-0.999015011036
2882352000000,,57044,,2882,348377382,"""map""",,,0.129564389586,0.0940372347832,0.0428768582642,,0.00355437313892,0.00073039698216,0.0442466887974,-0.999014083805
2882392000000,,57045,,2882,380377382,"""map""",,,0.130084753036,0.0940328985453,0.0431774817407,,0.00356416108594,0.000700917566532,0.0442562139852,-0.999013662337
2882420000000,,57046,,2882,412376296,"""map""",,,0.130624487996,0.0941552072763,0.0433367416263,,0.00357588103791,0.000688795243865,0.04425347444,-0.999013704484
2882452000000,,57047,,2882,444376296,"""map""",,,0.131178870797,0.094397187233,0.0435183309019,,0.00352718973872,0.000616467135917,0.0442523364751,-0.999013999512
2882488000000,,57048,,2882,484376296,"""map""",,,0.131570398808,0.094256259501,0.0434342548251,,0.0035364862469,0.000609962197904,0.0442756436823,-0.99901294584
2882520000000,,57049,,2882,516387210,"""map""",,,0.131908178329,0.094209857285,0.0432371869683,,0.00349269221394,0.000635837893348,0.0442518307129,-0.999014168099
2882552000000,,57050,,2882,548387210,"""map""",,,0.132313385606,0.0942983552814,0.0429846271873,,0.00350300749048,0.000710095207432,0.0442314737851,-0.999014968889
2882588000000,,57051,,2882,588387210,"""map""",,,0.132908508182,0.0945661962032,0.0426897853613,,0.00350046056959,0.000709360930305,0.0442721876408,-0.999013114428
2882620000000,,57052,,2882,612398123,"""map""",,,0.133314058185,0.0948168188334,0.0426101349294,,0.00351313738674,0.000723729219016,0.0442644747675,-0.999013409456
2882652000000,,57053,,2882,644398123,"""map""",,,0.133901819587,0.0952323749661,0.0426171310246,,0.0034500653688,0.000788325438214,0.0442360677916,-0.999014842449
2882688000000,,57054,,2882,684398123,"""map""",,,0.134238004684,0.0951953008771,0.042016196996,,0.00344360142518,0.000765489419583,0.044244581455,-0.999014505274
2882720000000,,57055,,2882,716397036,"""map""",,,0.134472712874,0.0951628834009,0.0413950607181,,0.00348775304781,0.000858148442854,0.0443414770597,-0.999009995561
2882752000000,,57056,,2882,748397036,"""map""",,,0.134785681963,0.0952637344599,0.0409470722079,,0.00350854626138,0.000823821151831,0.0443228481527,-0.999010754204
2882788000000,,57057,,2882,780397036,"""map""",,,0.135171115398,0.0955063402653,0.0406311824918,,0.00353461721527,0.000863491708355,0.0443140816082,-0.999011007085
2882820000000,,57058,,2882,812395949,"""map""",,,0.135621547699,0.0958494618535,0.040547568351,,0.00353000361708,0.000842600865565,0.0443114263567,-0.99901121782
2882852000000,,57059,,2882,844395949,"""map""",,,0.136157050729,0.0963102430105,0.0405057407916,,0.00374628716725,0.000865127615231,0.0442655284387,-0.999012440078
2882888000000,,57060,,2882,884395949,"""map""",,,0.136252179742,0.0959990844131,0.0405508652329,,0.0037557662569,0.000911854311523,0.0442884141774,-0.999011302113
2882920000000,,57061,,2882,916394862,"""map""",,,0.136294409633,0.0957107692957,0.0406798869371,,0.00372040801445,0.000932203666092,0.0443319097251,-0.999009531946
2882952000000,,57062,,2882,948394862,"""map""",,,0.136456876993,0.0955553799868,0.0409195683897,,0.00368393337442,0.000965906492285,0.0442804484231,-0.999011934316
2882988000000,,57063,,2882,980394862,"""map""",,,0.13672080636,0.0955447629094,0.0410011410713,,0.00363942753717,0.000965319482174,0.0442432327558,-0.999013746631
2883020000000,,57064,,2883,12393774,"""map""",,,0.137078717351,0.0956461653113,0.0410644114017,,0.00360357234057,0.000967697568711,0.0442341711834,-0.99901429454
2883052000000,,57065,,2883,44393774,"""map""",,,0.137532353401,0.0958490595222,0.0411495268345,,0.0036111050196,0.000993784903896,0.0442506084543,-0.999013451603
2883088000000,,57066,,2883,84393774,"""map""",,,0.138138309121,0.0962550342083,0.041297852993,,0.00356007333554,0.000944870934339,0.044272398375,-0.999012735106
2883120000000,,57067,,2883,116392686,"""map""",,,0.138649433851,0.096692301333,0.0414830632508,,0.00354454304505,0.00091531167019,0.0443083074899,-0.99901121782
2883152000000,,57068,,2883,148392686,"""map""",,,0.139239385724,0.0971833392978,0.041689645499,,0.00351987479096,0.000950084960481,0.0443175797966,-0.999010880645
2883188000000,,57069,,2883,180392686,"""map""",,,0.139266803861,0.0971183031797,0.0418414957821,,0.00348789718674,0.000989516300713,0.044284073052,-0.999012440078
2883220000000,,57070,,2883,220391598,"""map""",,,0.139484271407,0.0972211956978,0.0422671809793,,0.00346576465828,0.000995647185446,0.0442799848077,-0.999012650813
2883252000000,,57071,,2883,244391598,"""map""",,,0.139692828059,0.0973731800914,0.0425671339035,,0.00349518307622,0.000974880066705,0.044290479373,-0.999012102903
2883288000000,,57072,,2883,284391598,"""map""",,,0.140180066228,0.0977249294519,0.0430238619447,,0.0034598782582,0.000946153285132,0.0443046407141,-0.999011681435
2883320000000,,57073,,2883,316390509,"""map""",,,0.140666663647,0.0981010049582,0.0432612709701,,0.00348688261661,0.000935161107159,0.0442469416785,-0.999014168099
2883352000000,,57074,,2883,348390509,"""map""",,,0.14123365283,0.0985649824142,0.0434284508228,,0.00354588557035,0.00093759640475,0.0441954382296,-0.999016191148
2883388000000,,57075,,2883,380390509,"""map""",,,0.14132848382,0.0982115641236,0.0432927645743,,0.00350180935106,0.00097364200303,0.0441814033291,-0.999016907644
2883420000000,,57076,,2883,412401420,"""map""",,,0.141530945897,0.0979884341359,0.0432426147163,,0.00352082136637,0.00102135305873,0.0441480651719,-0.99901829849
2883452000000,,57077,,2883,444401420,"""map""",,,0.141840174794,0.0979152843356,0.0431942828,,0.003466562238,0.00098794147384,0.0441089107496,-0.999020279392
2883488000000,,57078,,2883,484401420,"""map""",,,0.142381697893,0.0979686081409,0.0430521257222,,0.00345829651661,0.000997315525639,0.0441099644208,-0.999020237245
2883520000000,,57079,,2883,516400331,"""map""",,,0.142934069037,0.0981293022633,0.0429853945971,,0.00343608990189,0.00101847176187,0.0441344938867,-0.999019225721
2883552000000,,57080,,2883,548400331,"""map""",,,0.143558636308,0.0984036326408,0.0428913272917,,0.00346932318585,0.00105456214117,0.044142459641,-0.999018677812
2883588000000,,57081,,2883,580400331,"""map""",,,0.143505230546,0.098051391542,0.0426842942834,,0.00347689677696,0.00103651077767,0.0441432182843,-0.999018677812
2883620000000,,57082,,2883,612399241,"""map""",,,0.143606379628,0.0978384912014,0.0423951968551,,0.00344801885942,0.000972204318051,0.0441162021544,-0.999019984364
2883652000000,,57083,,2883,644399241,"""map""",,,0.143798276782,0.0977274253964,0.042212177068,,0.00342679602788,0.00099900139958,0.0441267810134,-0.999019605043
2883688000000,,57084,,2883,684399241,"""map""",,,0.144233211875,0.0977798402309,0.0419648848474,,0.00369962649005,0.000978950941899,0.0441084049874,-0.999019436455
2883720000000,,57085,,2883,716398152,"""map""",,,0.144709572196,0.097906216979,0.0418687872589,,0.00368995395295,0.000980526674271,0.0440630971253,-0.999021501651
2883752000000,,57086,,2883,748398152,"""map""",,,0.145288214087,0.0981049984694,0.041881557554,,0.00368295214311,0.000928290759261,0.0440568172449,-0.999021880972
2883788000000,,57087,,2883,780398152,"""map""",,,0.145038992167,0.0975122079253,0.0418935753405,,0.00362684349248,0.000972179787268,0.0440853928082,-0.999020785154
2883820000000,,57088,,2883,812409062,"""map""",,,0.144957005978,0.0970595404506,0.0420043356717,,0.00366057043787,0.000997687932558,0.0440388626874,-0.999022639616
2883852000000,,57089,,2883,844409062,"""map""",,,0.145037069917,0.0967275649309,0.0421412438154,,0.00369636661242,0.000977527580263,0.0440877108848,-0.999020405833
2883888000000,,57090,,2883,884409062,"""map""",,,0.145335957408,0.0964501649141,0.0421979427338,,0.003661712601,0.00098870283361,0.044112156057,-0.999019394308
2883920000000,,57091,,2883,916407971,"""map""",,,0.145718544722,0.0963631868362,0.0421078875661,,0.00365439131475,0.00092928721942,0.0441294362648,-0.999018719959
2883952000000,,57092,,2883,948407971,"""map""",,,0.146230831742,0.0963590815663,0.0420629903674,,0.00358777723286,0.0009267205422,0.0441036845404,-0.999020110805
2883988000000,,57093,,2883,980407971,"""map""",,,0.146086215973,0.0957911610603,0.0413705222309,,0.00358968009722,0.00094925099618,0.0440899446678,-0.999020700861
2884020000000,,57094,,2884,12406880,"""map""",,,0.146122485399,0.095378793776,0.0407406315207,,0.0035570025425,0.000847871938125,0.0441822041192,-0.999016781204
2884052000000,,57095,,2884,44406880,"""map""",,,0.146310895681,0.0950699970126,0.0399020016193,,0.00358943635343,0.000805562923029,0.044133566656,-0.999018888546
2884088000000,,57096,,2884,84406880,"""map""",,,0.14677990973,0.0948424786329,0.0389048829675,,0.00357536704393,0.000792605236653,0.0441489502557,-0.999018256343
2884120000000,,57097,,2884,116405789,"""map""",,,0.147315725684,0.0947505533695,0.0381050221622,,0.00354879115103,0.000768196613737,0.0441128725534,-0.999019942217
2884152000000,,57098,,2884,148405789,"""map""",,,0.147988244891,0.0947508662939,0.0373498573899,,0.00359170849662,0.00077264672825,0.0440883852344,-0.999020911595
2884188000000,,57099,,2884,180405789,"""map""",,,0.147931605577,0.094100676477,0.0368927493691,,0.00354289849478,0.000790825190848,0.0440735073969,-0.999021712385
2884220000000,,57100,,2884,212404697,"""map""",,,0.148040533066,0.0935920476913,0.0365092121065,,0.00359596269414,0.000853719154811,0.0441258537827,-0.999019183574
2884252000000,,57101,,2884,244404697,"""map""",,,0.148304715753,0.0932031199336,0.0362653359771,,0.00358989996876,0.000883117404828,0.0440942014995,-0.99902057442
2884288000000,,57102,,2884,284404697,"""map""",,,0.14883005619,0.0928871706128,0.0362523272634,,0.00359511531199,0.000960663984093,0.0441033473656,-0.999020026511
2884320000000,,57103,,2884,316403605,"""map""",,,0.149406045675,0.09276137501,0.0363519191742,,0.0035661350731,0.000970555981148,0.0441178458815,-0.999019520749
2884352000000,,57104,,2884,348403605,"""map""",,,0.150085508823,0.0927237719297,0.0364124514163,,0.0036038523043,0.000989503541413,0.0441153592174,-0.999019478602
2884388000000,,57105,,2884,380403605,"""map""",,,0.149568960071,0.0922246351838,0.0364732295275,,0.0035818736283,0.00106564322266,0.0441432604312,-0.99901829849
2884420000000,,57106,,2884,412402512,"""map""",,,0.14927598834,0.0918380394578,0.0366130806506,,0.00359038029466,0.00109808913434,0.044100186352,-0.999020068658
2884452000000,,57107,,2884,444402512,"""map""",,,0.149148955941,0.0915309712291,0.0368351116776,,0.00358562008801,0.00117172815745,0.0441496667521,-0.999017792728
2884488000000,,57108,,2884,484402512,"""map""",,,0.149210631847,0.0912352278829,0.0370645076036,,0.00359812617749,0.00122075580825,0.0441041903026,-0.999019689336
2884520000000,,57109,,2884,516401420,"""map""",,,0.149455413222,0.091079339385,0.0371971167624,,0.00359962807055,0.00125130955692,0.0440464069733,-0.999022260294
2884552000000,,57110,,2884,548401420,"""map""",,,0.149849966168,0.0910190418363,0.0373548194766,,0.00368661011089,0.0012781615446,0.044033973653,-0.999022471028
2884588000000,,57111,,2884,580401420,"""map""",,,0.149669751525,0.0904139876366,0.0371823385358,,0.00389844667464,0.00126062853794,0.0440283681221,-0.999021923119
2884620000000,,57112,,2884,612400326,"""map""",,,0.149695396423,0.0898900479078,0.0372228771448,,0.00394596510606,0.00121982265068,0.0441286776216,-0.99901737126
2884652000000,,57113,,2884,644400326,"""map""",,,0.14988695085,0.0894610434771,0.0373022519052,,0.00395806479126,0.00123049477602,0.0441582225624,-0.999015980414
2884688000000,,57114,,2884,684400326,"""map""",,,0.150351181626,0.0890651643276,0.037391487509,,0.00396618456273,0.00125463874637,0.0441398886833,-0.99901669691
2884720000000,,57115,,2884,716399233,"""map""",,,0.150880858302,0.0888680666685,0.0375438369811,,0.00390712192839,0.00120809915903,0.0441512683324,-0.999016528323
2884752000000,,57116,,2884,748399233,"""map""",,,0.151555001736,0.0887413397431,0.0379166565835,,0.00392301022015,0.00117835015175,0.0441658089951,-0.999015811826
2884788000000,,57117,,2884,780399233,"""map""",,,0.151450261474,0.0880753323436,0.0381407141685,,0.00393377857531,0.00118804145736,0.0442115383257,-0.999013746631
2884820000000,,57118,,2884,812398139,"""map""",,,0.151559889317,0.0875473842025,0.0384629294276,,0.00387795342809,0.00117443461074,0.0442382594277,-0.9990128194
2884852000000,,57119,,2884,844398139,"""map""",,,0.151877090335,0.0871013849974,0.0388545766473,,0.0038654368019,0.00110912971533,0.0442487961398,-0.999012482225
2884888000000,,57120,,2884,884398139,"""map""",,,0.152520954609,0.0866389721632,0.0394185706973,,0.00387217659335,0.001129061635,0.0442018445506,-0.999014505274
2884920000000,,57121,,2884,916397045,"""map""",,,0.153224289417,0.0863565132022,0.0395975075662,,0.003795320498,0.00110287329555,0.0441312485793,-0.999017919169
2884952000000,,57122,,2884,948397045,"""map""",,,0.154038980603,0.0861565023661,0.039721056819,,0.00382041211389,0.00108688737457,0.0441198689302,-0.999018424931
2884988000000,,57123,,2884,980397045,"""map""",,,0.153949454427,0.085484534502,0.0392410866916,,0.00380939729845,0.00108700657113,0.0441186045248,-0.999018509224
2885020000000,,57124,,2885,12395951,"""map""",,,0.154068827629,0.0849188119173,0.0388572923839,,0.00378153362177,0.00111247610925,0.0441598662895,-0.99901669691
2885052000000,,57125,,2885,44395951,"""map""",,,0.154386594892,0.0844651013613,0.0385369099677,,0.00372573481634,0.00111130192439,0.0441091214839,-0.999019141427
2885088000000,,57126,,2885,84395951,"""map""",,,0.155042439699,0.0840243771672,0.0381374880672,,0.00370186817555,0.0011174728157,0.0441001020583,-0.999019647189
2885120000000,,57127,,2885,116394856,"""map""",,,0.155758276582,0.0837650224566,0.0377127341926,,0.00367357117659,0.00114358575181,0.0440332150097,-0.999022723909
2885152000000,,57128,,2885,148394856,"""map""",,,0.156631201506,0.0835846588016,0.0373362712562,,0.00365022503292,0.00116754203696,0.0440877951785,-0.999020405833
2885188000000,,57129,,2885,180394856,"""map""",,,0.156316310167,0.0832639783621,0.0367777720094,,0.00362976265565,0.00116545749664,0.0441213440699,-0.99901897284
2885220000000,,57130,,2885,212393761,"""map""",,,0.156249180436,0.0830440074205,0.0363415926695,,0.0036155122464,0.00117757586804,0.0441331873344,-0.999018424931
2885252000000,,57131,,2885,244393761,"""map""",,,0.156379804015,0.0828835740685,0.0360249318182,,0.00370779367672,0.00117949659542,0.0441059604702,-0.999019267868
2885288000000,,57132,,2885,284393761,"""map""",,,0.156819656491,0.0827927440405,0.0356702804565,,0.00373182421277,0.00121835245007,0.0441167079166,-0.999018719959
2885320000000,,57133,,2885,316392666,"""map""",,,0.157398447394,0.0827882811427,0.03545634076,,0.00371841542341,0.00128057848526,0.0440830747315,-0.999020152952
2885352000000,,57134,,2885,348392666,"""map""",,,0.1581261307,0.0828267261386,0.0353171117604,,0.00368231006221,0.00125852514678,0.0441030523377,-0.999019478602
2885388000000,,57135,,2885,380392666,"""map""",,,0.157788768411,0.0825448930264,0.0350209437311,,0.00365620725123,0.00127258976415,0.0441072670225,-0.999019310015
2885420000000,,57136,,2885,412391571,"""map""",,,0.157706037164,0.0823483988643,0.0347348898649,,0.00362655669635,0.00124866607695,0.0441755027703,-0.999016486176
2885452000000,,57137,,2885,444391571,"""map""",,,0.157856509089,0.0822420567274,0.0344293192029,,0.00368184084925,0.00131340363626,0.04420171811,-0.999015053183
2885488000000,,57138,,2885,484391571,"""map""",,,0.158330887556,0.0822128802538,0.0339948982,,0.00365012946165,0.00134672121392,0.0442187454368,-0.99901429454
2885520000000,,57139,,2885,516390475,"""map""",,,0.158938646317,0.0821910575032,0.0337759889662,,0.00387675701736,0.00128315915655,0.044289636436,-0.99901041703
2885552000000,,57140,,2885,548390475,"""map""",,,0.159741863608,0.0821830779314,0.0335833318532,,0.00386584526413,0.00125896949969,0.0443078017277,-0.999009700533
2885588000000,,57141,,2885,580390475,"""map""",,,0.159447044134,0.0817584171891,0.0333697646856,,0.00387399532865,0.00125501205878,0.0443287908583,-0.999008689009
2885620000000,,57142,,2885,612389379,"""map""",,,0.159417495131,0.081425793469,0.0331115052104,,0.00385235374512,0.00125982618377,0.0443856469569,-0.999006286638
2885652000000,,57143,,2885,644389379,"""map""",,,0.159602031112,0.0811608508229,0.0328307263553,,0.00383576690227,0.00130172517259,0.0443944977951,-0.99900586517
2885688000000,,57144,,2885,684389379,"""map""",,,0.160133436322,0.0809084847569,0.0326182469726,,0.00383564482459,0.0012976757001,0.0444151076041,-0.999004980086
2885720000000,,57145,,2885,716388283,"""map""",,,0.160772427917,0.0807548761368,0.0325741507113,,0.00381523027411,0.00130005337504,0.0444425452024,-0.999003842121
2885752000000,,57146,,2885,748388283,"""map""",,,0.161571070552,0.0806364044547,0.032624065876,,0.00377050382444,0.00124513611375,0.0444019156405,-0.99900586517
2885788000000,,57147,,2885,780388283,"""map""",,,0.161386698484,0.080157853663,0.0330985672772,,0.00378201468854,0.00117497494651,0.0443576193027,-0.999007930365
2885820000000,,57148,,2885,812387187,"""map""",,,0.161431819201,0.0797520875931,0.0335582382977,,0.00377894694126,0.00117001240205,0.0443584622397,-0.999007930365
2885852000000,,57149,,2885,844387187,"""map""",,,0.161689475179,0.0794043689966,0.0338679924607,,0.00377934009233,0.0011703452963,0.0443270628375,-0.999009236918
2885888000000,,57150,,2885,884387187,"""map""",,,0.162298977375,0.0790277048945,0.034161709249,,0.00375477136079,0.00114917613613,0.0443371780812,-0.999008899743
2885920000000,,57151,,2885,916386090,"""map""",,,0.162977337837,0.0788030400872,0.0344250053167,,0.00371491929293,0.00120518625204,0.044355849135,-0.999008183247
2885948000000,,57152,,2885,948386090,"""map""",,,0.163855955005,0.0786405354738,0.0344800725579,,0.00375538520658,0.00119076873712,0.0443617918407,-0.999007803925
2885988000000,,57153,,2885,980386090,"""map""",,,0.163759380579,0.0781608000398,0.0343663133681,,0.00376242414188,0.00119867678653,0.0443914210752,-0.999006413079
2886020000000,,57154,,2886,12384994,"""map""",,,0.163892060518,0.0777624845505,0.0342178270221,,0.00375402959271,0.00126688627481,0.0444314605813,-0.999004642911
2886052000000,,57155,,2886,44384994,"""map""",,,0.164244651794,0.0774407535791,0.0338991433382,,0.00376379383213,0.00119497914144,0.0444519018028,-0.999003757827
2886088000000,,57156,,2886,84384994,"""map""",,,0.164971917868,0.0771574750543,0.0336797647178,,0.00375033894466,0.00118796580706,0.0444690134233,-0.999003083478
2886120000000,,57157,,2886,116383897,"""map""",,,0.165775164962,0.0770105198026,0.0335816629231,,0.00367929664486,0.00121077597782,0.0444693927449,-0.999003294212
2886152000000,,57158,,2886,148383897,"""map""",,,0.166755467653,0.0769339576364,0.0334128588438,,0.00369334628035,0.00123691303312,0.0444452426007,-0.99900426359
2886188000000,,57159,,2886,180383897,"""map""",,,0.166852474213,0.0768028944731,0.0330066010356,,0.00369662920704,0.00128065347702,0.0444265715468,-0.99900506438
2886220000000,,57160,,2886,212382800,"""map""",,,0.167212098837,0.0766953155398,0.0325972288847,,0.00370178832703,0.00145374325754,0.0444747875415,-0.999002619863
2886252000000,,57161,,2886,244382800,"""map""",,,0.167761310935,0.0766427144408,0.0323309414089,,0.00369327153555,0.00147765023418,0.0444799716039,-0.999002409128
2886288000000,,57162,,2886,284382800,"""map""",,,0.168701559305,0.0766296759248,0.0321220979095,,0.00372897592545,0.0014337202941,0.0445010450282,-0.999001397604
2886320000000,,57163,,2886,316381703,"""map""",,,0.169654905796,0.0766889750957,0.0319056771696,,0.00379288371869,0.00137307888162,0.0444468863278,-0.999003631387
2886352000000,,57164,,2886,348381703,"""map""",,,0.170746594667,0.0768114477396,0.0317674614489,,0.00379210235563,0.00136319807983,0.0444555685786,-0.999003294212
2886388000000,,57165,,2886,380381703,"""map""",,,0.170726463199,0.0766171216965,0.0316808857024,,0.00375566994477,0.00136399862299,0.0444742396325,-0.999002577716
2886420000000,,57166,,2886,412392605,"""map""",,,0.17095541954,0.0764706209302,0.0316198095679,,0.00375549016212,0.00137374310608,0.0444581816832,-0.999003294212
2886452000000,,57167,,2886,444392605,"""map""",,,0.171431303024,0.0763776451349,0.0315179377794,,0.00375893533771,0.00138921824347,0.0444553156975,-0.999003378506
2886488000000,,57168,,2886,484392605,"""map""",,,0.172351792455,0.0763173177838,0.0313440933824,,0.00374016459664,0.00137909731988,0.0444509324253,-0.999003631387
2886520000000,,57169,,2886,516391508,"""map""",,,0.173315003514,0.0762957260013,0.0311309341341,,0.00376968072613,0.00138408991043,0.0444487407892,-0.999003631387
2886552000000,,57170,,2886,548391508,"""map""",,,0.174424886703,0.0763179212809,0.030967919156,,0.00375602070203,0.00136271833015,0.0444648830321,-0.999002999184
2886588000000,,57171,,2886,580391508,"""map""",,,0.174249336123,0.0762944594026,0.0307782739401,,0.00373899263437,0.00137775561777,0.0444519018028,-0.99900358924
2886620000000,,57172,,2886,612390410,"""map""",,,0.17429305613,0.0763619542122,0.0307587850839,,0.00373872831107,0.00136861921822,0.0444291425046,-0.999004600764
2886652000000,,57173,,2886,644390410,"""map""",,,0.17456035316,0.076474390924,0.0306321401149,,0.00374942702515,0.0013027305231,0.0444498366072,-0.999003799974
2886688000000,,57174,,2886,684390410,"""map""",,,0.175213962793,0.0766637027264,0.0304924491793,,0.00376988989633,0.0012927539854,0.0444221039809,-0.999004895792
2886720000000,,57175,,2886,716389312,"""map""",,,0.175960585475,0.0768546909094,0.0304128173739,,0.00368126561062,0.00138936048909,0.0444753354506,-0.999002746303
2886752000000,,57176,,2886,748389312,"""map""",,,0.176910579205,0.0771469250321,0.0303830504417,,0.00372348160631,0.00141154619502,0.0445192946136,-0.999000596814
2886788000000,,57177,,2886,780389312,"""map""",,,0.176332324743,0.0771951600909,0.0304742045701,,0.00372605643301,0.00138082221259,0.0445421803523,-0.998999627436
2886816000000,,57178,,2886,812388214,"""map""",,,0.176093429327,0.0773038491607,0.0305894929916,,0.00369296391294,0.00139211098254,0.0445699551255,-0.998998489471
2886852000000,,57179,,2886,844388214,"""map""",,,0.176128879189,0.0774438157678,0.0308158118278,,0.00369360023157,0.00142700873774,0.0446056535062,-0.998996845744
2886888000000,,57180,,2886,884388214,"""map""",,,0.176503479481,0.0776405930519,0.0309852492064,,0.00368361373338,0.00139962349365,0.0445886683262,-0.998997646534
2886920000000,,57181,,2886,916387115,"""map""",,,0.177095741034,0.07785076648,0.0311023518443,,0.00361809118902,0.00158624743395,0.044570376594,-0.998998489471
2886952000000,,57182,,2886,948387115,"""map""",,,0.177899420261,0.0780948847532,0.0311508141458,,0.00364693535615,0.00156673220832,0.0445619893711,-0.998998784499
2886988000000,,57183,,2886,980387115,"""map""",,,0.177336379886,0.0780960097909,0.0313790813088,,0.00365363258916,0.00158560889273,0.0445430654361,-0.998999585289
2887020000000,,57184,,2887,12386017,"""map""",,,0.177065134048,0.0781271755695,0.031611032784,,0.00365288555273,0.00160527229088,0.0445000335038,-0.999001481898
2887052000000,,57185,,2887,44386017,"""map""",,,0.177027195692,0.0782281160355,0.0318378098309,,0.00317279919779,0.0016984884428,0.0442931767713,-0.999012102903
2887088000000,,57186,,2887,84386017,"""map""",,,0.177088469267,0.0784358754754,0.0331148765981,,0.00225957083315,0.00179996323677,0.0440290003248,-0.999026095657
2887120000000,,57187,,2887,116384918,"""map""",,,0.177111878991,0.0786618590355,0.035433024168,,-0.00136002373066,0.0032745991481,0.0432164512324,-0.999059518108
2887152000000,,57188,,2887,148384918,"""map""",,,0.177109539509,0.0788776651025,0.0389874316752,,-0.00653712991244,0.00647314782716,0.0422175287758,-0.999066135163
2887188000000,,57189,,2887,180384918,"""map""",,,0.175731748343,0.0787368118763,0.0433064885437,,-0.0102834534437,0.0093687856654,0.0415789618741,-0.99903836039
2887220000000,,57190,,2887,212383819,"""map""",,,0.174457743764,0.0785550251603,0.0484782382846,,-0.0164607791472,0.015014845569,0.0406620571847,-0.998924521752
2887252000000,,57191,,2887,244383819,"""map""",,,0.173292949796,0.0782962292433,0.0542686507106,,-0.0239710041209,0.0227214346855,0.0397506737325,-0.99866363276
2887288000000,,57192,,2887,284383819,"""map""",,,0.171973332763,0.0778387710452,0.0624221041799,,-0.0279953596898,0.0271020932086,0.0393937320725,-0.998463814551
2887320000000,,57193,,2887,316382720,"""map""",,,0.170936226845,0.0772796720266,0.0696713849902,,-0.0366104335514,0.0368207245935,0.038807933025,-0.997896728704
2887352000000,,57194,,2887,348382720,"""map""",,,0.169874146581,0.0765077471733,0.0775275677443,,-0.0460862793737,0.0477774812685,0.0383853687218,-0.997055646196
2887388000000,,57195,,2887,380382720,"""map""",,,0.167430967093,0.0748888775706,0.0856655314565,,-0.0510926111146,0.0537441131476,0.0382778942581,-0.996511867556
2887420000000,,57196,,2887,412381620,"""map""",,,0.16484183073,0.0729567930102,0.094371765852,,-0.0619873544642,0.0665087455539,0.0380907622508,-0.9951297881
2887452000000,,57197,,2887,444381620,"""map""",,,0.161407575011,0.070051908493,0.103450700641,,-0.0727699089947,0.0794590181997,0.0376375993356,-0.993465830521
2887488000000,,57198,,2887,484381620,"""map""",,,0.155335754156,0.0646087154746,0.115608863533,,-0.0774457919918,0.0849435602668,0.0372506069725,-0.992672795419
2887520000000,,57199,,2887,516380521,"""map""",,,0.148897528648,0.0586150027812,0.126359805465,,-0.0843004685057,0.0914374755625,0.0362729686745,-0.99157293126
2887552000000,,57200,,2887,548380521,"""map""",,,0.1409085989,0.0510849021375,0.13826136291,,-0.0889350752501,0.0940280187647,0.0352867745662,-0.990961254048
2887588000000,,57201,,2887,580380521,"""map""",,,0.129991054535,0.0415288209915,0.151486724615,,-0.0910412482652,0.0947763253586,0.0347324592146,-0.990718235319
2887620000000,,57202,,2887,612379422,"""map""",,,0.117594696581,0.0304287653416,0.166352659464,,-0.093354404865,0.0955818458878,0.0340694892875,-0.990448579782
2887652000000,,57203,,2887,644379422,"""map""",,,0.10379627347,0.0178213194013,0.182738125324,,-0.0950528624797,0.0960563744152,0.0334079102064,-0.990263681558
2887688000000,,57204,,2887,684379422,"""map""",,,0.0847650617361,-3.31837218255e-05,0.205036371946,,-0.0955464469803,0.096048195169,0.0331208480212,-0.990226634478
2887720000000,,57205,,2887,716378322,"""map""",,,0.0681680887938,-0.0159020479769,0.224217250943,,-0.0961538148009,0.0954279093393,0.0325902613453,-0.990245389826
2887752000000,,57206,,2887,748378322,"""map""",,,0.0503883287311,-0.0331383086741,0.244527563453,,-0.096504151383,0.0946518263669,0.0322362699646,-0.99029735689
2887788000000,,57207,,2887,788378322,"""map""",,,0.0247265193611,-0.0563903301954,0.271077543497,,-0.0965781681637,0.0944809772018,0.0321317879272,-0.990309874504
2887820000000,,57208,,2887,812377222,"""map""",,,0.00862419139594,-0.071278937161,0.287964761257,,-0.0968029697401,0.0941162902351,0.0319829252582,-0.990327491887
2887852000000,,57209,,2887,844377222,"""map""",,,-0.0136553784832,-0.0921647921205,0.311564743519,,-0.0971603231551,0.0938224521208,0.0320445439508,-0.990318388167
2887888000000,,57210,,2887,884377222,"""map""",,,-0.0427707917988,-0.119853205979,0.342954903841,,-0.0972247090517,0.0937396901984,0.0321532828199,-0.990316365119
2887920000000,,57211,,2887,916376122,"""map""",,,-0.0670389384031,-0.143281117082,0.369572162628,,-0.0975466001742,0.0936155520891,0.0325731497248,-0.990282731934
2887952000000,,57212,,2887,948376122,"""map""",,,-0.0921292752028,-0.167807385325,0.397425472736,,-0.0977279300752,0.0928560727936,0.033082241508,-0.990319441839
