rosbagTimestamp,header,seq,stamp,secs,nsecs,frame_id,pose,position,x,y,z,orientation,x,y,z,w
2320660000000,,51226,,2320,652282572,"""map""",,,0.143368378282,-0.332417875528,-0.00189238239545,,-0.00746678639012,-0.000438505690075,0.0368733505315,-0.999292000124
2320692000000,,51227,,2320,684282572,"""map""",,,0.142231762409,-0.33033144474,-0.00195261149202,,-0.00748547193199,-0.000487535645783,0.036938045944,-0.999289429167
2320724000000,,51228,,2320,716281703,"""map""",,,0.141531482339,-0.328794509172,-0.00209609861486,,-0.0075088314935,-0.000496133273607,0.0369624068224,-0.999288333349
2320760000000,,51229,,2320,756281703,"""map""",,,0.141161203384,-0.327546924353,-0.00223283120431,,-0.00743693818956,-0.000513268601705,0.0369447894397,-0.99928951346
2320792000000,,51230,,2320,788281703,"""map""",,,0.141256511211,-0.327041953802,-0.00234592729248,,-0.00741002512188,-0.000518493823103,0.0369205971487,-0.999290609278
2320824000000,,51231,,2320,820280833,"""map""",,,0.141667827964,-0.326921969652,-0.00245283567347,,-0.00738246075369,-0.000463126364323,0.0368906728863,-0.999291957978
2320860000000,,51232,,2320,852280833,"""map""",,,0.142344802618,-0.327119618654,-0.00258605577983,,-0.00737652298713,-0.000501107589548,0.0369671694163,-0.999289134139
2320888000000,,51233,,2320,884280833,"""map""",,,0.141093477607,-0.325039774179,-0.00254060514271,,-0.00730593360132,-0.000533033827295,0.036983943862,-0.999289049845
2320924000000,,51234,,2320,916291963,"""map""",,,0.140269860625,-0.323493361473,-0.00249563273974,,-0.00726346933436,-0.000522778313672,0.0369817943727,-0.999289429167
2320960000000,,51235,,2320,956291963,"""map""",,,0.139799624681,-0.322201758623,-0.00243288977072,,-0.00731693853859,-0.000547492830513,0.0369482033345,-0.999290229957
2320992000000,,51236,,2320,988291963,"""map""",,,0.139829829335,-0.3216368258,-0.00233485642821,,-0.0073016247446,-0.000605372307319,0.0369370765665,-0.999290735719
2321024000000,,51237,,2321,20291094,"""map""",,,0.140205234289,-0.321417659521,-0.00232644099742,,-0.00731071463445,-0.000638060481062,0.0369236738686,-0.999291157187
2321060000000,,51238,,2321,52291094,"""map""",,,0.140880346298,-0.321566581726,-0.00225083366968,,-0.0071949299976,-0.000577817488016,0.0369214822325,-0.999292168712
2321092000000,,51239,,2321,92291094,"""map""",,,0.139559745789,-0.319117486477,-0.00278058205731,,-0.00716586612356,-0.000605884325674,0.0368966577387,-0.999293222383
2321124000000,,51240,,2321,116290224,"""map""",,,0.139089897275,-0.31801071763,-0.0031942599453,,-0.0071373969152,-0.000618710467784,0.0369289000779,-0.999292253006
2321160000000,,51241,,2321,156290224,"""map""",,,0.138790637255,-0.31667560339,-0.00406437600031,,-0.00716621185942,-0.000631260679745,0.0369206392955,-0.999292337299
2321192000000,,51242,,2321,188290224,"""map""",,,0.138952419162,-0.316064149141,-0.00475640408695,,-0.00717709957577,-0.000601782251934,0.0369259497985,-0.999292084418
2321224000000,,51243,,2321,220289354,"""map""",,,0.139434248209,-0.315818190575,-0.0055488627404,,-0.00719562146933,-0.000564677549448,0.0369130528628,-0.999292421593
2321260000000,,51244,,2321,252289354,"""map""",,,0.140214592218,-0.315925389528,-0.00638379482552,,-0.00718563365405,-0.000495034162823,0.036884350859,-0.999293559558
2321292000000,,51245,,2321,284289354,"""map""",,,0.139285758138,-0.31391119957,-0.00668376684189,,-0.00721835409648,-0.00046240723372,0.036896025536,-0.999293011649
2321324000000,,51246,,2321,316288485,"""map""",,,0.138762846589,-0.312398523092,-0.00690471287817,,-0.0071801124169,-0.000431544545353,0.0368923166133,-0.999293348824
2321360000000,,51247,,2321,356288485,"""map""",,,0.138614445925,-0.311133295298,-0.00707142194733,,-0.00722410055585,-0.000379315380425,0.0368417403951,-0.999294950404
2321392000000,,51248,,2321,388288485,"""map""",,,0.138873621821,-0.310582399368,-0.00724823633209,,-0.00720632084195,-0.000423455972434,0.0368396330527,-0.999295118991
2321424000000,,51249,,2321,420287615,"""map""",,,0.13946518302,-0.310357302427,-0.00745187932625,,-0.0072192510341,-0.000464419745736,0.0368583884003,-0.999294318201
2321460000000,,51250,,2321,452287615,"""map""",,,0.140341252089,-0.310449898243,-0.00780359096825,,-0.00721668863741,-0.000354833988341,0.0368676185601,-0.999294023173
2321492000000,,51251,,2321,484287615,"""map""",,,0.139656037092,-0.308931767941,-0.00797311589122,,-0.00721841303621,-0.000266309472128,0.0368250502431,-0.999295624753
2321524000000,,51252,,2321,516286746,"""map""",,,0.13937599957,-0.307832539082,-0.00811422429979,,-0.00719039690648,-0.000258153727668,0.0367974019105,-0.999296889159
2321560000000,,51253,,2321,556286746,"""map""",,,0.139496833086,-0.307005941868,-0.00819633621722,,-0.00719212657363,-0.000241044412079,0.0368201190618,-0.999296004075
2321592000000,,51254,,2321,588286746,"""map""",,,0.139981746674,-0.306741565466,-0.00841453485191,,-0.00720936562249,-0.000239242963577,0.0367727038573,-0.999297647802
2321624000000,,51255,,2321,620285876,"""map""",,,0.140771329403,-0.306793391705,-0.00853358302265,,-0.0072013692458,-0.000216941024542,0.0367575309918,-0.999298237858
2321660000000,,51256,,2321,652285876,"""map""",,,0.1417979002,-0.307126283646,-0.00852824468166,,-0.00722416443467,-0.000167350318185,0.0367169857235,-0.999299586557
2321692000000,,51257,,2321,684285876,"""map""",,,0.141060754657,-0.305564492941,-0.00794354639947,,-0.00718794152328,-0.000186765856642,0.0367688684941,-0.99929794283
2321724000000,,51258,,2321,716297007,"""map""",,,0.140726774931,-0.304461687803,-0.0073823351413,,-0.00718265703288,-0.000161635468945,0.0367759491646,-0.999297774243
2321760000000,,51259,,2321,756297007,"""map""",,,0.140803605318,-0.303660690784,-0.00665845070034,,-0.00723737845949,-0.000151697044503,0.0367818075765,-0.99929714204
2321792000000,,51260,,2321,788297007,"""map""",,,0.141220390797,-0.303417474031,-0.00609263498336,,-0.00723984042814,-0.000110308509993,0.0367788572972,-0.999297226334
2321824000000,,51261,,2321,820296137,"""map""",,,0.141929447651,-0.303510397673,-0.00551366386935,,-0.0072853023897,-0.000155203464736,0.0367655810399,-0.999297352774
2321860000000,,51262,,2321,852296137,"""map""",,,0.142907097936,-0.30389726162,-0.00506120175123,,-0.00727692899628,-0.0001361781139,0.0368057469865,-0.999295961928
2321892000000,,51263,,2321,884296137,"""map""",,,0.141835048795,-0.302464455366,-0.00466582924128,,-0.00729499978685,-0.000113043774607,0.0367480479509,-0.99929794283
2321924000000,,51264,,2321,916295267,"""map""",,,0.141168266535,-0.301412761211,-0.00430646771565,,-0.00725711207495,-0.000108246607138,0.036747752923,-0.999298237858
2321960000000,,51265,,2321,956295267,"""map""",,,0.140873879194,-0.300657629967,-0.00388808967546,,-0.00730428328878,-0.000141522531854,0.0367651174245,-0.999297226334
2321992000000,,51266,,2321,988295267,"""map""",,,0.14104026556,-0.300432473421,-0.00366439390928,,-0.00731113873711,-0.000140523519836,0.0366940156911,-0.999299797291
2322024000000,,51267,,2322,20294398,"""map""",,,0.141521051526,-0.30049982667,-0.00335779949091,,-0.0072918045289,-0.000146776399939,0.0366624055547,-0.999301145991
2322060000000,,51268,,2322,52294398,"""map""",,,0.142279297113,-0.300867080688,-0.00305515131913,,-0.00724142686186,-0.000164481698308,0.036655662059,-0.999301736046
2322092000000,,51269,,2322,84294398,"""map""",,,0.141208350658,-0.299476355314,-0.00281767360866,,-0.00718342555432,-9.88814456903e-05,0.0366060130714,-0.999304011976
2322124000000,,51270,,2322,116293528,"""map""",,,0.140501111746,-0.298474192619,-0.00280109234154,,-0.00720986183577,-7.85538230902e-05,0.0366068138615,-0.999303801242
2322160000000,,51271,,2322,156293528,"""map""",,,0.140083894134,-0.29771643877,-0.00274424185045,,-0.00721016871751,-2.55600879883e-05,0.0366088790571,-0.999303674801
2322192000000,,51272,,2322,188293528,"""map""",,,0.140062078834,-0.297474533319,-0.0027182509657,,-0.00723758557174,-2.92364127041e-05,0.036640067725,-0.999302326102
2322224000000,,51273,,2322,220304658,"""map""",,,0.140354394913,-0.297529101372,-0.00268983817659,,-0.0072577534973,-5.62890918192e-06,0.0366536390102,-0.999301736046
2322260000000,,51274,,2322,252304658,"""map""",,,0.140927374363,-0.297833412886,-0.00283310329542,,-0.00721022963288,8.07408494018e-06,0.0366563785554,-0.999301946781
2322292000000,,51275,,2322,284304658,"""map""",,,0.141757398844,-0.298353254795,-0.00299853179604,,-0.00720352103998,2.35989424442e-06,0.0366458418433,-0.999302368249
2322324000000,,51276,,2322,316303788,"""map""",,,0.142806768417,-0.299081206322,-0.00310878478922,,-0.00718516773381,1.58169219928e-05,0.0365956449467,-0.999304349151
2322360000000,,51277,,2322,356303788,"""map""",,,0.143751904368,-0.299736738205,-0.00286338524893,,-0.00723084042962,7.30984403867e-06,0.0365538774198,-0.99930557141
2322392000000,,51278,,2322,388303788,"""map""",,,0.142790839076,-0.298814564943,-0.00217619049363,,-0.00725573900965,3.20678248168e-06,0.0365300223035,-0.999306245759
2322424000000,,51279,,2322,420302918,"""map""",,,0.142208352685,-0.298239558935,-0.00151735311374,,-0.00723259479219,-1.16233105653e-06,0.0365135850326,-0.999307004403
2322460000000,,51280,,2322,452302918,"""map""",,,0.141965523362,-0.297989785671,-0.000845135655254,,-0.00719955133368,-5.03987404681e-05,0.0365103397253,-0.999307383724
2322492000000,,51281,,2322,484302918,"""map""",,,0.142008185387,-0.298049211502,-0.000104939099401,,-0.00725004852656,-7.32245516593e-05,0.0365194434446,-0.999306709375
2322524000000,,51282,,2322,516302048,"""map""",,,0.142360597849,-0.298347860575,0.000611755996943,,-0.00726082890015,-6.19370987925e-05,0.0365081480892,-0.999306962256
2322560000000,,51283,,2322,556302048,"""map""",,,0.142645657063,-0.298474013805,0.00149762211367,,-0.00729604851898,-5.67961710904e-06,0.0364693308417,-0.999308184514
2322592000000,,51284,,2322,588302048,"""map""",,,0.141558498144,-0.297253787518,0.00230013485998,,-0.00752540409532,8.95357113059e-06,0.0364837450639,-0.999305908584
2322624000000,,51285,,2322,620301178,"""map""",,,0.140860080719,-0.296405434608,0.00314061669633,,-0.00751083676153,1.16763233988e-05,0.0364750628131,-0.999306330053
2322660000000,,51286,,2322,652301178,"""map""",,,0.140532597899,-0.295887351036,0.00392389390618,,-0.00755261647148,3.75916961492e-05,0.0364505333473,-0.999306920109
2322692000000,,51287,,2322,684301178,"""map""",,,0.14053940773,-0.295675754547,0.0045570586808,,-0.00755434350445,6.73641640829e-05,0.0365042705791,-0.999305023501
2322724000000,,51288,,2322,716300307,"""map""",,,0.140841767192,-0.295745164156,0.00523106008768,,-0.00755645479814,6.19910994423e-05,0.036489266301,-0.999305444969
2322760000000,,51289,,2322,756300307,"""map""",,,0.141073554754,-0.295652806759,0.00609829975292,,-0.00754489898839,0.000102481379243,0.0365292636603,-0.999304138417
2322792000000,,51290,,2322,788300307,"""map""",,,0.140028193593,-0.294312208891,0.00693013845012,,-0.00748684532656,0.000143797473857,0.036505703572,-0.999305444969
2322824000000,,51291,,2322,820299437,"""map""",,,0.139356434345,-0.293337523937,0.00784673541784,,-0.00747074490115,0.000173307841077,0.0365080637955,-0.999305444969
2322860000000,,51292,,2322,852299437,"""map""",,,0.139047160745,-0.292699545622,0.0087439995259,,-0.00749266949419,0.000174734577753,0.0365031326142,-0.999305487116
2322892000000,,51293,,2322,884299437,"""map""",,,0.139053806663,-0.292386502028,0.00949976872653,,-0.0074779645246,0.000132420129665,0.0365118570118,-0.999305276382
2322924000000,,51294,,2322,916298566,"""map""",,,0.139375686646,-0.292354643345,0.0101566798985,,-0.00748648477344,0.000140175808336,0.0364929330769,-0.999305908584
2322960000000,,51295,,2322,956298566,"""map""",,,0.13962996006,-0.292175829411,0.0109573714435,,-0.00745436228943,0.000121367118643,0.036479825407,-0.999306625081
2322992000000,,51296,,2322,988298566,"""map""",,,0.13858909905,-0.290836632252,0.0114893550053,,-0.00742093852147,9.99071287616e-05,0.0364630088144,-0.999307425871
2323024000000,,51297,,2323,20297696,"""map""",,,0.137938410044,-0.28986671567,0.0119950957596,,-0.00745665204868,0.000117623293115,0.0365071787117,-0.99930557141
2323060000000,,51298,,2323,52297696,"""map""",,,0.137607604265,-0.28924202919,0.0124537181109,,-0.00745337941175,0.000164772116437,0.0365003087753,-0.999305866438
2323092000000,,51299,,2323,84297696,"""map""",,,0.137579292059,-0.288918197155,0.0128500824794,,-0.00742152429681,0.000210780011398,0.0364506176409,-0.999307931633
2323124000000,,51300,,2323,116296825,"""map""",,,0.13781671226,-0.288859397173,0.0132687166333,,-0.00738435571551,0.000236817214882,0.0364737984076,-0.999307341577
2323160000000,,51301,,2323,156296825,"""map""",,,0.13796299696,-0.288673073053,0.0138280475512,,-0.00739803566057,0.00030290676607,0.036459510626,-0.999307720899
2323192000000,,51302,,2323,188296825,"""map""",,,0.136690855026,-0.287362784147,0.0141042470932,,-0.00743684072498,0.000291715789973,0.0364172373369,-0.999308943158
2323224000000,,51303,,2323,220295954,"""map""",,,0.135799348354,-0.286375522614,0.0142086492851,,-0.00743984467575,0.000294183026973,0.036406658478,-0.999309322479
2323260000000,,51304,,2323,252295954,"""map""",,,0.135267153382,-0.285707235336,0.0144196087494,,-0.00745852165654,0.000486578122069,0.0364281533707,-0.999308310955
2323292000000,,51305,,2323,284295954,"""map""",,,0.135033339262,-0.285349756479,0.0145303811878,,-0.00742484303186,0.000483096397255,0.0364413031874,-0.999308142367
2323324000000,,51306,,2323,316295084,"""map""",,,0.135074302554,-0.285263597965,0.0145587725565,,-0.00739879825511,0.000520177062866,0.0363958267379,-0.999309954682
2323360000000,,51307,,2323,356295084,"""map""",,,0.135056421161,-0.285056203604,0.0147840753198,,-0.00743416176592,0.000498647596539,0.0363504767289,-0.999311387675
2323392000000,,51308,,2323,388295084,"""map""",,,0.134086474776,-0.283768326044,0.0149082401767,,-0.00745084203976,0.000497211969511,0.0363020078531,-0.999312989255
2323424000000,,51309,,2323,420294213,"""map""",,,0.133486226201,-0.282793462276,0.0149830216542,,-0.00748822431876,0.000461340391617,0.0362889423301,-0.999313242136
2323460000000,,51310,,2323,452294213,"""map""",,,0.133202120662,-0.282102078199,0.0150081701577,,-0.00747430861476,0.000449917937126,0.0362880572462,-0.999313368577
2323492000000,,51311,,2323,484294213,"""map""",,,0.13321313262,-0.281698673964,0.0151212969795,,-0.00741655096869,0.000458797092727,0.0362293466863,-0.999315939534
2323524000000,,51312,,2323,516305342,"""map""",,,0.133479043841,-0.281574934721,0.0152980694547,,-0.00745398691906,0.000505932086614,0.0362629377245,-0.999314380101
2323560000000,,51313,,2323,556305342,"""map""",,,0.133749529719,-0.281316816807,0.0155393192545,,-0.0074164083938,0.000495648255577,0.0362301474764,-0.999315897388
2323592000000,,51314,,2323,588305342,"""map""",,,0.132872581482,-0.280060350895,0.0153756188229,,-0.00749634845308,0.000476674271213,0.0362357951541,-0.999315054451
2323624000000,,51315,,2323,620304471,"""map""",,,0.13231395185,-0.279118537903,0.0152010731399,,-0.00750987001819,0.000475270583594,0.0361919624316,-0.999316571737
2323660000000,,51316,,2323,652304471,"""map""",,,0.132086053491,-0.278438687325,0.0149890678003,,-0.0074595522787,0.000543621905895,0.0360924115755,-0.999320533541
2323692000000,,51317,,2323,684304471,"""map""",,,0.132136449218,-0.27801373601,0.0148000251502,,-0.00742453186958,0.000570431582087,0.0361369186475,-0.999319100548
2323724000000,,51318,,2323,716303600,"""map""",,,0.132440537214,-0.277843654156,0.0145808067173,,-0.00740454273886,0.000541301195049,0.0361016417353,-0.999320575688
2323760000000,,51319,,2323,756303600,"""map""",,,0.132716953754,-0.277545005083,0.0141492104158,,-0.00737429150907,0.000554330827411,0.0360845722616,-0.999321376478
2323792000000,,51320,,2323,788303600,"""map""",,,0.1319052279,-0.276332587004,0.0136981485412,,-0.00736213346036,0.000554548805643,0.0360781659407,-0.999321713653
2323824000000,,51321,,2323,820302729,"""map""",,,0.131422668695,-0.275440961123,0.0133392456919,,-0.00733426089333,0.000530281111252,0.0360564181668,-0.999322725177
2323860000000,,51322,,2323,852302729,"""map""",,,0.131263971329,-0.274858295918,0.0129989581183,,-0.00734220952554,0.00055455703745,0.0360700315989,-0.999322177268
2323892000000,,51323,,2323,884302729,"""map""",,,0.131354436278,-0.274549752474,0.0125861167908,,-0.00735912522905,0.00053085634988,0.0360389272247,-0.999323188792
2323924000000,,51324,,2323,916301857,"""map""",,,0.131679624319,-0.274487912655,0.0122044794261,,-0.0073839701377,0.000526582396023,0.0360503490206,-0.99932255659
2323960000000,,51325,,2323,956301857,"""map""",,,0.131860077381,-0.274326831102,0.0117966672406,,-0.00736620952159,0.000572609718047,0.036103116875,-0.999320786422
2323992000000,,51326,,2323,988301857,"""map""",,,0.130701214075,-0.273244827986,0.0114773372188,,-0.00736336592641,0.000611060156235,0.0361033697561,-0.999320786422
2324024000000,,51327,,2324,20300986,"""map""",,,0.129898041487,-0.272463619709,0.0111335134134,,-0.00735481703088,0.000608145767515,0.0360853730518,-0.999321502918
2324060000000,,51328,,2324,52300986,"""map""",,,0.129516035318,-0.271961897612,0.010826094076,,-0.00737104916518,0.000842032130064,0.0360516134261,-0.999322388002
2324092000000,,51329,,2324,84300986,"""map""",,,0.129423573613,-0.271704465151,0.0105461850762,,-0.00735961255198,0.000823184915518,0.0360740776964,-0.999321671506
2324124000000,,51330,,2324,116300114,"""map""",,,0.129596024752,-0.271674633026,0.0102510601282,,-0.00738684303811,0.00081573644786,0.0360511919576,-0.999322303709
2324160000000,,51331,,2324,156300114,"""map""",,,0.12973447144,-0.271566003561,0.00978860538453,,-0.00744809064081,0.000796773988025,0.0360391801058,-0.999322345855
2324192000000,,51332,,2324,188300114,"""map""",,,0.128791987896,-0.270660609007,0.00942497141659,,-0.00739316440685,0.000780614293616,0.036058862684,-0.999322050827
2324224000000,,51333,,2324,220299243,"""map""",,,0.128170087934,-0.270055055618,0.00900569558144,,-0.00736545878085,0.000759580382031,0.0360378735535,-0.999323062352
2324260000000,,51334,,2324,252299243,"""map""",,,0.12783305347,-0.269684135914,0.00863832049072,,-0.00738284369732,0.000706969261288,0.0360325209037,-0.999323104499
2324292000000,,51335,,2324,284299243,"""map""",,,0.127761036158,-0.269530087709,0.00834363419563,,-0.00746068629234,0.000668594555719,0.0359981712222,-0.999323820995
2324324000000,,51336,,2324,316298371,"""map""",,,0.127922177315,-0.269590854645,0.00797210261226,,-0.00747472876616,0.000654748986711,0.0359861172235,-0.99932415817
2324360000000,,51337,,2324,356298371,"""map""",,,0.127991467714,-0.269583970308,0.00749167706817,,-0.00751402279986,0.000624367035835,0.0359831247973,-0.999323947436
2324392000000,,51338,,2324,388298371,"""map""",,,0.126972049475,-0.268666088581,0.00705038663,,-0.00746972251081,0.000597293612568,0.0360245972962,-0.999322851618
2324424000000,,51339,,2324,420297499,"""map""",,,0.126280203462,-0.268017023802,0.00668781017885,,-0.00744131388855,0.000589060818401,0.0359844734964,-0.999324537491
2324460000000,,51340,,2324,452297499,"""map""",,,0.125897526741,-0.267620533705,0.00635650288314,,-0.00744280845531,0.00051486162087,0.035973178141,-0.99932495896
2324492000000,,51341,,2324,492297499,"""map""",,,0.12572593987,-0.267453074455,0.0059087080881,,-0.0074302635117,0.000505733206172,0.035949533759,-0.999325928337
2324524000000,,51342,,2324,516296627,"""map""",,,0.125789761543,-0.267519384623,0.00568700162694,,-0.00742989373896,0.000484958431851,0.0359371847324,-0.999326391953
2324560000000,,51343,,2324,556296627,"""map""",,,0.125692591071,-0.267569750547,0.00530922645703,,-0.00736533168176,0.000483139861193,0.0358771676201,-0.999329005057
2324592000000,,51344,,2324,588296627,"""map""",,,0.124388970435,-0.266853451729,0.00490783853456,,-0.00742400305834,0.000520347955166,0.035899168275,-0.999327740652
2324624000000,,51345,,2324,620295755,"""map""",,,0.123455308378,-0.266440093517,0.00457885023206,,-0.0074041541976,0.000525392076825,0.0359085670223,-0.999327529918
2324660000000,,51346,,2324,652295755,"""map""",,,0.12287388742,-0.266300678253,0.00427471240982,,-0.00743881767559,0.000532172780351,0.0359145097279,-0.999327066302
2324692000000,,51347,,2324,684295755,"""map""",,,0.122581258416,-0.266371548176,0.00394507218152,,-0.00741693950995,0.000723010417686,0.0359090306376,-0.999327319183
2324724000000,,51348,,2324,716294883,"""map""",,,0.122581452131,-0.266642719507,0.00375896971673,,-0.0073977623646,0.00071673086653,0.0358729107884,-0.999328710029
2324760000000,,51349,,2324,756294883,"""map""",,,0.122496210039,-0.266827642918,0.00363439950161,,-0.00744075939407,0.000720346934423,0.0358426072043,-0.99932951082
2324792000000,,51350,,2324,788294883,"""map""",,,0.121434852481,-0.265993982553,0.00354865402915,,-0.0074116033238,0.000751161219769,0.0359032565193,-0.999327529918
2324824000000,,51351,,2324,820306011,"""map""",,,0.120679870248,-0.26543995738,0.00350373610854,,-0.00739760135047,0.000727846110008,0.0358215759269,-0.999330564491
2324860000000,,51352,,2324,852306011,"""map""",,,0.120229586959,-0.265108793974,0.00349358958192,,-0.00740557270247,0.000729724608217,0.0358311854084,-0.999330143022
2324892000000,,51353,,2324,884306011,"""map""",,,0.120051540434,-0.265013158321,0.0035774258431,,-0.00743692798213,0.000666840851694,0.035819890053,-0.999330395903
2324924000000,,51354,,2324,916305139,"""map""",,,0.120105266571,-0.26517367363,0.00372670171782,,-0.00744116341113,0.00065452969139,0.0358332927508,-0.999329890141
2324960000000,,51355,,2324,956305139,"""map""",,,0.120092503726,-0.265300542116,0.00380582432263,,-0.00745600733361,0.000612818470071,0.0358128515293,-0.999330522344
2324992000000,,51356,,2324,988305139,"""map""",,,0.119173683226,-0.264460384846,0.00369256082922,,-0.00745783775807,0.000583465494989,0.0358328291355,-0.999329847994
2325024000000,,51357,,2325,20304267,"""map""",,,0.118560113013,-0.263922721148,0.0037463051267,,-0.00747010446662,0.000584208991738,0.035830173884,-0.999329805848
2325060000000,,51358,,2325,52304267,"""map""",,,0.118248216808,-0.26362529397,0.00380251579918,,-0.00747631223643,0.000577695657282,0.0358513737488,-0.999329005057
2325092000000,,51359,,2325,84304267,"""map""",,,0.118200458586,-0.263551563025,0.00389504502527,,-0.00750216471817,0.000567314361658,0.0358309746741,-0.999329595113
2325124000000,,51360,,2325,116303395,"""map""",,,0.118346378207,-0.263684302568,0.00406786287203,,-0.00751456708689,0.000571078602066,0.0358074145858,-0.99933031161
2325160000000,,51361,,2325,156303395,"""map""",,,0.118473485112,-0.263745337725,0.00423577148467,,-0.0074804755548,0.000552707844471,0.0358055601245,-0.999330648785
2325192000000,,51362,,2325,188303395,"""map""",,,0.11768489331,-0.262946844101,0.0043777115643,,-0.0075042934633,0.000530469784254,0.0357623174579,-0.999332081777
2325224000000,,51363,,2325,220302522,"""map""",,,0.117171660066,-0.262454628944,0.00463842600584,,-0.00753413244423,0.000513601495954,0.0357806091902,-0.999331154547
2325260000000,,51364,,2325,260302522,"""map""",,,0.116853073239,-0.262238681316,0.00505131995305,,-0.00748806989007,0.000538516210324,0.03572725128,-0.999333430477
2325292000000,,51365,,2325,284302522,"""map""",,,0.11686000973,-0.262315362692,0.00529731949791,,-0.00744830236287,0.000564169153088,0.0357182318544,-0.999334020532
2325324000000,,51366,,2325,316301650,"""map""",,,0.117047198117,-0.262609779835,0.00565564632416,,-0.00744302906772,0.000574653510928,0.0357425084391,-0.999333177595
2325364000000,,51367,,2325,356301650,"""map""",,,0.117182202637,-0.262951880693,0.00592087069526,,-0.00745416373826,0.000591867205822,0.0357284735386,-0.999333556917
2325392000000,,51368,,2325,388301650,"""map""",,,0.116329044104,-0.262454092503,0.0058932970278,,-0.00743761319769,0.000815748630934,0.035714438638,-0.999334020532
2325424000000,,51369,,2325,420300777,"""map""",,,0.11576718837,-0.262204140425,0.00594113953412,,-0.00746446666709,0.000829531308941,0.035722783714,-0.99933351477
2325460000000,,51370,,2325,452300777,"""map""",,,0.115458935499,-0.262179255486,0.00612012436613,,-0.00742463888306,0.000841144412067,0.0356830813827,-0.999335284938
2325492000000,,51371,,2325,484300777,"""map""",,,0.115382917225,-0.262408316135,0.00642559956759,,-0.00743931685233,0.000827426600694,0.0356556859312,-0.999336127875
2325524000000,,51372,,2325,516299904,"""map""",,,0.115499936044,-0.262856990099,0.00680093513802,,-0.0074673336406,0.000823935985529,0.0356479309111,-0.999336212169
2325560000000,,51373,,2325,556299904,"""map""",,,0.115541547537,-0.263286709785,0.00753414258361,,-0.00755096451258,0.000797212578667,0.0357033540169,-0.999333641211
2325592000000,,51374,,2325,588299904,"""map""",,,0.114632584155,-0.262660950422,0.00833690911531,,-0.00750484993341,0.000796895818759,0.0356433369046,-0.999336085728
2325624000000,,51375,,2325,620299031,"""map""",,,0.113983385265,-0.262296527624,0.00912407692522,,-0.00747682293769,0.000802960355133,0.035594530854,-0.999338024483
2325664000000,,51376,,2325,652299031,"""map""",,,0.11357087642,-0.262137889862,0.00990807730705,,-0.00743334121946,0.000793877709279,0.0355621620743,-0.99933954177
2325692000000,,51377,,2325,684299031,"""map""",,,0.11338057369,-0.262170523405,0.0107144666836,,-0.0073899085628,0.000757390062997,0.035574763982,-0.999339415329
2325724000000,,51378,,2325,716298158,"""map""",,,0.113414093852,-0.262369811535,0.0113825593144,,-0.00739275215799,0.000767648210798,0.0355779249957,-0.999339288888
2325760000000,,51379,,2325,756298158,"""map""",,,0.113362506032,-0.262512177229,0.0123186027631,,-0.00736232180409,0.000800563253124,0.0355321535182,-0.99934114335
2325792000000,,51380,,2325,788298158,"""map""",,,0.112460210919,-0.261846333742,0.0132050979882,,-0.00739661188735,0.000746666982774,0.0355132295832,-0.999341606965
2325820000000,,51381,,2325,820297285,"""map""",,,0.111832462251,-0.261421352625,0.0141574935988,,-0.0074105661162,0.00070180989434,0.0355284445955,-0.999340974762
2325860000000,,51382,,2325,852297285,"""map""",,,0.111447997391,-0.261261492968,0.0150267733261,,-0.00738864679152,0.00070955075576,0.0355603497599,-0.999340005385
2325892000000,,51383,,2325,884297285,"""map""",,,0.11125433445,-0.261348038912,0.0159731488675,,-0.0073648410661,0.000720944892837,0.0355546599353,-0.999340384707
2325924000000,,51384,,2325,916296412,"""map""",,,0.111240461469,-0.26164290309,0.0168781615794,,-0.00732635177379,0.000749418381728,0.035533038602,-0.999341354084
2325960000000,,51385,,2325,956296412,"""map""",,,0.11104093492,-0.26196244359,0.0180528908968,,-0.00726522303838,0.000710753258031,0.0355475371179,-0.999341354084
2325992000000,,51386,,2325,988296412,"""map""",,,0.109905861318,-0.261388927698,0.0185599327087,,-0.0073093919478,0.0006821556335,0.0354511051285,-0.999344472951
2326024000000,,51387,,2326,20295539,"""map""",,,0.109045520425,-0.261064648628,0.0191169846803,,-0.00728552036793,0.000692170119833,0.035431759725,-0.999345358035
2326060000000,,51388,,2326,52295539,"""map""",,,0.108402043581,-0.260961323977,0.0196704939008,,-0.00733473175265,0.00072414607769,0.0354219816562,-0.999345273741
2326092000000,,51389,,2326,84295539,"""map""",,,0.107926443219,-0.261102169752,0.0200220178813,,-0.00724759643608,0.000943803598328,0.0354093376016,-0.999346200972
2326124000000,,51390,,2326,116306666,"""map""",,,0.10768532753,-0.26145863533,0.0205042939633,,-0.00725987401061,0.000950327469496,0.0354081996367,-0.999346158825
2326160000000,,51391,,2326,156306666,"""map""",,,0.107308954,-0.261831790209,0.021139845252,,-0.00718740645587,0.000927693953301,0.0353845552547,-0.999347549671
2326192000000,,51392,,2326,188306666,"""map""",,,0.106164157391,-0.261340379715,0.0215919520706,,-0.00716968041335,0.000903915228207,0.0354029734275,-0.999347001762
2326224000000,,51393,,2326,220305793,"""map""",,,0.105279035866,-0.261132001877,0.0221093147993,,-0.00716481541579,0.000908824348242,0.035386156835,-0.999347633964
2326260000000,,51394,,2326,252305793,"""map""",,,0.104619912803,-0.261141598225,0.0226355809718,,-0.00715669029365,0.000893287307665,0.0353880112963,-0.999347718258
2326292000000,,51395,,2326,284305793,"""map""",,,0.10418048501,-0.26137009263,0.0232014339417,,-0.00720333500115,0.000909286646486,0.0353791183113,-0.999347591818
2326324000000,,51396,,2326,316304919,"""map""",,,0.103943653405,-0.261787235737,0.0237821787596,,-0.007227916492,0.000911398598723,0.0353710682632,-0.999347718258
2326360000000,,51397,,2326,356304919,"""map""",,,0.103615090251,-0.262214422226,0.0244072973728,,-0.00718480718069,0.000834786494115,0.0353746928922,-0.999347971139
2326392000000,,51398,,2326,388304919,"""map""",,,0.102740183473,-0.261774718761,0.0249097999185,,-0.00718867514186,0.00080719775977,0.0353783175211,-0.999347886846
2326424000000,,51399,,2326,420304046,"""map""",,,0.102078251541,-0.261595010757,0.025488121435,,-0.00719214007379,0.000781512219053,0.0353321245752,-0.999349488426
2326460000000,,51400,,2326,452304046,"""map""",,,0.101626127958,-0.26163226366,0.0260903704911,,-0.00721556055067,0.000766344621945,0.0353221779189,-0.999349657013
2326492000000,,51401,,2326,484304046,"""map""",,,0.101362206042,-0.261885553598,0.0265992414206,,-0.00722357734224,0.000791957722766,0.0353317031067,-0.999349235545
2326524000000,,51402,,2326,524303172,"""map""",,,0.101292744279,-0.262514740229,0.0273047219962,,-0.00718895107201,0.000798150675319,0.0353477189091,-0.99934889837
2326560000000,,51403,,2326,556303172,"""map""",,,0.101185336709,-0.262852698565,0.0280028358102,,-0.0071553238138,0.000772454927162,0.0353200284296,-0.999350204922
2326592000000,,51404,,2326,588303172,"""map""",,,0.100529327989,-0.262348800898,0.028609553352,,-0.00716869160877,0.000773970238075,0.0353281206246,-0.999349783454
2326624000000,,51405,,2326,620302298,"""map""",,,0.100083969533,-0.262107461691,0.0293626524508,,-0.00718700507299,0.000809164173671,0.035324116674,-0.999349741307
2326660000000,,51406,,2326,660302298,"""map""",,,0.0998221561313,-0.262178838253,0.0302803386003,,-0.00714996918841,0.000821359759414,0.0352635095058,-0.999352185824
2326692000000,,51407,,2326,684302298,"""map""",,,0.0998227894306,-0.262387961149,0.03095995076,,-0.00714630899803,0.000886929718985,0.0352370834318,-0.999353070908
2326724000000,,51408,,2326,716301424,"""map""",,,0.099989540875,-0.262830376625,0.0318269990385,,-0.00713579632278,0.000872540192213,0.0352273475098,-0.999353534523
2326760000000,,51409,,2326,756301424,"""map""",,,0.100100152194,-0.263318538666,0.0327613763511,,-0.00717370346175,0.000930048249917,0.0352224584753,-0.999353365936
2326792000000,,51410,,2326,788301424,"""map""",,,0.0994842574,-0.262849271297,0.0332277938724,,-0.00719163892142,0.00122317958131,0.0351948522896,-0.999353913845
2326824000000,,51411,,2326,820312550,"""map""",,,0.0991298854351,-0.262647032738,0.0339088886976,,-0.00719130899062,0.00120221086563,0.0351770241726,-0.999354546048
2326860000000,,51412,,2326,860312550,"""map""",,,0.098974198103,-0.262703329325,0.0348431579769,,-0.00721942686548,0.00119593427793,0.0351155740675,-0.999356484803
2326892000000,,51413,,2326,884312550,"""map""",,,0.0990111157298,-0.262872874737,0.0353942587972,,-0.00721855758673,0.00127539952662,0.0351403564144,-0.999355557572
2326924000000,,51414,,2326,916311676,"""map""",,,0.0991946905851,-0.263272017241,0.0360468104482,,-0.00722769061124,0.00124917200377,0.0351392184495,-0.999355515425
2326960000000,,51415,,2326,956311676,"""map""",,,0.0993711575866,-0.26370832324,0.0367315001786,,-0.00726504391427,0.00122099156718,0.0351661502857,-0.99935437746
2326992000000,,51416,,2326,988311676,"""map""",,,0.0989285334945,-0.263186424971,0.0369646884501,,-0.00724398859999,0.00122972880644,0.0352084235748,-0.999352986614
2327024000000,,51417,,2327,20310802,"""map""",,,0.0986986160278,-0.262939363718,0.037378218025,,-0.00722221711856,0.00117437550637,0.0351926185066,-0.999353787404
2327060000000,,51418,,2327,52310802,"""map""",,,0.0986545830965,-0.262923508883,0.0379157625139,,-0.00721643476851,0.00114348878113,0.0352433633122,-0.99935210153
2327092000000,,51419,,2327,84310802,"""map""",,,0.0987867861986,-0.263143330812,0.0385288260877,,-0.0072747571165,0.00111327772255,0.0352252823142,-0.999352312265
2327124000000,,51420,,2327,116309927,"""map""",,,0.0990719869733,-0.263584405184,0.0390025153756,,-0.00725060071613,0.00107530110714,0.0352157571264,-0.999352902321
2327160000000,,51421,,2327,156309927,"""map""",,,0.0993384420872,-0.264023214579,0.0391797944903,,-0.00729329415658,0.00102712199093,0.0351756333266,-0.999354082432
2327192000000,,51422,,2327,188309927,"""map""",,,0.0988957583904,-0.263375878334,0.0384409055114,,-0.00725780025396,0.00105820496244,0.0351959059608,-0.999353534523
2327224000000,,51423,,2327,220309053,"""map""",,,0.0986702889204,-0.263009667397,0.0380836874247,,-0.00723789870966,0.00106283683523,0.0351856642766,-0.999353998139
2327260000000,,51424,,2327,252309053,"""map""",,,0.0986333489418,-0.262898206711,0.0379369221628,,-0.00720256252845,0.00101610190714,0.0351723458725,-0.999354841076
2327292000000,,51425,,2327,284309053,"""map""",,,0.098764821887,-0.263031303883,0.037850882858,,-0.00722317332518,0.000947554997117,0.0351639165028,-0.999355093957
2327324000000,,51426,,2327,316308178,"""map""",,,0.0990304723382,-0.263367831707,0.0378522276878,,-0.00718799980447,0.000993107179279,0.0351712500544,-0.999355009663
2327360000000,,51427,,2327,356308178,"""map""",,,0.0995691791177,-0.264053076506,0.037932254374,,-0.007157272447,0.00091632846291,0.035125183549,-0.999356906271
2327392000000,,51428,,2327,388308178,"""map""",,,0.100175090134,-0.264773488045,0.0382201746106,,-0.0071626056697,0.000905951447826,0.0351081562222,-0.999357496327
2327424000000,,51429,,2327,420319303,"""map""",,,0.100890316069,-0.265659451485,0.0385474972427,,-0.00714295042104,0.000920392999613,0.0350835424627,-0.999358423558
2327460000000,,51430,,2327,452319303,"""map""",,,0.10171148181,-0.266714513302,0.0389754809439,,-0.00717469193705,0.00088798964637,0.0351330228628,-0.999356569096
2327492000000,,51431,,2327,484319303,"""map""",,,0.101512409747,-0.266337484121,0.0390065163374,,-0.00715883253894,0.000833166145353,0.0351248042273,-0.999356948418
2327524000000,,51432,,2327,516318428,"""map""",,,0.101501494646,-0.266240268946,0.0389860197902,,-0.00712565078609,0.000870061430685,0.0351360574359,-0.999356821977
2327560000000,,51433,,2327,556318428,"""map""",,,0.101722799242,-0.266494631767,0.0390221700072,,-0.00714993296846,0.000891264917481,0.0350653771709,-0.99935905576
2327592000000,,51434,,2327,588318428,"""map""",,,0.102099202573,-0.26693880558,0.0392535887659,,-0.00717247560551,0.000878708449347,0.0350453574179,-0.999359603669
2327624000000,,51435,,2327,620317552,"""map""",,,0.102608457208,-0.26755720377,0.0391702316701,,-0.00716920659057,0.000894126951912,0.0350327555102,-0.999360067285
2327660000000,,51436,,2327,652317552,"""map""",,,0.103228583932,-0.268389940262,0.0391045771539,,-0.00718936825996,0.000851628769907,0.0350045171217,-0.999360994515
2327692000000,,51437,,2327,684317552,"""map""",,,0.103001147509,-0.267987430096,0.0381699614227,,-0.00720511669332,0.000833141449934,0.0349679336572,-0.999362174627
2327724000000,,51438,,2327,716316677,"""map""",,,0.102959625423,-0.267847627401,0.0374250821769,,-0.00719204952392,0.000841692321098,0.0349253231933,-0.999363734061
2327760000000,,51439,,2327,756316677,"""map""",,,0.103135988116,-0.268011629581,0.0368392318487,,-0.00717406072214,0.000854982407813,0.0349695773843,-0.999362301068
2327792000000,,51440,,2327,788316677,"""map""",,,0.103453092277,-0.268390119076,0.0366249531507,,-0.00714069095483,0.000816187550848,0.0349481667852,-0.999363312592
2327824000000,,51441,,2327,820315801,"""map""",,,0.103874303401,-0.268965929747,0.036429759115,,-0.00712874100619,0.000855625147253,0.0349517492674,-0.999363270445
2327860000000,,51442,,2327,852315801,"""map""",,,0.104454256594,-0.269750535488,0.036360964179,,-0.00708801529673,0.00109619606583,0.0349533087008,-0.999363228298
2327892000000,,51443,,2327,884315801,"""map""",,,0.103770017624,-0.2691437006,0.0358316972852,,-0.00709284572069,0.00113610122884,0.0349851295714,-0.99936200604
2327924000000,,51444,,2327,916314925,"""map""",,,0.103286214173,-0.268804222345,0.0352122634649,,-0.00710330176112,0.00111426883204,0.034937925101,-0.99936360762
2327960000000,,51445,,2327,956314925,"""map""",,,0.102947987616,-0.268696278334,0.0344378612936,,-0.00708583353877,0.00107856485372,0.0348504703904,-0.999366852927
2327992000000,,51446,,2327,988314925,"""map""",,,0.102886661887,-0.268883556128,0.0339338891208,,-0.00707749702385,0.00116635212936,0.0348812797366,-0.999365799256
2328024000000,,51447,,2328,20314048,"""map""",,,0.102965816855,-0.269292980433,0.0335148349404,,-0.0070398091802,0.00111247857879,0.0349008358744,-0.999365377788
2328060000000,,51448,,2328,52314048,"""map""",,,0.103193029761,-0.269887447357,0.0330211371183,,-0.00704933831923,0.00103425929631,0.0348804367997,-0.999366136431
2328092000000,,51449,,2328,84314048,"""map""",,,0.102444365621,-0.269073188305,0.0324621349573,,-0.0070264904468,0.00101017994565,0.0348194503099,-0.999368454508
2328124000000,,51450,,2328,116313172,"""map""",,,0.101885870099,-0.268575161695,0.0320535041392,,-0.00703758922666,0.00100559417097,0.0347932349701,-0.999369297445
2328160000000,,51451,,2328,156313172,"""map""",,,0.101430684328,-0.268326461315,0.0316865853965,,-0.00701781148873,0.00103942590725,0.0347532797577,-0.999370814731
2328192000000,,51452,,2328,188313172,"""map""",,,0.101244829595,-0.268382698298,0.031481526792,,-0.00705180358059,0.00107869886753,0.0347601075472,-0.999370224675
2328224000000,,51453,,2328,220312295,"""map""",,,0.101216487586,-0.268674761057,0.031231097877,,-0.00705771928591,0.00109754180153,0.0347301832847,-0.9993712362
2328260000000,,51454,,2328,252312295,"""map""",,,0.101357579231,-0.269167095423,0.030979629606,,-0.00705406469316,0.00108153752363,0.0347374746895,-0.999371025465
2328292000000,,51455,,2328,284312295,"""map""",,,0.100701056421,-0.268513083458,0.0305594597012,,-0.00700910388397,0.0010619115802,0.0346912817436,-0.99937296422
2328324000000,,51456,,2328,316311418,"""map""",,,0.100213110447,-0.268150418997,0.0301574673504,,-0.0069979280544,0.00105695702059,0.034648039077,-0.999374565801
2328360000000,,51457,,2328,356311418,"""map""",,,0.0998318642378,-0.268066942692,0.0298620741814,,-0.00696885496073,0.00108819409151,0.034724535607,-0.999372079137
2328392000000,,51458,,2328,388311418,"""map""",,,0.0996846705675,-0.268246680498,0.0298402030021,,-0.00694357014435,0.00103560009293,0.0347384862139,-0.999371784109
2328424000000,,51459,,2328,420310541,"""map""",,,0.0997129753232,-0.268636345863,0.0300068501383,,-0.00691202158188,0.00100980655091,0.0346935576734,-0.99937363857
2328460000000,,51460,,2328,452310541,"""map""",,,0.099869273603,-0.269246578217,0.0302821304649,,-0.00688417272245,0.00100938870442,0.0346960021906,-0.999373722864
2328492000000,,51461,,2328,484310541,"""map""",,,0.0991223677993,-0.268542230129,0.03024475649,,-0.00687238181231,0.00101243677768,0.0347160219436,-0.999373090661
2328524000000,,51462,,2328,516309664,"""map""",,,0.0985061824322,-0.268097192049,0.0301768071949,,-0.00685484213788,0.00122737055856,0.0346960021906,-0.99937363857
2328564000000,,51463,,2328,556309664,"""map""",,,0.0980251953006,-0.267859190702,0.0303977560252,,-0.00679352011966,0.0011343725495,0.034627724296,-0.999376588849
2328592000000,,51464,,2328,588309664,"""map""",,,0.0978402718902,-0.267919182777,0.0306970737875,,-0.00679936799489,0.00114888818755,0.0346326976241,-0.999376335968
2328620000000,,51465,,2328,620308786,"""map""",,,0.0978103801608,-0.268210351467,0.0312101691961,,-0.0067789547615,0.00113333369554,0.0345998230823,-0.999377684667
2328660000000,,51466,,2328,652308786,"""map""",,,0.097922757268,-0.268716454506,0.0318845175207,,-0.00674129260109,0.001116887205,0.0345789182454,-0.999378611898
2328692000000,,51467,,2328,684308786,"""map""",,,0.0972904264927,-0.267947405577,0.0325168147683,,-0.00675309997485,0.00105182136125,0.0345095445328,-0.999381056415
2328724000000,,51468,,2328,716319909,"""map""",,,0.096822835505,-0.267532527447,0.0331516489387,,-0.00673877399762,0.00104526159941,0.0344956782196,-0.999381604324
2328760000000,,51469,,2328,756319909,"""map""",,,0.0964633449912,-0.267445504665,0.0338343083858,,-0.00674211512318,0.00110454937364,0.034464700286,-0.999382573702
2328792000000,,51470,,2328,788319909,"""map""",,,0.0963845551014,-0.267618149519,0.0344440415502,,-0.00672480198807,0.00104884836207,0.0344228484654,-0.999384217429
2328824000000,,51471,,2328,820319031,"""map""",,,0.0964498221874,-0.26796874404,0.0350334830582,,-0.00674079704635,0.00100588854036,0.0343601761017,-0.999386282625
2328860000000,,51472,,2328,852319031,"""map""",,,0.0966453775764,-0.268509656191,0.0355460457504,,-0.00671957018122,0.000991925421159,0.0343341714961,-0.999387336296
2328892000000,,51473,,2328,884319031,"""map""",,,0.0958598852158,-0.268149495125,0.0352609120309,,-0.00669747601298,0.000930338338773,0.0343536433401,-0.999386914827
2328924000000,,51474,,2328,916318153,"""map""",,,0.0952604860067,-0.268035948277,0.0351254120469,,-0.00672571999911,0.000932971528988,0.0343343822304,-0.999387378443
2328960000000,,51475,,2328,956318153,"""map""",,,0.0947420150042,-0.26822707057,0.0349342413247,,-0.00674334265014,0.000924646867863,0.0343422215442,-0.999386956974
2328992000000,,51476,,2328,988318153,"""map""",,,0.0944942981005,-0.26860332489,0.0348314791918,,-0.00674582997275,0.000816325515923,0.0343774563095,-0.999385861156
2329024000000,,51477,,2329,20317275,"""map""",,,0.0943979024887,-0.269178509712,0.0347419828176,,-0.00673844834736,0.000771020287951,0.0343415893415,-0.999387167708
2329060000000,,51478,,2329,52317275,"""map""",,,0.0944546163082,-0.269916206598,0.0347565561533,,-0.00673711841673,0.000768664344974,0.0343758125825,-0.999385987597
2329092000000,,51479,,2329,84317275,"""map""",,,0.0936941877007,-0.269048422575,0.0344802215695,,-0.00672060574246,0.000777047945833,0.0343865600288,-0.999385692569
2329124000000,,51480,,2329,116316396,"""map""",,,0.0931277647614,-0.26848128438,0.034229375422,,-0.00671621950677,0.000755660725119,0.0344048517611,-0.999385186807
2329160000000,,51481,,2329,156316396,"""map""",,,0.0926311090589,-0.26815366745,0.0340145453811,,-0.00664546844828,0.000771001848705,0.0344408030229,-0.999384386016
2329192000000,,51482,,2329,188316396,"""map""",,,0.0924051254988,-0.268172621727,0.033800650388,,-0.0066376001585,0.000832823372937,0.0344542900144,-0.999383964548
2329224000000,,51483,,2329,220315518,"""map""",,,0.0923244059086,-0.268397152424,0.0334611572325,,-0.00661355373506,0.000803318932618,0.0344401286733,-0.999384638897
2329260000000,,51484,,2329,252315518,"""map""",,,0.0923245102167,-0.268808722496,0.0332862399518,,-0.00661405455816,0.000780854991634,0.0343928820561,-0.999386282625
2329292000000,,51485,,2329,284315518,"""map""",,,0.0916371420026,-0.267933607101,0.0325612910092,,-0.00655483691891,0.000761989667113,0.0343913226227,-0.999386661946
2329324000000,,51486,,2329,316314639,"""map""",,,0.0911515504122,-0.267313748598,0.0319729410112,,-0.0065200621469,0.000764568198134,0.0343958744823,-0.99938674624
2329360000000,,51487,,2329,356314639,"""map""",,,0.0907528027892,-0.266879707575,0.0313827432692,,-0.0065891740881,0.000749183610611,0.0343851691828,-0.999386661946
2329392000000,,51488,,2329,388314639,"""map""",,,0.090618506074,-0.266777634621,0.031069971621,,-0.0065609452485,0.000722138175485,0.0343823031971,-0.999386999121
2329424000000,,51489,,2329,420313760,"""map""",,,0.0906371846795,-0.266886562109,0.0306924041361,,-0.00651013853971,0.000734522104958,0.0343680575623,-0.999387757764
2329460000000,,51490,,2329,452313760,"""map""",,,0.0907623395324,-0.267197132111,0.0303602833301,,-0.00647544476866,0.000783527365247,0.0343565936195,-0.99938834782
2329492000000,,51491,,2329,484313760,"""map""",,,0.0901057645679,-0.266298770905,0.0298520382494,,-0.00647312043582,0.000792593218216,0.0342793805931,-0.999391045218
2329524000000,,51492,,2329,516312880,"""map""",,,0.0896785408258,-0.265673905611,0.029584588483,,-0.00643038847052,0.000793506948721,0.0342271606478,-0.999393110414
2329560000000,,51493,,2329,556312880,"""map""",,,0.0894057676196,-0.265226095915,0.0294332168996,,-0.00644036015146,0.000781284362653,0.0341880483723,-0.999394374819
2329592000000,,51494,,2329,588312880,"""map""",,,0.089359164238,-0.265148937702,0.0292945541441,,-0.0064000769839,0.00080356028918,0.0342180147816,-0.999393574029
2329624000000,,51495,,2329,620312001,"""map""",,,0.08939794451,-0.265243887901,0.0290552508086,,-0.00638586246533,0.00107114585593,0.0341869947011,-0.99939450126
2329660000000,,51496,,2329,652312001,"""map""",,,0.0895336940885,-0.265506416559,0.028904709965,,-0.00638607583376,0.0010298465542,0.0341771744854,-0.999394880582
2329692000000,,51497,,2329,684312001,"""map""",,,0.088941462338,-0.264580368996,0.0285258591175,,-0.0063931227539,0.000987093350832,0.0341790710936,-0.999394838435
2329724000000,,51498,,2329,716311121,"""map""",,,0.088527739048,-0.263921320438,0.0282744430006,,-0.00637729480129,0.000980933160868,0.0341841287154,-0.999394754141
2329760000000,,51499,,2329,756311121,"""map""",,,0.0881991386414,-0.26346218586,0.0280822906643,,-0.00636972664316,0.000986814127961,0.0341247438059,-0.999396819337
2329792000000,,51500,,2329,788311121,"""map""",,,0.0880930870771,-0.263331919909,0.0279006343335,,-0.00631925776771,0.000972622493814,0.0341231000788,-0.999397198658
2329824000000,,51501,,2329,820322241,"""map""",,,0.0881160870194,-0.263417959213,0.0277800522745,,-0.00631665322418,0.000964206953546,0.034106620661,-0.999397746567
2329860000000,,51502,,2329,852322241,"""map""",,,0.0882467776537,-0.263727277517,0.0276354458183,,-0.00625981638796,0.000905981576237,0.0341080958007,-0.999398125889
2329892000000,,51503,,2329,884322241,"""map""",,,0.0878095030785,-0.262903064489,0.0271942615509,,-0.00626118550199,0.000914162674659,0.0340909841802,-0.999398715945
2329924000000,,51504,,2329,916321361,"""map""",,,0.0875314101577,-0.262335121632,0.0267310049385,,-0.00630026336846,0.000932842454265,0.0341038811159,-0.999398041595
2329960000000,,51505,,2329,956321361,"""map""",,,0.087384738028,-0.261973202229,0.0261815860868,,-0.00632200900202,0.00085820384291,0.0341687451157,-0.999395723519
2329992000000,,51506,,2329,988321361,"""map""",,,0.0874148532748,-0.261920958757,0.0258782412857,,-0.00629643459069,0.000798994600106,0.0341711053392,-0.999395892106
2330024000000,,51507,,2330,20332481,"""map""",,,0.0875883698463,-0.26207062602,0.0257503110915,,-0.00625844463975,0.000796457722025,0.0341732126817,-0.999396060693
2330060000000,,51508,,2330,52332481,"""map""",,,0.0879114717245,-0.262389242649,0.0257135946304,,-0.00625573983282,0.000774505305488,0.0341133220099,-0.999398125889
2330092000000,,51509,,2330,84332481,"""map""",,,0.0875051319599,-0.261578112841,0.0251528061926,,-0.00626636841191,0.000699802979952,0.0341273569105,-0.999397662274
2330124000000,,51510,,2330,116331600,"""map""",,,0.0872328057885,-0.261020839214,0.0247484669089,,-0.00626406021341,0.000701870151163,0.0340783401257,-0.999399306001
2330160000000,,51511,,2330,156331600,"""map""",,,0.087134487927,-0.260640949011,0.0244051031768,,-0.00618652647576,0.000643217543104,0.0340720180984,-0.999400064644
2330192000000,,51512,,2330,188331600,"""map""",,,0.0872077345848,-0.260564804077,0.0240734145045,,-0.00614490580431,0.000619606746859,0.034097727676,-0.999399474588
2330224000000,,51513,,2330,220330719,"""map""",,,0.0873908400536,-0.260680288076,0.0235062725842,,-0.00613353125893,0.00061432670163,0.0341042182907,-0.999399306001
2330260000000,,51514,,2330,252330719,"""map""",,,0.0876588448882,-0.260960042477,0.0229980312288,,-0.00614420708859,0.000588542543873,0.0341258396239,-0.999398505211
2330292000000,,51515,,2330,284330719,"""map""",,,0.0870878919959,-0.260135769844,0.0225041229278,,-0.00612826520778,0.000772090587413,0.0341966884763,-0.99939610284
2330324000000,,51516,,2330,316329838,"""map""",,,0.0867182388902,-0.259595036507,0.0221384391189,,-0.00612221993383,0.000784195129378,0.0342176776068,-0.999395344197
2330360000000,,51517,,2330,356329838,"""map""",,,0.0864575281739,-0.259234428406,0.0218385122716,,-0.00609086399563,0.000763827664835,0.0341633081723,-0.999397451539
2330392000000,,51518,,2330,388329838,"""map""",,,0.0864096432924,-0.259193658829,0.0216634385288,,-0.00607287502921,0.000750601621573,0.0341307286584,-0.999398673798
2330424000000,,51519,,2330,420328956,"""map""",,,0.0865300446749,-0.259333401918,0.0215565934777,,-0.006052527321,0.00074058713524,0.0341491468312,-0.999398125889
2330460000000,,51520,,2330,452328956,"""map""",,,0.0868142619729,-0.259638637304,0.021470816806,,-0.00608199373037,0.000726564911668,0.0341211191769,-0.999399010973
2330492000000,,51521,,2330,484328956,"""map""",,,0.0866124257445,-0.258829504251,0.021783394739,,-0.00608566560992,0.000708536103309,0.0340875702855,-0.999400106791
2330520000000,,51522,,2330,516328074,"""map""",,,0.0865710303187,-0.258242607117,0.0220339596272,,-0.00609054328445,0.000708238605827,0.0340603012745,-0.999400991875
2330560000000,,51523,,2330,556328074,"""map""",,,0.0867205560207,-0.25776180625,0.0223243255168,,-0.00606224612085,0.000636130781017,0.0340203039153,-0.999402551308
2330592000000,,51524,,2330,588328074,"""map""",,,0.0869647264481,-0.257549345493,0.0225074756891,,-0.00609040400229,0.000639342008675,0.0340277639075,-0.999402171986
2330624000000,,51525,,2330,620327192,"""map""",,,0.0873595997691,-0.257524847984,0.0227988399565,,-0.00610617960061,0.000636675397326,0.0340088821193,-0.999402677749
2330660000000,,51526,,2330,652327192,"""map""",,,0.087876342237,-0.257634997368,0.0232072826475,,-0.00607883732655,0.000639204372872,0.0340001577217,-0.999403141364
2330692000000,,51527,,2330,692327192,"""map""",,,0.0876420140266,-0.256521612406,0.0233103595674,,-0.00604044138292,0.000603040565853,0.0340343809627,-0.999402298427
2330724000000,,51528,,2330,716326310,"""map""",,,0.0876080691814,-0.25601798296,0.02328434214,,-0.00599579091282,0.000597354527935,0.0339973338828,-0.999403773567
2330760000000,,51529,,2330,756326310,"""map""",,,0.0877268984914,-0.255412995815,0.0233135446906,,-0.0059948857434,0.000559101323827,0.0340232963415,-0.99940293063
2330792000000,,51530,,2330,788326310,"""map""",,,0.0879636630416,-0.255150586367,0.0231966227293,,-0.00603505860475,0.000561693025738,0.0339543019505,-0.999404995825
2330824000000,,51531,,2330,820325427,"""map""",,,0.0883120074868,-0.25504103303,0.023045072332,,-0.00603437684654,0.000575385647784,0.0339243776881,-0.99940600735
2330860000000,,51532,,2330,852325427,"""map""",,,0.0887938290834,-0.255065530539,0.0228579752147,,-0.00602456124065,0.000510098203807,0.0339024613268,-0.99940693458
2330892000000,,51533,,2330,884325427,"""map""",,,0.0886910930276,-0.254034012556,0.022713156417,,-0.0059837434996,0.000477833968092,0.033805607869,-0.999410390622
2330924000000,,51534,,2330,916324544,"""map""",,,0.0887442752719,-0.253239840269,0.0226030535996,,-0.00596837652814,0.000473036965259,0.0337974735272,-0.999410769944
2330960000000,,51535,,2330,956324544,"""map""",,,0.0890421718359,-0.252556622028,0.0223785340786,,-0.00596364686148,0.000477922706964,0.03377416632,-0.999411570734
2330992000000,,51536,,2330,988324544,"""map""",,,0.0894132703543,-0.252231538296,0.0221650917083,,-0.00596182137611,0.000491960900241,0.0337110303409,-0.99941376237
2331024000000,,51537,,2331,20323660,"""map""",,,0.0898741707206,-0.252086907625,0.0220334623009,,-0.00595631660256,0.000472626692031,0.0336922749933,-0.999414394573
2331060000000,,51538,,2331,52323660,"""map""",,,0.0904617235065,-0.25210916996,0.0218956563622,,-0.00600817665329,0.000486644141156,0.033679293764,-0.99941456316
2331092000000,,51539,,2331,84323660,"""map""",,,0.0901841595769,-0.251282155514,0.0216586533934,,-0.00599218620482,0.000488037292062,0.0336434267959,-0.999415869712
2331124000000,,51540,,2331,116322777,"""map""",,,0.0900607034564,-0.25067999959,0.0215209741145,,-0.00601581033659,0.000484737160897,0.0336237442176,-0.999416333328
2331160000000,,51541,,2331,156322777,"""map""",,,0.0901452824473,-0.250221252441,0.0213431045413,,-0.00605250509512,0.000485108579999,0.0336508024944,-0.999415237509
2331192000000,,51542,,2331,188322777,"""map""",,,0.0903671607375,-0.250071793795,0.0213396660984,,-0.00607001678141,0.000490611048636,0.0336215104347,-0.999416122593
2331224000000,,51543,,2331,220321893,"""map""",,,0.0906965136528,-0.250066936016,0.0210932902992,,-0.00608308230445,0.000501695669794,0.0336112687505,-0.999416333328
2331264000000,,51544,,2331,252321893,"""map""",,,0.0911482945085,-0.250194817781,0.0207514483482,,-0.00606872438781,0.00048305326259,0.0336204989103,-0.999416206887
2331292000000,,51545,,2331,284321893,"""map""",,,0.0911599844694,-0.249476179481,0.0205723419785,,-0.00604022817913,0.000471045032759,0.0336046938421,-0.99941683909
2331324000000,,51546,,2331,316333008,"""map""",,,0.091287471354,-0.248970985413,0.0202144384384,,-0.00602266331538,0.000522563792799,0.033653963508,-0.999415279656
2331360000000,,51547,,2331,356333008,"""map""",,,0.0916105881333,-0.248613893986,0.0195519458503,,-0.005983906654,0.000493576639191,0.0336412351598,-0.999415954006
2331392000000,,51548,,2331,388333008,"""map""",,,0.0920194089413,-0.248518973589,0.0189107675105,,-0.00598298041115,0.000522780783214,0.033648948033,-0.999415658978
2331424000000,,51549,,2331,420332124,"""map""",,,0.0925341770053,-0.2485717237,0.0182743258774,,-0.00594183422102,0.000529381045546,0.0336302769791,-0.999416628355
2331460000000,,51550,,2331,452332124,"""map""",,,0.0931645780802,-0.24877846241,0.0176148917526,,-0.00595017024203,0.000604722982434,0.0336271159655,-0.999416586209
2331492000000,,51551,,2331,484332124,"""map""",,,0.0930215865374,-0.24810230732,0.0167744979262,,-0.00596746971235,0.000624082050699,0.0336579674586,-0.999415406097
2331524000000,,51552,,2331,516331239,"""map""",,,0.0930618345737,-0.247605472803,0.0159612428397,,-0.00591985513343,0.000620062130387,0.0336443540265,-0.999416206887
2331560000000,,51553,,2331,556331239,"""map""",,,0.0933582857251,-0.247202262282,0.0149792190641,,-0.00593407343863,0.000666341016413,0.0336228591338,-0.999416796943
2331592000000,,51554,,2331,588331239,"""map""",,,0.0937544181943,-0.247067555785,0.0142901912332,,-0.00594301383887,0.00074192019396,0.0336187287427,-0.999416796943
2331624000000,,51555,,2331,620330354,"""map""",,,0.0942677780986,-0.247094452381,0.0136603098363,,-0.00592815575768,0.000800223114886,0.0336516454313,-0.999415743272
2331660000000,,51556,,2331,652330354,"""map""",,,0.0948635712266,-0.24727229774,0.012887718156,,-0.00593132862512,0.00101184178271,0.0336486951519,-0.999415658978
2331692000000,,51557,,2331,684330354,"""map""",,,0.0944666042924,-0.246740624309,0.0125278159976,,-0.0058971667934,0.000977516302689,0.0335743481112,-0.999418356376
2331724000000,,51558,,2331,716329468,"""map""",,,0.0943016037345,-0.246390148997,0.0122601892799,,-0.00591731825534,0.000972406655851,0.0335836625647,-0.999417977055
2331760000000,,51559,,2331,756329468,"""map""",,,0.0943642780185,-0.246140271425,0.011846344918,,-0.0059674530841,0.000969906326991,0.0336319628531,-0.9994160383
2331792000000,,51560,,2331,788329468,"""map""",,,0.0945957228541,-0.246087178588,0.0115220611915,,-0.00590719313353,0.000949574259215,0.0337077428867,-0.999413846663
2331824000000,,51561,,2331,820328583,"""map""",,,0.0949714556336,-0.246181979775,0.0111582223326,,-0.00590912118722,0.000968567506006,0.0337252338288,-0.999413214461
2331860000000,,51562,,2331,852328583,"""map""",,,0.0954590588808,-0.246385321021,0.0106690721586,,-0.00594204396744,0.000937649993809,0.033739648051,-0.999412540111
2331892000000,,51563,,2331,884328583,"""map""",,,0.0951048657298,-0.245754495263,0.00971926562488,,-0.00598262874838,0.000908485691728,0.0337659898314,-0.99941148644
2331924000000,,51564,,2331,916327696,"""map""",,,0.0949448943138,-0.24529992044,0.00878858752549,,-0.00599670184452,0.00090928055495,0.0337342532544,-0.999412455817
2331960000000,,51565,,2331,956327696,"""map""",,,0.0949906855822,-0.244946107268,0.00772853754461,,-0.00595713863075,0.000930966919506,0.0337254445631,-0.999413003727
2331992000000,,51566,,2331,988327696,"""map""",,,0.0952204838395,-0.244816124439,0.00700641097501,,-0.00597725337883,0.00091772276627,0.033719080389,-0.999413130167
2332020000000,,51567,,2332,20326810,"""map""",,,0.0956057533622,-0.244792118669,0.00630818400532,,-0.00599403655026,0.000890039366151,0.0337163408438,-0.99941308802
2332060000000,,51568,,2332,52326810,"""map""",,,0.0961266011,-0.24489800632,0.00564106693491,,-0.00599071221758,0.000924638636056,0.0336948038042,-0.999413804517
2332092000000,,51569,,2332,84326810,"""map""",,,0.0957188531756,-0.244254842401,0.00511227594689,,-0.00598014455386,0.000870270518566,0.0336861637003,-0.999414183838
2332124000000,,51570,,2332,116325923,"""map""",,,0.0954725518823,-0.243799716234,0.00458673108369,,-0.00593196510838,0.000852057482381,0.0337117889842,-0.999413678076
2332160000000,,51571,,2332,156325923,"""map""",,,0.0953609645367,-0.243425309658,0.0039766067639,,-0.00599171369914,0.000817978298002,0.0336437218238,-0.999415658978
2332192000000,,51572,,2332,188325923,"""map""",,,0.0954492688179,-0.243291571736,0.00355518911965,,-0.00596639233354,0.000809686234829,0.0336862058471,-0.999414394573
2332224000000,,51573,,2332,220325036,"""map""",,,0.0957012847066,-0.243280097842,0.00311344582587,,-0.00599594320124,0.000861330612234,0.0336623507309,-0.999414900335
2332260000000,,51574,,2332,252325036,"""map""",,,0.0960909426212,-0.243398964405,0.0027434322983,,-0.00600747843148,0.000885830278929,0.0336712437159,-0.999414521013
2332292000000,,51575,,2332,284325036,"""map""",,,0.0955880880356,-0.242745906115,0.00258148717694,,-0.00599560569718,0.000890030969709,0.0336646266607,-0.999414816041
2332324000000,,51576,,2332,316324149,"""map""",,,0.0953008458018,-0.242306664586,0.00247147888876,,-0.00603668224623,0.000919445024794,0.0337001986008,-0.999413383048
2332360000000,,51577,,2332,356324149,"""map""",,,0.0952230244875,-0.241966664791,0.00242853863165,,-0.00601167089045,0.000927311174306,0.033667029031,-0.999414605307
2332392000000,,51578,,2332,388324149,"""map""",,,0.0953613221645,-0.241842582822,0.00248090201057,,-0.00608800805273,0.000961874224263,0.0336301505386,-0.999415406097
2332424000000,,51579,,2332,420323262,"""map""",,,0.0956447571516,-0.241867601871,0.00248365034349,,-0.00608376752001,0.000940575742422,0.0336379898524,-0.999415153216
2332460000000,,51580,,2332,452323262,"""map""",,,0.0960285067558,-0.242046773434,0.00238259742036,,-0.00604931214208,0.000974902704173,0.0336702321915,-0.999414268132
2332492000000,,51581,,2332,484323262,"""map""",,,0.0965368077159,-0.24235971272,0.00231941835955,,-0.00606562050291,0.000965818576593,0.0336710751285,-0.999414183838
2332524000000,,51582,,2332,516322374,"""map""",,,0.097165197134,-0.242770552635,0.00230000866577,,-0.00608285477732,0.000955523385664,0.0336204567634,-0.999415743272
2332560000000,,51583,,2332,556322374,"""map""",,,0.0978173464537,-0.243182614446,0.00239677657373,,-0.00612329105647,0.000909859580208,0.0335814709286,-0.999416796943
2332592000000,,51584,,2332,588322374,"""map""",,,0.0975482836366,-0.242829054594,0.00257468875498,,-0.00612604722987,0.000885935152142,0.0335945364516,-0.999416375474
2332624000000,,51585,,2332,620333486,"""map""",,,0.0974712818861,-0.242652386427,0.00275758095086,,-0.00610947627442,0.00089349326746,0.0335927241371,-0.999416586209
