rosbagTimestamp,header,seq,stamp,secs,nsecs,frame_id,pose,position,x,y,z,orientation,x,y,z,w
1012472000000,,23256,,1012,468233029,"""map""",,,-0.00601866887882,0.0412442274392,0.0540084540844,,0.00204691635713,0.00199816858774,0.0466157210054,-0.998908843125
1012504000000,,23257,,1012,500232406,"""map""",,,-0.00633803848177,0.0408644005656,0.0545289888978,,0.00201865544949,0.00208434585068,0.0466279014446,-0.998908210922
1012540000000,,23258,,1012,532232406,"""map""",,,-0.00615957984701,0.0410861112177,0.0551991984248,,0.00197298313955,0.00217813175164,0.0465927509729,-0.998909643915
1012572000000,,23259,,1012,564232406,"""map""",,,-0.00553381862119,0.041820935905,0.0559049881995,,0.00192754850758,0.00222339746694,0.046616943264,-0.998908548097
1012604000000,,23260,,1012,596231783,"""map""",,,-0.00622647441924,0.0412285067141,0.0562565289438,,0.00192916308379,0.00230358465534,0.0465406153213,-0.998911877698
1012640000000,,23261,,1012,636231783,"""map""",,,-0.00831422396004,0.0391962602735,0.0561189651489,,0.00202038008237,0.00196667260336,0.0465334503571,-0.998912804928
1012672000000,,23262,,1012,668231783,"""map""",,,-0.00931835360825,0.0383151806891,0.0561287999153,,0.00197806581178,0.00197202277071,0.0465117868769,-0.998913816453
1012704000000,,23263,,1012,700243159,"""map""",,,-0.00977799110115,0.0380273126066,0.0562249049544,,0.00198834985248,0.00198166957956,0.0465436498944,-0.99891238346
1012740000000,,23264,,1012,732243159,"""map""",,,-0.00972786173224,0.0382542684674,0.0562923662364,,0.0019453548025,0.00200280029333,0.0465178138763,-0.998913605719
1012772000000,,23265,,1012,764243159,"""map""",,,-0.00921286456287,0.0389608182013,0.0564059242606,,0.00194717008815,0.00202336235006,0.0465229979386,-0.998913310691
1012804000000,,23266,,1012,796242535,"""map""",,,-0.00829898752272,0.0401311218739,0.0566184669733,,0.00196156845382,0.00212865049744,0.0464980048575,-0.998914280068
1012840000000,,23267,,1012,836242535,"""map""",,,-0.00662562577054,0.0422557033598,0.0570514127612,,0.00195081188044,0.00221127765498,0.0465309215461,-0.998912552047
1012872000000,,23268,,1012,868242535,"""map""",,,-0.0049186735414,0.0444200821221,0.0574938729405,,0.0019626871666,0.00224319096879,0.0465761029678,-0.998910360411
1012904000000,,23269,,1012,900241911,"""map""",,,-0.00474979542196,0.0449331365526,0.0574884265661,,0.0019391493556,0.00230599910588,0.0465957012523,-0.99890930674
1012940000000,,23270,,1012,932241911,"""map""",,,-0.00589229818434,0.0440186299384,0.0571526885033,,0.00184100856669,0.00237788965216,0.0465945211406,-0.998909391034
1012972000000,,23271,,1012,964241911,"""map""",,,-0.00644434988499,0.043713953346,0.0569191761315,,0.00183084222411,0.00240803557657,0.0466272692418,-0.9989078316
1013004000000,,23272,,1012,996241286,"""map""",,,-0.00648377975449,0.0439390726388,0.0567606054246,,0.0017620636299,0.00250614277971,0.0465684743882,-0.998910402558
1013040000000,,23273,,1013,36241286,"""map""",,,-0.00589866936207,0.0448937118053,0.0567473992705,,0.00174602844156,0.00253505251318,0.0465830993446,-0.998909686062
1013072000000,,23274,,1013,68241286,"""map""",,,-0.00499145081267,0.0461709760129,0.0568696558475,,0.00177595764309,0.00254905218161,0.0465439449223,-0.998911498376
1013104000000,,23275,,1013,100240661,"""map""",,,-0.00549180759117,0.0458495616913,0.0568063594401,,0.00179705745028,0.0025507248435,0.0465517842362,-0.998911076908
1013140000000,,23276,,1013,132240661,"""map""",,,-0.00712428567931,0.0441789329052,0.0564612336457,,0.00181659660989,0.00232967007663,0.0465200055124,-0.998913015663
1013172000000,,23277,,1013,164240661,"""map""",,,-0.008225556463,0.043147392571,0.0562864243984,,0.00177520107835,0.00234501885579,0.0465472745234,-0.998911793404
1013204000000,,23278,,1013,196240036,"""map""",,,-0.00881558097899,0.0427221357822,0.0560809969902,,0.00171907882466,0.00240861921164,0.0465272969172,-0.998912636341
1013240000000,,23279,,1013,236240036,"""map""",,,-0.00890872813761,0.042969353497,0.055906932801,,0.00167327680718,0.00248811203688,0.0464856558308,-0.998914490802
1013272000000,,23280,,1013,268240036,"""map""",,,-0.00853471644223,0.0437271147966,0.0556544214487,,0.00159956345086,0.00250038714187,0.0465231243792,-0.998912847075
1013304000000,,23281,,1013,300239410,"""map""",,,-0.00943969842046,0.0430841073394,0.0551122538745,,0.00153902901071,0.00255351756612,0.0465566732706,-0.998911245495
1013336000000,,23282,,1013,332239410,"""map""",,,-0.0114296413958,0.0412582270801,0.0544108301401,,0.00152430835953,0.00261050887218,0.0465271283298,-0.998912467754
1013372000000,,23283,,1013,364239410,"""map""",,,-0.0128519870341,0.0400785766542,0.053856600076,,0.0014484408218,0.0026911946508,0.046516507324,-0.998912889222
1013404000000,,23284,,1013,396238785,"""map""",,,-0.0137600200251,0.0394896380603,0.0533959753811,,0.00135099426228,0.0027890781546,0.0465267490081,-0.998912257019
1013440000000,,23285,,1013,436238785,"""map""",,,-0.0142126744613,0.0394741147757,0.0529772602022,,0.00128748826351,0.00280899542166,0.0464891961661,-0.998914069334
1013472000000,,23286,,1013,468238785,"""map""",,,-0.0140809677541,0.0399859920144,0.0527518875897,,0.0012595232533,0.00284237333845,0.0464371026614,-0.998916429557
1013504000000,,23287,,1013,500238159,"""map""",,,-0.0151573112234,0.039107747376,0.0526254214346,,0.00118159916339,0.00288094313783,0.0464455741779,-0.998916050236
1013540000000,,23288,,1013,532238159,"""map""",,,-0.017300920561,0.0370682477951,0.0525736957788,,0.00111092984674,0.00291503985596,0.0464433403949,-0.998916092383
1013572000000,,23289,,1013,564238159,"""map""",,,-0.0188665874302,0.0356677956879,0.052513372153,,0.00106320372684,0.00293051244149,0.0464533713449,-0.998915670914
1013604000000,,23290,,1013,596237532,"""map""",,,-0.0199183542281,0.0348273478448,0.0525621958077,,0.0010233207074,0.00299359137414,0.0464127417829,-0.998917356788
1013640000000,,23291,,1013,636237532,"""map""",,,-0.0205608569086,0.0344878733158,0.0526045225561,,0.00108720841502,0.00270211891637,0.0463905725406,-0.998919126956
1013672000000,,23292,,1013,668237532,"""map""",,,-0.0206512399018,0.0347280688584,0.0528233796358,,0.00109946590395,0.00272572082226,0.0463953772813,-0.998918874075
1013704000000,,23293,,1013,700236906,"""map""",,,-0.0218666419387,0.0336899869144,0.0528793111444,,0.00112972092037,0.00277222147315,0.0463702999065,-0.998919843452
1013740000000,,23294,,1013,732236906,"""map""",,,-0.0240809619427,0.0315431915224,0.0528203547001,,0.00106569146104,0.00279573529872,0.0462821286994,-0.998923973843
1013772000000,,23295,,1013,764236906,"""map""",,,-0.0257970225066,0.0300193633884,0.0528702996671,,0.00100569739782,0.00283218738359,0.0462906845096,-0.998923510228
1013804000000,,23296,,1013,796236279,"""map""",,,-0.0270243678242,0.0290878694504,0.0528538189828,,0.000970236257789,0.00290202158349,0.0462548596884,-0.998925027514
1013840000000,,23297,,1013,836236279,"""map""",,,-0.0279573537409,0.0285830851644,0.0529401898384,,0.000955618298391,0.00300704650858,0.0462428478366,-0.998925322542
1013872000000,,23298,,1013,868236279,"""map""",,,-0.0282510556281,0.0286651849747,0.0529926307499,,0.000939061913234,0.00301117451251,0.0462195406294,-0.998926376214
1013904000000,,23299,,1013,900235652,"""map""",,,-0.0296605248004,0.0275614820421,0.0528442785144,,0.000893374811766,0.00301233741979,0.0461733476834,-0.99892856785
1013940000000,,23300,,1013,932235652,"""map""",,,-0.0320114158094,0.0254254657775,0.0525807142258,,0.000823058968881,0.003112660831,0.046149534714,-0.99892936864
1013972000000,,23301,,1013,964235652,"""map""",,,-0.0338335931301,0.0238940417767,0.0524708665907,,0.000773610425819,0.0031691462514,0.0461342775548,-0.998929958696
1014004000000,,23302,,1013,996235024,"""map""",,,-0.0352248363197,0.0228760056198,0.0524637512863,,0.00078458655177,0.00323292381746,0.0460932686712,-0.998931602423
1014040000000,,23303,,1014,36235024,"""map""",,,-0.0363651961088,0.0222519841045,0.0524042546749,,0.000762751438473,0.00328701114803,0.0460375505375,-0.99893404694
1014072000000,,23304,,1014,68235024,"""map""",,,-0.0368591472507,0.022251162678,0.0523271821439,,0.000739708225276,0.00329569249333,0.0460068254849,-0.998935437786
1014104000000,,23305,,1014,100234397,"""map""",,,-0.0383358485997,0.0211332868785,0.0519813224673,,0.000746939373246,0.00332405501747,0.0460311020697,-0.998934257674
1014140000000,,23306,,1014,132234397,"""map""",,,-0.0406774319708,0.0190797410905,0.0513282902539,,0.000761172248743,0.00315011028153,0.0460462749351,-0.998934089087
1014172000000,,23307,,1014,164234397,"""map""",,,-0.0425997897983,0.0176011864096,0.0509227477014,,0.000809484143983,0.00315499956292,0.046003453737,-0.998936027842
1014204000000,,23308,,1014,196233769,"""map""",,,-0.0440758951008,0.0166506618261,0.0504952333868,,0.000775810705339,0.003204367105,0.0460040016461,-0.998935817108
1014240000000,,23309,,1014,236233769,"""map""",,,-0.0453578457236,0.0160984117538,0.0499249435961,,0.000781343960931,0.00319779861744,0.0459937599619,-0.998936365017
1014272000000,,23310,,1014,268233769,"""map""",,,-0.0459670871496,0.0161332692951,0.049401756376,,0.000758482917608,0.00316340711833,0.045968134678,-0.998937629422
1014304000000,,23311,,1014,300233141,"""map""",,,-0.0474543087184,0.0151225067675,0.0488583147526,,0.00072624601149,0.00317411060686,0.0459463447573,-0.9989385988
1014340000000,,23312,,1014,332233141,"""map""",,,-0.04968990013,0.0132216215134,0.0483054891229,,0.000674606326214,0.00323221258939,0.0459257770952,-0.998939441737
1014372000000,,23313,,1014,364233141,"""map""",,,-0.0514572411776,0.011903510429,0.0478729605675,,0.000688709715397,0.0032726778445,0.0459109835514,-0.998939989646
1014404000000,,23314,,1014,396232513,"""map""",,,-0.0528232902288,0.0111155090854,0.0475373677909,,0.00072754466126,0.00329975200863,0.0459020905664,-0.998940284674
1014440000000,,23315,,1014,436232513,"""map""",,,-0.05399896577,0.0107795596123,0.0471987314522,,0.000704792030827,0.00336126261753,0.0459165890823,-0.998939441737
1014472000000,,23316,,1014,468232513,"""map""",,,-0.0545695982873,0.0109734507278,0.0469224154949,,0.000691671025414,0.00338326244928,0.0459305396891,-0.99893872524
1014504000000,,23317,,1014,500231884,"""map""",,,-0.0558625720441,0.00998139940202,0.0465199276805,,0.00069307479535,0.00341714711607,0.0459288538152,-0.998938640947
1014540000000,,23318,,1014,532231884,"""map""",,,-0.0577828586102,0.00796129833907,0.0460588037968,,0.000616193016766,0.00347025181592,0.0459312983324,-0.998938388065
1014572000000,,23319,,1014,564231884,"""map""",,,-0.0593093037605,0.00647138943896,0.0457098484039,,0.000590178203795,0.00351851654291,0.0459448274708,-0.998937671569
1014604000000,,23320,,1014,596231256,"""map""",,,-0.0604624561965,0.00544361583889,0.0453062430024,,0.000484365577158,0.00357389486768,0.0459457547014,-0.998937502982
1014640000000,,23321,,1014,636231256,"""map""",,,-0.0614309534431,0.00470977649093,0.0449105650187,,0.000440890938283,0.00365529969458,0.0458811857295,-0.998940116086
1014672000000,,23322,,1014,668231256,"""map""",,,-0.061889320612,0.00454489327967,0.044760838151,,0.000408897858268,0.00366588909027,0.0458489855372,-0.998941549079
1014704000000,,23323,,1014,700230627,"""map""",,,-0.0630157440901,0.00334440497681,0.0445651859045,,0.000370128025994,0.00368710212596,0.0458624725288,-0.998940959023
1014740000000,,23324,,1014,732230627,"""map""",,,-0.0647078454494,0.00123085640371,0.0442870110273,,0.000400921402552,0.00376673151687,0.0458161952891,-0.998942729191
1014772000000,,23325,,1014,764230627,"""map""",,,-0.065978705883,-0.000375662581064,0.0439628176391,,0.000405516396856,0.00356821327494,0.0457594234842,-0.998946058792
1014804000000,,23326,,1014,796229998,"""map""",,,-0.0668998584151,-0.0015093224356,0.0437912009656,,0.000365985287131,0.00357947965438,0.0456669954454,-0.99895023133
1014840000000,,23327,,1014,836229998,"""map""",,,-0.0676403567195,-0.00235889991745,0.0435472093523,,0.000410762856315,0.00360740638669,0.0456071047736,-0.998952886581
1014872000000,,23328,,1014,868229998,"""map""",,,-0.0679114386439,-0.00261895684525,0.0433706343174,,0.00042068119515,0.0036533425003,0.0456102236404,-0.998952549407
1014904000000,,23329,,1014,900229369,"""map""",,,-0.0689215809107,-0.00379089033231,0.0432292819023,,0.000366344687796,0.00367288085731,0.0455862842305,-0.998953645225
1014940000000,,23330,,1014,932229369,"""map""",,,-0.070543140173,-0.00574595946819,0.043251760304,,0.00026380222855,0.00376297583754,0.0455760003994,-0.998953813812
1014972000000,,23331,,1014,964229369,"""map""",,,-0.071792460978,-0.00725632347167,0.0433429852128,,0.000274724024578,0.00375037574083,0.0455796250284,-0.998953645225
1015004000000,,23332,,1014,996228739,"""map""",,,-0.0727225020528,-0.00832267478108,0.0435435585678,,0.00028054424094,0.00379910079043,0.0455873800485,-0.998953139462
1015040000000,,23333,,1015,36228739,"""map""",,,-0.0734776183963,-0.00910974200815,0.0439358875155,,0.000256296138248,0.00385443285245,0.0456071890673,-0.998952043644
1015072000000,,23334,,1015,68228739,"""map""",,,-0.0738076418638,-0.00933932792395,0.0442240051925,,0.000237609608561,0.00388967025198,0.0455685825541,-0.998953645225
1015104000000,,23335,,1015,100228110,"""map""",,,-0.0747530013323,-0.0104311211035,0.0443981476128,,0.000184507378252,0.00393620580573,0.0455383632637,-0.998954867483
1015140000000,,23336,,1015,132228110,"""map""",,,-0.076223962009,-0.0122730713338,0.0444137081504,,0.000209081954384,0.00401424991537,0.0455607853871,-0.998953518784
1015172000000,,23337,,1015,164228110,"""map""",,,-0.0773539096117,-0.013671964407,0.0445033088326,,0.000198722226093,0.00407690960212,0.0455661801837,-0.998953013022
1015204000000,,23338,,1015,196227480,"""map""",,,-0.0782131850719,-0.0146898590028,0.0446707978845,,0.000203523344828,0.00414482793141,0.0455784870635,-0.998952170085
1015240000000,,23339,,1015,236227480,"""map""",,,-0.078930541873,-0.0154924727976,0.0447438843548,,0.000171863488335,0.00408463070721,0.0455359608934,-0.998954319574
1015272000000,,23340,,1015,268227480,"""map""",,,-0.0792991444468,-0.0157831571996,0.0447901971638,,0.000167130199684,0.00400706996923,0.0455480570389,-0.998954193134
1015304000000,,23341,,1015,300226850,"""map""",,,-0.0804471671581,-0.016880819574,0.0443512871861,,0.000115104525008,0.00402409795458,0.0454909480591,-0.998956679798
1015340000000,,23342,,1015,332226850,"""map""",,,-0.0822705477476,-0.0186874270439,0.043388299644,,0.000134115717137,0.00410521680852,0.045450655672,-0.998958197084
1015372000000,,23343,,1015,364226850,"""map""",,,-0.0837698504329,-0.0200996752828,0.0424117222428,,0.000129778049099,0.00411814453112,0.0453896691822,-0.998960852336
1015404000000,,23344,,1015,396226220,"""map""",,,-0.0849677100778,-0.0211799666286,0.0414428673685,,7.42051244318e-05,0.00417558805147,0.0453319279997,-0.998963296853
1015440000000,,23345,,1015,436226220,"""map""",,,-0.0861345082521,-0.0220819357783,0.0404355898499,,6.65212271127e-05,0.00422874576415,0.0453023409121,-0.998964392671
1015472000000,,23346,,1015,468226220,"""map""",,,-0.0868476703763,-0.0225079860538,0.0398476272821,,4.1441711979e-05,0.00425569949696,0.0452827847743,-0.998965151314
1015504000000,,23347,,1015,500237590,"""map""",,,-0.0880909264088,-0.0237032733858,0.039158243686,,2.69308483818e-05,0.00426696867521,0.0452752404885,-0.998965446342
1015540000000,,23348,,1015,532237590,"""map""",,,-0.0897865444422,-0.0255159288645,0.0383806787431,,8.60684744714e-06,0.00438189424075,0.0452362125067,-0.998966710748
1015572000000,,23349,,1015,564237590,"""map""",,,-0.0911883711815,-0.0269347485155,0.0375692136586,,-7.96213237371e-06,0.00443236871384,0.045187996512,-0.998968733796
1015604000000,,23350,,1015,596236960,"""map""",,,-0.0923177301884,-0.0280283279717,0.0367700569332,,-4.74655832296e-05,0.0044463512601,0.0452129474464,-0.998967469391
1015640000000,,23351,,1015,636236960,"""map""",,,-0.0934030860662,-0.0289770178497,0.0358130224049,,-6.59710131761e-05,0.00451427321138,0.0451557120261,-0.998969829614
1015672000000,,23352,,1015,668236960,"""map""",,,-0.0940381139517,-0.02944230102,0.0350521169603,,-9.93272803222e-05,0.00453487380068,0.0451215730788,-0.998971262607
1015704000000,,23353,,1015,700236329,"""map""",,,-0.095228292048,-0.0306306798011,0.0341878831387,,-5.67273531898e-05,0.00454574801687,0.0450731463499,-0.998973412097
1015740000000,,23354,,1015,732236329,"""map""",,,-0.0968785732985,-0.0324285030365,0.0333808735013,,-7.95735792608e-05,0.00457936177492,0.0449491081747,-0.998978764746
1015772000000,,23355,,1015,764236329,"""map""",,,-0.0982539057732,-0.0338771604002,0.0324778854847,,-0.000119701824219,0.0043929000012,0.0449383607283,-0.998980155592
1015804000000,,23356,,1015,796235698,"""map""",,,-0.0993939265609,-0.0349821150303,0.031766526401,,-0.000113802253244,0.00446456380238,0.0448935586283,-0.998981799319
1015840000000,,23357,,1015,836235698,"""map""",,,-0.10049547255,-0.0359577611089,0.030995266512,,-0.000150502444765,0.00452458766474,0.0448872366011,-0.998981799319
1015872000000,,23358,,1015,868235698,"""map""",,,-0.101150207222,-0.0364506877959,0.0304907876998,,-0.000135669552904,0.00455127040648,0.0449617943761,-0.998978385425
1015904000000,,23359,,1015,900235067,"""map""",,,-0.102253004909,-0.0375783182681,0.0299962256104,,-0.000148236722386,0.00456492285731,0.0449569053417,-0.998978469718
1015940000000,,23360,,1015,932235067,"""map""",,,-0.103683978319,-0.0392397418618,0.0295181125402,,-0.000171105997514,0.00460234925879,0.0449703923332,-0.998977711075
1015972000000,,23361,,1015,964235067,"""map""",,,-0.10487049073,-0.0405676737428,0.0288860592991,,-0.000178529769753,0.004648812208,0.0449595184463,-0.99897804825
1016004000000,,23362,,1015,996234436,"""map""",,,-0.105864264071,-0.0415854044259,0.0282553993165,,-0.000241361665896,0.0046549210315,0.0449405102176,-0.99897884904
1016040000000,,23363,,1016,36234436,"""map""",,,-0.106843188405,-0.0424953252077,0.0274666976184,,-0.000239101376508,0.00471730017829,0.0449295098901,-0.998979059774
1016072000000,,23364,,1016,68234436,"""map""",,,-0.107415549457,-0.0429444089532,0.0268060248345,,-0.000232935918188,0.00477973530137,0.0449588862435,-0.998977416047
1016104000000,,23365,,1016,100245804,"""map""",,,-0.108328051865,-0.0438829772174,0.025919796899,,-0.000271681878224,0.00481070253367,0.0448793972872,-0.998980787795
1016140000000,,23366,,1016,132245804,"""map""",,,-0.109555162489,-0.0452510528266,0.024921618402,,-0.000341533694185,0.00483387342219,0.0448191272939,-0.9989834009
1016172000000,,23367,,1016,164245804,"""map""",,,-0.110611014068,-0.0463658422232,0.0240101460367,,-0.000328239162294,0.00482673265945,0.0448402007181,-0.998982473669
1016204000000,,23368,,1016,196245172,"""map""",,,-0.111517637968,-0.0472263172269,0.023168861866,,-0.000335469487084,0.00482539861291,0.0448706307428,-0.99898112497
1016240000000,,23369,,1016,236245172,"""map""",,,-0.112434878945,-0.0479945428669,0.0221966933459,,-0.000361512617469,0.00488751878708,0.0448744239591,-0.998980619208
1016272000000,,23370,,1016,268245172,"""map""",,,-0.112990997732,-0.0484130866826,0.0214515887201,,-0.000395349622106,0.0048758161219,0.0448368711171,-0.998982347228
1016304000000,,23371,,1016,300256540,"""map""",,,-0.113965332508,-0.0493799857795,0.0212477706373,,-0.000423976716504,0.00468953544792,0.044861105555,-0.998982136494
1016340000000,,23372,,1016,332256540,"""map""",,,-0.115280687809,-0.0508274808526,0.0213742945343,,-0.00043802725749,0.00468981121344,0.0448325299917,-0.9989834009
1016372000000,,23373,,1016,364256540,"""map""",,,-0.116410665214,-0.0520179085433,0.0215515512973,,-0.000451654354357,0.00469920485693,0.0448047973654,-0.998984665305
1016404000000,,23374,,1016,396255908,"""map""",,,-0.117371380329,-0.0529494173825,0.0216423533857,,-0.000427474575658,0.00477398258582,0.0447685932225,-0.998985971857
1016440000000,,23375,,1016,436255908,"""map""",,,-0.11835090816,-0.0538274608552,0.0218064337969,,-0.000506512428961,0.00480041392819,0.0446910851681,-0.998989217165
1016472000000,,23376,,1016,468255908,"""map""",,,-0.118980437517,-0.0543487854302,0.0218638461083,,-0.000478275028276,0.00478499674271,0.0446993459504,-0.998988964284
1016504000000,,23377,,1016,500255275,"""map""",,,-0.119932919741,-0.0553804636002,0.0219306889921,,-0.00053393224664,0.00476912713716,0.0446847631408,-0.998989638633
1016540000000,,23378,,1016,532255275,"""map""",,,-0.12113289535,-0.0568987429142,0.0220079384744,,-0.000593875108027,0.0048416748697,0.0446299722378,-0.998991661682
1016572000000,,23379,,1016,564255275,"""map""",,,-0.122150987387,-0.0581841394305,0.0220524519682,,-0.000596073658866,0.00487150298464,0.0446239873853,-0.998991830269
1016604000000,,23380,,1016,596266641,"""map""",,,-0.122988663614,-0.0592859573662,0.0221174452454,,-0.000677944570643,0.0049081012664,0.0446209528122,-0.998991745976
1016640000000,,23381,,1016,636266641,"""map""",,,-0.123879693449,-0.0604058764875,0.0221295841038,,-0.000695496922051,0.00495133257308,0.0446184661481,-0.998991619535
1016672000000,,23382,,1016,668266641,"""map""",,,-0.124504134059,-0.061138510704,0.0220965649933,,-0.000665918395475,0.00497656734008,0.0446228915672,-0.998991324507
1016704000000,,23383,,1016,700266007,"""map""",,,-0.125394120812,-0.062276892364,0.0220614895225,,-0.000671429260554,0.00501375452527,0.0446539537946,-0.998989765074
1016740000000,,23384,,1016,732266007,"""map""",,,-0.126527264714,-0.063778989017,0.0220314171165,,-0.000740295400023,0.0050091004266,0.0446478003547,-0.998989933661
1016772000000,,23385,,1016,764266007,"""map""",,,-0.127529323101,-0.0650697574019,0.0220255088061,,-0.000714924314308,0.00506373262043,0.0446444286068,-0.998989849367
1016804000000,,23386,,1016,796265373,"""map""",,,-0.12838062644,-0.0661979541183,0.0218177940696,,-0.000711713086651,0.00488975322859,0.0446094045757,-0.998992336032
1016840000000,,23387,,1016,836265373,"""map""",,,-0.129354789853,-0.0673570036888,0.0216183178127,,-0.000716625828681,0.00495148519077,0.0445587019169,-0.998994316933
1016872000000,,23388,,1016,868265373,"""map""",,,-0.130032494664,-0.0681060925126,0.0213599074632,,-0.000698898139798,0.00496414406258,0.0445791852853,-0.998993305409
1016904000000,,23389,,1016,900264738,"""map""",,,-0.130974054337,-0.0691920816898,0.0210915189236,,-0.000752425131316,0.00493249918797,0.0445340881574,-0.998995412751
1016940000000,,23390,,1016,932264738,"""map""",,,-0.132165044546,-0.0705808699131,0.0208292528987,,-0.000790331117831,0.00498522341373,0.0444655573817,-0.998998194443
1016972000000,,23391,,1016,964264738,"""map""",,,-0.133253410459,-0.0717705860734,0.0204980131239,,-0.000789254068288,0.00496853885935,0.0444339893922,-0.998999669583
1017004000000,,23392,,1016,996264103,"""map""",,,-0.134251654148,-0.0727774575353,0.0201240107417,,-0.000800192492566,0.00503492212139,0.0443468718563,-0.999003252065
1017040000000,,23393,,1017,36264103,"""map""",,,-0.135417297482,-0.0738450139761,0.0195479877293,,-0.000828616755256,0.00509307670516,0.0443035870429,-0.999004811499
1017072000000,,23394,,1017,68264103,"""map""",,,-0.13628192246,-0.074551679194,0.0189618524164,,-0.000856383296618,0.00513447116657,0.044281586388,-0.999005570142
1017104000000,,23395,,1017,100263467,"""map""",,,-0.137315183878,-0.0756036266685,0.0183793772012,,-0.00087279027449,0.00520174280515,0.044216764535,-0.999008014659
1017140000000,,23396,,1017,132263467,"""map""",,,-0.138458356261,-0.0769244208932,0.0178244877607,,-0.00091514670479,0.00522271662455,0.0442489647272,-0.999006497373
1017172000000,,23397,,1017,164263467,"""map""",,,-0.13949406147,-0.0780639946461,0.017264040187,,-0.000909356946112,0.00525897657907,0.0442342133302,-0.999006918841
1017204000000,,23398,,1017,196262831,"""map""",,,-0.140401467681,-0.0790511965752,0.0166462864727,,-0.000927981737251,0.00526865734797,0.0441607935201,-0.999010122002
1017240000000,,23399,,1017,236262831,"""map""",,,-0.141395002604,-0.0801608934999,0.015696072951,,-0.000914561917267,0.00527799155783,0.0441321336632,-0.999011386407
1017272000000,,23400,,1017,268262831,"""map""",,,-0.142089903355,-0.0809555575252,0.0149416327477,,-0.000950815944885,0.00531666409015,0.0441272024819,-0.99901134426
1017304000000,,23401,,1017,300262194,"""map""",,,-0.142807662487,-0.0820738598704,0.0141975991428,,-0.000965831747483,0.00539614415609,0.0440575758881,-0.999013957365
1017340000000,,23402,,1017,332262194,"""map""",,,-0.143576920033,-0.0834230408072,0.0136639801785,,-0.000943341464719,0.00525043229335,0.0440646565587,-0.999014463127
1017372000000,,23403,,1017,364262194,"""map""",,,-0.144285157323,-0.0845893546939,0.0130572961643,,-0.00094092098438,0.00527568714596,0.0440192644028,-0.999016359735
1017404000000,,23404,,1017,396261557,"""map""",,,-0.144993528724,-0.0856198295951,0.01245449204,,-0.00100195011493,0.00529380782128,0.0440290424717,-0.999015769679
1017440000000,,23405,,1017,436261557,"""map""",,,-0.145818784833,-0.0867678448558,0.0116789191961,,-0.00100228942999,0.00529132823657,0.0440337629187,-0.999015516798
1017472000000,,23406,,1017,468261557,"""map""",,,-0.146436780691,-0.0876072645187,0.0110051110387,,-0.00100613055547,0.00531168730467,0.044033678625,-0.999015432505
1017504000000,,23407,,1017,500260919,"""map""",,,-0.147136881948,-0.0888399481773,0.0103938011453,,-0.00101475139699,0.00527395945444,0.0440299275555,-0.999015811826
1017540000000,,23408,,1017,532260919,"""map""",,,-0.147881805897,-0.0904018953443,0.00994249712676,,-0.00096076869267,0.00528376633462,0.044029801115,-0.999015853973
1017572000000,,23409,,1017,564260919,"""map""",,,-0.148563235998,-0.0918330252171,0.00951577629894,,-0.000975172378148,0.00533052233614,0.0440156397739,-0.999016191148
1017604000000,,23410,,1017,596260281,"""map""",,,-0.149209350348,-0.0931474640965,0.00908843427896,,-0.000996068653931,0.00540201063521,0.0439824280572,-0.999017202672
1017640000000,,23411,,1017,636260281,"""map""",,,-0.149997100234,-0.0946430489421,0.00850578490645,,-0.00101343200306,0.0054072946317,0.0439996239714,-0.999016444029
1017672000000,,23412,,1017,668260281,"""map""",,,-0.15062174201,-0.095757715404,0.00805732421577,,-0.00102907589249,0.00539413213799,0.0440457326237,-0.99901442098
1017704000000,,23413,,1017,700259643,"""map""",,,-0.151440709829,-0.0969177857041,0.00784281548113,,-0.00104887783193,0.00538632361112,0.0440793658088,-0.999012987987
1017740000000,,23414,,1017,732259643,"""map""",,,-0.152400359511,-0.0980793237686,0.00775335496292,,-0.00106688441442,0.00544643621235,0.0440796186899,-0.999012650813
1017772000000,,23415,,1017,764259643,"""map""",,,-0.153335362673,-0.0991693586111,0.0075048264116,,-0.00104595158941,0.00547771147885,0.0440678175723,-0.999012987987
1017804000000,,23416,,1017,796259004,"""map""",,,-0.154251858592,-0.10017542541,0.00720118265599,,-0.00102260700979,0.00549795694803,0.0440661316984,-0.999012987987
1017840000000,,23417,,1017,836259004,"""map""",,,-0.155367925763,-0.101403474808,0.00657595787197,,-0.00105966462634,0.00530661947541,0.0440795343962,-0.999013409456
1017872000000,,23418,,1017,868259004,"""map""",,,-0.156290709972,-0.102372281253,0.0060240724124,,-0.00106706666661,0.00534284074044,0.0440719058166,-0.999013535896
1017904000000,,23419,,1017,900258364,"""map""",,,-0.15716150403,-0.103428438306,0.00562266632915,,-0.0010793768391,0.00534953682099,0.0440536983781,-0.99901429454
1017940000000,,23420,,1017,932258364,"""map""",,,-0.157987907529,-0.104583382607,0.00542658241466,,-0.00108949570473,0.00536895433508,0.0439727764289,-0.999017750581
1017972000000,,23421,,1017,964258364,"""map""",,,-0.15882140398,-0.105698086321,0.00523707969114,,-0.00110334176765,0.00540257286758,0.0439593737311,-0.99901817205
1018004000000,,23422,,1017,996257725,"""map""",,,-0.159685179591,-0.106762640178,0.00501219416037,,-0.00105831773818,0.00540416720383,0.0439206829242,-0.999019857924
1018040000000,,23423,,1018,36257725,"""map""",,,-0.160776048899,-0.108008749783,0.00462401285768,,-0.00105959679626,0.00546862998545,0.0438683365383,-0.999021796679
1018072000000,,23424,,1018,68257725,"""map""",,,-0.161653354764,-0.108990058303,0.00424186373129,,-0.00105376736027,0.00545764941433,0.0438686737131,-0.999021880972
1018104000000,,23425,,1018,100257084,"""map""",,,-0.162546083331,-0.109974741936,0.00382760725915,,-0.00106265491231,0.00549691924652,0.0438454929464,-0.999022639616
1018140000000,,23426,,1018,132257084,"""map""",,,-0.163437947631,-0.110977500677,0.00339038996026,,-0.00107102320201,0.00555260758111,0.0438313737522,-0.999023018937
1018172000000,,23427,,1018,164257084,"""map""",,,-0.16433121264,-0.111994728446,0.00293649057858,,-0.0010933500011,0.00556072595317,0.0438500448061,-0.99902204956
1018204000000,,23428,,1018,196256444,"""map""",,,-0.165145277977,-0.113011017442,0.0025646223221,,-0.00110386992035,0.00561313457147,0.0438427112544,-0.999022133853
1018240000000,,23429,,1018,236256444,"""map""",,,-0.166058585048,-0.114304468036,0.00227204547264,,-0.0010770513538,0.00565666041218,0.0438199519562,-0.999022892497
1018272000000,,23430,,1018,268256444,"""map""",,,-0.166774258018,-0.115324981511,0.00200211722404,,-0.00112598746692,0.00567969399417,0.0438221857392,-0.999022597469
1018304000000,,23431,,1018,300255803,"""map""",,,-0.167522460222,-0.116363279521,0.00165995617863,,-0.00115116856254,0.00572074140262,0.0437776786672,-0.999024283343
1018340000000,,23432,,1018,332255803,"""map""",,,-0.168278470635,-0.117387920618,0.00103296770249,,-0.00121945090231,0.00551119994881,0.0437270603021,-0.999027612944
1018372000000,,23433,,1018,364255803,"""map""",,,-0.169098094106,-0.118368715048,0.00026683305623,,-0.00121495584213,0.00554219813271,0.0437205275406,-0.999027739384
1018404000000,,23434,,1018,396255162,"""map""",,,-0.169901117682,-0.119333088398,-0.000266838353127,,-0.00120792571487,0.00559159901361,0.0438019552519,-0.999023861874
1018440000000,,23435,,1018,436255162,"""map""",,,-0.170877069235,-0.120550364256,-0.000577082973905,,-0.00118761126316,0.00565602343501,0.0437781422825,-0.999024578371
1018472000000,,23436,,1018,468255162,"""map""",,,-0.171709463,-0.121545486152,-0.000866346003022,,-0.00120541386148,0.00566307167224,0.0437597241097,-0.999025379161
1018504000000,,23437,,1018,500254520,"""map""",,,-0.172580868006,-0.122582219541,-0.00107813766226,,-0.00118585113833,0.00560738778283,0.0437921771831,-0.999024283343
1018540000000,,23438,,1018,532254520,"""map""",,,-0.173534527421,-0.123641036451,-0.0012715451885,,-0.00125681309569,0.0056088222574,0.043778015842,-0.999024789105
1018572000000,,23439,,1018,572254520,"""map""",,,-0.174791172147,-0.124969229102,-0.00153447117191,,-0.00126611783568,0.00566252178758,0.0437417695522,-0.99902605351
1018604000000,,23440,,1018,596253878,"""map""",,,-0.175411999226,-0.125654637814,-0.00155601149891,,-0.0012767187559,0.00568825540204,0.0437160178278,-0.999027022888
1018640000000,,23441,,1018,636253878,"""map""",,,-0.176384374499,-0.126736313105,-0.00145906046964,,-0.00131324838439,0.00569013604052,0.0437321179239,-0.999026264245
1018672000000,,23442,,1018,668253878,"""map""",,,-0.177267551422,-0.127651780844,-0.00135604920797,,-0.00127973291411,0.00569157710054,0.0436808252093,-0.999028498028
1018704000000,,23443,,1018,700253236,"""map""",,,-0.178196027875,-0.128645300865,-0.00127388793044,,-0.00126531984438,0.00571568723816,0.0436815838526,-0.999028413734
1018740000000,,23444,,1018,732253236,"""map""",,,-0.179162696004,-0.129691183567,-0.00120568915736,,-0.00125358178243,0.005742745021,0.0436323563335,-0.999030352489
1018772000000,,23445,,1018,764253236,"""map""",,,-0.18018206954,-0.130772933364,-0.00115672929678,,-0.00127395994832,0.0057700132088,0.0436342950885,-0.999030099608
1018804000000,,23446,,1018,796252593,"""map""",,,-0.181049615145,-0.131772100925,-0.000963889644481,,-0.00128708589282,0.00580833802962,0.0436732387766,-0.999028160853
1018840000000,,23447,,1018,836252593,"""map""",,,-0.181935936213,-0.132986679673,-0.000657124212012,,-0.00130345451047,0.00580206028947,0.0436894231664,-0.999027486503
1018872000000,,23448,,1018,868252593,"""map""",,,-0.182725518942,-0.134004861116,-0.000326846871758,,-0.00127461009639,0.00564527088492,0.0436472763179,-0.999030268195
1018904000000,,23449,,1018,900251950,"""map""",,,-0.183607980609,-0.135059908032,-4.64475597255e-05,,-0.00124491879406,0.00563319927018,0.0436069417839,-0.999032164803
1018940000000,,23450,,1018,932251950,"""map""",,,-0.184576675296,-0.13617695868,0.000188166945009,,-0.0011918035575,0.00564287493536,0.0436307969001,-0.999031068985
1018972000000,,23451,,1018,964251950,"""map""",,,-0.185585573316,-0.137394726276,0.000309309718432,,-0.00122587072344,0.0056964817754,0.0436465598215,-0.999030057461
1019004000000,,23452,,1018,996251306,"""map""",,,-0.186307355762,-0.138412415981,0.000569278316107,,-0.00122715850723,0.00574510507988,0.0436402377942,-0.999030057461
1019040000000,,23453,,1019,36251306,"""map""",,,-0.18694318831,-0.139477863908,0.000848208728712,,-0.00125125761422,0.00580597204384,0.0436403220879,-0.999029720286
1019072000000,,23454,,1019,68251306,"""map""",,,-0.187558665872,-0.140415593982,0.000834200764075,,-0.00127774295725,0.00583379291513,0.0436285631171,-0.999030015314
1019104000000,,23455,,1019,100250663,"""map""",,,-0.188259094954,-0.141457557678,0.000687731662765,,-0.00125695797549,0.00589214720252,0.0436157083283,-0.999030226048
1019140000000,,23456,,1019,132250663,"""map""",,,-0.189093127847,-0.14261238277,0.000541346438695,,-0.001237499467,0.00590431957457,0.0435549325728,-0.999032839153
1019172000000,,23457,,1019,164250663,"""map""",,,-0.190017208457,-0.143884077668,0.00013250001939,,-0.00122973851997,0.00593258759758,0.043560706691,-0.999032375538
1019200000000,,23458,,1019,196250019,"""map""",,,-0.190805464983,-0.144895091653,-0.000350618647644,,-0.0012653213261,0.00598558693031,0.0435492427482,-0.999032544125
1019240000000,,23459,,1019,236250019,"""map""",,,-0.191688120365,-0.145875111222,-0.00103896332439,,-0.00128989721932,0.00598531462216,0.0435233645833,-0.999033724237
1019272000000,,23460,,1019,268250019,"""map""",,,-0.192497953773,-0.146798357368,-0.00159828504547,,-0.0012919191156,0.005971886735,0.0435281271771,-0.999033513503
1019304000000,,23461,,1019,300249374,"""map""",,,-0.193413183093,-0.147794187069,-0.00218456471339,,-0.00131173340275,0.00601268620145,0.04345694115,-0.999036337341
1019340000000,,23462,,1019,332249374,"""map""",,,-0.194417193532,-0.14889319241,-0.00286563509144,,-0.00135091103871,0.0059411378102,0.0434064913723,-0.999038908299
1019372000000,,23463,,1019,364249374,"""map""",,,-0.195516601205,-0.150118544698,-0.00359918829054,,-0.00136560020324,0.00582988297175,0.0434037096803,-0.999039666942
1019404000000,,23464,,1019,396248729,"""map""",,,-0.196309641004,-0.150923728943,-0.00417346460745,,-0.00135034501971,0.00581001270831,0.0433766092567,-0.999040973495
1019440000000,,23465,,1019,436248729,"""map""",,,-0.196995720267,-0.151519685984,-0.00480840541422,,-0.00135629282907,0.00581952818254,0.0433264123602,-0.999043122984
1019472000000,,23466,,1019,468248729,"""map""",,,-0.197699740529,-0.152170315385,-0.00535004679114,,-0.00134192964408,0.00585147714007,0.0433152855922,-0.999043460159
1019504000000,,23467,,1019,500248084,"""map""",,,-0.198523178697,-0.152981474996,-0.00599539279938,,-0.0013634312869,0.0059151648148,0.0433331980028,-0.9990422379
1019540000000,,23468,,1019,532248084,"""map""",,,-0.199470862746,-0.153952285647,-0.00683956407011,,-0.00135418845009,0.00598545670313,0.0433226191438,-0.999042364341
1019572000000,,23469,,1019,564248084,"""map""",,,-0.20055256784,-0.155080407858,-0.00774166360497,,-0.0013806039874,0.0059932788948,0.043332017891,-0.999041816432
1019604000000,,23470,,1019,596247439,"""map""",,,-0.201283231378,-0.15590454638,-0.00831657741219,,-0.00133893754711,0.00605506057709,0.0432972045942,-0.999042996543
1019640000000,,23471,,1019,636247439,"""map""",,,-0.201826930046,-0.156608715653,-0.00879894569516,,-0.00133743441927,0.0060408409548,0.0432510116482,-0.999045103886
1019672000000,,23472,,1019,668247439,"""map""",,,-0.202465042472,-0.157374113798,-0.00927953608334,,-0.00133120080159,0.00605656156466,0.043222393938,-0.999046241851
1019704000000,,23473,,1019,700258793,"""map""",,,-0.203247264028,-0.15833877027,-0.00969683937728,,-0.00132872434497,0.0061405440994,0.0431767489011,-0.99904771699
1019740000000,,23474,,1019,732258793,"""map""",,,-0.204155668616,-0.159485697746,-0.0102201122791,,-0.00135628558508,0.00614677804635,0.0431860633546,-0.999047253375
1019772000000,,23475,,1019,764258793,"""map""",,,-0.205146193504,-0.16077812016,-0.010814325884,,-0.00137589983934,0.00614484044377,0.0431482997784,-0.999048854955
1019804000000,,23476,,1019,796258147,"""map""",,,-0.205720961094,-0.161741614342,-0.0112150954083,,-0.00134833777605,0.00614708278782,0.043112222076,-0.999050456536
1019840000000,,23477,,1019,836258147,"""map""",,,-0.206002563238,-0.162656530738,-0.0115446830168,,-0.00136546717725,0.00615790201554,0.0430567146765,-0.999052774612
1019872000000,,23478,,1019,868258147,"""map""",,,-0.206423506141,-0.163601160049,-0.0118829086423,,-0.00135399681364,0.00614056434964,0.0430733205349,-0.999052184556
1019904000000,,23479,,1019,900257501,"""map""",,,-0.207004725933,-0.164704978466,-0.0122996987775,,-0.00134175068461,0.0061132490759,0.0430590327532,-0.999052985347
1019940000000,,23480,,1019,932257501,"""map""",,,-0.207755237818,-0.165947079659,-0.0127694671974,,-0.00134726566559,0.0060420627195,0.0430280548196,-0.999054713367
1019972000000,,23481,,1019,964257501,"""map""",,,-0.208662852645,-0.167338699102,-0.0133245922625,,-0.00132751871461,0.00607430950378,0.0430355148117,-0.999054249752
1020004000000,,23482,,1019,996256854,"""map""",,,-0.20918789506,-0.168145671487,-0.0136402817443,,-0.00134865272496,0.00606844582348,0.0429927357605,-0.999056062066
1020040000000,,23483,,1020,36256854,"""map""",,,-0.209407329559,-0.168510422111,-0.0137921795249,,-0.00134021117219,0.00605529765311,0.0429368911862,-0.999058548731
1020072000000,,23484,,1020,68256854,"""map""",,,-0.209773048759,-0.169059291482,-0.0139454314485,,-0.00134157584104,0.00607452501247,0.04294085299,-0.999058295849
1020104000000,,23485,,1020,100256207,"""map""",,,-0.210315853357,-0.16980868578,-0.0142904864624,,-0.00140053187348,0.00608433683173,0.0429565737645,-0.999057410766
1020140000000,,23486,,1020,132256207,"""map""",,,-0.211033686996,-0.170862957835,-0.0141930114478,,-0.00255924307555,0.00611086415697,0.0429169557269,-0.999056736416
1020172000000,,23487,,1020,164256207,"""map""",,,-0.211970582604,-0.172241941094,-0.0133460508659,,-0.00404405349953,0.00616445980175,0.0428260871215,-0.999055387717
1020204000000,,23488,,1020,196255560,"""map""",,,-0.21260009706,-0.173328757286,-0.0114572038874,,-0.00924329111906,0.00648509746711,0.0424843604738,-0.999033387062
1020240000000,,23489,,1020,236255560,"""map""",,,-0.213206216693,-0.174493834376,-0.00739803863689,,-0.0163586607906,0.00843242897069,0.0419961735275,-0.998948292575
1020272000000,,23490,,1020,268255560,"""map""",,,-0.214082226157,-0.175879091024,-0.00307624577545,,-0.020101180754,0.0103383637903,0.0418820820085,-0.998866822717
1020304000000,,23491,,1020,300254912,"""map""",,,-0.215271249413,-0.177695214748,0.0020400674548,,-0.0279883207134,0.0158220296639,0.0419032818733,-0.998604289997
1020340000000,,23492,,1020,332254912,"""map""",,,-0.216745302081,-0.179907277226,0.00782835949212,,-0.0362123068471,0.0232003774779,0.0422904428238,-0.998179365471
1020372000000,,23493,,1020,368254912,"""map""",,,-0.218502670527,-0.182538315654,0.0143881049007,,-0.0404071490936,0.0276103095803,0.0426343189608,-0.997891460348
1020404000000,,23494,,1020,400254264,"""map""",,,-0.219889461994,-0.184975087643,0.0214729942381,,-0.0493249342571,0.0379233147973,0.0435897458697,-0.997110268511
1020440000000,,23495,,1020,432254264,"""map""",,,-0.221056655049,-0.187344610691,0.0290199350566,,-0.0579819311855,0.0485548283582,0.0445692386291,-0.99613962659
1020472000000,,23496,,1020,464254264,"""map""",,,-0.222817704082,-0.190392568707,0.0370483286679,,-0.0631516451846,0.0550002273629,0.045152677453,-0.995463801874
1020504000000,,23497,,1020,496253615,"""map""",,,-0.22575737536,-0.19469845295,0.0454799383879,,-0.0741365791681,0.0685244233584,0.045786186733,-0.993836891375
1020540000000,,23498,,1020,536253615,"""map""",,,-0.231679111719,-0.202338397503,0.0572449974716,,-0.0840348849142,0.0812229923907,0.0458961900076,-0.9920859427
1020572000000,,23499,,1020,568253615,"""map""",,,-0.238357171416,-0.210318446159,0.068113014102,,-0.0872655776652,0.0859452940499,0.0457439134439,-0.991416018543
1020604000000,,23500,,1020,600252966,"""map""",,,-0.246072098613,-0.219122186303,0.0801347047091,,-0.0910910733003,0.0911808756192,0.0447526617138,-0.990649156635
1020640000000,,23501,,1020,632252966,"""map""",,,-0.254939973354,-0.228872865438,0.0932034775615,,-0.0931450292409,0.0927157659761,0.043318404459,-0.990379416804
1020672000000,,23502,,1020,664252966,"""map""",,,-0.26567825675,-0.240406438708,0.107444882393,,-0.0939597140344,0.0929510223993,0.0425577802839,-0.990313372692
1020704000000,,23503,,1020,696252317,"""map""",,,-0.278184235096,-0.253680616617,0.122859805822,,-0.0951804966783,0.0926844444057,0.0414365055261,-0.990269287089
1020740000000,,23504,,1020,736252317,"""map""",,,-0.296261519194,-0.272627413273,0.143877446651,,-0.0954154003275,0.0925679734008,0.0402878353168,-0.990305027616
1020772000000,,23505,,1020,768252317,"""map""",,,-0.312555223703,-0.289588212967,0.162361443043,,-0.0952563788687,0.0927713544177,0.0397818624004,-0.990321759915
1020804000000,,23506,,1020,800251667,"""map""",,,-0.329235374928,-0.306783258915,0.182200476527,,-0.0948096724885,0.092547399071,0.0388230637436,-0.990423628848
1020840000000,,23507,,1020,832251667,"""map""",,,-0.346315175295,-0.32425147295,0.203323811293,,-0.094107690467,0.0906277838947,0.0378552878081,-0.990705506971
1020872000000,,23508,,1020,864251667,"""map""",,,-0.364852935076,-0.343232482672,0.225712284446,,-0.0937333475916,0.0896307526134,0.0373521808774,-0.990850787158
1020904000000,,23509,,1020,896251018,"""map""",,,-0.38470479846,-0.363673359156,0.24943266809,,-0.0933792630269,0.0886366859347,0.0366373703267,-0.991000324176
1020940000000,,23510,,1020,936251018,"""map""",,,-0.411190867424,-0.391171485186,0.280935436487,,-0.0931789252265,0.0878179761584,0.0362720414438,-0.99110552271
1020972000000,,23511,,1020,968251018,"""map""",,,-0.433641940355,-0.414617717266,0.307569652796,,-0.0930179106004,0.0873884502166,0.0362489449708,-0.991159386383
1021004000000,,23512,,1021,250367,"""map""",,,-0.456225425005,-0.437919944525,0.335228562355,,-0.0926919593863,0.0866724048949,0.0362282930151,-0.991253542442
1021040000000,,23513,,1021,32250367,"""map""",,,-0.479027599096,-0.461171239614,0.364049375057,,-0.0927241444321,0.087055914216,0.0362078517935,-0.991217675474
1021068000000,,23514,,1021,64250367,"""map""",,,-0.502942979336,-0.485761910677,0.394386142492,,-0.0929889244346,0.0874312184019,0.0363700750134,-0.991153991586
1021104000000,,23515,,1021,96249717,"""map""",,,-0.527914345264,-0.511649370193,0.426080673933,,-0.0933390452199,0.0874386293325,0.0367993406655,-0.991104553333
1021140000000,,23516,,1021,136249717,"""map""",,,-0.560464084148,-0.545652866364,0.467574059963,,-0.0928596481964,0.0867384414333,0.0373000452258,-0.991192387365
1021172000000,,23517,,1021,168249717,"""map""",,,-0.587533593178,-0.574060201645,0.502295196056,,-0.0923376495994,0.0865676512079,0.0376337218255,-0.991243427199
1021204000000,,23518,,1021,200249066,"""map""",,,-0.614959657192,-0.60197776556,0.538381516933,,-0.0914832987358,0.0864723492808,0.037992770828,-0.991317310624
1021240000000,,23519,,1021,232249066,"""map""",,,-0.642707586288,-0.629517197609,0.57581692934,,-0.0906665412147,0.0859759901265,0.0383303249377,-0.991422467011
1021272000000,,23520,,1021,264249066,"""map""",,,-0.671230137348,-0.658135354519,0.614571928978,,-0.0901896830449,0.0857140667254,0.0385126522043,-0.991481556893
1021304000000,,23521,,1021,296248415,"""map""",,,-0.700479924679,-0.687778413296,0.654615283012,,-0.0891880911782,0.0856506498771,0.0388895293237,-0.991562984604
1021340000000,,23522,,1021,336248415,"""map""",,,-0.737949728966,-0.726092875004,0.706972002983,,-0.0881550859976,0.0854522189746,0.0391622194336,-0.991661692523
1021372000000,,23523,,1021,368248415,"""map""",,,-0.768627047539,-0.757704257965,0.750396132469,,-0.0876916095345,0.0852719655469,0.0393178255983,-0.991712184448
1021404000000,,23524,,1021,400247764,"""map""",,,-0.799568474293,-0.788764894009,0.7950309515,,-0.086719709464,0.0850403834316,0.039598355022,-0.991806340507
1021440000000,,23525,,1021,432247764,"""map""",,,-0.830772936344,-0.81938958168,0.840920269489,,-0.0856829857089,0.0850284093021,0.0398871873748,-0.991885955904
1021472000000,,23526,,1021,464247764,"""map""",,,-0.862498342991,-0.850837230682,0.88825404644,,-0.0851448301546,0.0850013966913,0.0400027540334,-0.991929957214
1021504000000,,23527,,1021,496247112,"""map""",,,-0.894739985466,-0.883056223392,0.936942756176,,-0.084163121146,0.0848449405925,0.0401677589454,-0.992020446498
1021540000000,,23528,,1021,536247112,"""map""",,,-0.935731232166,-0.924333333969,0.999669969082,,-0.0827771288651,0.0844768653321,0.0403628567071,-0.992160584769
1021572000000,,23529,,1021,568247112,"""map""",,,-0.969014525414,-0.958060145378,1.05131363869,,-0.0817032907146,0.0839146471171,0.0404696146744,-0.992292883726
1021604000000,,23530,,1021,600246460,"""map""",,,-1.0025241375,-0.991008758545,1.1042214632,,-0.0785754259843,0.0814873886264,0.0406645438488,-0.992739766761
1021640000000,,23531,,1021,632246460,"""map""",,,-1.03618681431,-1.02318108082,1.15833425522,,-0.0744225782978,0.077865955077,0.0409379504551,-0.993338968507
1021672000000,,23532,,1021,672246460,"""map""",,,-1.07852852345,-1.06414985657,1.2278418541,,-0.0715067970854,0.0752389515582,0.0410842421662,-0.993749436664
1021704000000,,23533,,1021,696245808,"""map""",,,-1.10400223732,-1.0890250206,1.2705924511,,-0.0671179929017,0.0709933837685,0.0412165411237,-0.994362293988
1021740000000,,23534,,1021,736245808,"""map""",,,-1.14642584324,-1.1307708025,1.34358358383,,-0.0619561669488,0.0657540945422,0.0415461716259,-0.995043597795
1021772000000,,23535,,1021,768245808,"""map""",,,-1.18018889427,-1.16431307793,1.40363752842,,-0.0601010941557,0.0639650875927,0.0416729914931,-0.995268704112
1021804000000,,23536,,1021,800257156,"""map""",,,-1.21384060383,-1.1964174509,1.46531438828,,-0.055437394232,0.0593542575977,0.0420016526178,-0.995811049759
1021840000000,,23537,,1021,832257156,"""map""",,,-1.24729299545,-1.22719621658,1.52847921848,,-0.0520759828657,0.0560164063198,0.0423257618828,-0.996172079663
1021872000000,,23538,,1021,864257156,"""map""",,,-1.28036105633,-1.25806951523,1.59291565418,,-0.0503689498903,0.0543752304293,0.0424997019266,-0.996343406603
1021904000000,,23539,,1021,896256503,"""map""",,,-1.31298470497,-1.28894579411,1.65869486332,,-0.0472590231714,0.0515058048233,0.0427728977987,-0.996636495787
1021940000000,,23540,,1021,936256503,"""map""",,,-1.35307359695,-1.32753932476,1.74291408062,,-0.0446922175354,0.0490772184599,0.0430836043659,-0.996864004475
1021972000000,,23541,,1021,968256503,"""map""",,,-1.38457500935,-1.35833930969,1.81188237667,,-0.0436014113271,0.0480852749287,0.0432379461251,-0.99695394585
1022004000000,,23542,,1022,255850,"""map""",,,-1.41567802429,-1.3875977993,1.88184201717,,-0.0416146097115,0.0464256997986,0.043511479172,-0.997105674505
1022040000000,,23543,,1022,32255850,"""map""",,,-1.44632792473,-1.41544234753,1.95161294937,,-0.0402816102602,0.0452974392006,0.0395256095615,-0.997378238174
1022068000000,,23544,,1022,64255850,"""map""",,,-1.47637820244,-1.44327747822,2.02007102966,,-0.0397900793895,0.0453381779164,0.0396643991336,-0.997390587201
1022100000000,,23545,,1022,96255196,"""map""",,,-1.50588536263,-1.4710470438,2.08610248566,,-0.0396816072309,0.0462964464448,0.0399363306002,-0.997340010983
1022140000000,,23546,,1022,136255196,"""map""",,,-1.54201734066,-1.505651474,2.16429924965,,-0.0401670895349,0.047938394808,0.0402396614689,-0.997230808498
1022172000000,,23547,,1022,168255196,"""map""",,,-1.5703536272,-1.53326618671,2.22353577614,,-0.0403105165774,0.0486631243561,0.0404248125744,-0.997182466063
1022204000000,,23548,,1022,200254543,"""map""",,,-1.59870791435,-1.559273839,2.28035759926,,-0.0400361270935,0.0492685351883,0.0408767110842,-0.997145376836
1022240000000,,23549,,1022,232254543,"""map""",,,-1.6270263195,-1.58382844925,2.33529567719,,-0.0388945085788,0.0486771964645,0.0412667380203,-0.997203539487
1022272000000,,23550,,1022,264254543,"""map""",,,-1.65490221977,-1.60847270489,2.38850879669,,-0.0380194250877,0.0479315703113,0.0415448650736,-0.997261828579
1022304000000,,23551,,1022,296253888,"""map""",,,-1.68232083321,-1.63320028782,2.43994665146,,-0.0360960342288,0.0458015459665,0.042060573912,-0.997411787066
1022340000000,,23552,,1022,336253888,"""map""",,,-1.71598219872,-1.66415989399,2.50197005272,,-0.0339540414961,0.0428283284777,0.042598915608,-0.997596179528
1022372000000,,23553,,1022,368253888,"""map""",,,-1.74238574505,-1.68890857697,2.54974007607,,-0.0331732892375,0.04178622427,0.0427867641118,-0.99765859901
1022404000000,,23554,,1022,400253234,"""map""",,,-1.76854777336,-1.7120320797,2.59608697891,,-0.0312630264634,0.0391167946798,0.0431646527556,-0.99781226642
1022440000000,,23555,,1022,432253234,"""map""",,,-1.79442858696,-1.73372912407,2.641020298,,-0.0294594712779,0.0366172672678,0.0435235331707,-0.997946419839
1022472000000,,23556,,1022,464253234,"""map""",,,-1.81971359253,-1.7555539608,2.68450021744,,-0.0285723061292,0.0354894231993,0.0437206539811,-0.998004371756
1022504000000,,23557,,1022,496252579,"""map""",,,-1.84439110756,-1.77743983269,2.72655320168,,-0.0269009735101,0.0336122387865,0.0440247434931,-0.998102363178
1022540000000,,23558,,1022,536252579,"""map""",,,-1.87439632416,-1.80481219292,2.77709698677,,-0.0254767705835,0.0320959614596,0.0442552024608,-0.998179491911
1022572000000,,23559,,1022,568252579,"""map""",,,-1.89776027203,-1.82668948174,2.81605195999,,-0.0248907301795,0.0314855055179,0.0443277793339,-0.998210511992
1022604000000,,23560,,1022,600251924,"""map""",,,-1.92088425159,-1.8468515873,2.85411262512,,-0.0238618324233,0.0304709238608,0.0445302527942,-0.99825813793
1022640000000,,23561,,1022,632251924,"""map""",,,-1.94375312328,-1.86549186707,2.89128684998,,-0.0228647825381,0.029636171611,0.0446655863248,-0.998300495513
1022672000000,,23562,,1022,664251924,"""map""",,,-1.96605658531,-1.88435125351,2.92687106133,,-0.0224660720341,0.0293189704778,0.0446919281051,-0.998317733574
1022704000000,,23563,,1022,696251269,"""map""",,,-1.98785638809,-1.90344500542,2.95715498924,,-0.0215943234124,0.0238171936424,0.0448456376616,-0.998476500753
1022740000000,,23564,,1022,736251269,"""map""",,,-2.01447248459,-1.92758631706,2.98459482193,,-0.0209314038639,0.00631046982052,0.0453078621492,-0.998733807263
1022772000000,,23565,,1022,768251269,"""map""",,,-2.03522014618,-1.94713664055,2.99807500839,,-0.0207593525258,-0.00313745486709,0.0455449803189,-0.998741646577
1022804000000,,23566,,1022,800250613,"""map""",,,-2.0556139946,-1.96510779858,3.00574588776,,-0.0159054336673,-0.0369188131516,0.0455854412935,-0.998151253523
1022840000000,,23567,,1022,832250613,"""map""",,,-2.07502675056,-1.98160862923,3.00978827477,,0.0191936906169,-0.0789853067202,0.0420935748944,-0.995801735306
1022872000000,,23568,,1022,864250613,"""map""",,,-2.09215688705,-1.9978839159,3.01196599007,,0.0482173960792,-0.097038630057,0.0390058546256,-0.993346470646
1022904000000,,23569,,1022,896249957,"""map""",,,-2.1059782505,-2.01293492317,3.01441454887,,0.0768989066686,-0.0974059181098,0.0336712015691,-0.991698065253
1022940000000,,23570,,1022,936249957,"""map""",,,-2.11760449409,-2.02820968628,3.02457761765,,0.0662487879082,-0.0786553225796,0.0314773738104,-0.994200070768
1022972000000,,23571,,1022,968249957,"""map""",,,-2.12229657173,-2.03707003593,3.0459394455,,0.0554416434905,-0.0662433466842,0.0310307858035,-0.995778723126
1023004000000,,23572,,1023,249301,"""map""",,,-2.12479639053,-2.04196476936,3.0792286396,,0.0362047222254,-0.0363785308896,0.0304443967002,-0.998217971984
1023040000000,,23573,,1023,32249301,"""map""",,,-2.12649250031,-2.04422545433,3.11906194687,,0.0112180534709,-0.00105919179138,0.0300815544814,-0.999483936873
1023072000000,,23574,,1023,64249301,"""map""",,,-2.1279528141,-2.04679203033,3.15898442268,,-0.00602799044654,0.0216941887236,0.0296846154621,-0.999305655703
1023100000000,,23575,,1023,96248644,"""map""",,,-2.12977051735,-2.05003166199,3.19541931152,,-0.0461591389271,0.0771734137027,0.0282207289728,-0.995548727774
1023140000000,,23576,,1023,136248644,"""map""",,,-2.1329741478,-2.05546760559,3.23480010033,,-0.0737775736296,0.118098483027,0.0268575734514,-0.989893084319
1023172000000,,23577,,1023,168248644,"""map""",,,-2.13703989983,-2.06136345863,3.26193284988,,-0.0849198016273,0.133769258189,0.026174668065,-0.987020481565
1023204000000,,23578,,1023,200247988,"""map""",,,-2.14311242104,-2.06890416145,3.28619384766,,-0.0957248232268,0.148341928822,0.0252715453951,-0.983967869621
1023240000000,,23579,,1023,232247988,"""map""",,,-2.15144109726,-2.07823348045,3.30826425552,,-0.0917495351095,0.144618146755,0.0252335289377,-0.984901506609
1023272000000,,23580,,1023,264247988,"""map""",,,-2.16189789772,-2.08930444717,3.32881307602,,-0.0849527868046,0.134452305821,0.0254030857093,-0.986944912266
1023304000000,,23581,,1023,296247331,"""map""",,,-2.17436623573,-2.09959387779,3.35012578964,,-0.0695366062672,0.109797243696,0.0260455301211,-0.991176498003
1023340000000,,23582,,1023,336247331,"""map""",,,-2.19210600853,-2.11171722412,3.37803792953,,-0.054246211682,0.0859854886432,0.0268059014151,-0.994457335132
1023372000000,,23583,,1023,368247331,"""map""",,,-2.207228899,-2.12279248238,3.39971995354,,-0.0462511613024,0.0733669158111,0.027301169032,-0.995857832761
1023404000000,,23584,,1023,400246673,"""map""",,,-2.2226998806,-2.13473558426,3.42077445984,,-0.0324560361451,0.0505197341921,0.0286236528445,-0.99778512385
1023440000000,,23585,,1023,432246673,"""map""",,,-2.2381875515,-2.14726495743,3.44094133377,,-0.0220785538233,0.0326432178726,0.030132299287,-0.998768789147
1023472000000,,23586,,1023,464246673,"""map""",,,-2.25343513489,-2.16019701958,3.46010422707,,-0.0180905334064,0.0260473664725,0.0309388635269,-0.999018087756
1023504000000,,23587,,1023,496246016,"""map""",,,-2.26762318611,-2.17061042786,3.47861504555,,-0.012044346058,0.0165876808385,0.0327418214125,-0.999253604345
1023540000000,,23588,,1023,536246016,"""map""",,,-2.28392124176,-2.18087220192,3.50043272972,,-0.00900337685167,0.0123994250249,0.0342566634417,-0.999295582607
1023572000000,,23589,,1023,568246016,"""map""",,,-2.29649114609,-2.18972206116,3.51684522629,,-0.00830697953464,0.0117538245385,0.0348278375327,-0.999289682048
1023604000000,,23590,,1023,600245358,"""map""",,,-2.30859255791,-2.19903802872,3.53260064125,,-0.00768384990394,0.0120701198437,0.0361983687526,-0.999242224696
1023640000000,,23591,,1023,632245358,"""map""",,,-2.32026958466,-2.20877695084,3.54774188995,,-0.00796175305213,0.0137283177926,0.0374312062184,-0.999173230305
1023672000000,,23592,,1023,664245358,"""map""",,,-2.3316078186,-2.21887230873,3.56211090088,,-0.00832924525373,0.0146246080632,0.0380611330162,-0.999133696561
1023704000000,,23593,,1023,696244700,"""map""",,,-2.34335541725,-2.22709083557,3.57597112656,,-0.00903083157221,0.0168942955394,0.039197159171,-0.999047885578
1023740000000,,23594,,1023,736244700,"""map""",,,-2.3584022522,-2.23546457291,3.592461586,,-0.00972554762511,0.0190785990982,0.0401613947712,-0.998963760468
1023772000000,,23595,,1023,768244700,"""map""",,,-2.37005591393,-2.24287652969,3.60483312607,,-0.00999592064612,0.0196622476685,0.0405650351394,-0.998933456884
1023804000000,,23596,,1023,800244042,"""map""",,,-2.38146591187,-2.25086450577,3.61652684212,,-0.0103579706359,0.0201831741551,0.0413986155093,-0.998885156596
1023840000000,,23597,,1023,832244042,"""map""",,,-2.39264035225,-2.25934958458,3.62776279449,,-0.0107880304927,0.0208214499802,0.0421502624056,-0.998836097664
1023872000000,,23598,,1023,864244042,"""map""",,,-2.40356278419,-2.26830053329,3.63856124878,,-0.0109320683353,0.0208728101956,0.042464256427,-0.998820166155
1023904000000,,23599,,1023,896243383,"""map""",,,-2.41472172737,-2.27542519569,3.64878606796,,-0.0110746945877,0.0201141840446,0.0430431012445,-0.998809376562
1023940000000,,23600,,1023,936243383,"""map""",,,-2.42885804176,-2.2824473381,3.66078591347,,-0.0109366383049,0.0194698999886,0.043614696804,-0.99879883985
1023972000000,,23601,,1023,968243383,"""map""",,,-2.43987250328,-2.28886318207,3.6699411869,,-0.0108276327252,0.0193483596728,0.0438911379834,-0.99879028404
1024004000000,,23602,,1024,242725,"""map""",,,-2.45059418678,-2.2959291935,3.67875170708,,-0.010805901415,0.0187176393288,0.0443355343541,-0.998782866194
1024040000000,,23603,,1024,31242725,"""map""",,,-2.46104836464,-2.30356502533,3.6872241497,,-0.010657037429,0.0174215671023,0.0447736929912,-0.998788429578
1024072000000,,23604,,1024,64242725,"""map""",,,-2.47124290466,-2.31172227859,3.69550681114,,-0.010504467813,0.0170996896446,0.0449892319745,-0.998785900768
1024104000000,,23605,,1024,96242069,"""map""",,,-2.48141813278,-2.31915044785,3.70353102684,,-0.0103464711317,0.0167511180852,0.0452934057802,-0.998779705181
1024140000000,,23606,,1024,136242069,"""map""",,,-2.4947681427,-2.32497191429,3.71321439743,,-0.0100773052228,0.0158309051975,0.0455770540707,-0.998784594215
1024172000000,,23607,,1024,167242069,"""map""",,,-2.50507855415,-2.33048510551,3.72059988976,,-0.00984262432628,0.0152962375213,0.0456981419664,-0.998789693984
1024204000000,,23608,,1024,200241410,"""map""",,,-2.51506948471,-2.3366689682,3.72767710686,,-0.00944600437182,0.0152949122005,0.0458588900466,-0.998786237942
1024240000000,,23609,,1024,232241410,"""map""",,,-2.52470993996,-2.34346747398,3.73457694054,,-0.00922129449772,0.0149556972415,0.046115311473,-0.998781601789
1024272000000,,23610,,1024,263241410,"""map""",,,-2.53405761719,-2.35078024864,3.74114751816,,-0.00915733583192,0.0144287570912,0.0462665765123,-0.998782992635
1024304000000,,23611,,1024,296240750,"""map""",,,-2.54345369339,-2.35728406906,3.74753189087,,-0.00901781346438,0.0138692186585,0.0465067292551,-0.99878105388
1024340000000,,23612,,1024,336240750,"""map""",,,-2.55581784248,-2.36156058311,3.75536870956,,-0.00873081334699,0.014024462459,0.0465928774135,-0.998777344957
1024372000000,,23613,,1024,367240750,"""map""",,,-2.56526780128,-2.3658516407,3.76135993004,,-0.00860263160978,0.013678647567,0.0466235181723,-0.99878185467
1024404000000,,23614,,1024,400240091,"""map""",,,-2.5744125843,-2.37082433701,3.76694655418,,-0.00851920949641,0.0124943873076,0.0467159462111,-0.998793782228
1024440000000,,23615,,1024,432240091,"""map""",,,-2.58327317238,-2.37644100189,3.77237033844,,-0.00864915530972,0.012309588688,0.0467873429725,-0.998791590592
1024472000000,,23616,,1024,464240091,"""map""",,,-2.59180521965,-2.38263177872,3.77773451805,,-0.00872110360213,0.0123325274396,0.046791094042,-0.998790536921
1024504000000,,23617,,1024,496239431,"""map""",,,-2.60034322739,-2.38811349869,3.78279447556,,-0.00886287341744,0.0114292009502,0.04683699196,-0.998797828326
1024540000000,,23618,,1024,536239431,"""map""",,,-2.61173725128,-2.39139080048,3.7887506485,,-0.00883709238777,0.0106069834365,0.0468568852725,-0.998806257695
1024572000000,,23619,,1024,568239431,"""map""",,,-2.62048768997,-2.39490914345,3.79342770576,,-0.0087225421926,0.0107396119955,0.0468425974909,-0.99880646843
