rosbagTimestamp,header,seq,stamp,secs,nsecs,frame_id,pose,position,x,y,z,orientation,x,y,z,w
821676000000,,17974,,821,668135875,"""map""",,,0.0982513278723,-0.0327071659267,0.0583391785622,,0.00246269353596,0.00602280720736,0.0353927738902,-0.999352312265
821708000000,,17975,,821,700135527,"""map""",,,0.0974880605936,-0.0327564254403,0.0580505803227,,0.0024274131664,0.0060422140201,0.0353806777447,-0.999352691586
821740000000,,17976,,821,732135527,"""map""",,,0.0957439765334,-0.0333571769297,0.0572669655085,,0.00247055260612,0.00608777328161,0.0353420712314,-0.999353703111
821776000000,,17977,,821,772135527,"""map""",,,0.0942771062255,-0.0336975380778,0.056369163096,,0.00246069880465,0.00618018090552,0.0353091123959,-0.99935437746
821808000000,,17978,,821,804135180,"""map""",,,0.0936570689082,-0.0336352996528,0.0558795817196,,0.00244771889239,0.00618469456958,0.0353176682061,-0.999353998139
821840000000,,17979,,821,836135180,"""map""",,,0.0934741720557,-0.033334672451,0.0555033944547,,0.0024966663654,0.00625087779872,0.035291284279,-0.999354419607
821876000000,,17980,,821,868135180,"""map""",,,0.093708589673,-0.032834649086,0.0551128163934,,0.00247947423784,0.00633135934622,0.0353098710392,-0.999353281642
821908000000,,17981,,821,900134832,"""map""",,,0.0930124744773,-0.0328546911478,0.0544870942831,,0.00242275149446,0.00634572845811,0.0353254232263,-0.999352818027
821940000000,,17982,,821,932134832,"""map""",,,0.091602884233,-0.0332832187414,0.0534667372704,,0.00254534334125,0.00606067499829,0.035254827255,-0.999356821977
821976000000,,17983,,821,972134832,"""map""",,,0.0905659943819,-0.0333967134356,0.0524352714419,,0.00261319532218,0.0059485062647,0.0353176682061,-0.999355093957
822008000000,,17984,,822,4134484,"""map""",,,0.0902253687382,-0.033206935972,0.0517066940665,,0.00260421886663,0.00591876491299,0.0353105453887,-0.999355473278
822040000000,,17985,,822,36134484,"""map""",,,0.0903101786971,-0.0327733121812,0.051112677902,,0.00260913555993,0.00594224926869,0.0352795253082,-0.999356484803
822076000000,,17986,,822,76134484,"""map""",,,0.0909392312169,-0.031934607774,0.0502741001546,,0.00259782192991,0.0059246527948,0.0352563445415,-0.999357412033
822108000000,,17987,,822,100134137,"""map""",,,0.0902580842376,-0.0320593714714,0.0497725978494,,0.00260893980757,0.00589842790613,0.0352214048041,-0.999358718586
822140000000,,17988,,822,132134137,"""map""",,,0.0889586359262,-0.0324688181281,0.0491589382291,,0.00253886704993,0.00592589678538,0.0352394436553,-0.99935812853
822176000000,,17989,,822,172134137,"""map""",,,0.0880224108696,-0.0325213819742,0.0485109649599,,0.00248744163857,0.0059282059717,0.0352415088509,-0.999358170677
822208000000,,17990,,822,204133788,"""map""",,,0.0877746269107,-0.0322609581053,0.0480914488435,,0.00249125098928,0.00595289184185,0.0352273896566,-0.999358549998
822240000000,,17991,,822,236133788,"""map""",,,0.0879519507289,-0.0317507460713,0.0477897524834,,0.00246814611985,0.0059478755437,0.0352913685727,-0.999356358362
822276000000,,17992,,822,268133788,"""map""",,,0.0884697213769,-0.0310002248734,0.0475687645376,,0.00248456363443,0.00601234309976,0.0352794410145,-0.999356316215
822308000000,,17993,,822,300133440,"""map""",,,0.0880835279822,-0.0308295171708,0.0472937375307,,0.00248162026976,0.0060457955144,0.0352427311095,-0.99935745418
822340000000,,17994,,822,332133440,"""map""",,,0.0869400650263,-0.0311707109213,0.0469785891473,,0.00248445941977,0.0060629445073,0.0352879546779,-0.999355726159
822376000000,,17995,,822,372133440,"""map""",,,0.0861734226346,-0.0311966910958,0.0465835779905,,0.00246092649641,0.0061175587558,0.0353065414381,-0.999354841076
822408000000,,17996,,822,404133092,"""map""",,,0.0860290676355,-0.0309061557055,0.0463524535298,,0.00246842402563,0.00615136052831,0.0352954146701,-0.999355009663
822440000000,,17997,,822,436133092,"""map""",,,0.0863051563501,-0.0303617492318,0.0460181422532,,0.00248868250106,0.00595478268777,0.0352820541191,-0.999356569096
822476000000,,17998,,822,476133092,"""map""",,,0.0871518105268,-0.0293380469084,0.0457771085203,,0.00263422495323,0.00584857509906,0.0352796517488,-0.999356948418
822508000000,,17999,,822,500132743,"""map""",,,0.0866813138127,-0.029255297035,0.0455660000443,,0.00261070701176,0.00584990601751,0.0352892190834,-0.99935665339
822540000000,,18000,,822,532132743,"""map""",,,0.0856694579124,-0.0293477885425,0.045326795429,,0.00260537477688,0.00587401203923,0.0352838242868,-0.99935665339
822576000000,,18001,,822,572132743,"""map""",,,0.0850872248411,-0.0290421266109,0.0450596548617,,0.00261372940178,0.0059509876604,0.0352099830082,-0.999358845026
822608000000,,18002,,822,604132394,"""map""",,,0.0851392894983,-0.028500109911,0.0448962301016,,0.0025916605875,0.00597315262218,0.0352204354266,-0.999358423558
822640000000,,18003,,822,636132394,"""map""",,,0.0855674222112,-0.0276909861714,0.0447356849909,,0.00264092547896,0.00597256009676,0.0351957373734,-0.999359097907
822676000000,,18004,,822,668132394,"""map""",,,0.0863778069615,-0.0266545452178,0.0445701852441,,0.00265636768913,0.00600494797421,0.0352182016436,-0.99935812853
822708000000,,18005,,822,700132046,"""map""",,,0.0862801223993,-0.0262453313917,0.0441714003682,,0.0026499169164,0.00603049587912,0.0352196346365,-0.999357959942
822736000000,,18006,,822,732132046,"""map""",,,0.0854017958045,-0.026336889714,0.0436550304294,,0.00267709834097,0.00607773261814,0.0351945994085,-0.999358465705
822776000000,,18007,,822,772132046,"""map""",,,0.0849602371454,-0.026037434116,0.0430583283305,,0.00264013720118,0.00610199833689,0.0351387548342,-0.999360362313
822808000000,,18008,,822,804131697,"""map""",,,0.0850447937846,-0.0254963114858,0.0426699854434,,0.00263113193431,0.00613282645167,0.0351876873253,-0.999358465705
822840000000,,18009,,822,836131697,"""map""",,,0.0855066105723,-0.0247188806534,0.042301915586,,0.00252509095736,0.00613580587166,0.0352301292018,-0.999357243446
822876000000,,18010,,822,868131697,"""map""",,,0.0863278880715,-0.023702211678,0.0420167595148,,0.00254529329187,0.00615496869367,0.035268187806,-0.999355684013
822908000000,,18011,,822,900131347,"""map""",,,0.0861799716949,-0.0233525950462,0.0415812171996,,0.00251801292099,0.00620956614928,0.0353022003127,-0.999354208873
822940000000,,18012,,822,932131347,"""map""",,,0.0852460190654,-0.023541321978,0.0408575311303,,0.0025610379386,0.00597004923119,0.0353372664907,-0.99935437746
822976000000,,18013,,822,972131347,"""map""",,,0.0846748277545,-0.0233176331967,0.0401651896536,,0.00261887806738,0.00592049951923,0.0353227258279,-0.999355009663
823008000000,,18014,,823,4130998,"""map""",,,0.0847003236413,-0.0227933935821,0.0395883694291,,0.00261502953327,0.00591929965113,0.0353244117019,-0.999355009663
823040000000,,18015,,823,36130998,"""map""",,,0.0851272717118,-0.0220148023218,0.039093375206,,0.00265212567468,0.00594661838223,0.0352680613654,-0.999356737684
823076000000,,18016,,823,68130998,"""map""",,,0.0858880504966,-0.0209811162204,0.0385774709284,,0.00263702442593,0.00602165508374,0.0352992078865,-0.99935517825
823108000000,,18017,,823,100130649,"""map""",,,0.0856737047434,-0.0207035895437,0.0380949899554,,0.00261264082771,0.00607621055714,0.0352920007754,-0.999355220397
823140000000,,18018,,823,132130649,"""map""",,,0.0846200510859,-0.0210670996457,0.0376768931746,,0.00260644952151,0.00614814962992,0.0352917057474,-0.999354756782
823176000000,,18019,,823,172130649,"""map""",,,0.0839622542262,-0.0210480932146,0.0371358320117,,0.00258966338664,0.00623915175521,0.0353462016226,-0.999352354412
823208000000,,18020,,823,204130299,"""map""",,,0.0839357227087,-0.0207248814404,0.0367075391114,,0.00257202986962,0.00628508556391,0.0353376458123,-0.999352396558
823240000000,,18021,,823,236130299,"""map""",,,0.0843115150928,-0.0201134067029,0.0364119037986,,0.0025944268037,0.00635963823521,0.0353448107766,-0.999351637915
823276000000,,18022,,823,268130299,"""map""",,,0.0850481241941,-0.0192712526768,0.0362502932549,,0.00259773022759,0.00641964728032,0.0354078624619,-0.999348940517
823308000000,,18023,,823,300129950,"""map""",,,0.0848775804043,-0.0190957970917,0.0360472425818,,0.00261877599298,0.00644141678612,0.0353882641774,-0.999349488426
823340000000,,18024,,823,332129950,"""map""",,,0.0839318484068,-0.019501786679,0.0358931384981,,0.00261279871375,0.00646216324303,0.0353816049753,-0.99934957272
823376000000,,18025,,823,372129950,"""map""",,,0.0834017172456,-0.0194878373295,0.0356195010245,,0.00261733839032,0.00649950107027,0.0353817735627,-0.999349319838
823408000000,,18026,,823,404129600,"""map""",,,0.0833981782198,-0.0191176831722,0.0353672988713,,0.002608263647,0.00654895051883,0.0353521443282,-0.999350036335
823440000000,,18027,,823,436129600,"""map""",,,0.0837491378188,-0.0185163635761,0.0351051911712,,0.0026199910076,0.00655651521959,0.0353184268494,-0.999351216447
823476000000,,18028,,823,476129600,"""map""",,,0.0847097113729,-0.0173754915595,0.0345835387707,,0.00265868889388,0.00624201230792,0.0353270669533,-0.99935277588
823508000000,,18029,,823,500129250,"""map""",,,0.0842463448644,-0.0175008140504,0.0345569849014,,0.00261104468045,0.00622259890973,0.0353556003698,-0.999352059384
823540000000,,18030,,823,532129250,"""map""",,,0.0832172483206,-0.0180109366775,0.0346718728542,,0.00257157251046,0.00629377472942,0.035358592796,-0.999351595768
823576000000,,18031,,823,572129250,"""map""",,,0.0825740993023,-0.0181257762015,0.0346701331437,,0.00251980235106,0.00639410727794,0.0353786968428,-0.99935037351
823608000000,,18032,,823,604128900,"""map""",,,0.082498729229,-0.0178462024778,0.0346915796399,,0.00253353201623,0.00639761501526,0.035403942805,-0.999349404132
823640000000,,18033,,823,636128900,"""map""",,,0.082809612155,-0.0172676332295,0.034714512527,,0.00246700897812,0.00645090855275,0.035464887148,-0.999347128202
823676000000,,18034,,823,668128900,"""map""",,,0.0834678560495,-0.0164526477456,0.0347186513245,,0.00246952363033,0.00650776827339,0.0354387139551,-0.999347676111
823708000000,,18035,,823,700128550,"""map""",,,0.0831700265408,-0.0163071379066,0.0348555520177,,0.00243666917409,0.00651428226639,0.0354373231091,-0.999347718258
823740000000,,18036,,823,732128550,"""map""",,,0.0820672437549,-0.0167062226683,0.035085812211,,0.00245258635949,0.00656238811951,0.0354613046659,-0.999346580293
823776000000,,18037,,823,772128550,"""map""",,,0.0813472345471,-0.016689421609,0.0353382378817,,0.00242243226501,0.00659676019156,0.0354441087517,-0.999347001762
823808000000,,18038,,823,804128200,"""map""",,,0.0812075212598,-0.016315465793,0.0355021394789,,0.00242469041413,0.00661737526884,0.0354516530375,-0.999346538146
823840000000,,18039,,823,836128200,"""map""",,,0.0813911259174,-0.0156537629664,0.0357450321317,,0.002409224661,0.00671015678139,0.0354337406269,-0.999346664587
823876000000,,18040,,823,868128200,"""map""",,,0.081901833415,-0.0147204194218,0.0359653346241,,0.00234177784958,0.00675646036284,0.0354460053598,-0.999346032384
823908000000,,18041,,823,900127849,"""map""",,,0.0814089551568,-0.0144791295752,0.0360226258636,,0.00230598809584,0.00674283622942,0.0354490820798,-0.999346074531
823940000000,,18042,,823,932127849,"""map""",,,0.0801126807928,-0.0147941140458,0.0358965620399,,0.00242310826095,0.00643838385939,0.0354097590701,-0.999349235545
823976000000,,18043,,823,972127849,"""map""",,,0.0790605470538,-0.0146862082183,0.0357649736106,,0.00258645364071,0.00639901409307,0.0354145638109,-0.99934889837
824008000000,,18044,,824,4127499,"""map""",,,0.0786325410008,-0.0142128532752,0.035670042038,,0.00258403530064,0.00643519469297,0.0354197900201,-0.999348476901
824040000000,,18045,,824,36127499,"""map""",,,0.0786010399461,-0.013435408473,0.0356205292046,,0.00260090688166,0.00645484138055,0.0353661370819,-0.999350204922
824076000000,,18046,,824,76127499,"""map""",,,0.07906999439,-0.0121068665758,0.0355241410434,,0.00253416224333,0.00648259689129,0.0354201271949,-0.999348308314
824108000000,,18047,,824,100127148,"""map""",,,0.0784539654851,-0.0120606506243,0.0354371257126,,0.00251690574304,0.0064824045963,0.0354379553118,-0.999347676111
824140000000,,18048,,824,132127148,"""map""",,,0.0772676691413,-0.0123214842752,0.035333070904,,0.00249367114034,0.00655400073202,0.035452917443,-0.999346791028
824176000000,,18049,,824,172127148,"""map""",,,0.0764411091805,-0.0122052310035,0.0353073962033,,0.00249904585135,0.00656491643652,0.0354423807309,-0.999347043909
824208000000,,18050,,824,204126798,"""map""",,,0.076230302453,-0.01175285317,0.0352808758616,,0.00251389734709,0.00656724439135,0.0354161653911,-0.999347886846
824240000000,,18051,,824,236126798,"""map""",,,0.0763679519296,-0.0110197523609,0.0353519544005,,0.00246750305114,0.00663519614177,0.0354266599564,-0.999347254643
824276000000,,18052,,824,268126798,"""map""",,,0.0768427476287,-0.0100021697581,0.0353737361729,,0.00241421692228,0.00672473712143,0.0353776853184,-0.999348519048
824308000000,,18053,,824,300126447,"""map""",,,0.0776300951838,-0.00874198041856,0.0353473722935,,0.00240926598466,0.00669517900974,0.0353764630598,-0.999348729783
824340000000,,18054,,824,332126447,"""map""",,,0.0787025019526,-0.00725990021601,0.035248465836,,0.00242137414862,0.00672187953218,0.0353434620774,-0.99934969916
824376000000,,18055,,824,372126447,"""map""",,,0.080426722765,-0.00511850928888,0.0353088229895,,0.0024176504087,0.006808208461,0.0354057972664,-0.999346959615
824408000000,,18056,,824,404126096,"""map""",,,0.0802113264799,-0.00443976512179,0.0353798083961,,0.002434836774,0.00681664211124,0.0354083682241,-0.999346748881
824440000000,,18057,,824,436126096,"""map""",,,0.0798443928361,-0.00384345767088,0.0353387407959,,0.00255708041538,0.00644762472056,0.0353911301631,-0.999349488426
824476000000,,18058,,824,476126096,"""map""",,,0.0799043029547,-0.00269830971956,0.0352448113263,,0.00256117244632,0.00642461073028,0.0353665585504,-0.999350542097
824508000000,,18059,,824,500125745,"""map""",,,0.0802214369178,-0.0017964214785,0.0351526029408,,0.00255115960635,0.00640884550403,0.0353685394523,-0.999350584244
824540000000,,18060,,824,532125745,"""map""",,,0.0809462666512,-0.000344182277331,0.0350644364953,,0.00251738615126,0.00645215600068,0.0352669655474,-0.999353955992
824576000000,,18061,,824,572125745,"""map""",,,0.0823110714555,0.00184611580335,0.0350783318281,,0.0024708519146,0.00649292270454,0.0352452599204,-0.999354588194
824608000000,,18062,,824,604125394,"""map""",,,0.0818659439683,0.00214694393799,0.0345637649298,,0.00246063920637,0.00648378078968,0.0352252401673,-0.999355388985
824640000000,,18063,,824,636125394,"""map""",,,0.0812472999096,0.00228817621246,0.0340477079153,,0.00244054717807,0.00654122546248,0.0352424782284,-0.999354419607
824676000000,,18064,,824,668125394,"""map""",,,0.0810290053487,0.00281565869227,0.0335219688714,,0.00240629940629,0.00657448475894,0.0352256616358,-0.999354883222
824708000000,,18065,,824,700125043,"""map""",,,0.0811707749963,0.00370227033272,0.0329047627747,,0.00235968400402,0.00662003002639,0.0352165157697,-0.999355009663
824740000000,,18066,,824,732125043,"""map""",,,0.0816510021687,0.00490966392681,0.0323552116752,,0.00235129497017,0.0066953396946,0.0352617393382,-0.999352944467
824776000000,,18067,,824,772125043,"""map""",,,0.082665450871,0.00683788070455,0.0317178033292,,0.00232017907144,0.00678704366369,0.0352786402244,-0.999351806502
824808000000,,18068,,824,804124692,"""map""",,,0.0819186866283,0.00703137973323,0.0313165187836,,0.00232982559603,0.00681969808703,0.035255375164,-0.999352396558
824840000000,,18069,,824,836124692,"""map""",,,0.0809832960367,0.00711767422035,0.0310035441071,,0.00232630715736,0.00685841177839,0.035216979385,-0.99935345023
824876000000,,18070,,824,868124692,"""map""",,,0.0804705619812,0.00758291315287,0.0308173466474,,0.0023688624681,0.00693259335985,0.0352024387223,-0.999353408083
824908000000,,18071,,824,900124341,"""map""",,,0.0803629681468,0.0084066754207,0.0306629631668,,0.00239153401524,0.00696477461896,0.0351674989849,-0.999354293167
824940000000,,18072,,824,932124341,"""map""",,,0.0806535407901,0.00958069320768,0.0304011441767,,0.00257505522309,0.00659390671821,0.0351655602299,-0.999356484803
824976000000,,18073,,824,972124341,"""map""",,,0.0813841819763,0.011500351131,0.0300783906132,,0.00254246467857,0.00660986111137,0.0351564143637,-0.999356779831
825008000000,,18074,,825,4123990,"""map""",,,0.080559052527,0.01154735405,0.0297611821443,,0.00254383247552,0.0066515199784,0.0351419158478,-0.999357032712
825040000000,,18075,,825,36123990,"""map""",,,0.0795957371593,0.0114463455975,0.029539572075,,0.00255476151554,0.00668897025212,0.0351161641234,-0.999357580621
825076000000,,18076,,825,68123990,"""map""",,,0.0790825337172,0.0117753557861,0.0294912904501,,0.00254130382924,0.00671444571713,0.0351567093917,-0.999356063334
825108000000,,18077,,825,100123638,"""map""",,,0.0789617225528,0.0124965906143,0.0295314379036,,0.00252956609657,0.00673378173634,0.0351762655294,-0.999355304691
825140000000,,18078,,825,132123638,"""map""",,,0.0791956782341,0.0136207658798,0.0297027640045,,0.00252010939743,0.00679261412705,0.0351925763597,-0.999354335313
825176000000,,18079,,825,172123638,"""map""",,,0.0799308270216,0.015481447801,0.0298355035484,,0.00250853975825,0.00689433126539,0.0351934192967,-0.999353660964
825208000000,,18080,,825,204123287,"""map""",,,0.0790891721845,0.0150161013007,0.0299264322966,,0.00247812981923,0.00690532533668,0.0351648015866,-0.999354630341
825240000000,,18081,,825,236123287,"""map""",,,0.0781295895576,0.0142803667113,0.0300572328269,,0.00241194000464,0.00695328334657,0.0351333600376,-0.999355557572
825276000000,,18082,,825,268123287,"""map""",,,0.0776324793696,0.014003326185,0.0302414037287,,0.00232944199385,0.00698833059137,0.0350667680169,-0.999357833502
825308000000,,18083,,825,300122936,"""map""",,,0.0775350257754,0.0141799151897,0.030395237729,,0.00232903682435,0.00701061129235,0.0350740594217,-0.99935745418
825340000000,,18084,,825,332122936,"""map""",,,0.0778027102351,0.0147662926465,0.0305589437485,,0.00229747327999,0.00708743660074,0.0350928147693,-0.999356316215
825376000000,,18085,,825,372122936,"""map""",,,0.0786293819547,0.0159773044288,0.0308157801628,,0.0022404433256,0.00718931146049,0.0350587179689,-0.999356948418
825408000000,,18086,,825,404122584,"""map""",,,0.0779766961932,0.0156138706952,0.0307605545968,,0.00237796108366,0.00679510819974,0.0350418170826,-0.999359940844
825440000000,,18087,,825,436122584,"""map""",,,0.0771546214819,0.0151445772499,0.0305771566927,,0.0023089031431,0.00678305123762,0.0350563577454,-0.999359645816
825476000000,,18088,,825,476122584,"""map""",,,0.0767293721437,0.0152017734945,0.0303614549339,,0.00223559594411,0.00679039466742,0.0350558098363,-0.999359856551
825508000000,,18089,,825,500122233,"""map""",,,0.0767717957497,0.0155329247937,0.030170371756,,0.0022334604489,0.00680590651867,0.0350526488227,-0.999359814404
825540000000,,18090,,825,540122233,"""map""",,,0.0773194208741,0.0165711119771,0.0297123752534,,0.00224638899469,0.0068516312395,0.0350382346005,-0.999359982991
825576000000,,18091,,825,572122233,"""map""",,,0.0781362578273,0.0177903492004,0.0291925724596,,0.00224953091053,0.00690424762859,0.0350747759182,-0.999358339264
825608000000,,18092,,825,604121881,"""map""",,,0.0777268484235,0.0176604911685,0.0284482687712,,0.00223940825826,0.00694683454947,0.0350593080248,-0.999358634292
825640000000,,18093,,825,636121881,"""map""",,,0.0772269666195,0.0174533464015,0.0275153033435,,0.00222519308115,0.00706320051649,0.0350750287993,-0.999357243446
825676000000,,18094,,825,668121881,"""map""",,,0.0771344900131,0.0176838282496,0.0264992732555,,0.00218110928861,0.00712107949938,0.0351278809473,-0.999355136104
825708000000,,18095,,825,700121530,"""map""",,,0.0774162039161,0.0183419138193,0.0254977494478,,0.00213552730731,0.00715082809508,0.0351546863429,-0.999354040285
825740000000,,18096,,825,732121530,"""map""",,,0.0780509859324,0.0194000024348,0.0245613083243,,0.00214307192246,0.0071813341816,0.0351485329031,-0.999354040285
825776000000,,18097,,825,772121530,"""map""",,,0.079259455204,0.0212102308869,0.0233728196472,,0.00208275846515,0.00720335788558,0.0351573837412,-0.999353703111
825808000000,,18098,,825,804121178,"""map""",,,0.0788899436593,0.0210855938494,0.0225705765188,,0.00209843133053,0.00727428691572,0.0351565408043,-0.999353197348
825840000000,,18099,,825,836121178,"""map""",,,0.0783972740173,0.0207747947425,0.0218946002424,,0.00201438557552,0.00735537514735,0.0351317584573,-0.999353618817
825876000000,,18100,,825,868121178,"""map""",,,0.0783214718103,0.0209323931485,0.0211673118174,,0.00211799059633,0.00701961540677,0.0351511881545,-0.99935517825
825908000000,,18101,,825,900120826,"""map""",,,0.0786507055163,0.0215223543346,0.0205616317689,,0.00217345864778,0.00699512331334,0.0351567515385,-0.999355009663
825940000000,,18102,,825,932120826,"""map""",,,0.0792858973145,0.0224982555956,0.0199731439352,,0.00221447181193,0.00698257573555,0.0351689319777,-0.999354546048
825976000000,,18103,,825,972120826,"""map""",,,0.0805224105716,0.0242045205086,0.0190784204751,,0.00217657866703,0.0069912354312,0.0351788364871,-0.99935425102
826008000000,,18104,,826,4120474,"""map""",,,0.0800639986992,0.0239600017667,0.0184089262038,,0.00217188950086,0.00704729502026,0.0351833461999,-0.999353703111
826040000000,,18105,,826,36120474,"""map""",,,0.0794387757778,0.0235496964306,0.0176794342697,,0.00215466197653,0.00705165260927,0.0351582688251,-0.999354588194
826076000000,,18106,,826,68120474,"""map""",,,0.0792519301176,0.0235965307802,0.0169622208923,,0.00209591124534,0.00709354064979,0.0351712922013,-0.999353955992
826108000000,,18107,,826,100120123,"""map""",,,0.0794736519456,0.0241211038083,0.0163388699293,,0.0021048211879,0.00711092112108,0.0351562879232,-0.99935437746
826140000000,,18108,,826,132120123,"""map""",,,0.0800185501575,0.0250584073365,0.0156609602273,,0.00209929040185,0.00717158788751,0.0351538855528,-0.999353998139
826176000000,,18109,,826,172120123,"""map""",,,0.0811128169298,0.0267210751772,0.0148510411382,,0.00207034374873,0.00723379103829,0.0351405250018,-0.999354124579
826208000000,,18110,,826,204119771,"""map""",,,0.080533079803,0.0263023637235,0.0146047919989,,0.00207412823938,0.00726564895204,0.0351222754164,-0.999354503901
826240000000,,18111,,826,236119771,"""map""",,,0.0798198506236,0.0257020946592,0.0144630307332,,0.00203111030112,0.00736235143859,0.0351238769967,-0.999353829551
826276000000,,18112,,826,268119771,"""map""",,,0.0795477181673,0.0255734715611,0.014366867952,,0.00197491571043,0.00746104322346,0.0351296932618,-0.999352986614
826308000000,,18113,,826,300119419,"""map""",,,0.0796743109822,0.0258827004582,0.0142798563465,,0.00197136088718,0.00747526844338,0.0351033936283,-0.999353829551
826340000000,,18114,,826,332119419,"""map""",,,0.0801260024309,0.0265758819878,0.0142370518297,,0.00194569213935,0.0074821785509,0.0351383755126,-0.999352565146
826376000000,,18115,,826,372119419,"""map""",,,0.0811561793089,0.0279665645212,0.014105678536,,0.00208953324178,0.00710459761207,0.0351359731422,-0.999355136104
826408000000,,18116,,826,404119067,"""map""",,,0.0805001854897,0.027428150177,0.0139583265409,,0.00205440779481,0.00713868914416,0.0351182714658,-0.999355557572
826440000000,,18117,,826,436119067,"""map""",,,0.0796812102199,0.0267721358687,0.0136744342744,,0.00203762133067,0.00718891188861,0.0350377709852,-0.999358086383
826476000000,,18118,,826,472119067,"""map""",,,0.0792996436357,0.0266186445951,0.0133954267949,,0.00200231429005,0.00725300786094,0.0350299738182,-0.999357959942
826508000000,,18119,,826,504118716,"""map""",,,0.079315841198,0.0269246753305,0.0131966741756,,0.00201809877873,0.0073101301762,0.0350596873464,-0.999356484803
826540000000,,18120,,826,536118716,"""map""",,,0.0797033384442,0.0276590641588,0.0128577305004,,0.00203117171039,0.00732392783609,0.0351191986965,-0.999354293167
826576000000,,18121,,826,568118716,"""map""",,,0.0803990513086,0.0287674218416,0.012431778945,,0.00205782152491,0.00734506201108,0.0350941634685,-0.999354967516
826608000000,,18122,,826,600118364,"""map""",,,0.0803254023194,0.0288287177682,0.0120636066422,,0.00205002616893,0.00735548100838,0.0350958493424,-0.999354798929
826640000000,,18123,,826,632118364,"""map""",,,0.0796138718724,0.0279980152845,0.0115950535983,,0.00202042228839,0.00745372366589,0.0350983781533,-0.999354040285
826676000000,,18124,,826,672118364,"""map""",,,0.0793317630887,0.0276773273945,0.0108995884657,,0.00199967813639,0.00749599168659,0.0350688332125,-0.999354841076
826708000000,,18125,,826,704118012,"""map""",,,0.0795219242573,0.0279330536723,0.0102485399693,,0.00196611097036,0.00751090096962,0.0350637334439,-0.999354967516
826740000000,,18126,,826,736118012,"""map""",,,0.0800391361117,0.028621327132,0.00964163057506,,0.00188157822168,0.00758472183333,0.0350118928202,-0.999356400509
826776000000,,18127,,826,768118012,"""map""",,,0.0808691903949,0.0296709798276,0.00905648805201,,0.00183790157428,0.00761782225593,0.0350517637389,-0.999354798929
826808000000,,18128,,826,800117660,"""map""",,,0.0807986781001,0.029711432755,0.00833154469728,,0.0018318893922,0.00768698161235,0.0350533231723,-0.99935425102
826840000000,,18129,,826,832117660,"""map""",,,0.0799658149481,0.0288619399071,0.00757389003411,,0.00182629341024,0.00770132174828,0.0350558519832,-0.999353998139
826876000000,,18130,,826,872117660,"""map""",,,0.0795924514532,0.0285371728241,0.00655335886404,,0.00201523378085,0.00729984272317,0.0350688753594,-0.999356231922
826908000000,,18131,,826,904117308,"""map""",,,0.0796711221337,0.0287652891129,0.00572904711589,,0.00201802600956,0.00729806992135,0.0350864505952,-0.999355599719
826940000000,,18132,,826,936117308,"""map""",,,0.0800971984863,0.029413279146,0.00489309756085,,0.00200945110152,0.00737072055147,0.0350781055192,-0.999355431131
826976000000,,18133,,826,968117308,"""map""",,,0.0808367952704,0.0304618477821,0.00389295979403,,0.00197657738286,0.00743139340944,0.035072584282,-0.999355220397
827008000000,,18134,,827,116956,"""map""",,,0.0805560648441,0.0306343324482,0.00286285881884,,0.00198069641413,0.0074436405263,0.0350932783847,-0.999354419607
827040000000,,18135,,827,32116956,"""map""",,,0.079418823123,0.0300811342895,0.00185557373334,,0.00195886516978,0.00746838714718,0.0351275437725,-0.999353028761
827076000000,,18136,,827,72116956,"""map""",,,0.0785726904869,0.0300878342241,0.000636990007479,,0.00193903590073,0.00746346567944,0.0351510195671,-0.999352312265
827108000000,,18137,,827,104116604,"""map""",,,0.0783434286714,0.0305940639228,-0.000373109069187,,0.0019698356981,0.00753073106184,0.0351241298778,-0.999352649439
827140000000,,18138,,827,136116604,"""map""",,,0.0784526690841,0.0314723178744,-0.00146253511775,,0.00195541785391,0.00753324571405,0.0350831209942,-0.999354124579
827176000000,,18139,,827,168116604,"""map""",,,0.0788853019476,0.0326837822795,-0.00264967069961,,0.00191550182492,0.00755280547375,0.0350554726615,-0.99935505181
827208000000,,18140,,827,200116253,"""map""",,,0.0783350095153,0.0328321307898,-0.00357215176336,,0.00191356438698,0.00758310971637,0.0350535760534,-0.999354841076
827240000000,,18141,,827,232116253,"""map""",,,0.076900370419,0.0320675000548,-0.00426424434409,,0.00192260488599,0.00757564709001,0.0350284986785,-0.999355810453
827276000000,,18142,,827,272116253,"""map""",,,0.0757186561823,0.0318067744374,-0.00511936610565,,0.00189615708,0.00765506689913,0.0349509484772,-0.999357917796
827308000000,,18143,,827,304115901,"""map""",,,0.0752135515213,0.0320656225085,-0.00589319970459,,0.00187385415315,0.00770815941591,0.0349291585566,-0.999358381411
827340000000,,18144,,827,336115901,"""map""",,,0.0750637501478,0.0327204242349,-0.00653276545927,,0.00176718871138,0.00774404581105,0.0349342161784,-0.999358044236
827376000000,,18145,,827,368115901,"""map""",,,0.075243845582,0.0337609648705,-0.00729173282161,,0.00178919134193,0.00784279324293,0.0349641404408,-0.999356189775
827408000000,,18146,,827,400115549,"""map""",,,0.0746147856116,0.0337955728173,-0.00811387132853,,0.00195166579658,0.00750139948946,0.0349656998742,-0.999358507851
827440000000,,18147,,827,432115549,"""map""",,,0.0731807053089,0.0329594872892,-0.00870426930487,,0.00191682615793,0.00750155951577,0.0349576076793,-0.999358845026
827476000000,,18148,,827,472115549,"""map""",,,0.0719953924417,0.0326557159424,-0.00947808101773,,0.00196131643707,0.00753416372509,0.0349745928592,-0.999357875649
827508000000,,18149,,827,504115197,"""map""",,,0.0715209543705,0.0329118520021,-0.0101133119315,,0.00195007738723,0.00751595266454,0.0349924209762,-0.999357412033
827540000000,,18150,,827,536115197,"""map""",,,0.0714126825333,0.0336082875729,-0.0107631282881,,0.00194596181332,0.00753224670203,0.0349823057325,-0.999357664914
827576000000,,18151,,827,568115197,"""map""",,,0.0716144964099,0.0346769466996,-0.0113678472117,,0.00189819395817,0.00756038400395,0.0350286672659,-0.999355894747
827608000000,,18152,,827,600114845,"""map""",,,0.0710993334651,0.0346682034433,-0.0115474583581,,0.00185709584178,0.00755749793264,0.0350241154063,-0.999356231922
827640000000,,18153,,827,636114845,"""map""",,,0.0699936449528,0.0337338075042,-0.0115279126912,,0.00179528485426,0.007602217056,0.0350363379923,-0.999355557572
827676000000,,18154,,827,668114845,"""map""",,,0.0693023353815,0.0333197638392,-0.0116502214223,,0.00173667966141,0.0076274221885,0.0350118506733,-0.999356274068
827708000000,,18155,,827,700114494,"""map""",,,0.0689839050174,0.0333636142313,-0.0117862774059,,0.00176849559295,0.00763349429813,0.0349612323083,-0.999358002089
827740000000,,18156,,827,732114494,"""map""",,,0.0690364390612,0.0338252335787,-0.0120671913028,,0.00169117950426,0.00763985155754,0.0349318559549,-0.999359140054
827776000000,,18157,,827,772114494,"""map""",,,0.0695259869099,0.0349508486688,-0.0125968083739,,0.00163623055052,0.00767124042297,0.0348787509257,-0.999360825928
827808000000,,18158,,827,804126142,"""map""",,,0.0686703622341,0.0341266356409,-0.0126185379922,,0.00160127204458,0.00767975244001,0.0348804789465,-0.999360699488
827840000000,,18159,,827,836126142,"""map""",,,0.0676575005054,0.0331399813294,-0.012558429502,,0.00161034349518,0.00770519530708,0.0348225691767,-0.999362553949
827876000000,,18160,,827,868126142,"""map""",,,0.0670306682587,0.0326861999929,-0.0125546054915,,0.0015837366507,0.00776517455305,0.0348293548193,-0.999361837452
827908000000,,18161,,827,900125790,"""map""",,,0.0667529851198,0.0327024944127,-0.0127497278154,,0.00158892203015,0.00778272739836,0.0348291019382,-0.999361753159
827940000000,,18162,,827,932125790,"""map""",,,0.0667790770531,0.0331208482385,-0.0130394771695,,0.00156301390139,0.00784013305239,0.0347849741878,-0.999362891124
827976000000,,18163,,827,972125790,"""map""",,,0.0672472864389,0.0341920182109,-0.0135362492874,,0.00159081007726,0.00757816371785,0.0347590117291,-0.999365757109
828008000000,,18164,,828,4125438,"""map""",,,0.0663497447968,0.0334247797728,-0.0135592110455,,0.00157844919684,0.00760182061221,0.0347123551678,-0.999367232249
828040000000,,18165,,828,36125438,"""map""",,,0.0653081163764,0.0324807688594,-0.0136016178876,,0.00152931091056,0.00760581896519,0.0346833159892,-0.99936828592
828076000000,,18166,,828,68125438,"""map""",,,0.0646248087287,0.0320367068052,-0.0136496638879,,0.00154334350621,0.0076818910633,0.0346114134656,-0.999370140382
828108000000,,18167,,828,100125086,"""map""",,,0.0642820224166,0.0320674069226,-0.0138072837144,,0.00151658783067,0.0077173507216,0.0346357321972,-0.99936908671
828140000000,,18168,,828,132125086,"""map""",,,0.0642817914486,0.0325047522783,-0.0141653073952,,0.00146682491492,0.00775707478487,0.0346763617592,-0.99936748513
828176000000,,18169,,828,172125086,"""map""",,,0.0647031590343,0.0335697904229,-0.0147180482745,,0.00142659904074,0.00775695888104,0.0346810400594,-0.99936735869
828208000000,,18170,,828,204136734,"""map""",,,0.0639970749617,0.0326714999974,-0.0146177262068,,0.00141664942104,0.00775315545723,0.0346799020945,-0.999367400836
828240000000,,18171,,828,236136734,"""map""",,,0.0631861910224,0.031571496278,-0.0144085846841,,0.00137342947426,0.00774384725988,0.03467808978,-0.999367611571
828276000000,,18172,,828,268136734,"""map""",,,0.0627350956202,0.0309958662838,-0.0141675602645,,0.00134500603475,0.00776257692423,0.0346363222531,-0.999369002417
828308000000,,18173,,828,300136382,"""map""",,,0.0626509189606,0.030894331634,-0.0140880895779,,0.00127950291744,0.00778922920829,0.0346280193239,-0.999369128857
828340000000,,18174,,828,332136382,"""map""",,,0.0628909468651,0.031195987016,-0.0141377858818,,0.00120124445157,0.00780805534941,0.0346336670016,-0.999368875976
828376000000,,18175,,828,372136382,"""map""",,,0.0636015832424,0.0321304798126,-0.014325636439,,0.00115707060306,0.00782860786496,0.0345980107678,-0.999369971794
828408000000,,18176,,828,404136029,"""map""",,,0.0629651844501,0.0312691666186,-0.0141512872651,,0.00114669984415,0.00783667766936,0.034608800361,-0.999369550326
828440000000,,18177,,828,436136029,"""map""",,,0.0622218511999,0.0302553381771,-0.0140043254942,,0.0011178045575,0.00778434873494,0.0346154595631,-0.999369803207
828476000000,,18178,,828,468136029,"""map""",,,0.0617885552347,0.0297385137528,-0.0137593718246,,0.00129433202268,0.0074817560946,0.0346297473447,-0.99937136264
828508000000,,18179,,828,500135677,"""map""",,,0.0616669282317,0.0296507701278,-0.0135310618207,,0.00125449040921,0.00755048937272,0.0346513265312,-0.999370182528
828540000000,,18180,,828,532135677,"""map""",,,0.0618646368384,0.0299825351685,-0.0132978707552,,0.00117487369529,0.00763877977636,0.0346170611433,-0.999370814731
828576000000,,18181,,828,572135677,"""map""",,,0.0625203102827,0.0309536810964,-0.0130309890956,,0.00114352862307,0.00765995494574,0.0346334562674,-0.999370098235
828608000000,,18182,,828,604135324,"""map""",,,0.0618821829557,0.0300707519054,-0.0127394404262,,0.00112486843516,0.00769051700854,0.0346280193239,-0.999370056088
828640000000,,18183,,828,636135324,"""map""",,,0.0611208826303,0.0290413834155,-0.0125433159992,,0.00111377327729,0.00772461380898,0.0346155017099,-0.999370266822
828676000000,,18184,,828,668135324,"""map""",,,0.060700558126,0.0284990090877,-0.012504898943,,0.00110398401318,0.0077815331279,0.0346155017099,-0.999369845354
828708000000,,18185,,828,708134971,"""map""",,,0.0605740360916,0.0284477546811,-0.0124020157382,,0.00103904000017,0.00781335366925,0.034629958079,-0.999369128857
828740000000,,18186,,828,732134971,"""map""",,,0.0607377141714,0.0287229642272,-0.0124460291117,,0.00106035873225,0.0078646058834,0.034575420057,-0.99937056185
828776000000,,18187,,828,772134971,"""map""",,,0.0613775327802,0.0296274311841,-0.0126513894647,,0.00105444533184,0.00797313171341,0.0345497947731,-0.999370646144
828808000000,,18188,,828,804134618,"""map""",,,0.0608653314412,0.028618440032,-0.012523021549,,0.00102627312706,0.00799726506472,0.0345505955632,-0.99937043541
828840000000,,18189,,828,836134618,"""map""",,,0.0602489449084,0.0273979008198,-0.0126636940986,,0.00103270710691,0.00808127690469,0.0344853100949,-0.999371994843
828876000000,,18190,,828,868134618,"""map""",,,0.0599401369691,0.0266827791929,-0.0128708044067,,0.0009638408028,0.00813400228291,0.0344706851385,-0.999372205577
828908000000,,18191,,828,900134265,"""map""",,,0.0599126666784,0.0264367721975,-0.0131110260263,,0.000906728201073,0.00814943033437,0.034483329193,-0.999371699815
828940000000,,18192,,828,932134265,"""map""",,,0.0601555556059,0.0265958160162,-0.0133947264403,,0.000908803933362,0.00813345338606,0.0345092916517,-0.999370856878
828976000000,,18193,,828,972134265,"""map""",,,0.0608161985874,0.0273367986083,-0.0142530314624,,0.000921479268779,0.00787218408433,0.0345613430096,-0.999371151906
829008000000,,18194,,829,4133912,"""map""",,,0.0603569895029,0.0263707414269,-0.0145458215848,,0.000844008751405,0.00791970268039,0.0345752514696,-0.999370393263
829040000000,,18195,,829,36133912,"""map""",,,0.0598096735775,0.0252519454807,-0.0149028617889,,0.000809283040954,0.00801129305056,0.0345546416607,-0.99937043541
829076000000,,18196,,829,68133912,"""map""",,,0.0595739819109,0.0246297940612,-0.0153889842331,,0.000769150350821,0.00806196706263,0.0345459594099,-0.999370351116
829112000000,,18197,,829,100133558,"""map""",,,0.0596183016896,0.0244506075978,-0.0159378908575,,0.000736115782667,0.00806292722052,0.0345435570395,-0.999370393263
829140000000,,18198,,829,132133558,"""map""",,,0.0599339418113,0.0246681459248,-0.0166469439864,,0.00071304960273,0.00802691932392,0.0345403117322,-0.999370856878
829176000000,,18199,,829,172133558,"""map""",,,0.0606753006577,0.0254226569086,-0.0177020262927,,0.000626536610717,0.00805059531607,0.0346019304247,-0.999368580948
829208000000,,18200,,829,204133205,"""map""",,,0.0600099600852,0.0245183035731,-0.0180861316621,,0.000642671609707,0.00805787947687,0.0345909300973,-0.999368875976
829240000000,,18201,,829,236133205,"""map""",,,0.0591947548091,0.0234760269523,-0.0184016022831,,0.000623260022517,0.00804540104626,0.0346623690055,-0.999366557899
829276000000,,18202,,829,268133205,"""map""",,,0.0586957149208,0.0229180008173,-0.0187280289829,,0.000599361771595,0.00809136317238,0.0346973087429,-0.999364998466
829308000000,,18203,,829,300132851,"""map""",,,0.0584867596626,0.0228007361293,-0.0190024860203,,0.000540260694726,0.00813503060016,0.0347048951756,-0.99936440841
829340000000,,18204,,829,332132851,"""map""",,,0.0585719645023,0.0230921432376,-0.0192378871143,,0.000475853724756,0.00820068946324,0.0346704612004,-0.999365040613
829376000000,,18205,,829,372132851,"""map""",,,0.0590159036219,0.0239599980414,-0.0194322951138,,0.00042387908728,0.0082374313077,0.0347008069313,-0.999363691914
829408000000,,18206,,829,404132497,"""map""",,,0.0596289560199,0.0249832253903,-0.0197172369808,,0.000377439187122,0.00825300390968,0.0347127344895,-0.999363228298
829440000000,,18207,,829,436132497,"""map""",,,0.0604635290802,0.0263073518872,-0.0200713612139,,0.000295103342922,0.00827061668255,0.034698404561,-0.999363649767
829476000000,,18208,,829,468132497,"""map""",,,0.061485696584,0.027919832617,-0.020414667204,,0.000222225844219,0.00825146785461,0.0346881207299,-0.999364155529
829508000000,,18209,,829,500132143,"""map""",,,0.0616211779416,0.0282448604703,-0.0205745175481,,8.21089756166e-05,0.00825390874983,0.0346635069704,-0.999364998466
829540000000,,18210,,829,532132143,"""map""",,,0.0609644055367,0.027353014797,-0.0202789474279,,-0.00110569754599,0.00828563972913,0.0346001181102,-0.999366347165
829576000000,,18211,,829,572132143,"""map""",,,0.0605852007866,0.0267915017903,-0.0196394491941,,-0.00351624769245,0.00834141515624,0.0345669485405,-0.999361415984
829608000000,,18212,,829,604131789,"""map""",,,0.0605973042548,0.0269942320883,-0.0200224462897,,-0.00383633588473,0.00832425612054,0.0345219357062,-0.999361921746
829640000000,,18213,,829,636131789,"""map""",,,0.0609184280038,0.0277466252446,-0.0212312303483,,-0.00226488108911,0.00818420247221,0.0344986706459,-0.999368665242
829676000000,,18214,,829,668131789,"""map""",,,0.0614967979491,0.0288243442774,-0.0224043689668,,-0.000175824468914,0.00802240269641,0.0345655155476,-0.999370266822
829708000000,,18215,,829,700131434,"""map""",,,0.06124914065,0.0287515334785,-0.0225768350065,,-0.000339969650979,0.00797491472267,0.0345706574631,-0.99937043541
829740000000,,18216,,829,732131434,"""map""",,,0.0603059977293,0.0278938543051,-0.0225838180631,,-0.000413180373204,0.00801988837348,0.0345780753085,-0.99936976106
829776000000,,18217,,829,772131434,"""map""",,,0.0590593703091,0.0269103050232,-0.018572313711,,-0.00647969007583,0.00997723839698,0.0341183374849,-0.999347001762
829808000000,,18218,,829,804131080,"""map""",,,0.0575621686876,0.025779562071,-0.00994830019772,,-0.0133595357084,0.013354456601,0.0336268209376,-0.999255964569
829836000000,,18219,,829,836131080,"""map""",,,0.0556511580944,0.0243022926152,0.00148532399908,,-0.0308811844123,0.0254174642054,0.0327120235906,-0.998664264963
829876000000,,18220,,829,868131080,"""map""",,,0.0535772591829,0.0226384364069,0.0135527495295,,-0.0501385330695,0.0429290209208,0.0323688639501,-0.997294070918
829908000000,,18221,,829,900130726,"""map""",,,0.0504621788859,0.0194710977376,0.0249871648848,,-0.0562942482233,0.0495669394856,0.0322932946507,-0.996660055875
829940000000,,18222,,829,932130726,"""map""",,,0.0460812300444,0.0145750995725,0.0357344932854,,-0.0689002626116,0.0646568625858,0.0318679065087,-0.995015949462
829976000000,,18223,,829,972130726,"""map""",,,0.0396062918007,0.00744409346953,0.0494105666876,,-0.0774997496714,0.0751458412673,0.0311523373146,-0.99366817754
830008000000,,18224,,830,4130371,"""map""",,,0.0332423970103,0.000611551804468,0.0616534501314,,-0.0806863075103,0.0787309648951,0.0307828780406,-0.993148338311
830036000000,,18225,,830,36130371,"""map""",,,0.0255711283535,-0.00739884469658,0.0755831003189,,-0.0857236757129,0.0839460072535,0.0302543144134,-0.992315137262
830076000000,,18226,,830,76130371,"""map""",,,0.0141768623143,-0.0190699156374,0.0952323451638,,-0.0883258244861,0.0872557442375,0.0297735031656,-0.991815781401
830108000000,,18227,,830,100130016,"""map""",,,0.00590127054602,-0.0277656540275,0.108554936945,,-0.0887859946029,0.0878323760573,0.02935578575,-0.991736250298
830140000000,,18228,,830,132130016,"""map""",,,-0.00641295639798,-0.0407731533051,0.127545446157,,-0.0894084649483,0.0870442475239,0.0283978300302,-0.99177768065
830176000000,,18229,,830,172130016,"""map""",,,-0.0232368595898,-0.0583314858377,0.152583748102,,-0.0900133253196,0.0857081498676,0.0275926144894,-0.991862100788
830208000000,,18230,,830,204129661,"""map""",,,-0.0378254204988,-0.0734785869718,0.173773407936,,-0.0902177253518,0.0855189859212,0.0272771874752,-0.991868591403
830240000000,,18231,,830,236129661,"""map""",,,-0.0532757863402,-0.089640788734,0.196134284139,,-0.0903839263451,0.0852113295675,0.0269545954967,-0.991888737596
830276000000,,18232,,830,268129661,"""map""",,,-0.0695231333375,-0.106779024005,0.219636186957,,-0.0900761794416,0.0837211340604,0.0266118573246,-0.992052857424
830308000000,,18233,,830,300129306,"""map""",,,-0.0866952836514,-0.125039204955,0.243952006102,,-0.089806907507,0.082944869124,0.0263636123868,-0.992149120826
830340000000,,18234,,830,332129306,"""map""",,,-0.10476629436,-0.144329950213,0.269407063723,,-0.0893520178881,0.0824696094064,0.0260698909996,-0.992237587061
830376000000,,18235,,830,372129306,"""map""",,,-0.128325343132,-0.169630348682,0.303263425827,,-0.0893494653696,0.0824266117184,0.0259838692818,-0.992243614061
830408000000,,18236,,830,404128951,"""map""",,,-0.147881194949,-0.190736621618,0.331799328327,,-0.0893498555572,0.0823175880287,0.025987704645,-0.992252507046
830440000000,,18237,,830,436128951,"""map""",,,-0.16807384789,-0.212556272745,0.361472725868,,-0.0893493165385,0.0822895725575,0.0260584692036,-0.992253054955
830476000000,,18238,,830,476128951,"""map""",,,-0.194259136915,-0.240833505988,0.400666594505,,-0.0894195009195,0.0832183422433,0.0262289953527,-0.992164799454
830508000000,,18239,,830,500128596,"""map""",,,-0.210975825787,-0.258507221937,0.424473702908,,-0.0894686266934,0.0836336958134,0.0263623058345,-0.992121936109
830540000000,,18240,,830,532128596,"""map""",,,-0.233993902802,-0.282684087753,0.456426978111,,-0.089348690592,0.0830186962439,0.0267314279338,-0.992174451082
830576000000,,18241,,830,572128596,"""map""",,,-0.262499213219,-0.312822312117,0.489472299814,,-0.0887955039856,0.0757046678135,0.0268578263325,-0.992805600139
830608000000,,18242,,830,604128241,"""map""",,,-0.284851521254,-0.336616426706,0.507080256939,,-0.0885037081825,0.0712864900752,0.0268611559335,-0.993158495701
830640000000,,18243,,830,636128241,"""map""",,,-0.306707948446,-0.36018589139,0.516338288784,,-0.0873432862464,0.056108359548,0.0268371322299,-0.994234757625
830676000000,,18244,,830,668128241,"""map""",,,-0.328093439341,-0.383626282215,0.518057644367,,-0.0776296836309,0.0341885291098,0.0263983835369,-0.99604614488
830708000000,,18245,,830,700127886,"""map""",,,-0.349654227495,-0.407130658627,0.514631807804,,-0.0654258594958,0.0215680333278,0.0259117138771,-0.99728774889
830740000000,,18246,,830,732127886,"""map""",,,-0.371036738157,-0.430577784777,0.508972287178,,-0.0315519170974,-0.00211387386997,0.0248811391373,-0.999190173338
830772000000,,18247,,830,772127886,"""map""",,,-0.395489662886,-0.458986967802,0.50438785553,,-0.00775685713591,-0.0153034933647,0.0242224260419,-0.999559421878
830808000000,,18248,,830,804127530,"""map""",,,-0.412569046021,-0.480360239744,0.509046435356,,-0.00597957260795,-0.014931737746,0.0241753480122,-0.999578345813
830840000000,,18249,,830,836127530,"""map""",,,-0.427422344685,-0.500364363194,0.52700316906,,-0.00640245111917,-0.00911319861496,0.0245330904623,-0.999637014226
830876000000,,18250,,830,868127530,"""map""",,,-0.440417289734,-0.519150972366,0.559827387333,,-0.00592711994948,-0.00373574510445,0.0253298344866,-0.999654631609
830908000000,,18251,,830,900127175,"""map""",,,-0.453384280205,-0.537383973598,0.608067750931,,-0.00698276473783,-0.00104039824821,0.0259041695912,-0.99963950089
830940000000,,18252,,830,932127175,"""map""",,,-0.466607958078,-0.555226147175,0.666503787041,,-0.0192005780047,0.0135141508868,0.0267295734725,-0.999366979368
830976000000,,18253,,830,972127175,"""map""",,,-0.482257992029,-0.576700985432,0.744101703167,,-0.0372864978129,0.0365987188678,0.0269573771887,-0.998270276223
831008000000,,18254,,831,4126819,"""map""",,,-0.49448415637,-0.593622922897,0.8053779006,,-0.0449606527892,0.0479132364322,0.0270619435198,-0.997472057059
831040000000,,18255,,831,36126819,"""map""",,,-0.506671071053,-0.610546767712,0.864370346069,,-0.0563948985196,0.0653294989585,0.0273383425523,-0.995893741876
831076000000,,18256,,831,68126819,"""map""",,,-0.519164979458,-0.627663493156,0.92161667347,,-0.0634935825666,0.0750125520235,0.0277964366488,-0.994770907685
831108000000,,18257,,831,100126464,"""map""",,,-0.534098088741,-0.646272540092,0.974439501762,,-0.0656843316297,0.0782811053215,0.028062088235,-0.994369206072
831140000000,,18258,,831,132126464,"""map""",,,-0.551423966885,-0.666414439678,1.02492117882,,-0.0683983153778,0.0825980588419,0.0284514829684,-0.993825806754
831176000000,,18259,,831,172126464,"""map""",,,-0.574063837528,-0.692278325558,1.09160459042,,-0.0701678132755,0.0831872250275,0.0287724312198,-0.993644027396
831208000000,,18260,,831,204126108,"""map""",,,-0.593027770519,-0.713531494141,1.1476585865,,-0.0707691157778,0.0829574469948,0.0288896837523,-0.993617222
831240000000,,18261,,831,236126108,"""map""",,,-0.612685501575,-0.735274136066,1.20597612858,,-0.0715585045184,0.0834121278551,0.0290511061821,-0.993517924025
831276000000,,18262,,831,268126108,"""map""",,,-0.632900953293,-0.757475495338,1.2659869194,,-0.0721696305291,0.0834803563588,0.0291798648043,-0.993464271087
831308000000,,18263,,831,300125752,"""map""",,,-0.654206395149,-0.780144631863,1.32742416859,,-0.0723854645403,0.0830185954866,0.0292550969289,-0.99348496519
831340000000,,18264,,831,332125752,"""map""",,,-0.676530659199,-0.803284704685,1.39027512074,,-0.0725807137673,0.0824295471805,0.0292981288613,-0.993518556228
831376000000,,18265,,831,372125752,"""map""",,,-0.704458653927,-0.832372963428,1.46584677696,,-0.0724561418418,0.0793015941229,0.0292418628185,-0.993783870639
831408000000,,18266,,831,404125396,"""map""",,,-0.72622948885,-0.855362534523,1.51800537109,,-0.0724188907778,0.0752126792544,0.0291881255866,-0.994105914709
831440000000,,18267,,831,436125396,"""map""",,,-0.747467279434,-0.878103137016,1.56192743778,,-0.0723272472302,0.062288638412,0.0291220393282,-0.995007941561
831476000000,,18268,,831,476125396,"""map""",,,-0.773262023926,-0.906193852425,1.60502028465,,-0.0713930735282,0.0441056865157,0.0289944608177,-0.996050781033
831508000000,,18269,,831,500125040,"""map""",,,-0.789077103138,-0.922858178616,1.6245111227,,-0.0696675670622,0.0335586312879,0.0287966656577,-0.996589712785
831540000000,,18270,,831,532125040,"""map""",,,-0.810038089752,-0.944882035255,1.64328289032,,-0.0609313538149,0.0108298460933,0.0281568343504,-0.997685994462
831576000000,,18271,,831,572125040,"""map""",,,-0.83452641964,-0.972723603249,1.66725003719,,-0.0425577289174,-0.0022664191198,0.0279324023821,-0.998700932721
831608000000,,18272,,831,604136684,"""map""",,,-0.852002501488,-0.995348751545,1.69776105881,,-0.0347959060266,-0.00285301764029,0.0159950240378,-0.99926237089
831640000000,,18273,,831,636136684,"""map""",,,-0.867688655853,-1.01782917976,1.74204516411,,-0.0246972142417,-0.00253413853572,0.0169076297486,-0.999548843019
831676000000,,18274,,831,668136684,"""map""",,,-0.881840527058,-1.03984761238,1.80057442188,,-0.0161375482159,-0.00100491060177,0.0185817025715,-0.99969660987
831708000000,,18275,,831,700136328,"""map""",,,-0.896072626114,-1.0610793829,1.87393164635,,-0.0141735900275,0.0022001221271,0.0196106335842,-0.999704828506
831740000000,,18276,,831,732136328,"""map""",,,-0.91052287817,-1.08147513866,1.95570385456,,-0.020281572476,0.0190627266115,0.0214208828746,-0.999383037317
831776000000,,18277,,831,772136328,"""map""",,,-0.927583634853,-1.10619544983,2.05637693405,,-0.0308496738808,0.0411405309288,0.0229253989259,-0.998413870536
831808000000,,18278,,831,804135972,"""map""",,,-0.940790951252,-1.12557005882,2.13116598129,,-0.0354934982727,0.0522940934653,0.0236813448008,-0.997719796234
831840000000,,18279,,831,836135972,"""map""",,,-0.953601658344,-1.14473366737,2.19949388504,,-0.0434782753579,0.0717415252325,0.0251610785051,-0.996157454707
831876000000,,18280,,831,868135972,"""map""",,,-0.966158747673,-1.16377747059,2.26166987419,,-0.048821651495,0.0832305467194,0.026819852022,-0.994972327474
831908000000,,18281,,831,900135615,"""map""",,,-0.980421364307,-1.18300700188,2.31666946411,,-0.0507500937195,0.0874091406972,0.0277556384995,-0.99449172696
831940000000,,18282,,831,932135615,"""map""",,,-0.996422410011,-1.20249199867,2.36709809303,,-0.0523106782502,0.0921265294498,0.0291609408694,-0.993944703013
831976000000,,18283,,831,972135615,"""map""",,,-1.01635825634,-1.22684431076,2.4244389534,,-0.0531682968117,0.0905954569326,0.0303501984938,-0.99400425651
832008000000,,18284,,832,4147259,"""map""",,,-1.03185093403,-1.24617671967,2.46205329895,,-0.0535884758667,0.0863145001135,0.0309411394568,-0.994344423725
832040000000,,18285,,832,36147259,"""map""",,,-1.04702532291,-1.26541292667,2.49192237854,,-0.0543157203963,0.0713868548924,0.032080368772,-0.99545195861
832076000000,,18286,,832,68147259,"""map""",,,-1.06181335449,-1.28461897373,2.51412010193,,-0.0551634571681,0.0473939971367,0.0331005332402,-0.996802470077
832108000000,,18287,,832,100146902,"""map""",,,-1.07689297199,-1.30341720581,2.52908158302,,-0.0558378018052,0.0277534969127,0.0336721287997,-0.997485923372
832140000000,,18288,,832,132146902,"""map""",,,-1.09211444855,-1.32177901268,2.53747558594,,-0.0530621499737,-0.00961039815444,0.0337787603265,-0.997973478116
832176000000,,18289,,832,172146902,"""map""",,,-1.10925781727,-1.34512507915,2.54666018486,,-0.0362556795042,-0.036442365821,0.0327925662181,-0.998139325965
832208000000,,18290,,832,204146545,"""map""",,,-1.1200760603,-1.36421537399,2.56112480164,,-0.0289738724115,-0.0353308334987,0.0325601684955,-0.998424828716
832240000000,,18291,,832,236146545,"""map""",,,-1.12810122967,-1.38338279724,2.58832478523,,-0.0196986111792,-0.0272018328613,0.0326463166538,-0.998902521097
832276000000,,18292,,832,268146545,"""map""",,,-1.1341381073,-1.40228772163,2.62887072563,,-0.0136890649848,-0.0138224457972,0.0327963594345,-0.999272739015
832308000000,,18293,,832,300146188,"""map""",,,-1.14025175571,-1.42032420635,2.67897224426,,-0.0160127112262,0.00397617715246,0.0326651141482,-0.999330143022
832340000000,,18294,,832,332146188,"""map""",,,-1.14696955681,-1.43765497208,2.73389363289,,-0.0316617794435,0.0563380164084,0.0314882476973,-0.997412756443
832376000000,,18295,,832,372146188,"""map""",,,-1.15578246117,-1.45924818516,2.80010819435,,-0.0557830609515,0.123922418848,0.0287287670847,-0.990306081288
832408000000,,18296,,832,404145830,"""map""",,,-1.16407668591,-1.47668862343,2.84935188293,,-0.0644745577097,0.150504125371,0.0274869523402,-0.986121742168
832440000000,,18297,,832,436145830,"""map""",,,-1.17395603657,-1.49464809895,2.89472317696,,-0.0836937945852,0.207972175179,0.02437959164,-0.974242610768
832476000000,,18298,,832,476145830,"""map""",,,-1.18971288204,-1.51813316345,2.94581198692,,-0.0968386063823,0.239737612162,0.021460543059,-0.965757565079
832508000000,,18299,,832,500145472,"""map""",,,-1.20274734497,-1.53230595589,2.97294831276,,-0.0997861567696,0.246847859263,0.0202805998881,-0.96368958781
832540000000,,18300,,832,532145472,"""map""",,,-1.22368144989,-1.55174255371,3.0058453083,,-0.0994327923233,0.244090575555,0.0184518481312,-0.964464836941
832576000000,,18301,,832,572145472,"""map""",,,-1.25397026539,-1.57752740383,3.04302430153,,-0.0921231379456,0.221338400177,0.0174847043984,-0.970678673258
832608000000,,18302,,832,604145114,"""map""",,,-1.28112387657,-1.59917461872,3.07038879395,,-0.0864319963076,0.204467322282,0.017240547705,-0.974897614941
832640000000,,18303,,832,636145114,"""map""",,,-1.31038749218,-1.62161433697,3.09663367271,,-0.0726056014814,0.165622062955,0.0172905338674,-0.983360955003
832676000000,,18304,,832,676145114,"""map""",,,-1.34899413586,-1.6504471302,3.12881493568,,-0.0572449033187,0.123023658377,0.0177728202549,-0.990591963361
832708000000,,18305,,832,700144756,"""map""",,,-1.37327718735,-1.66679537296,3.14855194092,,-0.0521897655273,0.108938647854,0.0180586601815,-0.992513269597
832740000000,,18306,,832,732144756,"""map""",,,-1.40600192547,-1.68802082539,3.17479515076,,-0.0407319814406,0.0778798712749,0.0190283327252,-0.995948617073
832776000000,,18307,,832,772144756,"""map""",,,-1.44602143764,-1.71460926533,3.20170235634,,-0.0308038006582,0.0450319142197,0.020080865973,-0.998308629855
832808000000,,18308,,832,804144397,"""map""",,,-1.47709643841,-1.73582756519,3.21507692337,,-0.025989039844,0.0249164453547,0.0205926130076,-0.999139512827
832840000000,,18309,,832,836144397,"""map""",,,-1.50706660748,-1.75693750381,3.22209787369,,-0.0122568290655,-0.0257478614181,0.0208859972201,-0.999375155857
832876000000,,18310,,832,868144397,"""map""",,,-1.53520774841,-1.77776706219,3.22524833679,,0.0258972812157,-0.0888972787466,0.0171118733765,-0.995557030703
832908000000,,18311,,832,900144039,"""map""",,,-1.56144750118,-1.79682385921,3.22658276558,,0.0510435714453,-0.115790935169,0.0140144171858,-0.991862269375
832940000000,,18312,,832,932144039,"""map""",,,-1.58464288712,-1.81334996223,3.22713756561,,0.0936089697721,-0.149340848644,0.00780188742155,-0.984313853101
832976000000,,18313,,832,972144039,"""map""",,,-1.60706090927,-1.83067166805,3.22754693031,,0.117282555601,-0.150618028546,0.00199139644529,-0.981608404748
833008000000,,18314,,833,4143680,"""map""",,,-1.61958932877,-1.84120213985,3.22861194611,,0.119826693477,-0.134614716067,-0.00151227107142,-0.983625047155
833040000000,,18315,,833,36143680,"""map""",,,-1.62736177444,-1.84792423248,3.23468852043,,0.0912405351933,-0.0856858446359,-0.00561492959917,-0.992119744473
833076000000,,18316,,833,68143680,"""map""",,,-1.63115727901,-1.8508951664,3.25170493126,,0.0479908771833,-0.0343369801885,-0.00663968807386,-0.998235336485
833108000000,,18317,,833,100143320,"""map""",,,-1.63485300541,-1.85110783577,3.27938699722,,0.030260182045,-0.00925932149179,-0.00664908682108,-0.999477109083
833140000000,,18318,,833,132143320,"""map""",,,-1.63992881775,-1.85019218922,3.31248998642,,-0.00746522893236,0.0429373284598,-0.0061474550301,-0.999030942545
833176000000,,18319,,833,172143320,"""map""",,,-1.64670097828,-1.84981489182,3.35324835777,,-0.0525215481529,0.0992689569865,-0.00633226896082,-0.993653383996
833208000000,,18320,,833,204142961,"""map""",,,-1.65287065506,-1.85056722164,3.38177633286,,-0.0756377379595,0.127542503863,-0.00670316122772,-0.98892214737
833240000000,,18321,,833,236142961,"""map""",,,-1.66026926041,-1.85270965099,3.40611195564,,-0.113377949066,0.176073688498,-0.0075697004331,-0.977796643769
833276000000,,18322,,833,268142961,"""map""",,,-1.66968166828,-1.85676312447,3.42699337006,,-0.134982995229,0.201805685579,-0.0083254777206,-0.970043730985
833308000000,,18323,,833,300142601,"""map""",,,-1.68254506588,-1.86217939854,3.4443321228,,-0.13875767225,0.205085990603,-0.00860031731974,-0.968819997238
833340000000,,18324,,833,332142601,"""map""",,,-1.69887292385,-1.86919355392,3.45865893364,,-0.132536707848,0.193097999162,-0.00865687839044,-0.972148333865
833376000000,,18325,,833,372142601,"""map""",,,-1.72254621983,-1.88134407997,3.47408795357,,-0.11719634554,0.168556674259,-0.00811862098811,-0.978666386134
833408000000,,18326,,833,404142242,"""map""",,,-1.74363517761,-1.89346516132,3.4853758812,,-0.104133097114,0.148264253497,-0.00736086279873,-0.983422531548
833440000000,,18327,,833,436142242,"""map""",,,-1.76611530781,-1.90734767914,3.49652338028,,-0.0808649126011,0.11280997155,-0.0054299049342,-0.990305659819
833476000000,,18328,,833,468142242,"""map""",,,-1.78938639164,-1.92256247997,3.50779819489,,-0.0613170409427,0.0834171755988,-0.00318309858694,-0.994621370666
833508000000,,18329,,833,500141882,"""map""",,,-1.81352889538,-1.93706059456,3.5195069313,,-0.0518081528143,0.0691037166446,-0.00169000433159,-0.996261894598
833540000000,,18330,,833,532141882,"""map""",,,-1.83796000481,-1.95068693161,3.53154635429,,-0.0360080493898,0.0460438567597,0.00166501125042,-0.998288862983
833576000000,,18331,,833,572141882,"""map""",,,-1.86749088764,-1.96835279465,3.54638290405,,-0.0246080522544,0.0304732004492,0.00516096589386,-0.999219338958
833608000000,,18332,,833,604141521,"""map""",,,-1.89010250568,-1.98274326324,3.55775809288,,-0.0199419104477,0.0246114546246,0.00721621481464,-0.999472135755
833640000000,,18333,,833,636141521,"""map""",,,-1.9117372036,-1.9972499609,3.56864261627,,-0.0156187249559,0.0199963182424,0.0102242353929,-0.999625803165
833676000000,,18334,,833,668141521,"""map""",,,-1.93240666389,-2.01176214218,3.57911634445,,-0.0133597847614,0.0189713314174,0.0135085707099,-0.999639543037
833708000000,,18335,,833,700141161,"""map""",,,-1.9530569315,-2.02479720116,3.58883166313,,-0.013094614242,0.0193828331607,0.0145881200877,-0.9996199869
833740000000,,18336,,833,732141161,"""map""",,,-1.97367370129,-2.03649544716,3.59812021255,,-0.0132047149812,0.0214784508598,0.0171690245031,-0.999534681678
833776000000,,18337,,833,772141161,"""map""",,,-1.99822962284,-2.05141305923,3.60955357552,,-0.0138552028557,0.0241613625024,0.0194602114818,-0.999422655355
833808000000,,18338,,833,804140800,"""map""",,,-2.01703333855,-2.0635406971,3.61850261688,,-0.0142392192561,0.0254290205091,0.0204754026219,-0.999365462081
833840000000,,18339,,833,836140800,"""map""",,,-2.03517603874,-2.07580804825,3.62719798088,,-0.0150050103714,0.0273977195594,0.0224154642057,-0.999260642869
833876000000,,18340,,833,868140800,"""map""",,,-2.05271863937,-2.08823060989,3.63574290276,,-0.015698313517,0.0286196666746,0.024220192259,-0.999173651774
833908000000,,18341,,833,900140440,"""map""",,,-2.07078742981,-2.09930276871,3.64391207695,,-0.0160128962772,0.0289601776492,0.0249966215022,-0.999139681414
833940000000,,18342,,833,932140440,"""map""",,,-2.08926057816,-2.10917758942,3.65169167519,,-0.0163985412582,0.0292496777662,0.0264372007843,-0.999087925084
833976000000,,18343,,833,972140440,"""map""",,,-2.11145853996,-2.12196826935,3.66105532646,,-0.0164820697265,0.028829185244,0.0276977708764,-0.999064617877
