rosbagTimestamp,header,seq,stamp,secs,nsecs,frame_id,pose,position,x,y,z,orientation,x,y,z,w
718376000000,,17830,,718,372126870,"""map""",,,-0.0209515932947,0.0283537097275,0.0831196382642,,0.00192997785769,0.00219928224618,0.0474530102979,-0.998869225087
718408000000,,17831,,718,404126870,"""map""",,,-0.0216200109571,0.0275790970773,0.0834012925625,,0.00188589116343,0.00222344302999,0.0474758538898,-0.998868129269
718440000000,,17832,,718,436126870,"""map""",,,-0.0219511985779,0.0274398531765,0.0836600586772,,0.00180343522747,0.00224175837724,0.0475086019911,-0.998866738423
718476000000,,17833,,718,468126527,"""map""",,,-0.0220066085458,0.0278461854905,0.0837481468916,,0.00177175590275,0.00227156743555,0.0474964636987,-0.998867244185
718508000000,,17834,,718,500126527,"""map""",,,-0.0238602552563,0.0247576162219,0.0833998247981,,0.00178729047379,0.00224994363272,0.0474203886371,-0.998870910961
718540000000,,17835,,718,532126527,"""map""",,,-0.0252831168473,0.0225072614849,0.0830747410655,,0.00190841547957,0.00201137116521,0.0473800962499,-0.998873102597
718576000000,,17836,,718,572126185,"""map""",,,-0.0265577174723,0.020716894418,0.0827002376318,,0.00190285436446,0.00208431653001,0.0473812342149,-0.998872891863
718608000000,,17837,,718,604126185,"""map""",,,-0.0271750222892,0.0199889745563,0.0825519859791,,0.00189142845261,0.00210842633836,0.0473819085644,-0.998872891863
718640000000,,17838,,718,636126185,"""map""",,,-0.0275000035763,0.0198470633477,0.08252415061,,0.00181662184038,0.00214909828383,0.0473725098172,-0.998873355478
718680000000,,17839,,718,668125843,"""map""",,,-0.0275774523616,0.0202493239194,0.0825495645404,,0.00182837846505,0.00221447961156,0.0473312059057,-0.998875125646
718708000000,,17840,,718,700125843,"""map""",,,-0.0294032935053,0.0172834806144,0.0819880068302,,0.00183646775825,0.00222328758262,0.0472869517147,-0.998877232988
718740000000,,17841,,718,732125843,"""map""",,,-0.0308271124959,0.0150895174593,0.0815410166979,,0.00176535528231,0.00222940138635,0.0472461957122,-0.99887921389
718776000000,,17842,,718,772125501,"""map""",,,-0.0320539139211,0.0133103094995,0.0811142921448,,0.00172889550069,0.00228376435896,0.0472517590962,-0.998878961009
718808000000,,17843,,718,804125501,"""map""",,,-0.0326732993126,0.01260089688,0.0807152613997,,0.00171258316801,0.00232516624958,0.0472752770377,-0.998877780897
718840000000,,17844,,718,836125501,"""map""",,,-0.0330048017204,0.0124129420146,0.0803166404366,,0.00168175947783,0.00235969161844,0.0473127877329,-0.998875926436
718876000000,,17845,,718,868125158,"""map""",,,-0.0330758281052,0.0127405663952,0.0799819603562,,0.0016043226697,0.00239953804751,0.0473191097602,-0.998875673555
718908000000,,17846,,718,900125158,"""map""",,,-0.035051908344,0.00947516132146,0.0792188495398,,0.00159967688515,0.00245939258161,0.0473646705034,-0.998873355478
718940000000,,17847,,718,932125158,"""map""",,,-0.0366444773972,0.00694423401728,0.0785470455885,,0.00153316438375,0.00249484911183,0.0473749121876,-0.998872891863
718976000000,,17848,,718,972124815,"""map""",,,-0.038153141737,0.00477504776791,0.0778727903962,,0.00150173016107,0.00255256288238,0.0473830465293,-0.998872428248
719008000000,,17849,,719,4124815,"""map""",,,-0.0389866009355,0.00375324813649,0.0774857327342,,0.00141785941426,0.00260269836968,0.0473897057314,-0.998872091073
719040000000,,17850,,719,36124815,"""map""",,,-0.0394903123379,0.00331180146895,0.0769598037004,,0.00158669456509,0.00224443651312,0.0473838051726,-0.998873018303
719076000000,,17851,,719,68124473,"""map""",,,-0.0398014485836,0.00333281233907,0.0766402184963,,0.00157812194138,0.00228419253637,0.0473877669764,-0.998872765422
719108000000,,17852,,719,100124473,"""map""",,,-0.0416353084147,0.000374915776774,0.0762678980827,,0.00149688253263,0.00231496636239,0.0473816135365,-0.998873102597
719140000000,,17853,,719,132124473,"""map""",,,-0.0431160405278,-0.00189348030835,0.0760552212596,,0.00138705241406,0.00230780604911,0.0473512678056,-0.998874704177
719176000000,,17854,,719,172124130,"""map""",,,-0.0445030778646,-0.00383680686355,0.0756958499551,,0.00135434452514,0.00229347904291,0.04731830897,-0.998876305758
719208000000,,17855,,719,204124130,"""map""",,,-0.0453228615224,-0.00477857794613,0.0754266902804,,0.00130371163094,0.00238253833842,0.0472865302463,-0.99887773875
719240000000,,17856,,719,236124130,"""map""",,,-0.0459183081985,-0.00520028825849,0.0750563368201,,0.0012503854955,0.00243335871201,0.0472925150987,-0.998877317282
719276000000,,17857,,719,268123787,"""map""",,,-0.0462880507112,-0.00516073871404,0.0746878609061,,0.00123638199929,0.00244784129935,0.0472704301501,-0.9988784131
719308000000,,17858,,719,300123787,"""map""",,,-0.0479078926146,-0.00800131261349,0.0739317014813,,0.00127913981247,0.00241277660312,0.0472311071405,-0.998880309708
719340000000,,17859,,719,332123787,"""map""",,,-0.0492108874023,-0.0101734437048,0.073237426579,,0.0011897009072,0.00247074564198,0.0472615793119,-0.998878834568
719376000000,,17860,,719,372123444,"""map""",,,-0.0504323802888,-0.0120979780331,0.0724871456623,,0.00116576400795,0.00248650078426,0.0472959711403,-0.998877148695
719408000000,,17861,,719,404123444,"""map""",,,-0.0511310063303,-0.0130305681378,0.0720598772168,,0.00109745512061,0.00256286432948,0.0472709359123,-0.998878244513
719440000000,,17862,,719,436123444,"""map""",,,-0.0516083464026,-0.0134707773104,0.0715302824974,,0.00104193718441,0.00263603455122,0.0472794074289,-0.998877696604
719476000000,,17863,,719,468123101,"""map""",,,-0.0518818981946,-0.0134835634381,0.0711012706161,,0.00104688869825,0.00266408731249,0.0472180416174,-0.998880562589
719508000000,,17864,,719,500123101,"""map""",,,-0.0532865859568,-0.0163213964552,0.0702382922173,,0.0010686288165,0.00269315258594,0.0472354904127,-0.998879635359
719540000000,,17865,,719,532123101,"""map""",,,-0.0544161982834,-0.0185432415456,0.0693110749125,,0.00105654575955,0.00275816582844,0.0472360804686,-0.998879382478
719576000000,,17866,,719,572122758,"""map""",,,-0.0555092357099,-0.0205093342811,0.0683911889791,,0.00097126745617,0.00282935951116,0.0472357432938,-0.998879298184
719608000000,,17867,,719,604122758,"""map""",,,-0.0561508014798,-0.0215062573552,0.0677185356617,,0.000921435228615,0.00285940115916,0.0471816688872,-0.998881869142
719640000000,,17868,,719,636122758,"""map""",,,-0.0565426833928,-0.0220332350582,0.0668414533138,,0.000968544292312,0.00257005769346,0.0471843662855,-0.998882459197
719676000000,,17869,,719,668122415,"""map""",,,-0.0568086206913,-0.0221853461117,0.066005885601,,0.000937005114099,0.00259968775114,0.047158066652,-0.998883639309
719708000000,,17870,,719,700122415,"""map""",,,-0.05854267627,-0.0248200129718,0.0651255846024,,0.000843234138427,0.00271474683658,0.0471513653031,-0.99888376575
719740000000,,17871,,719,732122415,"""map""",,,-0.0600254125893,-0.0269033387303,0.064365208149,,0.000763429245408,0.00278742265603,0.0472090221918,-0.998880899764
719776000000,,17872,,719,772134072,"""map""",,,-0.0615260414779,-0.0287335701287,0.0634994283319,,0.000730403649923,0.00284570079922,0.0472177465895,-0.998880351855
719808000000,,17873,,719,804134072,"""map""",,,-0.062484819442,-0.0296725723892,0.0628523230553,,0.000685357394579,0.00289599367865,0.0472524334458,-0.998878539541
719840000000,,17874,,719,836134072,"""map""",,,-0.0632452964783,-0.0302134864032,0.0622688271105,,0.000667608138364,0.00295155590197,0.047219263876,-0.99888001468
719876000000,,17875,,719,868133728,"""map""",,,-0.0638729184866,-0.0303637199104,0.0616176426411,,0.000644929594189,0.00294355680879,0.0472227620645,-0.99887988824
719908000000,,17876,,719,900133728,"""map""",,,-0.0652406215668,-0.0327408798039,0.0612604916096,,0.00060487749344,0.00302992697896,0.0472482609078,-0.9988784131
719940000000,,17877,,719,932133728,"""map""",,,-0.0663567259908,-0.0345969423652,0.0609352216125,,0.000559350500605,0.00312078554155,0.04729356877,-0.99887601073
719976000000,,17878,,719,972133385,"""map""",,,-0.0674536004663,-0.0362726412714,0.0606870055199,,0.000557978423123,0.0031625853371,0.0473125769986,-0.998875041352
720008000000,,17879,,720,4133385,"""map""",,,-0.0681324154139,-0.0371393337846,0.0605831481516,,0.000522267612407,0.0031484973414,0.0472766678837,-0.998876727226
720040000000,,17880,,720,36133385,"""map""",,,-0.0686732903123,-0.0376181155443,0.0604756139219,,0.000503353144003,0.00320840554688,0.0472984578044,-0.998875589261
720076000000,,17881,,720,68133041,"""map""",,,-0.0690897777677,-0.0377723127604,0.0604647547007,,0.000535504439335,0.00324246991401,0.0472750663035,-0.998876558639
720108000000,,17882,,720,100133041,"""map""",,,-0.0705808699131,-0.0402534045279,0.0604349859059,,0.000451171476597,0.0032458904765,0.0472515905088,-0.998877696604
720140000000,,17883,,720,132133041,"""map""",,,-0.0718273296952,-0.0421923398972,0.060258153826,,0.000614469358834,0.00290197918969,0.0471962516967,-0.998881279086
720176000000,,17884,,720,172132697,"""map""",,,-0.0731412917376,-0.0439742952585,0.060007032007,,0.000560281600222,0.00289259995185,0.0471457597722,-0.998883723603
720208000000,,17885,,720,204132697,"""map""",,,-0.0740102827549,-0.0449503585696,0.0597315244377,,0.000498753210614,0.00294823930719,0.0471664538748,-0.998882585638
720240000000,,17886,,720,236132697,"""map""",,,-0.0747465118766,-0.0455995090306,0.0595175810158,,0.000481994323021,0.00296603770729,0.04721399552,-0.998880309708
720276000000,,17887,,720,268132353,"""map""",,,-0.075320251286,-0.0459319464862,0.0591832250357,,0.000488175751045,0.00300744336396,0.0472497360475,-0.998878455247
720308000000,,17888,,720,300132353,"""map""",,,-0.0767203569412,-0.0484990552068,0.058413375169,,0.000394057393145,0.00308915671896,0.0473089102228,-0.998875504967
720340000000,,17889,,720,332132353,"""map""",,,-0.0779248550534,-0.0505880452693,0.0577510818839,,0.000371206721898,0.00319620000065,0.04731135474,-0.998874999205
720376000000,,17890,,720,372132008,"""map""",,,-0.0792155191302,-0.052577611059,0.0569775402546,,0.00036019223573,0.00323243542439,0.0473194890818,-0.99887453559
720408000000,,17891,,720,404132008,"""map""",,,-0.0801002457738,-0.0537644699216,0.0563737750053,,0.000301599061313,0.00328504209995,0.0473168338303,-0.998874493443
720440000000,,17892,,720,436132008,"""map""",,,-0.0808601081371,-0.0546232312918,0.0557149983943,,0.000275063504272,0.00330745418056,0.0473126612923,-0.998874619884
720476000000,,17893,,720,468131664,"""map""",,,-0.0814964845777,-0.0552038028836,0.055041205138,,0.00026354803037,0.00331343557569,0.047296603343,-0.99887533638
720508000000,,17894,,720,500131664,"""map""",,,-0.0828596875072,-0.0577609315515,0.0544245503843,,0.000227970492598,0.00338702166828,0.0472981206296,-0.998875083499
720540000000,,17895,,720,540131664,"""map""",,,-0.084363758564,-0.0603445209563,0.0536167025566,,0.000222537006499,0.00343515946082,0.047250705425,-0.998877148695
720576000000,,17896,,720,572131319,"""map""",,,-0.0854343473911,-0.0619455166161,0.0529388897121,,0.000210396573858,0.00347432096244,0.047239030748,-0.998877528016
720608000000,,17897,,720,604131319,"""map""",,,-0.0863781496882,-0.0631994754076,0.052348729223,,0.000154941034749,0.00350965664974,0.0471739560139,-0.998880562589
720640000000,,17898,,720,636131319,"""map""",,,-0.0872018933296,-0.0641540661454,0.051846049726,,0.000260380595922,0.00320835541518,0.0471522925337,-0.998882585638
720676000000,,17899,,720,668130975,"""map""",,,-0.0880106091499,-0.0648065060377,0.0515715256333,,0.000279876312173,0.00316896309371,0.0471134331394,-0.998884524393
720708000000,,17900,,720,700130975,"""map""",,,-0.08926191926,-0.0672342702746,0.0511674620211,,0.000279853263115,0.00323063216489,0.0471100613915,-0.998884440099
720740000000,,17901,,720,732130975,"""map""",,,-0.0903782397509,-0.0692823082209,0.050669066608,,0.000219711356651,0.00330366211664,0.0470424578465,-0.998887390379
720776000000,,17902,,720,772130630,"""map""",,,-0.0916570276022,-0.0713533014059,0.0500080287457,,0.000192479224157,0.00331659988205,0.0470085296335,-0.998888949812
720808000000,,17903,,720,804130630,"""map""",,,-0.092592433095,-0.0726813450456,0.0495294742286,,0.000199119493067,0.00332912720959,0.0469886784678,-0.99888991919
720840000000,,17904,,720,836130630,"""map""",,,-0.0934579819441,-0.073771700263,0.0490578785539,,0.000163189140076,0.0033891622672,0.0469944947329,-0.998889413427
720876000000,,17905,,720,868130285,"""map""",,,-0.094252884388,-0.0746064931154,0.0486152209342,,0.000147537018846,0.00344843736446,0.0470297716451,-0.998887601113
720908000000,,17906,,720,900130285,"""map""",,,-0.0953610911965,-0.077348716557,0.0480663813651,,0.000155938729679,0.00348108569626,0.047056239866,-0.99888616812
720940000000,,17907,,720,932130285,"""map""",,,-0.0963779240847,-0.0796961411834,0.0475290827453,,0.000128487795772,0.00355945397443,0.0470199092826,-0.998887601113
720980000000,,17908,,720,972129940,"""map""",,,-0.0975421145558,-0.082162797451,0.0468665212393,,0.000118167086243,0.00356295183359,0.0470554812227,-0.998885999533
721008000000,,17909,,721,4129940,"""map""",,,-0.0984376445413,-0.0837927684188,0.0463867671788,,0.000114696227414,0.00355000550711,0.0470602438166,-0.998885788798
721040000000,,17910,,721,36129940,"""map""",,,-0.0992727950215,-0.0851607248187,0.0458469241858,,6.55650204871e-05,0.00362187526808,0.0470494542234,-0.99888604168
721076000000,,17911,,721,68129594,"""map""",,,-0.10004208982,-0.0863039270043,0.0452099479735,,4.809087124e-05,0.00359498129819,0.0470636998582,-0.998885451624
721108000000,,17912,,721,100129594,"""map""",,,-0.101162873209,-0.0887785181403,0.0446205586195,,1.70582783903e-05,0.00357928324348,0.0470710334098,-0.998885114449
721140000000,,17913,,721,132129594,"""map""",,,-0.102247923613,-0.0909442454576,0.0439225286245,,7.14191518966e-07,0.00362747125003,0.0470348292669,-0.998886673882
721176000000,,17914,,721,172129249,"""map""",,,-0.103495001793,-0.0932466611266,0.0430129282176,,-2.4131046406e-05,0.00366557858653,0.047020625779,-0.998887221791
721208000000,,17915,,721,204129249,"""map""",,,-0.104391425848,-0.0947922244668,0.0422349981964,,-4.53541249008e-05,0.00344966472679,0.0469369642847,-0.998891900092
721240000000,,17916,,721,236129249,"""map""",,,-0.105298489332,-0.0961218699813,0.0415728166699,,2.7343426516e-05,0.00340191975605,0.0469398302704,-0.998891984385
721276000000,,17917,,721,268128903,"""map""",,,-0.106177687645,-0.0972344428301,0.0408410429955,,6.95342328728e-05,0.00342413954166,0.046962758156,-0.998890804273
721308000000,,17918,,721,300128903,"""map""",,,-0.107026703656,-0.0981302633882,0.0400046557188,,4.67872823865e-05,0.00340815287982,0.0468998329112,-0.9988937967
721340000000,,17919,,721,332128903,"""map""",,,-0.107877723873,-0.0988981351256,0.0391661636531,,-4.28663083853e-06,0.00343454059362,0.04685090042,-0.998896030483
721376000000,,17920,,721,372128558,"""map""",,,-0.109149850905,-0.100053235888,0.0379171706736,,-7.46542517856e-06,0.00345808981595,0.0468787594869,-0.998894639637
721408000000,,17921,,721,404128558,"""map""",,,-0.110746793449,-0.101904571056,0.036791536957,,-1.38271297618e-05,0.00348281009505,0.0468886218495,-0.998894049581
721440000000,,17922,,721,436128558,"""map""",,,-0.112277112901,-0.103530339897,0.0356914438307,,-8.07772339852e-05,0.0035712185428,0.046824769374,-0.998896789126
721476000000,,17923,,721,468128212,"""map""",,,-0.113762773573,-0.104925505817,0.0345384925604,,-7.21873440592e-05,0.00359983641757,0.046828646884,-0.998896451951
721508000000,,17924,,721,500128212,"""map""",,,-0.115225061774,-0.106127202511,0.0334369875491,,-9.27316278025e-05,0.00362311860011,0.0467738981278,-0.998898938615
721540000000,,17925,,721,532128212,"""map""",,,-0.116701170802,-0.107143893838,0.0323944017291,,-9.43988978606e-05,0.00365037229993,0.0467576294443,-0.998899612965
721576000000,,17926,,721,572127866,"""map""",,,-0.118544615805,-0.108490221202,0.0312058217824,,-0.000112729648876,0.00366615020317,0.0467221839447,-0.998901256692
721608000000,,17927,,721,604127866,"""map""",,,-0.119951590896,-0.110300309956,0.0306982845068,,-0.000187782813998,0.00369541081738,0.0466623775667,-0.998903911943
721640000000,,17928,,721,636127866,"""map""",,,-0.121346570551,-0.111859381199,0.0303541775793,,-0.000202453210003,0.00374693336405,0.0466708490832,-0.998903279741
721676000000,,17929,,721,668127520,"""map""",,,-0.122734472156,-0.113192483783,0.0300572905689,,-0.000231570261515,0.0038183951567,0.0466503657148,-0.99890395409
721708000000,,17930,,721,700127520,"""map""",,,-0.124089002609,-0.114323750138,0.0298320930451,,-0.000284833670593,0.00389457624393,0.0466164796486,-0.998905218496
721740000000,,17931,,721,732127520,"""map""",,,-0.125421687961,-0.115326076746,0.0296578891575,,-0.000309496985597,0.00394959253385,0.0465330710354,-0.998908885271
721776000000,,17932,,721,772127174,"""map""",,,-0.126987010241,-0.116690695286,0.029223177582,,-0.000321420427823,0.00397159796322,0.0464913456554,-0.998910739733
721808000000,,17933,,721,804127174,"""map""",,,-0.127988308668,-0.118393227458,0.0287850052118,,-0.000311834983237,0.00399847876222,0.0464603255749,-0.998912088432
721840000000,,17934,,721,836127174,"""map""",,,-0.12906332314,-0.119890719652,0.028456857428,,-0.000217768156444,0.00368704878385,0.0464149755659,-0.99891546018
721876000000,,17935,,721,868126828,"""map""",,,-0.13015575707,-0.121224164963,0.0280856862664,,-0.000224438389129,0.00370678651521,0.0464172093489,-0.998915249446
721908000000,,17936,,721,900126828,"""map""",,,-0.131265088916,-0.122440136969,0.0277170892805,,-0.000225816887421,0.00371018279387,0.0463794457726,-0.998917019613
721940000000,,17937,,721,932126828,"""map""",,,-0.132427230477,-0.123544819653,0.0272814147174,,-0.000229626238127,0.00375154926714,0.0463609433061,-0.99891773611
721976000000,,17938,,721,972126481,"""map""",,,-0.133884117007,-0.124961838126,0.0266351494938,,-0.000198006882121,0.00375961676664,0.0463585409357,-0.998917778257
722008000000,,17939,,722,4126481,"""map""",,,-0.134871780872,-0.126505032182,0.0261502042413,,-0.000211928183747,0.00382784527039,0.0463531039923,-0.998917820403
722040000000,,17940,,722,36126481,"""map""",,,-0.135913029313,-0.127898946404,0.0256151687354,,-0.000239947935473,0.00386521734194,0.046302822802,-0.998919969893
722076000000,,17941,,722,68126135,"""map""",,,-0.137037828565,-0.12917688489,0.0249271225184,,-0.00026460137231,0.00386201994372,0.0462723506305,-0.998921360739
722108000000,,17942,,722,100126135,"""map""",,,-0.138237386942,-0.130318745971,0.0241660289466,,-0.000300666397654,0.00395246461108,0.0462114905813,-0.998923805256
722140000000,,17943,,722,132126135,"""map""",,,-0.13948790729,-0.131335899234,0.0233846846968,,-0.000322077325969,0.00398481824422,0.0461529486087,-0.998926460507
722176000000,,17944,,722,172125788,"""map""",,,-0.140952527523,-0.132650241256,0.0224067009985,,-0.000335028262263,0.00397717649375,0.046137565009,-0.998927177004
722208000000,,17945,,722,204125788,"""map""",,,-0.141720890999,-0.134174063802,0.0216246470809,,-0.000358519203408,0.00399230820018,0.0461422011623,-0.998926839829
722240000000,,17946,,722,236125788,"""map""",,,-0.142614066601,-0.135597199202,0.0208324175328,,-0.000368586702573,0.0040055436277,0.0461635696145,-0.998925786158
722276000000,,17947,,722,268125442,"""map""",,,-0.143605604768,-0.13690854609,0.0200800895691,,-0.000372221045077,0.0040116333534,0.0461530750492,-0.998926334067
722308000000,,17948,,722,300125442,"""map""",,,-0.144711375237,-0.138117060065,0.0192762129009,,-0.000402160783315,0.00401258231604,0.0461757500537,-0.998925238249
722340000000,,17949,,722,332125442,"""map""",,,-0.145913481712,-0.139234274626,0.0184747241437,,-0.000423151724871,0.00399895060936,0.0461413160785,-0.998926881976
722376000000,,17950,,722,372125095,"""map""",,,-0.147294998169,-0.140665084124,0.0175493434072,,-0.000383392923382,0.00376998604383,0.0460870730845,-0.998930295871
722408000000,,17951,,722,404125095,"""map""",,,-0.147958055139,-0.142122253776,0.0172174312174,,-0.000310553290988,0.00380249476419,0.0460393207051,-0.998932361066
722440000000,,17952,,722,436125095,"""map""",,,-0.148748919368,-0.143469497561,0.0169456005096,,-0.000298868406511,0.00382177266684,0.045970073433,-0.99893552208
722476000000,,17953,,722,468124748,"""map""",,,-0.149686828256,-0.144734740257,0.0166972894222,,-0.000283627875599,0.00378385581434,0.0459494214772,-0.998936617898
722508000000,,17954,,722,500124748,"""map""",,,-0.150743752718,-0.145974472165,0.016466986388,,-0.000343067115072,0.00378834445371,0.0459195815085,-0.998937966597
722540000000,,17955,,722,532124748,"""map""",,,-0.151919394732,-0.147140696645,0.0162389818579,,-0.000347649267759,0.00385913864686,0.0459012054825,-0.998938472359
722576000000,,17956,,722,572124401,"""map""",,,-0.153379306197,-0.148543775082,0.0160133875906,,-0.000352041759627,0.00389211625092,0.0458786990654,-0.99893939959
722608000000,,17957,,722,604124401,"""map""",,,-0.154291272163,-0.149768918753,0.0159283634275,,-0.000346940838504,0.00387672293768,0.0458684995281,-0.998939989646
722640000000,,17958,,722,636124401,"""map""",,,-0.155317485332,-0.150930628181,0.0157873090357,,-0.00037193523676,0.0038404394402,0.0458376058881,-0.998941464785
722676000000,,17959,,722,668124054,"""map""",,,-0.156466275454,-0.152028158307,0.0155750410631,,-0.000409151891812,0.0038696817798,0.0458271956166,-0.998941844107
722708000000,,17960,,722,700124054,"""map""",,,-0.157710045576,-0.153084501624,0.0151689844206,,-0.000427688273351,0.00393431528908,0.0457950375711,-0.998943066366
722740000000,,17961,,722,732124054,"""map""",,,-0.15907984972,-0.154127985239,0.0146899400279,,-0.000457066108488,0.00395347580618,0.0457497718558,-0.998945005121
722776000000,,17962,,722,772123707,"""map""",,,-0.160766288638,-0.155474692583,0.0140863824636,,-0.000479087507563,0.00394225782975,0.0457236408098,-0.998946269526
722808000000,,17963,,722,804123707,"""map""",,,-0.161687925458,-0.156761810184,0.0137105351314,,-0.000496104626921,0.0040117454706,0.0455993497535,-0.998951622176
722840000000,,17964,,722,836123707,"""map""",,,-0.162709832191,-0.15799754858,0.0133059518412,,-0.000538570704882,0.00400372653877,0.0455611225619,-0.99895343449
722876000000,,17965,,722,868123360,"""map""",,,-0.16385897994,-0.159183070064,0.0128930406645,,-0.000556062470195,0.00403199637277,0.0455300603346,-0.998954656749
722908000000,,17966,,722,900123360,"""map""",,,-0.165125623345,-0.160341307521,0.0125006372109,,-0.000573863916062,0.00404465392748,0.045534106432,-0.998954488162
722940000000,,17967,,722,932123360,"""map""",,,-0.166488215327,-0.161496683955,0.0119997086003,,-0.000553187264873,0.00412157126747,0.0455032127921,-0.998955541833
722976000000,,17968,,722,972123013,"""map""",,,-0.168098315597,-0.162934333086,0.0113393701613,,-0.000590762662046,0.00414863826993,0.0455116843086,-0.998954993924
723008000000,,17969,,723,4123013,"""map""",,,-0.16885368526,-0.164097845554,0.0109573910013,,-0.000587110209568,0.00415817778104,0.0455016533587,-0.998955499686
723040000000,,17970,,723,36123013,"""map""",,,-0.169769853354,-0.165233820677,0.0104512972757,,-0.000599549950688,0.00400679799035,0.0454893886257,-0.998956637651
723076000000,,17971,,723,68122666,"""map""",,,-0.170859366655,-0.16635170579,0.0100237503648,,-0.000622092423105,0.00404356897541,0.0454791469416,-0.998956932679
723108000000,,17972,,723,100122666,"""map""",,,-0.172076687217,-0.167458921671,0.00952016096562,,-0.000670887113787,0.00411788720486,0.0454522151054,-0.998957817763
723140000000,,17973,,723,132122666,"""map""",,,-0.173435732722,-0.168573990464,0.00894136726856,,-0.000688270548528,0.00417617283899,0.0454660392717,-0.998956974826
723176000000,,17974,,723,172122319,"""map""",,,-0.174969419837,-0.169950559735,0.00829546526074,,-0.000700238442508,0.00419317069592,0.0454418048338,-0.998957944203
723208000000,,17975,,723,204122319,"""map""",,,-0.175396233797,-0.170879930258,0.00815712381154,,-0.000697804791279,0.00419877919022,0.0454049263413,-0.998959672224
723240000000,,17976,,723,236122319,"""map""",,,-0.176009222865,-0.171861186624,0.00802510417998,,-0.000716900935649,0.00421276338285,0.0453604614162,-0.998961568832
723276000000,,17977,,723,268121971,"""map""",,,-0.176816374063,-0.172858938575,0.00782123021781,,-0.000745665336577,0.00424381721376,0.0453834735954,-0.99896038872
723308000000,,17978,,723,300121971,"""map""",,,-0.177804678679,-0.173888117075,0.00761613249779,,-0.000776130922606,0.00424503354547,0.0454252832692,-0.998958449965
723340000000,,17979,,723,332121971,"""map""",,,-0.178946778178,-0.174936100841,0.00743096228689,,-0.000797553540086,0.00423496752803,0.0453641703388,-0.998961231657
723376000000,,17980,,723,372121624,"""map""",,,-0.180172726512,-0.176264509559,0.00728385290131,,-0.000808443396706,0.00426070986821,0.0453386714955,-0.998962285329
723408000000,,17981,,723,404121624,"""map""",,,-0.180142596364,-0.177194103599,0.00730021018535,,-0.000824421168195,0.00429393590818,0.0453642546325,-0.998960978776
723440000000,,17982,,723,436121624,"""map""",,,-0.180319860578,-0.178167045116,0.00730470055714,,-0.000879397780811,0.00432424080935,0.0453314643844,-0.998962243182
723476000000,,17983,,723,468121276,"""map""",,,-0.180722311139,-0.179198488593,0.00726631609723,,-0.000911276274081,0.00436865700223,0.0452978311993,-0.998963591881
723508000000,,17984,,723,500121276,"""map""",,,-0.181337445974,-0.180277898908,0.00715529359877,,-0.000906778579727,0.00439363806496,0.0452413122754,-0.998966078545
723540000000,,17985,,723,532121276,"""map""",,,-0.1821038872,-0.181419625878,0.00688626756892,,-0.000873279902332,0.0041551443604,0.0451886287148,-0.998969450293
723576000000,,17986,,723,572120929,"""map""",,,-0.183000326157,-0.182841211557,0.00674684904516,,-0.000872509734529,0.00415085921128,0.0451951193294,-0.998969197412
723612000000,,17987,,723,604120929,"""map""",,,-0.18288551271,-0.183859169483,0.0066311401315,,-0.000979355452863,0.0041868676018,0.0451032391997,-0.998973074922
723640000000,,17988,,723,636120929,"""map""",,,-0.183033779263,-0.184929490089,0.0064520011656,,-0.000988910769038,0.00421185887197,0.045060586589,-0.998974929383
723676000000,,17989,,723,668120581,"""map""",,,-0.183421641588,-0.186037898064,0.00630488572642,,-0.000996807540869,0.00421495156162,0.0450969593193,-0.998973285656
723708000000,,17990,,723,700120581,"""map""",,,-0.184026762843,-0.18721395731,0.00615404453129,,-0.00101386219726,0.00427876584153,0.0450739049931,-0.998974002152
723740000000,,17991,,723,732120581,"""map""",,,-0.18482363224,-0.188459426165,0.00601060688496,,-0.00099668422841,0.00432227900526,0.0450988137806,-0.9989726956
723776000000,,17992,,723,772120234,"""map""",,,-0.185797795653,-0.1898945719,0.00587639724836,,-0.00098809878366,0.00430388190588,0.0450746636364,-0.998973917859
723808000000,,17993,,723,804120234,"""map""",,,-0.185946509242,-0.190605968237,0.0059321410954,,-0.00095284294488,0.00433627044187,0.0450804377546,-0.998973538537
723840000000,,17994,,723,836120234,"""map""",,,-0.186345666647,-0.19142319262,0.00595143996179,,-0.000976245970333,0.00438445515571,0.0451297074206,-0.998971051873
723876000000,,17995,,723,868119886,"""map""",,,-0.186959758401,-0.192330121994,0.0059396144934,,-0.000999531610227,0.00440518465509,0.0451592523614,-0.998969576733
723908000000,,17996,,723,900119886,"""map""",,,-0.187783122063,-0.193353191018,0.00605406425893,,-0.00101377049494,0.00448383907086,0.0451754367512,-0.998968480915
723940000000,,17997,,723,932119886,"""map""",,,-0.188791021705,-0.194438517094,0.00623030075803,,-0.000999157556946,0.00445416785414,0.0451744252268,-0.998968733796
723976000000,,17998,,723,972119538,"""map""",,,-0.189822614193,-0.195747211576,0.00655295699835,,-0.00100879996563,0.00445400288874,0.0451585780118,-0.998969408146
724008000000,,17999,,724,4119538,"""map""",,,-0.189342483878,-0.196410521865,0.00714786583558,,-0.00101123822667,0.00450430350608,0.0451765325693,-0.998968396622
724040000000,,18000,,724,36119538,"""map""",,,-0.1891528368,-0.197185456753,0.00753988884389,,-0.00100727790464,0.00432833530982,0.0452103764886,-0.998967595831
724076000000,,18001,,724,68119191,"""map""",,,-0.189249664545,-0.198051810265,0.00796384550631,,-0.000985553509136,0.00432731390729,0.0451690304302,-0.99896949244
724108000000,,18002,,724,100119191,"""map""",,,-0.189606443048,-0.199022486806,0.00831183977425,,-0.00100141504752,0.00431030781855,0.0451886287148,-0.99896869165
724140000000,,18003,,724,132119191,"""map""",,,-0.190199375153,-0.200088217854,0.00866344105452,,-0.000985337506538,0.0043237192421,0.045131519735,-0.998971262607
724176000000,,18004,,724,172118843,"""map""",,,-0.19080337882,-0.201400011778,0.00911973416805,,-0.000953271328083,0.00434746734487,0.0451622447876,-0.998969787468
724208000000,,18005,,724,204118843,"""map""",,,-0.190380319953,-0.201995745301,0.00968588702381,,-0.000938627109223,0.00437728541701,0.0451265885538,-0.998971304754
724240000000,,18006,,724,236118843,"""map""",,,-0.19028146565,-0.202747747302,0.0101765394211,,-0.000946051540006,0.00440230418141,0.0451141973803,-0.998971726223
724276000000,,18007,,724,276118495,"""map""",,,-0.190545663238,-0.203886032104,0.010791820474,,-0.000963378833827,0.00441509542066,0.045090342264,-0.998972737747
724308000000,,18008,,724,300118495,"""map""",,,-0.190917372704,-0.204669833183,0.0111605487764,,-0.000968782520788,0.00444310167223,0.0450897522082,-0.998972653453
724340000000,,18009,,724,332118495,"""map""",,,-0.191604733467,-0.2058224231,0.0116614727303,,-0.000989770828165,0.00440998132865,0.0450581420718,-0.99897417074
724376000000,,18010,,724,372118147,"""map""",,,-0.19237665832,-0.207206472754,0.0121309077367,,-0.000976547089809,0.00445867756693,0.045048911912,-0.998974381474
724408000000,,18011,,724,404118147,"""map""",,,-0.192096441984,-0.20776052773,0.0121536161751,,-0.00105371533525,0.00448161072088,0.0449880097159,-0.998976952432
724440000000,,18012,,724,436118147,"""map""",,,-0.192129179835,-0.208457008004,0.0121712833643,,-0.00108334028922,0.00451673122876,0.0449696336899,-0.998977542488
724476000000,,18013,,724,468117799,"""map""",,,-0.192427366972,-0.209268629551,0.0122113963589,,-0.00111119458164,0.00452799513866,0.0449494453495,-0.998978427572
724508000000,,18014,,724,500117799,"""map""",,,-0.193000927567,-0.210249736905,0.0122780920938,,-0.00114055414216,0.00453910379669,0.044930647855,-0.998979186215
724540000000,,18015,,724,532117799,"""map""",,,-0.193824991584,-0.211355924606,0.0123234139755,,-0.00114548153681,0.00465724058989,0.0449226399538,-0.998979017627
724576000000,,18016,,724,572117452,"""map""",,,-0.194647982717,-0.21267080307,0.0123456856236,,-0.00118461175756,0.00446083545265,0.0448717687077,-0.998982094347
724608000000,,18017,,724,604117452,"""map""",,,-0.194084525108,-0.213200643659,0.0125050600618,,-0.00120959561911,0.00445636393544,0.0448633814848,-0.998982473669
724640000000,,18018,,724,636117452,"""map""",,,-0.193857356906,-0.213886573911,0.0125985909253,,-0.00114862262948,0.00453650057025,0.0447930383947,-0.998985381802
724676000000,,18019,,724,668117104,"""map""",,,-0.193974331021,-0.214707553387,0.0126916822046,,-0.00114259793504,0.00455545710319,0.0447803521932,-0.998985845417
724708000000,,18020,,724,700117104,"""map""",,,-0.194381341338,-0.215695142746,0.0128265013918,,-0.00114109694747,0.004626680832,0.0447853676682,-0.998985297508
724740000000,,18021,,724,732117104,"""map""",,,-0.195067375898,-0.216782465577,0.0129903052002,,-0.00117524807784,0.00467718493959,0.0447786241725,-0.998985297508
724776000000,,18022,,724,772116756,"""map""",,,-0.195869877934,-0.218034371734,0.0133509747684,,-0.00118288209041,0.0046759440771,0.0447444852252,-0.998986814794
724808000000,,18023,,724,804116756,"""map""",,,-0.195473119617,-0.218371838331,0.0141212074086,,-0.0011339168367,0.00469906738577,0.0447425464701,-0.998986899088
724840000000,,18024,,724,836116756,"""map""",,,-0.195432752371,-0.218885421753,0.0149188796058,,-0.00111662642137,0.00474159190955,0.0446837094696,-0.998989343605
724876000000,,18025,,724,868116408,"""map""",,,-0.195689201355,-0.219561725855,0.015742989257,,-0.00110875648523,0.00475625209812,0.0446561454307,-0.998990523717
724908000000,,18026,,724,900116408,"""map""",,,-0.196262061596,-0.220408901572,0.0165820792317,,-0.00111274397223,0.00474165084929,0.0446313209369,-0.998991661682
724940000000,,18027,,724,932116408,"""map""",,,-0.197118058801,-0.221415191889,0.017390711233,,-0.00107563301357,0.00480656489853,0.0445947796193,-0.998993052528
724976000000,,18028,,724,972116060,"""map""",,,-0.19823884964,-0.222518548369,0.0183560457081,,-0.00111724018486,0.0048352771098,0.0445882047109,-0.998993136822
725008000000,,18029,,725,4116060,"""map""",,,-0.198451429605,-0.222623512149,0.0191549044102,,-0.00113616823574,0.00480201122789,0.0445712195309,-0.998994021905
725040000000,,18030,,725,36116060,"""map""",,,-0.198993071914,-0.222941800952,0.0199571438134,,-0.00114508492838,0.00481363651409,0.0445720203211,-0.998993979759
725076000000,,18031,,725,68115712,"""map""",,,-0.199834376574,-0.223447859287,0.0206837859005,,-0.00117411258247,0.00486120285463,0.0445929251579,-0.998992715353
725108000000,,18032,,725,100115712,"""map""",,,-0.200887143612,-0.224143430591,0.0211827401072,,-0.00121212739347,0.0046375008829,0.044592335102,-0.998993811171
725140000000,,18033,,725,132115712,"""map""",,,-0.202188745141,-0.225010082126,0.0217947438359,,-0.0011841129101,0.00474285417474,0.044538092108,-0.998995792073
725176000000,,18034,,725,172115364,"""map""",,,-0.203635260463,-0.226049169898,0.0225452817976,,-0.00121747378706,0.00476818475997,0.0445424332334,-0.998995412751
725208000000,,18035,,725,204115364,"""map""",,,-0.203605234623,-0.226180255413,0.0230352804065,,-0.00121418320479,0.00481667191037,0.0445355211502,-0.998995497045
725240000000,,18036,,725,236115364,"""map""",,,-0.203935071826,-0.226570561528,0.0235017035156,,-0.00126949913246,0.00480151205116,0.0445530963861,-0.998994696255
725276000000,,18037,,725,268115017,"""map""",,,-0.204566136003,-0.227191194892,0.0240446906537,,-0.00125856334236,0.00481115709402,0.0445115395934,-0.998996550716
725308000000,,18038,,725,300115017,"""map""",,,-0.205488860607,-0.228009432554,0.024582022801,,-0.00125050802594,0.00484122030935,0.0444267822811,-0.999000217492
725340000000,,18039,,725,332115017,"""map""",,,-0.206672608852,-0.2289955616,0.0249616596848,,-0.00125808803786,0.00484775751605,0.0443620868686,-0.999003041331
725376000000,,18040,,725,372114669,"""map""",,,-0.207953318954,-0.230203345418,0.02526816912,,-0.00125531457767,0.00489144437089,0.0443408027101,-0.999003757827
725408000000,,18041,,725,404114669,"""map""",,,-0.207718670368,-0.230386763811,0.025510514155,,-0.00128105181413,0.00496487801043,0.0443257141384,-0.999004010709
725440000000,,18042,,725,436114669,"""map""",,,-0.20783944428,-0.230804443359,0.0258102808148,,-0.0012931545451,0.00496103276905,0.0443166104191,-0.999004432177
725476000000,,18043,,725,468114321,"""map""",,,-0.208260431886,-0.23146520555,0.0261985547841,,-0.00135058028474,0.00498779799349,0.0443241968518,-0.999003842121
725508000000,,18044,,725,500114321,"""map""",,,-0.208959922194,-0.232353419065,0.0265048667789,,-0.001368866584,0.00502547348943,0.0442895521423,-0.99900519082
725540000000,,18045,,725,532114321,"""map""",,,-0.209934845567,-0.233441203833,0.0267590545118,,-0.00138419947578,0.00509391075178,0.0442613559007,-0.999006075904
725576000000,,18046,,725,572113973,"""map""",,,-0.211017414927,-0.234719648957,0.0270650088787,,-0.00139313213812,0.00513145420955,0.0442742949832,-0.999005275114
725608000000,,18047,,725,604113973,"""map""",,,-0.210674673319,-0.234880179167,0.0272107180208,,-0.00138043144874,0.00518347593296,0.0442751379201,-0.999005022233
725640000000,,18048,,725,636113973,"""map""",,,-0.210747614503,-0.235288649797,0.0274669062346,,-0.0013637653336,0.00493820662859,0.0442337918618,-0.999008098953
725676000000,,18049,,725,668113625,"""map""",,,-0.211176723242,-0.235928744078,0.0277915000916,,-0.00136656645267,0.00498240846523,0.0442213163946,-0.999008436128
725708000000,,18050,,725,700113625,"""map""",,,-0.211926326156,-0.236811906099,0.0280857216567,,-0.00142050635159,0.00500879914248,0.0441984306559,-0.999009236918
725740000000,,18051,,725,732113625,"""map""",,,-0.212959975004,-0.237917914987,0.0284360591322,,-0.00150839866508,0.00505551003371,0.0442290292679,-0.99900746675
725776000000,,18052,,725,772113277,"""map""",,,-0.214151740074,-0.239199310541,0.0289857946336,,-0.00155128687007,0.00505316446281,0.044231220904,-0.999007382456
725808000000,,18053,,725,804113277,"""map""",,,-0.213900864124,-0.239271536469,0.0296108387411,,-0.00153297027776,0.00508682711778,0.0441650503518,-0.999010164148
725840000000,,18054,,725,836113277,"""map""",,,-0.214007005095,-0.239588096738,0.0302064847201,,-0.00155135190134,0.00505469574342,0.0441052861206,-0.99901294584
725876000000,,18055,,725,868112930,"""map""",,,-0.214464977384,-0.240146636963,0.0308861415833,,-0.00152973056805,0.00505628217714,0.0440623806289,-0.999014800302
725908000000,,18056,,725,900112930,"""map""",,,-0.21525092423,-0.240928530693,0.0315476134419,,-0.00155265581946,0.00511458246389,0.0441005656736,-0.999012861547
725940000000,,18057,,725,932112930,"""map""",,,-0.216365411878,-0.24192455411,0.0322346463799,,-0.00152000485348,0.00512800458878,0.0441191524338,-0.999011976463
725976000000,,18058,,725,972112582,"""map""",,,-0.217598676682,-0.243060439825,0.0330486521125,,-0.00152997604052,0.00516003339483,0.0441313750199,-0.999011302113
726008000000,,18059,,726,4112582,"""map""",,,-0.217212319374,-0.243030026555,0.0335185006261,,-0.00153157613903,0.00521679877897,0.044098500478,-0.999012397931
726040000000,,18060,,726,36112582,"""map""",,,-0.217210456729,-0.243285223842,0.0340264253318,,-0.00149412174942,0.00520429071386,0.0440185900533,-0.99901602256
726076000000,,18061,,726,68112234,"""map""",,,-0.217565447092,-0.243791922927,0.0345232374966,,-0.00150599250808,0.00526015586765,0.0439712591424,-0.999017834875
726108000000,,18062,,726,100112234,"""map""",,,-0.218272864819,-0.244540736079,0.0350242368877,,-0.00150024539016,0.00532051542307,0.0439642206187,-0.999017792728
726140000000,,18063,,726,132112234,"""map""",,,-0.219278544188,-0.245509311557,0.035422872752,,-0.00149138944825,0.00520891764757,0.0438908008086,-0.999021670238
726176000000,,18064,,726,172111887,"""map""",,,-0.220459058881,-0.24656008184,0.0359936356544,,-0.00152609392064,0.00520713579077,0.0438932453258,-0.999021501651
726208000000,,18065,,726,204111887,"""map""",,,-0.220067113638,-0.246315687895,0.0362837687135,,-0.00151516619771,0.00521142933632,0.0438828350542,-0.999021965266
726240000000,,18066,,726,236111887,"""map""",,,-0.220121368766,-0.246400043368,0.0365398563445,,-0.00155756214068,0.00526832544154,0.0438904636338,-0.99902124877
726276000000,,18067,,726,268111539,"""map""",,,-0.220570266247,-0.24679762125,0.0368044227362,,-0.00155912042163,0.00528023373724,0.0438774402576,-0.999021796679
726308000000,,18068,,726,308111539,"""map""",,,-0.221586361527,-0.247673019767,0.0372211411595,,-0.00158265169862,0.0052357785256,0.0439121692608,-0.999020447979
726340000000,,18069,,726,332111539,"""map""",,,-0.222429513931,-0.248343333602,0.0374402366579,,-0.00156942088091,0.00529427703424,0.0438966592205,-0.999020869448
726376000000,,18070,,726,372111191,"""map""",,,-0.224213257432,-0.249699145555,0.0378385521472,,-0.00156291660144,0.00527374081767,0.0439034027163,-0.999020700861
726408000000,,18071,,726,404111191,"""map""",,,-0.226008757949,-0.251046478748,0.0381286852062,,-0.00157796582517,0.005344850289,0.0438571676235,-0.999022260294
726440000000,,18072,,726,436111191,"""map""",,,-0.228106096387,-0.252572476864,0.0384341292083,,-0.00159851932854,0.0054079385236,0.0439044985343,-0.999019857924
726476000000,,18073,,726,468110844,"""map""",,,-0.230464205146,-0.254298180342,0.0388205498457,,-0.001610281592,0.00542354339426,0.0439014639613,-0.999019857924
726508000000,,18074,,726,500110844,"""map""",,,-0.230770051479,-0.254463404417,0.0391180589795,,-0.00162380743765,0.00542637711127,0.0438619723642,-0.999021585944
726540000000,,18075,,726,532110844,"""map""",,,-0.231453403831,-0.254942506552,0.0394722633064,,-0.00161742070837,0.00548844312015,0.0438086987477,-0.999023608993
726576000000,,18076,,726,572110496,"""map""",,,-0.23282943666,-0.255937069654,0.0399062484503,,-0.00161548376434,0.00554370636427,0.0438038518601,-0.999023482553
726608000000,,18077,,726,604110496,"""map""",,,-0.234326973557,-0.256990343332,0.0401882752776,,-0.00163463209836,0.00553314676772,0.0437152591845,-0.999027360063
726640000000,,18078,,726,636110496,"""map""",,,-0.236167177558,-0.258269190788,0.0405284278095,,-0.00165015234605,0.00557811910144,0.0437015614588,-0.999027739384
726676000000,,18079,,726,668110149,"""map""",,,-0.238260790706,-0.259731560946,0.0408416055143,,-0.00168173136621,0.00539492535485,0.0437041324165,-0.999028624468
726708000000,,18080,,726,700110149,"""map""",,,-0.237775489688,-0.259396761656,0.0415660999715,,-0.00166736488849,0.00535200767999,0.0437255008687,-0.999027907972
726740000000,,18081,,726,732110149,"""map""",,,-0.237770870328,-0.259394645691,0.0423676036298,,-0.00165647157452,0.00537150158524,0.0437366276367,-0.999027317916
726776000000,,18082,,726,772109801,"""map""",,,-0.238384529948,-0.259819358587,0.0434919781983,,-0.00168011908462,0.00540324096098,0.0437511261526,-0.999026474979
726808000000,,18083,,726,804109801,"""map""",,,-0.239311501384,-0.260457575321,0.0444159768522,,-0.00168003199211,0.00543734187733,0.0437858973026,-0.999024746958
726840000000,,18084,,726,836109801,"""map""",,,-0.240610554814,-0.261326491833,0.0453854575753,,-0.00165932455396,0.00540639110864,0.0438164959147,-0.999023566846
726876000000,,18085,,726,868109454,"""map""",,,-0.242265582085,-0.262420117855,0.046324685216,,-0.00165773433361,0.00540859640956,0.0438054955872,-0.999024114755
726908000000,,18086,,726,900109454,"""map""",,,-0.241497546434,-0.261794835329,0.0470352992415,,-0.00168338991055,0.00543058718631,0.043763812354,-0.999025758482
726940000000,,18087,,726,932109454,"""map""",,,-0.241242542863,-0.261474460363,0.0477642342448,,-0.00171577268428,0.00541509805485,0.043768827829,-0.999025547748
726976000000,,18088,,726,972109107,"""map""",,,-0.241579979658,-0.261528879404,0.048649199307,,-0.001747337875,0.00539503302687,0.0437238149948,-0.999027655091
727008000000,,18089,,727,4109107,"""map""",,,-0.24235317111,-0.261891394854,0.0493654683232,,-0.00175984758647,0.005430049814,0.0437038373886,-0.999028245146
727040000000,,18090,,727,36109107,"""map""",,,-0.243501186371,-0.262523502111,0.0500661768019,,-0.0017493535151,0.00543735521286,0.0436221146493,-0.999031827629
727076000000,,18091,,727,68108759,"""map""",,,-0.244976565242,-0.263395816088,0.0507326871157,,-0.00174338693722,0.00544503861627,0.0436112407624,-0.999032249097
727108000000,,18092,,727,100108759,"""map""",,,-0.244154244661,-0.262799590826,0.0512468181551,,-0.0017439687613,0.00543605903263,0.0436081218956,-0.999032417684
727140000000,,18093,,727,132108759,"""map""",,,-0.243856549263,-0.262566655874,0.0518186055124,,-0.00172612352222,0.00541576664216,0.043585489038,-0.999033555649
727176000000,,18094,,727,172108412,"""map""",,,-0.244134932756,-0.26272675395,0.0526739135385,,-0.00176667636375,0.00539575446238,0.043596320778,-0.999033092034
727208000000,,18095,,727,204108412,"""map""",,,-0.244879543781,-0.263177484274,0.0532393306494,,-0.00182078814279,0.00515419720877,0.0436598360787,-0.999031532601
727240000000,,18096,,727,236108412,"""map""",,,-0.246069595218,-0.263894528151,0.0538779087365,,-0.00182889597813,0.00513207818047,0.0436248963413,-0.999033176328
727276000000,,18097,,727,268108065,"""map""",,,-0.24763572216,-0.264888584614,0.0546781048179,,-0.00181831975334,0.00515353817035,0.0436250227819,-0.999033049887
727308000000,,18098,,727,300108065,"""map""",,,-0.24696277082,-0.264259696007,0.0556811057031,,-0.00183667009605,0.0051592279949,0.0435650899633,-0.999035578698
727340000000,,18099,,727,340108065,"""map""",,,-0.246837988496,-0.263990372419,0.0568532422185,,-0.00185083110788,0.0051705921682,0.0435909259814,-0.999034356439
727376000000,,18100,,727,372107718,"""map""",,,-0.247255519032,-0.264147698879,0.0578309185803,,-0.00180136025662,0.00519276898378,0.0435823280243,-0.999034777908
727408000000,,18101,,727,404107718,"""map""",,,-0.248100206256,-0.264645338058,0.0588183067739,,-0.00177585433392,0.00522385014429,0.0435706112004,-0.999035115083
727440000000,,18102,,727,436107718,"""map""",,,-0.249327734113,-0.265427470207,0.0597698912024,,-0.00178255798774,0.00526970163493,0.0435782819269,-0.999034609321
727476000000,,18103,,727,468107371,"""map""",,,-0.250951290131,-0.266467690468,0.0606794096529,,-0.00177061874045,0.00530938075253,0.0435741093889,-0.999034567174
727508000000,,18104,,727,500107371,"""map""",,,-0.249975904822,-0.265813559294,0.0610636249185,,-0.00176011149818,0.00530700027877,0.0435294337294,-0.999036505929
727540000000,,18105,,727,532107371,"""map""",,,-0.249568447471,-0.265563607216,0.0613985992968,,-0.00180013915047,0.00528435095751,0.0435173797308,-0.999037095985
727576000000,,18106,,727,572107024,"""map""",,,-0.249756410718,-0.265739321709,0.0617416352034,,-0.00178459766472,0.00528589376265,0.0435087396268,-0.999037475306
727608000000,,18107,,727,604107024,"""map""",,,-0.250424057245,-0.266174942255,0.0619463734329,,-0.00179926460336,0.00532260844215,0.0434657498413,-0.99903916118
727640000000,,18108,,727,636107024,"""map""",,,-0.25154709816,-0.266906261444,0.0620859861374,,-0.00183744125167,0.00530683745364,0.0434264689785,-0.999040847054
727676000000,,18109,,727,668106677,"""map""",,,-0.253080070019,-0.267920136452,0.0623343959451,,-0.00183622574314,0.0052956025197,0.0433973455062,-0.9990422379
727708000000,,18110,,727,700106677,"""map""",,,-0.252322882414,-0.266960263252,0.0624714754522,,-0.00187336452531,0.0052716820429,0.0433649345797,-0.999043628746
727740000000,,18111,,727,732106677,"""map""",,,-0.252081573009,-0.266434848309,0.0625081211329,,-0.00185309040945,0.00507423410043,0.0433608463354,-0.999044935298
727776000000,,18112,,727,772106331,"""map""",,,-0.252562195063,-0.266315579414,0.0626612529159,,-0.00185694338873,0.00514219078993,0.0433261594791,-0.999046073263
727808000000,,18113,,727,804106331,"""map""",,,-0.25348097086,-0.266633689404,0.0627911984921,,-0.00179461165714,0.00516277343389,0.043323124906,-0.999046241851
727840000000,,18114,,727,836106331,"""map""",,,-0.254834502935,-0.267253905535,0.0630309358239,,-0.0018183273266,0.00524445056895,0.0433355582263,-0.99904518818
727876000000,,18115,,727,868105984,"""map""",,,-0.256548404694,-0.268188983202,0.0631921738386,,-0.00181150003105,0.00528588701257,0.0433386770931,-0.999044851005
727908000000,,18116,,727,900105984,"""map""",,,-0.255490511656,-0.267332851887,0.0629046037793,,-0.001812355645,0.0052891650825,0.0432888173713,-0.999047000494
727940000000,,18117,,727,932105984,"""map""",,,-0.255009353161,-0.266888707876,0.0626566484571,,-0.00181911856782,0.0052951687035,0.043226566476,-0.999049655746
727976000000,,18118,,727,972105638,"""map""",,,-0.255164980888,-0.26688170433,0.0622707791626,,-0.00180188281169,0.00529081407795,0.0431748944398,-0.999051931675
728008000000,,18119,,728,4105638,"""map""",,,-0.255845934153,-0.267277598381,0.0618892014027,,-0.00174639467463,0.00534158176797,0.0431734614469,-0.999051847382
728040000000,,18120,,728,36105638,"""map""",,,-0.257024824619,-0.268007367849,0.0615894086659,,-0.0017084448949,0.00535318976738,0.043199592493,-0.99905066727
728076000000,,18121,,728,68105291,"""map""",,,-0.258644282818,-0.269033372402,0.0614182800055,,-0.00166863373913,0.0053351280318,0.0431617024762,-0.999052479584
728108000000,,18122,,728,100105291,"""map""",,,-0.257561028004,-0.268325656652,0.0606383979321,,-0.00164931961652,0.00541597523614,0.0431114212859,-0.999054291899
728140000000,,18123,,728,132105291,"""map""",,,-0.257073372602,-0.268035143614,0.0599833838642,,-0.00162039864664,0.00536167659509,0.0431023597135,-0.999055008395
728176000000,,18124,,728,172104945,"""map""",,,-0.257230162621,-0.268211007118,0.059273082763,,-0.00162590654827,0.00536684238285,0.0430881562255,-0.999055556304
728208000000,,18125,,728,204104945,"""map""",,,-0.257919639349,-0.268716871738,0.0588531903923,,-0.00163817786663,0.00534157073735,0.0430951947492,-0.999055429864
728240000000,,18126,,728,236104945,"""map""",,,-0.259056657553,-0.269557744265,0.0584237985313,,-0.00161085106836,0.00540070852808,0.0430032303258,-0.999059054493
728276000000,,18127,,728,268104598,"""map""",,,-0.260622948408,-0.270723074675,0.0580659359694,,-0.00163240555938,0.00524052712541,0.0430082458008,-0.999059686695
728308000000,,18128,,728,300104598,"""map""",,,-0.259407490492,-0.269941657782,0.0576792471111,,-0.00156212881757,0.00521755396488,0.0429703557839,-0.99906149901
728340000000,,18129,,728,332104598,"""map""",,,-0.258805245161,-0.269603192806,0.0572670809925,,-0.00156074291066,0.00525903996398,0.0429063347211,-0.999064069968
728376000000,,18130,,728,372104252,"""map""",,,-0.258848398924,-0.269788533449,0.0566738210618,,-0.00155549628656,0.00529623653342,0.0429247950407,-0.999063058443
728408000000,,18131,,728,404104252,"""map""",,,-0.259463489056,-0.270355045795,0.0562362931669,,-0.00159636901609,0.00532973586936,0.0429381134448,-0.9990622998
728440000000,,18132,,728,436104252,"""map""",,,-0.260552406311,-0.271242290735,0.0557651743293,,-0.00159508386648,0.00530142866296,0.042877969892,-0.999065039345
728476000000,,18133,,728,468103906,"""map""",,,-0.262093007565,-0.272445440292,0.0552769079804,,-0.00161571837082,0.00532337367087,0.0428772112487,-0.999064870758
728508000000,,18134,,728,500103906,"""map""",,,-0.260799407959,-0.271793633699,0.0548362992704,,-0.00160597965,0.00534749697938,0.0429018250083,-0.999063690646
728540000000,,18135,,728,532103906,"""map""",,,-0.260114789009,-0.271593302488,0.0544302538037,,-0.00158852443391,0.00534855575431,0.0428907403871,-0.999064238555
728576000000,,18136,,728,572103560,"""map""",,,-0.260071009398,-0.271912902594,0.0540941953659,,-0.00161462732721,0.00534074788599,0.0429155648809,-0.99906310059
728608000000,,18137,,728,604103560,"""map""",,,-0.260660529137,-0.272577494383,0.0538792200387,,-0.00158157234417,0.00532900933014,0.0428216617024,-0.999067315275
728640000000,,18138,,728,636103560,"""map""",,,-0.261705160141,-0.273594707251,0.0536544471979,,-0.00165254928343,0.00534363593293,0.0427661543029,-0.999069464764
728676000000,,18139,,728,668103214,"""map""",,,-0.263183712959,-0.274903655052,0.0533421784639,,-0.00166799923149,0.00534397788217,0.0427588628981,-0.999069759792
728708000000,,18140,,728,700103214,"""map""",,,-0.262350738049,-0.274160891771,0.0526145286858,,-0.00171926609826,0.00532819339349,0.0427226587552,-0.999071319226
728740000000,,18141,,728,732103214,"""map""",,,-0.262149244547,-0.273859828711,0.0518727041781,,-0.00172642085506,0.00534362473767,0.0426116018094,-0.999075997526
728776000000,,18142,,728,772102868,"""map""",,,-0.262644767761,-0.274041771889,0.0508145652711,,-0.00174912071962,0.00534792717358,0.0426546758886,-0.999074058771
728808000000,,18143,,728,804102868,"""map""",,,-0.263607770205,-0.274612128735,0.0500236600637,,-0.00174241245599,0.00512768124343,0.0425995899576,-0.999077556959
728840000000,,18144,,728,836102868,"""map""",,,-0.265041470528,-0.275536835194,0.0492959991097,,-0.00172741179991,0.0051046884912,0.0425889268049,-0.999078189162
728876000000,,18145,,728,868102523,"""map""",,,-0.266866981983,-0.276772648096,0.048651330173,,-0.00174365167212,0.00509991848869,0.0425386456147,-0.999080338651
728908000000,,18146,,728,900102523,"""map""",,,-0.265543580055,-0.276462882757,0.0480238609016,,-0.00176390800727,0.00515529467319,0.0424801879358,-0.99908248814
728940000000,,18147,,728,932102523,"""map""",,,-0.264832347631,-0.276602447033,0.0475312359631,,-0.00173700761657,0.00516593296581,0.0424065995383,-0.999085607007
728976000000,,18148,,728,972102177,"""map""",,,-0.264761328697,-0.277302384377,0.0469123274088,,-0.00169741328658,0.00515083056461,0.0424111092511,-0.99908556486
729008000000,,18149,,729,4102177,"""map""",,,-0.265308797359,-0.278227299452,0.0463958568871,,-0.0016659686095,0.00515383204584,0.0424060516292,-0.999085817742
729040000000,,18150,,729,36102177,"""map""",,,-0.266374260187,-0.27946460247,0.045931532979,,-0.00165814526538,0.0051363073533,0.0423969057631,-0.999086281357
729076000000,,18151,,729,68101832,"""map""",,,-0.267893910408,-0.280983150005,0.0454779043794,,-0.00166072774767,0.00513279500617,0.0423768860101,-0.999087166441
729112000000,,18152,,729,100101832,"""map""",,,-0.266553521156,-0.280426084995,0.0448702648282,,-0.00167404137735,0.00513024594501,0.042304014109,-0.999090243161
729140000000,,18153,,729,132101832,"""map""",,,-0.265870213509,-0.280325114727,0.0443114973605,,-0.00158300369066,0.00513420165723,0.0422198468525,-0.999093909936
729176000000,,18154,,729,172101486,"""map""",,,-0.265869855881,-0.280799567699,0.0438415259123,,-0.00155531140019,0.00509482711647,0.0422011757986,-0.999094963608
729208000000,,18155,,729,196101486,"""map""",,,-0.26626136899,-0.281386703253,0.043479539454,,-0.00149841529497,0.00510885790112,0.0422385600533,-0.999093404174
729240000000,,18156,,729,232101486,"""map""",,,-0.267218470573,-0.282483428717,0.0430317260325,,-0.00153449810102,0.00513804870961,0.0423098303741,-0.999090158867
729276000000,,18157,,729,272101141,"""map""",,,-0.269049674273,-0.284317135811,0.0427232868969,,-0.00155680991822,0.00513329039627,0.0422971441727,-0.999090706776
729308000000,,18158,,729,304101141,"""map""",,,-0.267778724432,-0.283762663603,0.0423356033862,,-0.00158765136853,0.0049026695913,0.0422941517464,-0.999091929035
729340000000,,18159,,729,336101141,"""map""",,,-0.267141610384,-0.283668428659,0.0419625937939,,-0.00156110379305,0.004954174028,0.0422768293917,-0.999092476944
729376000000,,18160,,729,368100796,"""map""",,,-0.267060756683,-0.284015864134,0.0417845994234,,-0.00154711433206,0.00499767352693,0.0422729940285,-0.999092434797
729408000000,,18161,,729,400100796,"""map""",,,-0.26750394702,-0.284765988588,0.0417239554226,,-0.00154945265898,0.00502669113822,0.0422550816179,-0.999093066999
729440000000,,18162,,729,432100796,"""map""",,,-0.268431395292,-0.285882800817,0.0417002849281,,-0.00154434416459,0.00505724249967,0.042164339453,-0.999096733775
729476000000,,18163,,729,472100451,"""map""",,,-0.269400596619,-0.286997288465,0.0416180156171,,-0.00155207284294,0.00510657538585,0.0422113331891,-0.999094499992
729508000000,,18164,,729,504100451,"""map""",,,-0.268280476332,-0.285949468613,0.0412611626089,,-0.00153266915828,0.00510431163911,0.0422384757596,-0.999093319881
729540000000,,18165,,729,536100451,"""map""",,,-0.267768204212,-0.285432249308,0.04102941975,,-0.00151930498531,0.00513229813433,0.0422756914268,-0.999091676153
729576000000,,18166,,729,568100106,"""map""",,,-0.267795294523,-0.285408616066,0.0408206097782,,-0.00153481469629,0.00509778546303,0.0422784731188,-0.999091676153
729608000000,,18167,,729,600100106,"""map""",,,-0.268324136734,-0.285853624344,0.0406957678497,,-0.00154999694601,0.00510214486304,0.0422825613631,-0.999091465419
729640000000,,18168,,729,632100106,"""map""",,,-0.269325494766,-0.286702871323,0.0405970998108,,-0.00153465681024,0.00513067301112,0.0422803275801,-0.999091423272
729676000000,,18169,,729,672111762,"""map""",,,-0.270306169987,-0.28759264946,0.0405093468726,,-0.00158377073038,0.00513793906195,0.0422874925444,-0.999091001804
729708000000,,18170,,729,704111762,"""map""",,,-0.268940299749,-0.286759406328,0.0404691882432,,-0.00156818199406,0.00522514780624,0.0423126120661,-0.999089568811
729740000000,,18171,,729,736111762,"""map""",,,-0.268230319023,-0.286452978849,0.0404160954058,,-0.00152350139555,0.00523900193633,0.0422919601103,-0.999090411748
729776000000,,18172,,729,768111417,"""map""",,,-0.268090188503,-0.286599159241,0.0405177585781,,-0.0015127863825,0.005201283635,0.0422504033177,-0.999092434797
729808000000,,18173,,729,800111417,"""map""",,,-0.268458634615,-0.28716301918,0.0406283177435,,-0.0014502951185,0.00493160241499,0.0421503888462,-0.999098124621
729840000000,,18174,,729,832111417,"""map""",,,-0.269362688065,-0.288094192743,0.0408484116197,,-0.00145327437385,0.00493125009368,0.0421556150554,-0.99909787174
729876000000,,18175,,729,872111072,"""map""",,,-0.270303636789,-0.289058893919,0.0409912839532,,-0.00144936574756,0.00493934047759,0.0421675004667,-0.999097365978
729904000000,,18176,,729,904111072,"""map""",,,-0.269086450338,-0.288149476051,0.0408651791513,,-0.00147896271339,0.00494119559747,0.042149040147,-0.999098040328
729940000000,,18177,,729,936111072,"""map""",,,-0.268499046564,-0.287759929895,0.040855422616,,-0.00147541826221,0.00494266892617,0.0421015406487,-0.999100021229
729976000000,,18178,,729,968110728,"""map""",,,-0.26849475503,-0.287839859724,0.0408420823514,,-0.00144621148401,0.00495049210565,0.0420837546787,-0.999100779873
730008000000,,18179,,730,110728,"""map""",,,-0.269004762173,-0.288351863623,0.0408121049404,,-0.00144000157393,0.00499714059979,0.0420493628503,-0.999102044278
730040000000,,18180,,730,32110728,"""map""",,,-0.269995003939,-0.2892318964,0.0408172048628,,-0.00148236936413,0.00495629668158,0.042066137296,-0.999101454222
730076000000,,18181,,730,72110383,"""map""",,,-0.271049231291,-0.290200561285,0.0406820476055,,-0.00146086558103,0.00496463418433,0.0420400483968,-0.999102507894
730108000000,,18182,,730,104110383,"""map""",,,-0.269957214594,-0.28941103816,0.0406049899757,,-0.0014343382558,0.0049408612215,0.0419713490337,-0.99910562676
730140000000,,18183,,730,136110383,"""map""",,,-0.269503980875,-0.289116203785,0.0405324064195,,-0.00145190213174,0.00501054988306,0.0418921551053,-0.999108534893
730176000000,,18184,,730,168110039,"""map""",,,-0.269606649876,-0.289293199778,0.0405562929809,,-0.00145862257844,0.00499642542045,0.0418909749936,-0.99910870348
730208000000,,18185,,730,200110039,"""map""",,,-0.270189523697,-0.289883136749,0.040692191571,,-0.00148653795086,0.00496999374881,0.0418698172756,-0.999109630711
730240000000,,18186,,730,232110039,"""map""",,,-0.271199911833,-0.290828078985,0.0408893972635,,-0.00104459663409,0.00459013013008,0.0418589433887,-0.999112496697
730276000000,,18187,,730,272109694,"""map""",,,-0.27229616046,-0.291883707047,0.041344370693,,-0.00104909613944,0.00461852163018,0.0418711659748,-0.999111822347
730308000000,,18188,,730,304109694,"""map""",,,-0.271182477474,-0.291130632162,0.0419042259455,,-0.00108171220256,0.00461925623658,0.041840230188,-0.999113086753
730340000000,,18189,,730,336109694,"""map""",,,-0.270717322826,-0.290886163712,0.0424923188984,,-0.0010403918274,0.00456608601155,0.0418488702919,-0.999113044606
730376000000,,18190,,730,368109350,"""map""",,,-0.270834982395,-0.291111588478,0.0430304482579,,-0.00101141537515,0.0045778263784,0.0418995729507,-0.999110895116
730408000000,,18191,,730,408109350,"""map""",,,-0.271712750196,-0.291975975037,0.0436519160867,,-0.000999136483522,0.00454053333218,0.0418890362386,-0.999111485172
730440000000,,18192,,730,432109350,"""map""",,,-0.272602558136,-0.292788505554,0.0440196841955,,-0.000992753376242,0.00451941298663,0.0418882775953,-0.99911165376
730476000000,,18193,,730,472109006,"""map""",,,-0.273740053177,-0.293858379126,0.044451162219,,-0.00096336467512,0.00450436409217,0.0418973813146,-0.999111316585
730508000000,,18194,,730,504109006,"""map""",,,-0.272520273924,-0.29290625453,0.0446176789701,,-0.000941875050736,0.0044285264359,0.0418701965973,-0.999112791725
