rosbagTimestamp,header,seq,stamp,secs,nsecs,frame_id,pose,position,x,y,z,orientation,x,y,z,w
1110552000000,,28458,,1110,536207305,"""map""",,,-0.209615632892,0.153701409698,0.0490248501301,,-0.00303492524946,-0.00592109566664,0.0569325951712,-0.998355876472
1110572000000,,28459,,1110,568206725,"""map""",,,-0.20965488255,0.153694108129,0.0491525419056,,-0.0030529352893,-0.00589492494326,0.056944059114,-0.998355286416
1110604000000,,28460,,1110,600206725,"""map""",,,-0.209996983409,0.15401494503,0.0491984300315,,-0.00312025319063,-0.00590694848425,0.056971623153,-0.998353516249
1110640000000,,28461,,1110,632206725,"""map""",,,-0.210120171309,0.154135733843,0.0495224930346,,-0.00319454573685,-0.00590361081605,0.056892597812,-0.99835777308
1110672000000,,28462,,1110,664206144,"""map""",,,-0.210039779544,0.154059812427,0.0499391816556,,-0.00318928882299,-0.00591003335368,0.0568907854975,-0.998357815227
1110704000000,,28463,,1110,696206144,"""map""",,,-0.209754660726,0.15380333364,0.0505521818995,,-0.00311648055378,-0.00591010340635,0.0569303613883,-0.998355834325
1110740000000,,28464,,1110,736206144,"""map""",,,-0.209144711494,0.15324935317,0.051495525986,,-0.00305056765716,-0.00592349869555,0.0569433847645,-0.998355202123
1110772000000,,28465,,1110,768205563,"""map""",,,-0.209032222629,0.153199002147,0.0520262084901,,-0.003041508225,-0.00590811229703,0.0569308250036,-0.99835604506
1110804000000,,28466,,1110,800205563,"""map""",,,-0.209276661277,0.153474375606,0.0523555129766,,-0.00303211886204,-0.00595937850525,0.0569523620432,-0.99835456992
1110840000000,,28467,,1110,832205563,"""map""",,,-0.209302082658,0.153532192111,0.052831556648,,-0.00306317812594,-0.00597282433774,0.0569543850919,-0.998354232745
1110872000000,,28468,,1110,864204983,"""map""",,,-0.209104552865,0.153393626213,0.0535071790218,,-0.00305837322058,-0.00599302864789,0.056985236585,-0.998352378284
1110900000000,,28469,,1110,896204983,"""map""",,,-0.208694383502,0.153047144413,0.0542825311422,,-0.00302338689114,-0.00596888294886,0.0569254723538,-0.998356002913
1110940000000,,28470,,1110,936204983,"""map""",,,-0.207927972078,0.152352243662,0.0552139952779,,-0.00298611689398,-0.00600650724297,0.056917928068,-0.998356297941
1110972000000,,28471,,1110,968204402,"""map""",,,-0.207703068852,0.152185067534,0.0556468553841,,-0.00297371353744,-0.00599890006608,0.0569560709659,-0.998354232745
1111004000000,,28472,,1111,204402,"""map""",,,-0.207843229175,0.152340441942,0.0559193007648,,-0.00299237817052,-0.00600601547486,0.056935714038,-0.998355286416
1111040000000,,28473,,1111,40204402,"""map""",,,-0.207714423537,0.152242347598,0.0565489940345,,-0.00301944220953,-0.00604138540647,0.0569022915872,-0.998356930143
1111072000000,,28474,,1111,72203821,"""map""",,,-0.207396283746,0.151960045099,0.0571958422661,,-0.00300988228355,-0.00600855350539,0.0568964753221,-0.998357520199
1111104000000,,28475,,1111,96203821,"""map""",,,-0.207020804286,0.151643395424,0.0577621161938,,-0.00302071797488,-0.00599233091998,0.0568600182981,-0.998359585395
1111140000000,,28476,,1111,136203821,"""map""",,,-0.206182047725,0.150943487883,0.0588899068534,,-0.00303274200978,-0.00596118143548,0.0568689112831,-0.998359290367
1111172000000,,28477,,1111,168203240,"""map""",,,-0.205931022763,0.150825157762,0.0595919638872,,-0.00304285132652,-0.00592769444725,0.0568868236938,-0.998358405283
1111204000000,,28478,,1111,200203240,"""map""",,,-0.206070154905,0.151100590825,0.060053229332,,-0.00301868899925,-0.00591226112743,0.0568922606372,-0.998358278843
1111240000000,,28479,,1111,232203240,"""map""",,,-0.205968096852,0.151147425175,0.0605147704482,,-0.0030232573225,-0.00587665757715,0.0568795744358,-0.998359163926
1111272000000,,28480,,1111,264202659,"""map""",,,-0.205681592226,0.150996416807,0.0609965622425,,-0.00305084325803,-0.00583104727844,0.0568852642604,-0.998359037486
1111300000000,,28481,,1111,296202659,"""map""",,,-0.205205604434,0.150650948286,0.0615412034094,,-0.00303504131793,-0.0058468307793,0.0568811338692,-0.998359290367
1111340000000,,28482,,1111,336202659,"""map""",,,-0.204349562526,0.150006130338,0.0623824000359,,-0.00300159318382,-0.00584488017046,0.0568903218822,-0.998358868898
1111372000000,,28483,,1111,368202077,"""map""",,,-0.204157322645,0.14988963306,0.0628407225013,,-0.00298979931023,-0.00585688148558,0.0569101730478,-0.99835764664
1111404000000,,28484,,1111,400202077,"""map""",,,-0.204427629709,0.150134935975,0.0630722418427,,-0.00298143036199,-0.00582325702618,0.0568858121694,-0.998359332514
1111440000000,,28485,,1111,432202077,"""map""",,,-0.204476848245,0.150151997805,0.0633327066898,,-0.00300330013119,-0.00581160259939,0.0568796165827,-0.998359627542
1111472000000,,28486,,1111,464201496,"""map""",,,-0.204296141863,0.149950057268,0.0637169331312,,-0.00301417047843,-0.00576986561251,0.0569000156573,-0.998358700311
1111504000000,,28487,,1111,496201496,"""map""",,,-0.203925967216,0.149570792913,0.0641681626439,,-0.00303870957548,-0.00573037426241,0.0569086557613,-0.998358320989
1111540000000,,28488,,1111,536201496,"""map""",,,-0.203193753958,0.148853868246,0.0647965669632,,-0.00311516231231,-0.00569813752093,0.0569222270465,-0.998357478052
1111572000000,,28489,,1111,568200915,"""map""",,,-0.20306263864,0.148619234562,0.0650159344077,,-0.00310858822713,-0.0057069618527,0.0569146406138,-0.998357899521
1111604000000,,28490,,1111,600200915,"""map""",,,-0.203336447477,0.148688659072,0.0650582239032,,-0.00308316989084,-0.00571599691872,0.0569243343889,-0.998357393759
1111640000000,,28491,,1111,632200915,"""map""",,,-0.203381314874,0.148563310504,0.065154530108,,-0.00298394526115,-0.00571886529164,0.0569215105501,-0.998357857374
1111672000000,,28492,,1111,664200333,"""map""",,,-0.203221932054,0.14828325808,0.0653790533543,,-0.0028945005113,-0.00576004531449,0.0569503811413,-0.998356213647
1111704000000,,28493,,1111,696200333,"""map""",,,-0.202863305807,0.147796317935,0.0658369660378,,-0.00288128171203,-0.00571293485139,0.056977186537,-0.998355033535
1111740000000,,28494,,1111,736200333,"""map""",,,-0.202234953642,0.14690361917,0.0664560571313,,-0.00284884148029,-0.00570947321218,0.0569840143264,-0.99835469636
1111772000000,,28495,,1111,768199752,"""map""",,,-0.202136337757,0.146733239293,0.0664256438613,,-0.00282550694347,-0.00572037508724,0.0570112411906,-0.998353179074
1111804000000,,28496,,1111,800199752,"""map""",,,-0.202358990908,0.14706915617,0.0659055933356,,-0.002817358443,-0.00573430165722,0.0570782125328,-0.998349259417
1111840000000,,28497,,1111,832199752,"""map""",,,-0.202351376414,0.147150605917,0.0653851479292,,-0.00289333735706,-0.0057228950078,0.0570902243847,-0.998348458627
1111872000000,,28498,,1111,864199170,"""map""",,,-0.202105507255,0.14697343111,0.0649774372578,,-0.00289591934544,-0.00570423136254,0.0570796455257,-0.998349175123
1111904000000,,28499,,1111,896199170,"""map""",,,-0.201664432883,0.146554291248,0.0647526755929,,-0.00290911262612,-0.00572252441188,0.0570958720624,-0.998348121452
1111940000000,,28500,,1111,936199170,"""map""",,,-0.200898498297,0.145749434829,0.0648195743561,,-0.00291493300711,-0.00571285352114,0.0570388473763,-0.998351366759
1111976000000,,28501,,1111,968198588,"""map""",,,-0.200759142637,0.145500436425,0.0647476911545,,-0.00288820795389,-0.0057052506248,0.05704200839,-0.998351324613
1112004000000,,28502,,1112,198588,"""map""",,,-0.20102083683,0.145596787333,0.0644098967314,,-0.0029087288593,-0.00568791509917,0.0570340847825,-0.998351830375
1112040000000,,28503,,1112,32198588,"""map""",,,-0.201061517,0.145489737391,0.0641207993031,,-0.00287651154488,-0.00572237673327,0.0570392688448,-0.998351451053
1112072000000,,28504,,1112,64198007,"""map""",,,-0.200914040208,0.145169883966,0.0638619884849,,-0.00281689844966,-0.00569127993233,0.057031429531,-0.998352209696
1112104000000,,28505,,1112,96198007,"""map""",,,-0.200574249029,0.14466252923,0.0636564418674,,-0.00284137342094,-0.00566505718393,0.0570734077921,-0.998349849473
1112140000000,,28506,,1112,136198007,"""map""",,,-0.199910402298,0.143803492188,0.0635089874268,,-0.00284122319047,-0.00559864436971,0.0570920366992,-0.998349175123
1112172000000,,28507,,1112,168198007,"""map""",,,-0.199822366238,0.143628805876,0.0628890991211,,-0.0028333312754,-0.00560111053658,0.0571064087745,-0.998348374333
1112204000000,,28508,,1112,200191425,"""map""",,,-0.200113296509,0.143881216645,0.0618892982602,,-0.0028138640412,-0.00556134432646,0.0571289151916,-0.998347362809
1112240000000,,28509,,1112,240191425,"""map""",,,-0.20014937222,0.14384958148,0.0608029775321,,-0.00279565330992,-0.00557101834528,0.0571547090629,-0.998345929816
1112272000000,,28510,,1112,272190843,"""map""",,,-0.199938446283,0.143601626158,0.0601060427725,,-0.00277967965434,-0.00558407662433,0.0571377238829,-0.9983468149
1112304000000,,28511,,1112,296190843,"""map""",,,-0.199634552002,0.1432941854,0.0595885291696,,-0.00281550151212,-0.00553082836178,0.0571218345211,-0.998347952865
1112340000000,,28512,,1112,336190843,"""map""",,,-0.198936596513,0.142566233873,0.0588539652526,,-0.0028036136313,-0.00548349596917,0.0571172405146,-0.998348500774
1112372000000,,28513,,1112,368190262,"""map""",,,-0.198937952518,0.142465665936,0.0582143142819,,-0.00278633103619,-0.00545618390584,0.0571587973072,-0.998346309138
1112404000000,,28514,,1112,400190262,"""map""",,,-0.199424624443,0.142807990313,0.0574494376779,,-0.00273112813122,-0.00551538285889,0.0571193057101,-0.998348458627
1112440000000,,28515,,1112,432190262,"""map""",,,-0.19963850081,0.142915666103,0.0569094605744,,-0.00270386751667,-0.00555435766314,0.0571689546977,-0.998345424054
1112472000000,,28516,,1112,464189680,"""map""",,,-0.19962272048,0.142775267363,0.0564781092107,,-0.00269742036594,-0.00558822133883,0.0571880472201,-0.998344201795
1112504000000,,28517,,1112,496189680,"""map""",,,-0.199457272887,0.142425104976,0.0559493452311,,-0.00268765135207,-0.00528304605157,0.0571780162701,-0.998346393431
1112540000000,,28518,,1112,536189680,"""map""",,,-0.198947638273,0.14172770083,0.0555140189826,,-0.00274704185925,-0.00529392224339,0.0572196995033,-0.998343822473
1112572000000,,28519,,1112,568189099,"""map""",,,-0.198944240808,0.141761854291,0.0552829690278,,-0.00272405190584,-0.00535484436046,0.0572399299906,-0.998342389481
1112604000000,,28520,,1112,600189099,"""map""",,,-0.199331909418,0.142342120409,0.0550700873137,,-0.00272594184626,-0.00538657706844,0.0572323435579,-0.998342642362
1112640000000,,28521,,1112,632189099,"""map""",,,-0.199477568269,0.142657548189,0.0550203546882,,-0.00269201511493,-0.00537457953995,0.0572431752979,-0.998342178746
1112672000000,,28522,,1112,664188517,"""map""",,,-0.199401766062,0.142718017101,0.0551256909966,,-0.00266509562645,-0.00536927315294,0.0572816553706,-0.998340113551
1112704000000,,28523,,1112,696188517,"""map""",,,-0.199142754078,0.142581507564,0.055410027504,,-0.00263279550005,-0.005356329296,0.0572341558723,-0.998343021683
1112740000000,,28524,,1112,736188517,"""map""",,,-0.198571145535,0.142156228423,0.0558667220175,,-0.00260158007879,-0.00538037580176,0.0572129981544,-0.998344117501
1112772000000,,28525,,1112,768187936,"""map""",,,-0.1985334903,0.142239421606,0.0560429543257,,-0.00257915186384,-0.00540408225159,0.0572207531745,-0.998343611739
1112804000000,,28526,,1112,800187936,"""map""",,,-0.198845595121,0.142656877637,0.0560779906809,,-0.00258666239932,-0.00539188353776,0.0572118601895,-0.998344159648
1112840000000,,28527,,1112,832187936,"""map""",,,-0.198895126581,0.142833024263,0.0562545843422,,-0.00259031583961,-0.00545220967205,0.0572702335747,-0.998340492872
1112872000000,,28528,,1112,864187354,"""map""",,,-0.198740422726,0.142786681652,0.0562803484499,,-0.00259642515701,-0.00542823799342,0.0573023073264,-0.998338764852
1112904000000,,28529,,1112,896187354,"""map""",,,-0.198383718729,0.142551392317,0.056339148432,,-0.00263607743893,-0.00543214184526,0.0573357719241,-0.998336741803
1112940000000,,28530,,1112,936187354,"""map""",,,-0.197692871094,0.141993239522,0.0563800856471,,-0.00264373153711,-0.00546584895199,0.0573382164413,-0.998336404628
1112972000000,,28531,,1112,968186773,"""map""",,,-0.197539314628,0.142025381327,0.0563454814255,,-0.00263992449131,-0.00544084533412,0.0573426840073,-0.998336236041
1113004000000,,28532,,1113,186773,"""map""",,,-0.19776982069,0.142489671707,0.0562012791634,,-0.00265751306266,-0.00545557022468,0.0573468986921,-0.998335898866
1113040000000,,28533,,1113,32186773,"""map""",,,-0.197770684958,0.142730548978,0.056045319885,,-0.00268879400911,-0.00542149441534,0.0573663283893,-0.998334845195
1113072000000,,28534,,1113,64192191,"""map""",,,-0.197554409504,0.142732024193,0.0558803379536,,-0.00267469350106,-0.00540929528992,0.0573573932574,-0.998335519544
1113104000000,,28535,,1113,96192191,"""map""",,,-0.197157308459,0.142516866326,0.0558294467628,,-0.00263375195363,-0.00543782722463,0.0573171008702,-0.998337795474
1113140000000,,28536,,1113,136192191,"""map""",,,-0.196453437209,0.141955703497,0.0559560731053,,-0.00260363029248,-0.0054348471461,0.0573113688988,-0.998338216943
1113172000000,,28537,,1113,168203610,"""map""",,,-0.196321189404,0.142097070813,0.0558555573225,,-0.00259340589508,-0.00539613707674,0.0573120011015,-0.998338427677
1113204000000,,28538,,1113,200203610,"""map""",,,-0.196540147066,0.142741173506,0.0555106848478,,-0.00260015861047,-0.00543054997855,0.0572939622504,-0.998339270614
1113240000000,,28539,,1113,232203610,"""map""",,,-0.196549683809,0.143126308918,0.0551870390773,,-0.00259086802918,-0.00541026400889,0.0573071120671,-0.998338596264
1113272000000,,28540,,1113,272203029,"""map""",,,-0.196283787489,0.143241763115,0.054926905781,,-0.002598333619,-0.00540103878815,0.0573003685713,-0.998339017733
1113304000000,,28541,,1113,296203029,"""map""",,,-0.19597658515,0.143151849508,0.0548872202635,,-0.00258404797762,-0.00540471132623,0.0572225233421,-0.998343527446
1113340000000,,28542,,1113,336203029,"""map""",,,-0.19527207315,0.142775446177,0.0549041777849,,-0.00253984186043,-0.00534919339003,0.057230910565,-0.998343485299
1113372000000,,28543,,1113,368202447,"""map""",,,-0.195282265544,0.142966076732,0.0549724698067,,-0.0025536398496,-0.00533491729755,0.0572594861283,-0.998341799425
1113404000000,,28544,,1113,400202447,"""map""",,,-0.195763871074,0.143612742424,0.0550490915775,,-0.00256244417808,-0.0052316447594,0.0573019701516,-0.998339944963
1113440000000,,28545,,1113,432202447,"""map""",,,-0.195974811912,0.143979161978,0.0552265420556,,-0.00257386729112,-0.00521013537868,0.0572419530393,-0.998343401005
1113472000000,,28546,,1113,464201866,"""map""",,,-0.195974245667,0.144063621759,0.0554564334452,,-0.00257772825525,-0.00517343214139,0.0572329757606,-0.998344117501
1113504000000,,28547,,1113,496201866,"""map""",,,-0.195751726627,0.14391091466,0.0557807423174,,-0.00254483988398,-0.00517261027785,0.0571860663182,-0.99834694134
1113540000000,,28548,,1113,536201866,"""map""",,,-0.195223689079,0.143422946334,0.0562731102109,,-0.00251122472652,-0.0051791500364,0.0571874150173,-0.99834694134
1113572000000,,28549,,1113,568201284,"""map""",,,-0.194591090083,0.142863377929,0.0567339733243,,-0.0025392711493,-0.00519518460735,0.0571549197971,-0.998348585067
1113604000000,,28550,,1113,600201284,"""map""",,,-0.193778678775,0.142160460353,0.0573181770742,,-0.00250131297313,-0.0051644190543,0.0571299688628,-0.998350270941
1113640000000,,28551,,1113,632201284,"""map""",,,-0.192800357938,0.141313746572,0.0579076930881,,-0.00252925748615,-0.00511964609493,0.0571952543312,-0.998346688459
1113672000000,,28552,,1113,664200703,"""map""",,,-0.192057907581,0.140676125884,0.0584184229374,,-0.00252598657789,-0.00512631509284,0.0572056224559,-0.998346098403
1113704000000,,28553,,1113,696200703,"""map""",,,-0.19224986434,0.140918523073,0.0587130412459,,-0.00253989808367,-0.00505654320772,0.05725371201,-0.998343611739
1113740000000,,28554,,1113,736200703,"""map""",,,-0.192145213485,0.140869349241,0.0591485984623,,-0.00254731765769,-0.00510404558713,0.0572429645637,-0.998343991061
1113772000000,,28555,,1113,768200121,"""map""",,,-0.191836416721,0.140608072281,0.0595161616802,,-0.00255889141278,-0.00514027096806,0.0572458726962,-0.998343611739
1113804000000,,28556,,1113,800200121,"""map""",,,-0.19132065773,0.140147149563,0.0598623380065,,-0.00256424241618,-0.00493617320778,0.0572209217619,-0.998346056256
1113836000000,,28557,,1113,832200121,"""map""",,,-0.190644577146,0.139500558376,0.0603546574712,,-0.00257007004117,-0.00493207360358,0.0572085305884,-0.9983468149
1113872000000,,28558,,1113,864199539,"""map""",,,-0.190124049783,0.139093264937,0.0606550872326,,-0.0025396475898,-0.00492601334775,0.0571976988484,-0.998347531396
1113904000000,,28559,,1113,896199539,"""map""",,,-0.190385326743,0.139666900039,0.0603617690504,,-0.00246372201785,-0.0048437907732,0.0571778898296,-0.99834921727
1113936000000,,28560,,1113,928199539,"""map""",,,-0.190377607942,0.139988437295,0.0600334778428,,-0.00246553449697,-0.00484275735223,0.0571746866691,-0.998349385857
1113972000000,,28561,,1113,968198957,"""map""",,,-0.190043270588,0.140053004026,0.0597706325352,,-0.00241518251316,-0.00480399048341,0.0571783112981,-0.998349554445
1114004000000,,28562,,1114,198957,"""map""",,,-0.189552590251,0.139826565981,0.0596981830895,,-0.00240797433193,-0.00477243541781,0.0571661730057,-0.998350397382
1114036000000,,28563,,1114,32198957,"""map""",,,-0.188898831606,0.139425560832,0.0597795434296,,-0.00237285217769,-0.00477515718226,0.0572081934137,-0.998348079305
1114072000000,,28564,,1114,64198375,"""map""",,,-0.188450962305,0.139216527343,0.0596998594701,,-0.00238032344745,-0.00479861445532,0.0572182665105,-0.998347362809
1114104000000,,28565,,1114,96198375,"""map""",,,-0.188842460513,0.139843165874,0.0589197911322,,-0.00235602307278,-0.00487002315282,0.0572113122804,-0.998347489249
1114136000000,,28566,,1114,128198375,"""map""",,,-0.188979357481,0.140201106668,0.0581981055439,,-0.00236752208307,-0.00490932294878,0.05722201758,-0.998346646312
1114172000000,,28567,,1114,168209793,"""map""",,,-0.188827261329,0.140307366848,0.0574581176043,,-0.00236950059773,-0.00489248174313,0.0572144732941,-0.998347109928
1114204000000,,28568,,1114,200209793,"""map""",,,-0.18847809732,0.140175655484,0.0569177642465,,-0.002377914327,-0.00485447038949,0.05721894086,-0.998347025634
1114236000000,,28569,,1114,232209793,"""map""",,,-0.187956988811,0.139850020409,0.0563710331917,,-0.00235252636608,-0.00486875331437,0.0571631384326,-0.998350228794
1114272000000,,28570,,1114,264209211,"""map""",,,-0.187712609768,0.139691308141,0.0558760426939,,-0.00242582574486,-0.00486456027917,0.0571736751447,-0.998349470151
1114304000000,,28571,,1114,296209211,"""map""",,,-0.188529625535,0.140249148011,0.0552382394671,,-0.00246565575148,-0.00487727224612,0.0571394097569,-0.998351282466
1114336000000,,28572,,1114,328209211,"""map""",,,-0.189045071602,0.140547215939,0.0546962618828,,-0.00244197259765,-0.0048647189884,0.0571639392227,-0.99835001806
1114372000000,,28573,,1114,368208629,"""map""",,,-0.189305499196,0.14059792459,0.054092105478,,-0.00236496857674,-0.00484434732563,0.0571601881532,-0.998350481676
1114404000000,,28574,,1114,400208629,"""map""",,,-0.189270988107,0.140408322215,0.0536509118974,,-0.00243171486144,-0.00477390858188,0.0571510844339,-0.998351156025
1114436000000,,28575,,1114,432208629,"""map""",,,-0.18902233243,0.140034601092,0.0532156825066,,-0.0024405090648,-0.00475010417355,0.0571229303391,-0.998352926193
1114472000000,,28576,,1114,464208047,"""map""",,,-0.188997104764,0.139827951789,0.052739828825,,-0.00247294287573,-0.00469754919372,0.0571832003325,-0.998349638739
1114504000000,,28577,,1114,500208047,"""map""",,,-0.189873814583,0.140424817801,0.0521095208824,,-0.00244291834988,-0.00475670970423,0.0571665944742,-0.998350313088
1114536000000,,28578,,1114,532208047,"""map""",,,-0.190461039543,0.140775308013,0.0515387691557,,-0.00241498034,-0.00474902111479,0.0571594716568,-0.998350860997
1114572000000,,28579,,1114,564207464,"""map""",,,-0.190832421184,0.140894412994,0.0510279908776,,-0.00244825988671,-0.00447476169336,0.0570660320936,-0.998357393759
1114604000000,,28580,,1114,596207464,"""map""",,,-0.190945073962,0.140824735165,0.0507017858326,,-0.0024715965638,-0.00441798280906,0.0570879484549,-0.998356382234
1114636000000,,28581,,1114,628207464,"""map""",,,-0.190820917487,0.140560239553,0.0504576005042,,-0.00243775939453,-0.0044373208039,0.0570895500351,-0.998356213647
1114672000000,,28582,,1114,668206882,"""map""",,,-0.191110566258,0.140547648072,0.0500731654465,,-0.00244809837867,-0.00444084549874,0.0570370772087,-0.998359206073
1114704000000,,28583,,1114,700206882,"""map""",,,-0.191955044866,0.140961617231,0.0498398132622,,-0.00241812735956,-0.00438918070646,0.056992190815,-0.998362114206
1114736000000,,28584,,1114,732206882,"""map""",,,-0.192543640733,0.141121864319,0.0497876442969,,-0.00240312744435,-0.0044059283988,0.056994424598,-0.998361903472
1114772000000,,28585,,1114,764206299,"""map""",,,-0.19290342927,0.141059473157,0.0497855320573,,-0.00246371666717,-0.00440690979475,0.0570219464901,-0.998360175451
1114804000000,,28586,,1114,796206299,"""map""",,,-0.193078905344,0.140805885196,0.0499504320323,,-0.00247295440026,-0.00436010934147,0.0569784509424,-0.998362872849
1114836000000,,28587,,1114,828206299,"""map""",,,-0.193067938089,0.14034999907,0.0500977039337,,-0.00248744205016,-0.00434048702004,0.0569710330971,-0.998363294318
1114872000000,,28588,,1114,868205716,"""map""",,,-0.193444922566,0.140270322561,0.0501744300127,,-0.00246350132312,-0.00436979093356,0.0569617607904,-0.99836380008
1114904000000,,28589,,1114,900205716,"""map""",,,-0.194271221757,0.140828415751,0.0502062626183,,-0.00247413566447,-0.00441696889747,0.0569580097209,-0.998363757933
1114936000000,,28590,,1114,932205716,"""map""",,,-0.194840788841,0.141108050942,0.0502260439098,,-0.00245972243009,-0.00437886057316,0.0569337331362,-0.998365359513
1114972000000,,28591,,1114,964205133,"""map""",,,-0.195191532373,0.141140237451,0.0501829050481,,-0.00243993448472,-0.00442334393758,0.0569561552596,-0.99836392652
1115004000000,,28592,,1114,996205133,"""map""",,,-0.195368885994,0.140945956111,0.0501367747784,,-0.00253390228288,-0.00437000109157,0.0569610864408,-0.998363631492
1115036000000,,28593,,1115,28205133,"""map""",,,-0.195378407836,0.140555143356,0.0500785000622,,-0.00252745751937,-0.00439050380469,0.0569294763045,-0.99836540166
1115072000000,,28594,,1115,68204550,"""map""",,,-0.195666223764,0.140510365367,0.0501500703394,,-0.00250490483952,-0.00433434987913,0.0569215105501,-0.998366118156
1115104000000,,28595,,1115,100204550,"""map""",,,-0.19632768631,0.141009017825,0.0503569878638,,-0.00261681731698,-0.00428676666339,0.0569480209178,-0.998364558723
1115136000000,,28596,,1115,132204550,"""map""",,,-0.196723476052,0.141278415918,0.0505469739437,,-0.00262010419493,-0.00429491409373,0.0569636573986,-0.998363589345
1115172000000,,28597,,1115,164203967,"""map""",,,-0.196914628148,0.14131270349,0.0506380163133,,-0.002612942935,-0.00429707502521,0.0569773129775,-0.998362830702
1115204000000,,28598,,1115,196203967,"""map""",,,-0.196918979287,0.141143381596,0.0506982989609,,-0.00255143635968,-0.00430894578388,0.0569436797924,-0.998364853751
1115236000000,,28599,,1115,228203967,"""map""",,,-0.196786299348,0.140757277608,0.0507755540311,,-0.00257520314865,-0.00434236239016,0.0569429211491,-0.998364685164
1115272000000,,28600,,1115,268203384,"""map""",,,-0.196990549564,0.140733465552,0.0507909618318,,-0.00271742941763,-0.00420302186322,0.0569691786358,-0.998363462905
1115304000000,,28601,,1115,300203384,"""map""",,,-0.197644397616,0.141283839941,0.0506849959493,,-0.00270261200157,-0.00417422848633,0.056986627431,-0.998362619968
1115336000000,,28602,,1115,332203384,"""map""",,,-0.198066189885,0.14152546227,0.0506721809506,,-0.00268438069077,-0.00412635773359,0.0569763436,-0.998363462905
1115372000000,,28603,,1115,372202801,"""map""",,,-0.198455795646,0.141366288066,0.0514990091324,,-0.00420489727707,-0.00416182047625,0.0568814288972,-0.998363462905
1115404000000,,28604,,1115,396202801,"""map""",,,-0.198672026396,0.141085505486,0.0527481473982,,-0.00869327334658,-0.00416429450706,0.0562728284047,-0.998368941995
1115436000000,,28605,,1115,428202801,"""map""",,,-0.199011877179,0.140462085605,0.0554291494191,,-0.0111826856796,-0.00385084362024,0.0559511636568,-0.998363462905
1115472000000,,28606,,1115,468202217,"""map""",,,-0.20018941164,0.13999581337,0.0599337182939,,-0.0192609800362,-0.00138069980562,0.0548085204468,-0.998310147142
1115504000000,,28607,,1115,500202217,"""map""",,,-0.201839283109,0.140039801598,0.0641708299518,,-0.0264446133613,0.00266273779015,0.0539659627983,-0.998188974952
1115536000000,,28608,,1115,532202217,"""map""",,,-0.203397780657,0.139617070556,0.0691400244832,,-0.0313269108783,0.00641904273646,0.0535705410655,-0.998051913401
1115572000000,,28609,,1115,564201634,"""map""",,,-0.20490591228,0.13871024549,0.0747645273805,,-0.0388090670387,0.0133583527564,0.0530900669925,-0.997745927281
1115604000000,,28610,,1115,596201634,"""map""",,,-0.206430345774,0.137302860618,0.0810363963246,,-0.0484033927558,0.0238147632839,0.0528055336182,-0.997146725535
1115636000000,,28611,,1115,628201634,"""map""",,,-0.208012059331,0.135405376554,0.0879529863596,,-0.0520180750715,0.0281326921088,0.052823951791,-0.99685123398
1115672000000,,28612,,1115,668201050,"""map""",,,-0.210471481085,0.133081823587,0.0971429869533,,-0.0626643136876,0.0413027208922,0.0529728144599,-0.995771684603
1115704000000,,28613,,1115,700201050,"""map""",,,-0.213165000081,0.131256222725,0.104757621884,,-0.0721351629681,0.053376371193,0.0531012780542,-0.994549088821
1115736000000,,28614,,1115,732201050,"""map""",,,-0.216737374663,0.127966940403,0.112863518298,,-0.0774192496846,0.0604192682884,0.0528577535635,-0.99376153281
1115772000000,,28615,,1115,764200467,"""map""",,,-0.221529081464,0.123024195433,0.121698960662,,-0.0870759211275,0.0738465100687,0.0514792565893,-0.992126192941
1115804000000,,28616,,1115,796200467,"""map""",,,-0.227752789855,0.116276085377,0.131729483604,,-0.092198493218,0.0811348467022,0.0498825232334,-0.991175233598
1115836000000,,28617,,1115,828200467,"""map""",,,-0.235551506281,0.107688508928,0.143257915974,,-0.0947211345544,0.0844489116818,0.0487262665914,-0.990718024585
1115872000000,,28618,,1115,868199883,"""map""",,,-0.247998073697,0.0954105257988,0.159838855267,,-0.0980109364494,0.0880756183616,0.047164472973,-0.990157640087
1115904000000,,28619,,1115,900199883,"""map""",,,-0.260111093521,0.0847351104021,0.174666211009,,-0.099813804773,0.0905045465097,0.0455322519707,-0.989834837374
1115936000000,,28620,,1115,932199883,"""map""",,,-0.273655474186,0.0722237974405,0.190656661987,,-0.09971932899,0.0906542346642,0.0449330502254,-0.989858060288
1115972000000,,28621,,1115,964199300,"""map""",,,-0.288556277752,0.0579186193645,0.20786651969,,-0.0993128674172,0.0897818344127,0.0436877794393,-0.990034149821
1116004000000,,28622,,1115,996199300,"""map""",,,-0.304790049791,0.0418873988092,0.226379960775,,-0.0994153333206,0.0885935603244,0.0430175181074,-0.990160295339
1116036000000,,28623,,1116,28199300,"""map""",,,-0.322317838669,0.0241274759173,0.246267929673,,-0.0994252519887,0.0883146815426,0.0430562089144,-0.990182464581
1116072000000,,28624,,1116,68198716,"""map""",,,-0.346033990383,0.0011276913574,0.272763937712,,-0.0993127706111,0.0876177116211,0.0438940039691,-0.990218879458
1116104000000,,28625,,1116,100198716,"""map""",,,-0.366356283426,-0.0173196364194,0.29504019022,,-0.0984420996975,0.0856187300602,0.0451396540768,-0.990424682519
1116136000000,,28626,,1116,132198716,"""map""",,,-0.387639552355,-0.0373215824366,0.31877347827,,-0.0978970955067,0.0845851029666,0.0456970461484,-0.990541892905
1116172000000,,28627,,1116,164198132,"""map""",,,-0.40984493494,-0.0587768442929,0.343951970339,,-0.0971935137983,0.0836472967331,0.0467910518952,-0.990639800034
1116204000000,,28628,,1116,196198132,"""map""",,,-0.432953923941,-0.0816477164626,0.370548397303,,-0.097547742255,0.0836474179053,0.0477850010236,-0.990557487239
1116236000000,,28629,,1116,228198132,"""map""",,,-0.456920742989,-0.105887398124,0.398497134447,,-0.0979456796278,0.0836939190501,0.0483670068547,-0.990486048331
1116272000000,,28630,,1116,268197548,"""map""",,,-0.488482892513,-0.136515304446,0.435097754002,,-0.0987404480185,0.0830112612764,0.0499467128837,-0.990386202447
1116304000000,,28631,,1116,300197548,"""map""",,,-0.515076756477,-0.160825490952,0.465714275837,,-0.0991239724861,0.0819076157551,0.0513733837058,-0.990366814896
1116336000000,,28632,,1116,332197548,"""map""",,,-0.542286634445,-0.186486467719,0.497707813978,,-0.0990626501386,0.0812743580391,0.0523935060272,-0.990371703931
1116372000000,,28633,,1116,364196965,"""map""",,,-0.570085525513,-0.213451772928,0.53109562397,,-0.0986954496723,0.0800789430235,0.0538154142554,-0.99042948726
1116404000000,,28634,,1116,396196965,"""map""",,,-0.598427355289,-0.241664707661,0.565903306007,,-0.0982560253126,0.0791595529872,0.0551618374779,-0.990472982808
1116436000000,,28635,,1116,428196965,"""map""",,,-0.627224087715,-0.271053761244,0.602236568928,,-0.098018960485,0.0788634180343,0.0558063892322,-0.990483983135
1116472000000,,28636,,1116,468196381,"""map""",,,-0.664600074291,-0.307643860579,0.649321138859,,-0.0974299293011,0.0778196803069,0.0569438483798,-0.990559931756
1116504000000,,28637,,1116,500196381,"""map""",,,-0.695833325386,-0.336254745722,0.688331365585,,-0.0968137535711,0.0768122962119,0.0579105284972,-0.990642876754
1116536000000,,28638,,1116,532196381,"""map""",,,-0.727312028408,-0.366023659706,0.728818058968,,-0.0964235909748,0.0765894539701,0.0583977882129,-0.990669640003
1116572000000,,28639,,1116,564195797,"""map""",,,-0.759029388428,-0.396847218275,0.770769536495,,-0.0956463563316,0.0761400783443,0.0593385901653,-0.990723672263
1116604000000,,28640,,1116,596195797,"""map""",,,-0.790992736816,-0.42866012454,0.814077198505,,-0.0951035516795,0.0753196115713,0.0600808804613,-0.990793973206
1116636000000,,28641,,1116,636195797,"""map""",,,-0.831194937229,-0.469686210155,0.870292842388,,-0.0948439086534,0.0749895569664,0.0604293506048,-0.990822633063
1116672000000,,28642,,1116,668195213,"""map""",,,-0.86469322443,-0.501840233803,0.916882932186,,-0.0943941649013,0.0745161899057,0.0609667229233,-0.990868404541
1116704000000,,28643,,1116,700195213,"""map""",,,-0.899323225021,-0.53334659338,0.964767277241,,-0.0939864165324,0.0738232733257,0.061414448895,-0.990931329785
1116736000000,,28644,,1116,732195213,"""map""",,,-0.933897256851,-0.56579887867,1.01395261288,,-0.0937688314514,0.0734263362821,0.0616580155326,-0.990966353816
1116772000000,,28645,,1116,764194629,"""map""",,,-0.968421399593,-0.599155008793,1.06461024284,,-0.0932804713079,0.0728979563888,0.0620458508326,-0.991027298159
1116804000000,,28646,,1116,796194629,"""map""",,,-1.00289237499,-0.633373737335,1.11668264866,,-0.0928057377673,0.0722479907401,0.0624414832996,-0.991094606676
1116836000000,,28647,,1116,828194629,"""map""",,,-1.03729653358,-0.668380916119,1.17023980618,,-0.0926929751912,0.0719068844413,0.0625432679387,-0.991123477268
1116872000000,,28648,,1116,868194046,"""map""",,,-1.0816848278,-0.711412906647,1.23883771896,,-0.0918786480286,0.0708150044762,0.0628235866282,-0.991260243791
1116904000000,,28649,,1116,900194046,"""map""",,,-1.11869835854,-0.744761049747,1.2948384285,,-0.0894303678917,0.0690897140128,0.0630741074957,-0.99158991644
1116936000000,,28650,,1116,932194046,"""map""",,,-1.15539479256,-0.778945624828,1.3521310091,,-0.0880043286137,0.0680527862941,0.0631877775461,-0.991781979629
1116972000000,,28651,,1116,964193462,"""map""",,,-1.19158697128,-0.813553929329,1.40777647495,,-0.0837348982992,0.0637532986911,0.0634562108243,-0.992419956475
1117004000000,,28652,,1116,996193462,"""map""",,,-1.22712898254,-0.848252415657,1.45640492439,,-0.0790680488864,0.0534086102394,0.0637001989303,-0.993397299745
1117036000000,,28653,,1117,28193462,"""map""",,,-1.26206982136,-0.882989764214,1.49662292004,,-0.0762523140848,0.0461245482183,0.0637705420205,-0.993977619702
1117072000000,,28654,,1117,68192878,"""map""",,,-1.30650901794,-0.924421906471,1.53437829018,,-0.0675795041857,0.0287489304005,0.0638151333862,-0.995255849324
1117104000000,,28655,,1117,100192878,"""map""",,,-1.3431122303,-0.955325841904,1.55443310738,,-0.0520288462255,0.00920246407606,0.0632586263985,-0.996597552099
1117136000000,,28656,,1117,132192878,"""map""",,,-1.37888801098,-0.986417889595,1.56583142281,,-0.0393607231875,-0.00268744111174,0.0625659429432,-0.997260817054
1117172000000,,28657,,1117,164192294,"""map""",,,-1.41359758377,-1.0175153017,1.56994724274,,-0.0144329893921,-0.020794392362,0.0609617495952,-0.99781909421
1117204000000,,28658,,1117,204192294,"""map""",,,-1.4536318779,-1.05532181263,1.5771406889,,-0.000980820385121,-0.0246493657148,0.0598996911596,-0.997899552543
1117236000000,,28659,,1117,228192294,"""map""",,,-1.47522485256,-1.07696259022,1.5886605978,,-0.00129445286559,-0.0215736974691,0.0597686987544,-0.997978282856
1117272000000,,28660,,1117,268191710,"""map""",,,-1.50912749767,-1.10960662365,1.6265039444,,-0.00269243946455,-0.0134059444509,0.0599680533478,-0.998106662157
1117304000000,,28661,,1117,300191710,"""map""",,,-1.53522670269,-1.13251245022,1.67439842224,,-0.00282242067463,-0.00605567927965,0.06479256095,-0.997876413924
1117336000000,,28662,,1117,332191710,"""map""",,,-1.55899810791,-1.15450847149,1.73627233505,,-0.00350148440051,-0.00268151754505,0.065371827236,-0.997851210108
1117372000000,,28663,,1117,364191127,"""map""",,,-1.58089911938,-1.17577922344,1.80968129635,,-0.00780874747969,0.00258903941572,0.0661040022883,-0.997778886116
1117404000000,,28664,,1117,396191127,"""map""",,,-1.60145056248,-1.19660031796,1.88930583,,-0.0262891145394,0.0206863350864,0.0662810190521,-0.997240165098
1117436000000,,28665,,1117,428191127,"""map""",,,-1.62112259865,-1.21736657619,1.96861875057,,-0.0364708604759,0.0312761313344,0.0661070790082,-0.996655208988
1117472000000,,28666,,1117,468190543,"""map""",,,-1.64684844017,-1.24214184284,2.05935239792,,-0.0529961707287,0.0480238297627,0.0657258607635,-0.995271485804
1117504000000,,28667,,1117,500190543,"""map""",,,-1.66914784908,-1.26071047783,2.12310743332,,-0.0677069345236,0.0616396888975,0.0652842039379,-0.993657050772
1117536000000,,28668,,1117,532190543,"""map""",,,-1.69102871418,-1.27985239029,2.18172168732,,-0.0730419257428,0.0668718819775,0.0650975776927,-0.992952861227
1117572000000,,28669,,1117,564189959,"""map""",,,-1.71267294884,-1.29971504211,2.23653364182,,-0.0801030661674,0.0739181557599,0.0648147723392,-0.991926754053
1117604000000,,28670,,1117,596189959,"""map""",,,-1.73428535461,-1.32042098045,2.28871870041,,-0.0842258093148,0.0745506097223,0.0646752241238,-0.991546968802
1117636000000,,28671,,1117,628189959,"""map""",,,-1.75609660149,-1.3420137167,2.339366436,,-0.0851660729071,0.0738209012484,0.0646479972596,-0.991523029392
1117672000000,,28672,,1117,668189376,"""map""",,,-1.7852230072,-1.36856091022,2.40215611458,,-0.0852158193593,0.0720060763907,0.064523537616,-0.991660301677
1117704000000,,28673,,1117,700189376,"""map""",,,-1.81029343605,-1.38892138004,2.45204019547,,-0.0828186817888,0.0664815030493,0.0644556811899,-0.992253392129
1117736000000,,28674,,1117,732189376,"""map""",,,-1.83517289162,-1.41031372547,2.50047636032,,-0.0809190423255,0.0627569616803,0.0644404661776,-0.992653576456
1117772000000,,28675,,1117,764188792,"""map""",,,-1.85981857777,-1.43254542351,2.54740071297,,-0.0763626229241,0.0561619150215,0.0644188026974,-0.993410786736
1117804000000,,28676,,1117,796188792,"""map""",,,-1.88409483433,-1.45551347733,2.59279346466,,-0.0701039173361,0.0490086188663,0.0643158800934,-0.994257095454
1117836000000,,28677,,1117,828188792,"""map""",,,-1.90790987015,-1.47913849354,2.63650345802,,-0.0678811814491,0.0462127819871,0.0642947645223,-0.994546517863
1117872000000,,28678,,1117,868188208,"""map""",,,-1.93846714497,-1.50729906559,2.68892788887,,-0.0626055754688,0.0394837327162,0.0643192518413,-0.995180701493
1117904000000,,28679,,1117,900188208,"""map""",,,-1.96385443211,-1.52807712555,2.72934865952,,-0.0574534472422,0.0348155925562,0.0643817134708,-0.995661597034
1117936000000,,28680,,1117,932188208,"""map""",,,-1.9884146452,-1.54949653149,2.76853895187,,-0.0550746791123,0.0329605411658,0.0644294237033,-0.995856062593
1117972000000,,28681,,1117,964187625,"""map""",,,-2.01213932037,-1.5714379549,2.80643200874,,-0.0506947680783,0.0289683653331,0.0645422508167,-0.996205417821
1118004000000,,28682,,1117,996187625,"""map""",,,-2.03511810303,-1.59377157688,2.84310698509,,-0.0465246298119,0.0255037811158,0.0647400459768,-0.996490709838
1118036000000,,28683,,1118,28187625,"""map""",,,-2.05731344223,-1.61640703678,2.87857651711,,-0.0451677475855,0.0247839774806,0.0647656712607,-0.996569693032
1118072000000,,28684,,1118,68187041,"""map""",,,-2.08534812927,-1.64326024055,2.92151737213,,-0.0423426515738,0.0231403590485,0.0650004292069,-0.996717881352
1118104000000,,28685,,1118,100187041,"""map""",,,-2.10845923424,-1.66302740574,2.95468258858,,-0.0396599868854,0.0208145187992,0.065154813113,-0.996869483566
1118136000000,,28686,,1118,132187041,"""map""",,,-2.13068032265,-1.68312859535,2.98682975769,,-0.0387094549378,0.0203508711969,0.0652028183734,-0.996913274141
1118172000000,,28687,,1118,164186458,"""map""",,,-2.15206074715,-1.70347833633,3.01610255241,,-0.0365638919061,0.0182921596491,0.065396862464,-0.997021422955
1118204000000,,28688,,1118,196186458,"""map""",,,-2.17273902893,-1.72405898571,3.03866696358,,-0.0352272065812,0.00840187283479,0.0656031712875,-0.997188366622
1118236000000,,28689,,1118,228186458,"""map""",,,-2.19284677505,-1.74483275414,3.05349183083,,-0.0344967542813,-0.00299153720919,0.0658289098081,-0.997230007708
1118272000000,,28690,,1118,268185875,"""map""",,,-2.21845054626,-1.76921570301,3.06281399727,,-0.0303181800598,-0.027116573738,0.0657817053377,-0.997004690656
1118304000000,,28691,,1118,300185875,"""map""",,,-2.23913550377,-1.78688418865,3.06606149673,,0.00189179553973,-0.0628933212232,0.0627050696901,-0.996046692789
1118336000000,,28692,,1118,332185875,"""map""",,,-2.25760293007,-1.80444848537,3.06699705124,,0.0339529321779,-0.0810423416137,0.0598188113573,-0.994334477068
1118368000000,,28693,,1118,364185292,"""map""",,,-2.27330565453,-1.82097792625,3.06701993942,,0.0816355578479,-0.0962768685755,0.0550946132545,-0.990470158969
1118404000000,,28694,,1118,396185292,"""map""",,,-2.28597640991,-1.8356730938,3.06657791138,,0.106804818769,-0.0948588108571,0.0518952459841,-0.988383299912
1118436000000,,28695,,1118,428185292,"""map""",,,-2.29580760002,-1.8482003212,3.06570196152,,0.114840203682,-0.0886631569544,0.0503782966125,-0.988135982205
1118472000000,,28696,,1118,452184708,"""map""",,,-2.30153918266,-1.85610985756,3.06470108032,,0.116533355856,-0.0748273080633,0.048933376205,-0.989154460799
1118504000000,,28697,,1118,496184708,"""map""",,,-2.30733442307,-1.86469447613,3.0628824234,,0.110041501805,-0.0617297494688,0.048435916952,-0.990825035433
1118536000000,,28698,,1118,528184708,"""map""",,,-2.31139206886,-1.87120568752,3.06083774567,,0.102525762509,-0.0506433660453,0.0482100519908,-0.992269871547
1118576000000,,28699,,1118,568184125,"""map""",,,-2.3143863678,-1.87643194199,3.06025362015,,0.0900019950613,-0.0360679743059,0.0482537161259,-0.994117926561
1118604000000,,28700,,1118,600184125,"""map""",,,-2.32030463219,-1.8753105402,3.07212996483,,0.0680758689377,-0.0231534397181,0.0491210982682,-0.996201160989
1118636000000,,28701,,1118,632184125,"""map""",,,-2.32452893257,-1.87183988094,3.09763002396,,0.0571000577713,-0.0180155571263,0.0497168439719,-0.996967095667
1118672000000,,28702,,1118,664183542,"""map""",,,-2.32771492004,-1.86724436283,3.13317346573,,0.0314984538201,-0.00485332946113,0.0507364183843,-0.998203473468
1118704000000,,28703,,1118,696183542,"""map""",,,-2.3304400444,-1.86273348331,3.17274570465,,-0.0178108367945,0.019878874485,0.0505847318765,-0.998363083583
1118736000000,,28704,,1118,728183542,"""map""",,,-2.33312702179,-1.85906803608,3.21120882034,,-0.0534454669999,0.037614442935,0.0499702308252,-0.99661011186
1118772000000,,28705,,1118,768182960,"""map""",,,-2.33862614632,-1.85572743416,3.25087285042,,-0.107669157118,0.0643005425918,0.0485418741291,-0.990916999857
1118804000000,,28706,,1118,800182960,"""map""",,,-2.3455927372,-1.85453128815,3.27461266518,,-0.15974187953,0.091386935235,0.046804454593,-0.981804640475
1118836000000,,28707,,1118,832182960,"""map""",,,-2.35329866409,-1.85594367981,3.29504656792,,-0.173363864775,0.0981153029123,0.0460996749922,-0.978873495748
1118872000000,,28708,,1118,864182377,"""map""",,,-2.36208319664,-1.86039221287,3.31304955482,,-0.180620387782,0.101827033615,0.0454116698371,-0.977213078504
1118904000000,,28709,,1118,896182377,"""map""",,,-2.3721601963,-1.86809110641,3.32933020592,,-0.168519542886,0.0951931407329,0.0452806352851,-0.980045473165
1118936000000,,28710,,1118,928182377,"""map""",,,-2.38344931602,-1.87896680832,3.34470558167,,-0.157111341932,0.0883117799955,0.0453196211199,-0.982579889606
1118972000000,,28711,,1118,968181794,"""map""",,,-2.39970850945,-1.89381039143,3.36600804329,,-0.129582163718,0.0707534397843,0.0456185687164,-0.987988552529
1119004000000,,28712,,1119,181794,"""map""",,,-2.41430044174,-1.9052990675,3.385825634,,-0.100267766173,0.0522988942548,0.046194884723,-0.992510572199
1119036000000,,28713,,1119,32181794,"""map""",,,-2.42897987366,-1.9187284708,3.40555858612,,-0.083824722453,0.0420610757229,0.0467516867386,-0.994494213624
1119072000000,,28714,,1119,64181212,"""map""",,,-2.44340872765,-1.93352842331,3.42510867119,,-0.0621111916187,0.0282331280488,0.0478651221826,-0.996520971275
1119104000000,,28715,,1119,96181212,"""map""",,,-2.45739173889,-1.94921934605,3.44423413277,,-0.0431416116003,0.0159986723744,0.0493756652332,-0.997719880528
1119136000000,,28716,,1119,128181212,"""map""",,,-2.47078585625,-1.96544802189,3.46262049675,,-0.0346862912933,0.010675740093,0.0503554530206,-0.998071764566
1119172000000,,28717,,1119,168180629,"""map""",,,-2.48706173897,-1.98289966583,3.4844186306,,-0.0255715486384,0.00542913641276,0.0518568923519,-0.998312338778
1119204000000,,28718,,1119,200180629,"""map""",,,-2.49981999397,-1.99351119995,3.50096273422,,-0.0192417004872,0.00240882212567,0.0536749388093,-0.998370164254
1119236000000,,28719,,1119,232180629,"""map""",,,-2.5117688179,-2.00462818146,3.5167324543,,-0.0179518001398,0.0019993391506,0.0543050763414,-0.998361018388
1119272000000,,28720,,1119,264180047,"""map""",,,-2.52295088768,-2.01617836952,3.53184270859,,-0.0164060308849,0.00233702035942,0.0558026803095,-0.998304330876
1119304000000,,28721,,1119,296180047,"""map""",,,-2.53341960907,-2.02810931206,3.54631924629,,-0.0166726248482,0.00354923550394,0.057055073913,-0.998225558417
1119336000000,,28722,,1119,328180047,"""map""",,,-2.5432343483,-2.04034376144,3.56013727188,,-0.0172364871196,0.00417887978619,0.0576421373659,-0.998179829086
1119372000000,,28723,,1119,368179465,"""map""",,,-2.55635857582,-2.05404019356,3.57725000381,,-0.0186073061234,0.00578140767515,0.058940555328,-0.998071385245
1119404000000,,28724,,1119,400179465,"""map""",,,-2.56803607941,-2.06314730644,3.59089040756,,-0.0196291676608,0.00711312889154,0.0598249647972,-0.997990547589
1119436000000,,28725,,1119,432179465,"""map""",,,-2.57899618149,-2.07282853127,3.60399079323,,-0.0202085860705,0.00769235368917,0.0604168329908,-0.997939001994
1119472000000,,28726,,1119,464178883,"""map""",,,-2.58933138847,-2.08301067352,3.61655187607,,-0.0209800294733,0.00818497856691,0.0612997251734,-0.997865329302
1119500000000,,28727,,1119,496178883,"""map""",,,-2.59910440445,-2.09363102913,3.62854528427,,-0.0216102526162,0.00852446221204,0.0619881939438,-0.997806534449
1119536000000,,28728,,1119,528178883,"""map""",,,-2.60833525658,-2.10465788841,3.64011263847,,-0.0218059252873,0.00849223501946,0.0622554049634,-0.997785882493
1119572000000,,28729,,1119,568178301,"""map""",,,-2.62091016769,-2.11718678474,3.65416026115,,-0.0221059384088,0.00796827198421,0.0628671243227,-0.997745252931
1119604000000,,28730,,1119,600178301,"""map""",,,-2.6323788166,-2.12568473816,3.6651661396,,-0.0221755511731,0.00721920987506,0.0634473599861,-0.997712673417
1119636000000,,28731,,1119,632178301,"""map""",,,-2.64313721657,-2.13480114937,3.67572617531,,-0.022090893301,0.00709766692504,0.0636104682899,-0.997705086984
1119672000000,,28732,,1119,664177719,"""map""",,,-2.65320158005,-2.1444375515,3.6858856678,,-0.0218484501404,0.0064498132286,0.0641092340951,-0.997682833448
1119704000000,,28733,,1119,696177719,"""map""",,,-2.66261696815,-2.15454769135,3.69556427002,,-0.0214892272822,0.00519590233855,0.0645686768908,-0.997668377079
1119736000000,,28734,,1119,728177719,"""map""",,,-2.67144989967,-2.16507101059,3.70479297638,,-0.0213372865762,0.00478243253503,0.0647514256259,-0.997661886465
1119772000000,,28735,,1119,768177137,"""map""",,,-2.68323707581,-2.17681479454,3.71606469154,,-0.0209689777794,0.00429736774824,0.0650774314991,-0.99765071755
1119808000000,,28736,,1119,800177137,"""map""",,,-2.69372844696,-2.18447899818,3.72490406036,,-0.0206065590047,0.00364480348294,0.0653648308591,-0.997641993152
1119836000000,,28737,,1119,832177137,"""map""",,,-2.70349931717,-2.19271612167,3.73334670067,,-0.0203048507896,0.00324374197504,0.0654979727536,-0.997640855187
1119872000000,,28738,,1119,864176556,"""map""",,,-2.71258115768,-2.2014644146,3.74136400223,,-0.019893503475,0.00305277131172,0.065715703373,-0.997635376097
1119904000000,,28739,,1119,896176556,"""map""",,,-2.72094345093,-2.21065855026,3.74897360802,,-0.0196588337738,0.00293778548936,0.0658789381173,-0.997629601979
1119936000000,,28740,,1119,936176556,"""map""",,,-2.73049044609,-2.22272491455,3.75788974762,,-0.0195936931853,0.00255323237519,0.0660094247602,-0.997623364245
1119972000000,,28741,,1119,968175975,"""map""",,,-2.73928236961,-2.23097491264,3.7649538517,,-0.0194881403544,0.00196787323547,0.0662663098019,-0.997609750813
1120004000000,,28742,,1120,175975,"""map""",,,-2.74908852577,-2.2379822731,3.77196264267,,-0.0190963419336,0.00226303420103,0.0663813285515,-0.997609034317
1120036000000,,28743,,1120,32175975,"""map""",,,-2.75809383392,-2.24556279182,3.77867746353,,-0.0189053212209,0.00220469835288,0.0664314833012,-0.997609455785
1120072000000,,28744,,1120,64175394,"""map""",,,-2.7663769722,-2.25362825394,3.78508687019,,-0.018687095376,0.00175566056049,0.0665290111087,-0.997607938498
1120104000000,,28745,,1120,96175394,"""map""",,,-2.77400612831,-2.26213383675,3.79116535187,,-0.0185118250723,0.00164004516958,0.0665575445251,-0.997609497932
1120136000000,,28746,,1120,128175394,"""map""",,,-2.78098797798,-2.27103304863,3.79693818092,,-0.0184540213281,0.0017307603341,0.066579292299,-0.99760899217
1120172000000,,28747,,1120,168174813,"""map""",,,-2.79077553749,-2.28102445602,3.80397224426,,-0.0183377401487,0.00129431588833,0.0666369491877,-0.997607896352
1120204000000,,28748,,1120,200174813,"""map""",,,-2.80005002022,-2.28764247894,3.80953836441,,-0.018052150469,0.000675164195731,0.066745098001,-0.997606547652
1120236000000,,28749,,1120,232174813,"""map""",,,-2.80850553513,-2.29479336739,3.81493663788,,-0.0177722525895,0.000726041368784,0.0667687002362,-0.9976099194
1120272000000,,28750,,1120,264174232,"""map""",,,-2.81621479988,-2.30243349075,3.8201072216,,-0.0174377824437,0.000907220792365,0.0667054378166,-0.997619908203
1120304000000,,28751,,1120,296174232,"""map""",,,-2.82321929932,-2.31048178673,3.82490897179,,-0.0172980932998,0.000109060897423,0.0667521365247,-0.997619655322
1120336000000,,28752,,1120,328174232,"""map""",,,-2.82957601547,-2.31888842583,3.82945227623,,-0.0171800557821,-0.0003400690912,0.066810467763,-0.997617716567
1120372000000,,28753,,1120,368173651,"""map""",,,-2.83855223656,-2.32818174362,3.83501553535,,-0.0169256975758,-0.000239050339309,0.0667838731016,-0.99762382786
1120404000000,,28754,,1120,400173651,"""map""",,,-2.84715270996,-2.33417010307,3.83934521675,,-0.0166529956121,-0.000453141841765,0.0667969807715,-0.99762757893
1120436000000,,28755,,1120,432173651,"""map""",,,-2.85494041443,-2.34061551094,3.84333086014,,-0.0165054902034,-0.000870156590366,0.0668232382581,-0.997627958252
1120472000000,,28756,,1120,464173071,"""map""",,,-2.86199235916,-2.34744691849,3.84712076187,,-0.0161603002701,-0.00101532021481,0.0667946626949,-0.997635376097
1120504000000,,28757,,1120,496173071,"""map""",,,-2.86833405495,-2.35463857651,3.85076785088,,-0.0161849614448,-0.000691760175876,0.0668029234772,-0.997634617454
1120536000000,,28758,,1120,528173071,"""map""",,,-2.87401890755,-2.36217546463,3.85416412354,,-0.0162982073926,-0.000914537880393,0.0668108049378,-0.99763213079
1120572000000,,28759,,1120,568172490,"""map""",,,-2.88207840919,-2.3707113266,3.85765075684,,-0.0146689689384,-0.00233243227983,0.0668119850496,-0.997655058675
1120604000000,,28760,,1120,600172490,"""map""",,,-2.8898191452,-2.3763988018,3.85882687569,,-0.0002308975583,-0.00419522749506,0.0667216643532,-0.997762743873
1120636000000,,28761,,1120,632172490,"""map""",,,-2.8966627121,-2.38228058815,3.85849428177,,0.011963211399,-0.00563631681988,0.0666974299153,-0.997685572993
1120672000000,,28762,,1120,664171910,"""map""",,,-2.90261721611,-2.3879609108,3.85695075989,,0.0345020977115,-0.00921137550034,0.0668000996383,-0.997127127251
1120704000000,,28763,,1120,696171910,"""map""",,,-2.90769791603,-2.39298677444,3.85489082336,,0.0484714559649,-0.011671058994,0.0668045672043,-0.99651970687
1120736000000,,28764,,1120,728171910,"""map""",,,-2.91194105148,-2.39708161354,3.85295534134,,0.0520904978452,-0.0117430379087,0.0667791526546,-0.996337927512
1120772000000,,28765,,1120,768171330,"""map""",,,-2.91780495644,-2.39926600456,3.8531870842,,0.0500606265956,-0.0108119033896,0.0669383413014,-0.996441819494
1120804000000,,28766,,1120,800171330,"""map""",,,-2.92354846001,-2.39834141731,3.85722064972,,0.0271821621368,-0.00911721680659,0.0672438638063,-0.99732466953
1120836000000,,28767,,1120,832171330,"""map""",,,-2.92837262154,-2.39714241028,3.86347675323,,0.01339632114,-0.00772547979501,0.0673405065299,-0.997610214428
1120872000000,,28768,,1120,864170751,"""map""",,,-2.93244075775,-2.39622211456,3.87041378021,,-0.0135787004317,-0.00328550489211,0.0673508746547,-0.997631625027
1120904000000,,28769,,1120,896170751,"""map""",,,-2.93587589264,-2.39597535133,3.8766310215,,-0.0313487363603,-0.00119593263156,0.0674401838266,-0.997230007708
1120936000000,,28770,,1120,928170751,"""map""",,,-2.93885159492,-2.39654064178,3.88143825531,,-0.0405451088997,-0.000982349525469,0.0675721034625,-0.996889714053
1120972000000,,28771,,1120,968170171,"""map""",,,-2.94402074814,-2.3979074955,3.88501739502,,-0.0491105088725,-0.000479241277705,0.0676746888918,-0.996497916949
1121004000000,,28772,,1121,170171,"""map""",,,-2.94980454445,-2.39951515198,3.88636136055,,-0.0520587019993,0.000201377642185,0.0677623964835,-0.996342437225
1121036000000,,28773,,1121,32170171,"""map""",,,-2.95488357544,-2.40237474442,3.88738536835,,-0.0516415430295,-0.000395748370805,0.0678005393814,-0.996361445454
1121072000000,,28774,,1121,64169592,"""map""",,,-2.95944285393,-2.40637230873,3.88854932785,,-0.0476325901168,-0.00255649348759,0.0678645182975,-0.996553550789
1121104000000,,28775,,1121,96169592,"""map""",,,-2.96348690987,-2.41135644913,3.89005827904,,-0.0417350606301,-0.00208291569265,0.0678863925118,-0.996817600795
1121136000000,,28776,,1121,128169592,"""map""",,,-2.96692872047,-2.41720271111,3.89188885689,,-0.0393313270778,-0.00200143398068,0.0679259262557,-0.996912852673
1121172000000,,28777,,1121,168169013,"""map""",,,-2.97239565849,-2.42414617538,3.89412426949,,-0.0337296500283,-0.00406962461814,0.0680218103361,-0.997105253036
1121204000000,,28778,,1121,200169013,"""map""",,,-2.9783809185,-2.428835392,3.89582777023,,-0.0285912221617,-0.00549249168715,0.0679567777488,-0.997263345865
1121236000000,,28779,,1121,232169013,"""map""",,,-2.98360347748,-2.43410253525,3.89747858047,,-0.0263801115609,-0.00489431727131,0.067896086287,-0.99733162376
1121272000000,,28780,,1121,264168434,"""map""",,,-2.98803853989,-2.43989276886,3.89904904366,,-0.0232263544246,-0.00475096859553,0.0678395673631,-0.997414526611
1121304000000,,28781,,1121,304168434,"""map""",,,-2.99273180962,-2.44762468338,3.90080428123,,-0.0209428724166,-0.00725400407414,0.0678011294373,-0.997452627362
1121336000000,,28782,,1121,328168434,"""map""",,,-2.99516916275,-2.45248651505,3.90186548233,,-0.02007461441,-0.00714944169425,0.0677079006084,-0.997477578296
1121372000000,,28783,,1121,368167855,"""map""",,,-3.00028467178,-2.46007633209,3.90381717682,,-0.0188711921517,-0.00555288285271,0.0675732835742,-0.997520399494
1121404000000,,28784,,1121,400167855,"""map""",,,-3.00569462776,-2.46543598175,3.90511155128,,-0.0182644362424,-0.00692100314115,0.0675112434132,-0.997527395871
1121436000000,,28785,,1121,432167855,"""map""",,,-3.01041436195,-2.47109627724,3.90626120567,,-0.017855839339,-0.00831964795534,0.0675112855601,-0.997523981976
1121472000000,,28786,,1121,472167277,"""map""",,,-3.01538300514,-2.47851538658,3.90785813332,,-0.0170839524065,-0.00702115524847,0.0674141792211,-0.997554074826
1121504000000,,28787,,1121,496167277,"""map""",,,-3.01779866219,-2.48316764832,3.90896177292,,-0.016900777593,-0.00602632564603,0.0673857722452,-0.997565707356
1121536000000,,28788,,1121,528167277,"""map""",,,-3.02046632767,-2.48955464363,3.91015315056,,-0.0170022494235,-0.00734948578381,0.0673832012875,-0.997555212791
1121572000000,,28789,,1121,568166699,"""map""",,,-3.025131464,-2.49689245224,3.91157984734,,-0.0166946959674,-0.00926346637092,0.0673127317567,-0.997549227939
1121604000000,,28790,,1121,600166699,"""map""",,,-3.03036499023,-2.50197863579,3.91307759285,,-0.0162668728571,-0.00681517800216,0.0671725091918,-0.997585516375
1121636000000,,28791,,1121,632166699,"""map""",,,-3.03469872475,-2.50735425949,3.91454911232,,-0.0162192024665,-0.00639134896427,0.0671317953361,-0.997591838402
1121672000000,,28792,,1121,664166121,"""map""",,,-3.03840565681,-2.51297736168,3.91562747955,,-0.0164064115236,-0.00972063323672,0.0671893257843,-0.997558078777
1121704000000,,28793,,1121,696166121,"""map""",,,-3.04161763191,-2.51877236366,3.91667461395,,-0.0161189104185,-0.00919349107786,0.0670495246878,-0.997577087005
1121732000000,,28794,,1121,728166121,"""map""",,,-3.04410028458,-2.52474761009,3.91803836823,,-0.0159061600419,-0.00751895035914,0.0669769478147,-0.997599509129
1121772000000,,28795,,1121,768165543,"""map""",,,-3.04792308807,-2.53190565109,3.91935157776,,-0.0151289938873,-0.00819230355747,0.0669727752767,-0.997606463359
1121804000000,,28796,,1121,800165543,"""map""",,,-3.0524187088,-2.53710794449,3.91924619675,,-0.00367496910194,-0.0100455396699,0.067240323471,-0.9976794617
1121836000000,,28797,,1121,832165543,"""map""",,,-3.05629277229,-2.54225444794,3.91855812073,,0.00726539124505,-0.00706132750272,0.0673105822675,-0.997680599665
1121872000000,,28798,,1121,872164966,"""map""",,,-3.05997443199,-2.5482609272,3.91704726219,,0.0218180392135,-0.00191096313618,0.0676512973908,-0.997468685311
1121904000000,,28799,,1121,896164966,"""map""",,,-3.06172800064,-2.55145406723,3.91548299789,,0.0318763661714,-0.00363099446315,0.0682636489529,-0.997151361689
1121936000000,,28800,,1121,928164966,"""map""",,,-3.06382489204,-2.55499505997,3.91328310966,,0.0346061977931,-0.00410614354528,0.0684246499142,-0.997047511854
1121972000000,,28801,,1121,968164388,"""map""",,,-3.06741309166,-2.557700634,3.91199636459,,0.0361475673122,0.000941920161035,0.0683471418598,-0.997006081502
1122004000000,,28802,,1122,164388,"""map""",,,-3.07135438919,-2.55842852592,3.91298151016,,0.0270261055277,0.000151984169908,0.0686836422983,-0.997272365291
1122036000000,,28803,,1122,32164388,"""map""",,,-3.07481050491,-2.55863833427,3.91485095024,,0.0175809855811,-0.00440358900175,0.0690329553787,-0.997449803523
1122072000000,,28804,,1122,64163811,"""map""",,,-3.07787537575,-2.5586438179,3.91784214973,,-0.00249703416251,-0.00857068874378,0.0694592707514,-0.99754492896
1122104000000,,28805,,1122,96163811,"""map""",,,-3.08016085625,-2.5588183403,3.92148542404,,-0.0186850644247,-0.00649322316547,0.0694010659536,-0.997392652396
1122136000000,,28806,,1122,128163811,"""map""",,,-3.08168268204,-2.55946969986,3.92425394058,,-0.0264264480696,-0.00961692037925,0.0694291357547,-0.997190516111
1122172000000,,28807,,1122,168163235,"""map""",,,-3.08491587639,-2.56078839302,3.92605471611,,-0.0346176393454,-0.0166260532392,0.0694313273908,-0.996847272177
1122204000000,,28808,,1122,200163235,"""map""",,,-3.08886051178,-2.56233787537,3.92768669128,,-0.0385206824961,-0.0128964970537,0.0691002217489,-0.99678236603
1122236000000,,28809,,1122,232163235,"""map""",,,-3.09170007706,-2.56473088264,3.92967700958,,-0.0388365112225,-0.0112033725382,0.0689696508123,-0.996799561944
1122272000000,,28810,,1122,264162658,"""map""",,,-3.0938179493,-2.56782793999,3.93097138405,,-0.0383866002001,-0.0169982257166,0.0687786834417,-0.996748269229
1122304000000,,28811,,1122,296162658,"""map""",,,-3.0956838131,-2.5714199543,3.93213248253,,-0.0353453777834,-0.0181463434071,0.0684493901142,-0.996863203685
1122336000000,,28812,,1122,328162658,"""map""",,,-3.0969107151,-2.5755469799,3.93429875374,,-0.0329703093565,-0.0138266747076,0.0682301422083,-0.997028925094
1122372000000,,28813,,1122,368162082,"""map""",,,-3.09873056412,-2.58123493195,3.93693470955,,-0.0282269337791,-0.0101326568765,0.0680242970002,-0.997232831547
1122404000000,,28814,,1122,400162082,"""map""",,,-3.1015431881,-2.5857834816,3.93690347672,,-0.0162176421276,-0.0147580998918,0.0682297628866,-0.997428603658
1122436000000,,28815,,1122,432162082,"""map""",,,-3.10412859917,-2.59031438828,3.9363694191,,-0.00638222976919,-0.0121650335587,0.0681770371792,-0.997578772879
1122472000000,,28816,,1122,464161506,"""map""",,,-3.10586166382,-2.5946624279,3.93648171425,,0.011285638906,0.00113776635863,0.0681373348479,-0.997611563127
1122504000000,,28817,,1122,496161506,"""map""",,,-3.10685658455,-2.59862494469,3.93577361107,,0.0215015526012,-0.000245606149886,0.0688960202679,-0.997392188781
1122536000000,,28818,,1122,528161506,"""map""",,,-3.10798478127,-2.60190844536,3.93430542946,,0.0248002547252,-0.00365616205861,0.0692046194927,-0.997287496009
1122572000000,,28819,,1122,568160930,"""map""",,,-3.11072707176,-2.60476350784,3.93506383896,,0.0255756421511,0.00393147185853,0.0688846827657,-0.997289055443
1122604000000,,28820,,1122,600160930,"""map""",,,-3.11362695694,-2.606310606,3.93833637238,,0.0132186971982,0.0040983180609,0.0690420169512,-0.997517702096
1122636000000,,28821,,1122,632160930,"""map""",,,-3.11610412598,-2.60754656792,3.94114303589,,0.00431463661682,-0.00464028255432,0.0694783211269,-0.997563304986
1122672000000,,28822,,1122,672160355,"""map""",,,-3.11926364899,-2.60889530182,3.94510221481,,-0.0118681310722,-0.016102580161,0.0698828044321,-0.997354720233
1122704000000,,28823,,1122,704160355,"""map""",,,-3.12071657181,-2.61029028893,3.94931197166,,-0.0246068066174,-0.00865349478876,0.0696781393357,-0.997228532568
1122736000000,,28824,,1122,728160355,"""map""",,,-3.12111592293,-2.61171364784,3.95163202286,,-0.0282857141448,-0.00997283470985,0.0696638515541,-0.997119582965
1122772000000,,28825,,1122,768159780,"""map""",,,-3.12305998802,-2.6147248745,3.95308494568,,-0.0343712794913,-0.0242055696074,0.0695043257325,-0.996695459228
1122804000000,,28826,,1122,800159780,"""map""",,,-3.1259663105,-2.61773777008,3.95457053185,,-0.027358098229,-0.0168765154963,0.0692990705802,-0.997077984025
