rosbagTimestamp,header,seq,stamp,secs,nsecs,frame_id,pose,position,x,y,z,orientation,x,y,z,w
445980000000,,7590,,445,972112171,"""map""",,,-1.83723795414,-2.00275826454,3.3151011467,,-0.106871470058,0.139505371831,-0.00944384434584,-0.984391993358
446012000000,,7591,,446,4111932,"""map""",,,-1.86054682732,-2.024944067,3.33418369293,,-0.0950013514987,0.122886285993,-0.00920668402927,-0.987820344456
446044000000,,7592,,446,36111932,"""map""",,,-1.88469350338,-2.04727554321,3.35265111923,,-0.0690655098679,0.0862515169168,-0.00814656434867,-0.993843171255
446080000000,,7593,,446,76111932,"""map""",,,-1.91514515877,-2.07486248016,3.37510919571,,-0.0487124127906,0.0565445366247,-0.00661713950991,-0.997189040971
446112000000,,7594,,446,108111693,"""map""",,,-1.9391053915,-2.09630513191,3.39290308952,,-0.0416941498696,0.0465257684354,-0.00586098290077,-0.998029406984
446144000000,,7595,,446,140111693,"""map""",,,-1.96232879162,-2.11698031425,3.41018629074,,-0.0274934183418,0.0263536640019,-0.00373349428164,-0.999267597099
446180000000,,7596,,446,172111693,"""map""",,,-1.9846663475,-2.13937973976,3.42782831192,,-0.0171197117025,0.0127748240411,-0.00124847394659,-0.999771125498
446212000000,,7597,,446,204111453,"""map""",,,-2.00590491295,-2.16056132317,3.4445233345,,-0.0146497679208,0.00989072721596,-0.000315679895347,-0.999843702371
446244000000,,7598,,446,236111453,"""map""",,,-2.02606463432,-2.18050909042,3.4604511261,,-0.0106049753697,0.00646700996597,0.00218607273856,-0.999920493929
446280000000,,7599,,446,276111453,"""map""",,,-2.04985070229,-2.20375847816,3.47932052612,,-0.00928386404619,0.00749826819264,0.00429097064689,-0.999919566699
446312000000,,7600,,446,308111213,"""map""",,,-2.06782078743,-2.22110176086,3.49346995354,,-0.00919436500759,0.00877288656199,0.0052164311465,-0.999905658239
446344000000,,7601,,446,340111213,"""map""",,,-2.08501386642,-2.23741769791,3.50692987442,,-0.00985411724504,0.0115960511038,0.00681767421512,-0.999860982579
446380000000,,7602,,446,372111213,"""map""",,,-2.10391640663,-2.25662541389,3.51991558075,,-0.0109606567402,0.0148496597219,0.00846317147468,-0.999793884797
446412000000,,7603,,446,404110973,"""map""",,,-2.12200474739,-2.27463436127,3.5323381424,,-0.0115629373457,0.0163189204284,0.00924225596941,-0.999757259185
446444000000,,7604,,446,444110973,"""map""",,,-2.14360737801,-2.29560256004,3.54707455635,,-0.0126373304846,0.0185072175656,0.0107256564496,-0.999691341514
446480000000,,7605,,446,476110973,"""map""",,,-2.1601588726,-2.31126022339,3.55845284462,,-0.0133287152901,0.0195912397777,0.0120421554097,-0.999646750148
446512000000,,7606,,446,508110732,"""map""",,,-2.17612195015,-2.32603669167,3.56956982613,,-0.0134961067673,0.0198601814522,0.0125959649991,-0.999632335926
446548000000,,7607,,446,540110732,"""map""",,,-2.19153118134,-2.33999681473,3.58030438423,,-0.0135448551952,0.0199338195698,0.0137476276347,-0.999615013571
446580000000,,7608,,446,572110732,"""map""",,,-2.20925164223,-2.35740733147,3.59077763557,,-0.0134298621289,0.0194887284347,0.014573832306,-0.999613707019
446612000000,,7609,,446,604110492,"""map""",,,-2.22623920441,-2.37373209,3.60078859329,,-0.0133607060652,0.0191930613777,0.0149968602245,-0.999614086341
446644000000,,7610,,446,644110492,"""map""",,,-2.24654054642,-2.39274334908,3.6125292778,,-0.0130122594647,0.0184794653476,0.0158915113779,-0.999618343172
446680000000,,7611,,446,676110492,"""map""",,,-2.26205992699,-2.40687251091,3.62140655518,,-0.0124971951767,0.0176773642284,0.0165330707059,-0.999628964178
446712000000,,7612,,446,708110250,"""map""",,,-2.2769715786,-2.42011427879,3.6298418045,,-0.0120441308786,0.0169921290762,0.0168852076252,-0.999640554562
446744000000,,7613,,446,740110250,"""map""",,,-2.29129576683,-2.43251204491,3.63800311089,,-0.0114782822724,0.0160535564615,0.0173881881154,-0.999654041553
446780000000,,7614,,446,772110250,"""map""",,,-2.30749106407,-2.44792079926,3.64584898949,,-0.0110435846159,0.0152124953553,0.017844554191,-0.999664072503
446812000000,,7615,,446,804110009,"""map""",,,-2.32295084,-2.46226644516,3.65340995789,,-0.0109729616443,0.0148122642721,0.0180722314667,-0.999666769901
446844000000,,7616,,446,836110009,"""map""",,,-2.33770823479,-2.47565674782,3.66075873375,,-0.0106889661362,0.0139450317839,0.0184461583067,-0.999675536446
446880000000,,7617,,446,876110009,"""map""",,,-2.35522294044,-2.49116396904,3.66984820366,,-0.0104224149783,0.0133895191984,0.0187805514028,-0.999679666837
446912000000,,7618,,446,908109768,"""map""",,,-2.36855721474,-2.50266337395,3.67691922188,,-0.0101644174903,0.013066319548,0.0189104479899,-0.999684218697
446944000000,,7619,,446,940109768,"""map""",,,-2.381285429,-2.51341724396,3.68378663063,,-0.00953582539754,0.0122327860994,0.0192362852757,-0.999694713262
446980000000,,7620,,446,972109768,"""map""",,,-2.39577412605,-2.52722811699,3.69031524658,,-0.0090508970941,0.0117855538714,0.0194849095351,-0.999699728737
447012000000,,7621,,447,4109526,"""map""",,,-2.40953326225,-2.54004597664,3.69652104378,,-0.0087781070501,0.0116181964739,0.0196098749409,-0.999701709639
447044000000,,7622,,447,36109526,"""map""",,,-2.42261481285,-2.55193448067,3.70250034332,,-0.00834021792232,0.0112425315703,0.0198457287052,-0.999705081387
447080000000,,7623,,447,76109526,"""map""",,,-2.43806028366,-2.56560611725,3.70974206924,,-0.00772218460293,0.0106769167474,0.0200294468178,-0.999712625673
447112000000,,7624,,447,108109283,"""map""",,,-2.44974851608,-2.57566285133,3.71523094177,,-0.00750447736185,0.0105366984629,0.0200745017989,-0.999714859456
447144000000,,7625,,447,140109283,"""map""",,,-2.46087312698,-2.58497905731,3.7205619812,,-0.00698479321955,0.0101643906546,0.0202551010448,-0.999718779112
447180000000,,7626,,447,172109283,"""map""",,,-2.47338700294,-2.59731841087,3.72554373741,,-0.00651171377817,0.00948243044419,0.0204392827728,-0.999724932552
447212000000,,7627,,447,204109041,"""map""",,,-2.48522400856,-2.60870361328,3.73041605949,,-0.00641801260821,0.00932339671996,0.0205128290234,-0.999725564755
447244000000,,7628,,447,236109041,"""map""",,,-2.49642825127,-2.61924815178,3.7351231575,,-0.00611055250078,0.00915601067574,0.0206277213324,-0.999726660573
447280000000,,7629,,447,276109041,"""map""",,,-2.50955605507,-2.63129377365,3.74079918861,,-0.00565829673065,0.00890413748704,0.0207461539768,-0.999729189384
447312000000,,7630,,447,308108798,"""map""",,,-2.51946091652,-2.64006185532,3.74507808685,,-0.00533247607306,0.00869388711006,0.0208018299636,-0.999731591754
447344000000,,7631,,447,340108798,"""map""",,,-2.52885055542,-2.64810109138,3.74925899506,,-0.00481950628593,0.00836253171516,0.0208865029823,-0.99973525853
447376000000,,7632,,447,372108798,"""map""",,,-2.5400929451,-2.65908551216,3.75317192078,,-0.0044308733239,0.00834529316021,0.020939439424,-0.999736101467
447412000000,,7633,,447,404108556,"""map""",,,-2.55068016052,-2.66918992996,3.7571310997,,-0.00432886198079,0.00824179910415,0.0209845365519,-0.999736438642
447444000000,,7634,,447,436108556,"""map""",,,-2.56069302559,-2.67846679688,3.76096320152,,-0.00424852169109,0.00788134394452,0.0210461130976,-0.999738419544
447476000000,,7635,,447,468108556,"""map""",,,-2.57017993927,-2.68696188927,3.76477503777,,-0.00391638279286,0.00756710692019,0.0210630982776,-0.999741833439
447512000000,,7636,,447,508108312,"""map""",,,-2.58129835129,-2.6965637207,3.76947569847,,-0.00368913406504,0.00737583875939,0.0210820222125,-0.999743730047
447544000000,,7637,,447,540108312,"""map""",,,-2.58965921402,-2.70349431038,3.77316617966,,-0.00310518503374,0.00670352721383,0.021167875343,-0.999748661228
447576000000,,7638,,447,572108312,"""map""",,,-2.59966945648,-2.71347880363,3.77683281898,,-0.00275966088911,0.00615280060051,0.0212363639718,-0.999751737948
447612000000,,7639,,447,604108069,"""map""",,,-2.60907959938,-2.72257351875,3.78052639961,,-0.00267149132839,0.00603092212206,0.0212459734533,-0.999752580885
447644000000,,7640,,447,644108069,"""map""",,,-2.62002420425,-2.73287963867,3.78511166573,,-0.00236523290005,0.00592077166274,0.0211947228855,-0.999755025402
447676000000,,7641,,447,668108069,"""map""",,,-2.62618541718,-2.73852515221,3.78780508041,,-0.0018852290278,0.00521175498658,0.021206819031,-0.999759787996
447712000000,,7642,,447,708107825,"""map""",,,-2.63584542274,-2.74705839157,3.79204201698,,-0.00157132078182,0.00495288624421,0.0212157541629,-0.99976147387
447744000000,,7643,,447,740107825,"""map""",,,-2.64304637909,-2.75314760208,3.79543542862,,-0.000965531121916,0.00486317717107,0.0212186201486,-0.999762569688
447776000000,,7644,,447,772107825,"""map""",,,-2.65154504776,-2.76203107834,3.79859399796,,-0.000509538934884,0.00460048854128,0.0212112865969,-0.999764339856
447812000000,,7645,,447,804107581,"""map""",,,-2.65950107574,-2.77010297775,3.80166840553,,-0.000327718418225,0.00433442240135,0.0212436132297,-0.999764887765
447844000000,,7646,,447,836107581,"""map""",,,-2.66694140434,-2.77742028236,3.80476784706,,-9.78718969596e-05,0.00423959890692,0.0212249421758,-0.999765772849
447876000000,,7647,,447,868107581,"""map""",,,-2.67392349243,-2.78399372101,3.80767512321,,0.000331448414318,0.00430893376544,0.021253559886,-0.999764803471
447912000000,,7648,,447,908107337,"""map""",,,-2.6820268631,-2.79128313065,3.81122040749,,0.000642216390816,0.00408883880661,0.0212459313064,-0.999765772849
447944000000,,7649,,447,940107337,"""map""",,,-2.68809103966,-2.796459198,3.81296372414,,0.00294808133883,0.00124396275207,0.0212097271635,-0.999769945387
447976000000,,7650,,447,972107337,"""map""",,,-2.69548130035,-2.80385613441,3.81199741364,,0.00980328732255,-0.00722756927441,0.0211197014951,-0.99970276331
448012000000,,7651,,448,4107093,"""map""",,,-2.70221829414,-2.81041240692,3.80882644653,,0.0143563296665,-0.0131601965905,0.0209818391536,-0.999590189078
448044000000,,7652,,448,36107093,"""map""",,,-2.70813703537,-2.81601786613,3.80439400673,,0.0218246416161,-0.0239867173221,0.0206672550763,-0.999260347841
448076000000,,7653,,448,68107093,"""map""",,,-2.71307587624,-2.82056999207,3.79970979691,,0.0254591925489,-0.0305803951961,0.0203773269054,-0.999000259639
448112000000,,7654,,448,108106848,"""map""",,,-2.71774244308,-2.82472062111,3.79453277588,,0.0260570236984,-0.0319164616538,0.0202263568941,-0.998946143086
448144000000,,7655,,448,140106848,"""map""",,,-2.72009253502,-2.82673811913,3.79383683205,,0.0226198306522,-0.0280709953787,0.01990865395,-0.999151651119
448176000000,,7656,,448,172106848,"""map""",,,-2.72323489189,-2.83112096786,3.79757404327,,0.013303644336,-0.0163623501216,0.0194914422966,-0.999587660267
448212000000,,7657,,448,204106604,"""map""",,,-2.72566699982,-2.83457231522,3.80384755135,,0.00861234798124,-0.00980601184466,0.0192649451327,-0.999729273678
448244000000,,7658,,448,236106604,"""map""",,,-2.72773122787,-2.83733177185,3.81078243256,,0.000595718044832,0.00368873136507,0.0187759152494,-0.999816728388
448276000000,,7659,,448,268106604,"""map""",,,-2.72957730293,-2.83958053589,3.81690192223,,-0.00530451345007,0.0147145784139,0.018466388794,-0.999707146582
448312000000,,7660,,448,308106359,"""map""",,,-2.73193597794,-2.84190106392,3.82229351997,,-0.0073614446228,0.0180904945523,0.0183697039235,-0.999640470268
448344000000,,7661,,448,340106359,"""map""",,,-2.73401498795,-2.84349918365,3.8251619339,,-0.00972373827407,0.022135001295,0.0182678349906,-0.999540792971
448376000000,,7662,,448,372106359,"""map""",,,-2.73776698112,-2.84804725647,3.82672643661,,-0.00966591872482,0.023020924758,0.0182277954845,-0.99952207977
448412000000,,7663,,448,404106113,"""map""",,,-2.74153232574,-2.85217094421,3.8284509182,,-0.00896528663733,0.0215176586242,0.0182100095145,-0.999562456451
448444000000,,7664,,448,436106113,"""map""",,,-2.74537491798,-2.855905056,3.83040690422,,-0.00744583611368,0.0173435071876,0.0182460872168,-0.999655348105
448476000000,,7665,,448,468106113,"""map""",,,-2.74928879738,-2.85926508904,3.83264660835,,-0.00533908736601,0.0138935614269,0.018334511305,-0.999721097189
448512000000,,7666,,448,508105868,"""map""",,,-2.75408172607,-2.86292552948,3.83568906784,,-0.00425715899622,0.0126467315367,0.0183148287267,-0.999743224285
448544000000,,7667,,448,540105868,"""map""",,,-2.75773644447,-2.86542105675,3.83811783791,,-0.0022471856689,0.00874114179442,0.0183875741872,-0.999790260168
448576000000,,7668,,448,572105868,"""map""",,,-2.76280975342,-2.87018561363,3.84039497375,,-0.000592403919596,0.00491162546734,0.0185671619087,-0.999815421836
448612000000,,7669,,448,604105622,"""map""",,,-2.76759529114,-2.87437057495,3.84270095825,,-9.88755187892e-06,0.00428720854676,0.0186545323257,-0.999816812682
448644000000,,7670,,448,636105622,"""map""",,,-2.77201986313,-2.87800097466,3.84510731697,,0.00103688927612,0.00354139874198,0.018654448032,-0.999819257199
448676000000,,7671,,448,668105622,"""map""",,,-2.77611398697,-2.88113188744,3.84727120399,,0.00199759511895,0.00115223281163,0.0187250861501,-0.999822038891
448712000000,,7672,,448,708105376,"""map""",,,-2.78090000153,-2.8844063282,3.84992003441,,0.00232779958385,0.00052058881782,0.0187628497264,-0.999821111661
448744000000,,7673,,448,740105376,"""map""",,,-2.78440999985,-2.88654541969,3.85227274895,,0.00275390714459,0.00155806942575,0.0187651256562,-0.999818920025
448776000000,,7674,,448,772105376,"""map""",,,-2.78887009621,-2.89059257507,3.85451102257,,0.00316697577102,0.00119129153914,0.0187239903321,-0.999819004318
448812000000,,7675,,448,804105130,"""map""",,,-2.79304361343,-2.89410352707,3.85652852058,,0.0032938827307,0.000172754169782,0.0188135523851,-0.999817613472
448844000000,,7676,,448,836105130,"""map""",,,-2.79697608948,-2.89708089828,3.85840177536,,0.00344654174409,0.0003203170365,0.0188665731206,-0.999816096186
448876000000,,7677,,448,868105130,"""map""",,,-2.80056190491,-2.89959359169,3.86046695709,,0.00369066666274,0.00136642700587,0.0188746231686,-0.999814199577
448912000000,,7678,,448,908104884,"""map""",,,-2.80455803871,-2.90214824677,3.862885952,,0.00388977726546,0.000705070512836,0.018884822706,-0.999813862403
448944000000,,7679,,448,940104884,"""map""",,,-2.80761051178,-2.90377545357,3.86456108093,,0.00424219752354,-0.0011896270679,0.0189525526915,-0.999810701389
448976000000,,7680,,448,972104884,"""map""",,,-2.81172943115,-2.90736365318,3.86614227295,,0.00436105575225,0.000338677092746,0.0189370005044,-0.999811165004
449012000000,,7681,,449,4104637,"""map""",,,-2.81540131569,-2.91041588783,3.86788320541,,0.00448140459645,0.00102419443132,0.018927938932,-0.999810279921
449044000000,,7682,,449,36104637,"""map""",,,-2.81875491142,-2.91299462318,3.86937093735,,0.00481205304382,-0.000902391850124,0.0189171914856,-0.999809057662
449076000000,,7683,,449,68104637,"""map""",,,-2.8219974041,-2.91514396667,3.87065148354,,0.00499335034687,-0.00149089093006,0.018973288941,-0.999806486704
449112000000,,7684,,449,108104391,"""map""",,,-2.82571554184,-2.9172501564,3.87258601189,,0.00502816265592,5.44196485978e-05,0.0189575681665,-0.999807624669
449144000000,,7685,,449,140104391,"""map""",,,-2.82828879356,-2.91852974892,3.87420248985,,0.00525310944141,0.000117392802538,0.0189443762029,-0.999806739585
449176000000,,7686,,449,172104391,"""map""",,,-2.83146500587,-2.9220097065,3.87522006035,,0.00568853939936,-0.00287579109719,0.0190363827732,-0.99979852095
449212000000,,7687,,449,204104144,"""map""",,,-2.83450007439,-2.92497324944,3.87645840645,,0.00567851799831,-0.00244739768731,0.0190706903079,-0.999799026712
449244000000,,7688,,449,236104144,"""map""",,,-2.83723330498,-2.92741990089,3.87811517715,,0.00561539354377,9.68686044023e-06,0.0190034239377,-0.999803662865
449276000000,,7689,,449,268104144,"""map""",,,-2.83962059021,-2.92945313454,3.87958240509,,0.00600324431957,-0.00207850344445,0.0190338118155,-0.999798731684
449312000000,,7690,,449,308103896,"""map""",,,-2.84247756004,-2.93146491051,3.88088035583,,0.00618434669344,-0.00374587821111,0.0190836293904,-0.999791735307
449344000000,,7691,,449,340103896,"""map""",,,-2.84461784363,-2.93261265755,3.88246035576,,0.00618939394318,-0.0019209320183,0.0190289649279,-0.999797930894
449376000000,,7692,,449,372103896,"""map""",,,-2.84695911407,-2.93552279472,3.8840470314,,0.00634190280843,-0.000419023309351,0.0189826455414,-0.999799658915
449412000000,,7693,,449,404103649,"""map""",,,-2.84905910492,-2.9379761219,3.88523101807,,0.00642438402633,-0.00228222303554,0.0190044776089,-0.999796202873
449444000000,,7694,,449,436103649,"""map""",,,-2.85116934776,-2.94000530243,3.88631916046,,0.00644729289645,-0.00389589604944,0.0190737670278,-0.999789712259
449476000000,,7695,,449,468103649,"""map""",,,-2.85312581062,-2.94158816338,3.88802719116,,0.00628653864237,-3.75136586249e-05,0.019007512182,-0.999799574621
449512000000,,7696,,449,508103402,"""map""",,,-2.85506749153,-2.94306921959,3.89031553268,,0.00638235291702,0.000173325951051,0.0189939408968,-0.999799237446
449544000000,,7697,,449,540103402,"""map""",,,-2.85659503937,-2.94396090508,3.89154553413,,0.00682021315115,-0.00437820581528,0.0190630195815,-0.999785455427
449576000000,,7698,,449,572103402,"""map""",,,-2.85905575752,-2.94638609886,3.89221024513,,0.00691669905888,-0.00278415874481,0.0190715332449,-0.999790344461
449612000000,,7699,,449,604103154,"""map""",,,-2.86117124557,-2.94837403297,3.89339780807,,0.00693199095626,-0.000290117831725,0.0190199033555,-0.999795022761
449644000000,,7700,,449,636103154,"""map""",,,-2.86294126511,-2.95000457764,3.89439606667,,0.00723791550254,-0.00200805597498,0.0190199033555,-0.999790976664
449676000000,,7701,,449,668103154,"""map""",,,-2.86474466324,-2.95129060745,3.89496517181,,0.00763469070887,-0.00594817567536,0.0190571611695,-0.999771589114
449712000000,,7702,,449,708102906,"""map""",,,-2.86700606346,-2.95243597031,3.8965613842,,0.00765959356944,-0.00387058826631,0.0190425362131,-0.999781915092
449744000000,,7703,,449,740102906,"""map""",,,-2.86834692955,-2.95300388336,3.89966893196,,-0.0115499496955,-0.00110404887982,0.0193566566751,-0.999745373774
449776000000,,7704,,449,772102906,"""map""",,,-2.86950087547,-2.95397043228,3.90679955482,,-0.0786559370016,-0.00943148214833,0.0204176192926,-0.996648128317
449812000000,,7705,,449,804102658,"""map""",,,-2.87077665329,-2.957041502,3.919080019,,-0.121132518748,-0.0115022437435,0.0210633933055,-0.99234619949
449844000000,,7706,,449,836102658,"""map""",,,-2.87185907364,-2.96343421936,3.93382573128,,-0.195185332371,-0.00703493068248,0.0222606588312,-0.980488478689
449876000000,,7707,,449,868102658,"""map""",,,-2.87270855904,-2.9745349884,3.94629216194,,-0.254673691363,-0.00699328959615,0.0226873113786,-0.966735666992
449912000000,,7708,,449,908102410,"""map""",,,-2.87385058403,-2.99283218384,3.95484566689,,-0.279202661971,-0.0104729860928,0.0226919053851,-0.959906908156
449944000000,,7709,,449,940102410,"""map""",,,-2.87510466576,-3.01177549362,3.95798444748,,-0.31412094664,-0.0129342356053,0.0231452790345,-0.949012748606
449976000000,,7710,,449,972102410,"""map""",,,-2.87610387802,-3.03699684143,3.96033000946,,-0.33393294733,-0.00901109104204,0.0245153466391,-0.942234903163
450012000000,,7711,,450,4102161,"""map""",,,-2.87671422958,-3.06951260567,3.96245384216,,-0.341895825176,-0.0107299765016,0.0245058635982,-0.939356989906
450044000000,,7712,,450,36102161,"""map""",,,-2.8774125576,-3.10934066772,3.96419334412,,-0.353817345769,-0.0192167396747,0.0236546658456,-0.934817858615
450076000000,,7713,,450,68102161,"""map""",,,-2.8784866333,-3.15402150154,3.96736383438,,-0.358391964706,-0.0162151675643,0.025024227688,-0.933094853301
450112000000,,7714,,450,108113913,"""map""",,,-2.87930297852,-3.22050905228,3.97268915176,,-0.360517230079,-0.0121476068247,0.0264042419488,-0.93229966871
450144000000,,7715,,450,140113913,"""map""",,,-2.87953090668,-3.28194832802,3.97556447983,,-0.358260445465,-0.0143202663287,0.0272297722706,-0.93311466232
450176000000,,7716,,450,172113913,"""map""",,,-2.8800034523,-3.3492910862,3.97705841064,,-0.311106509205,-0.0186144612095,0.0280678623532,-0.949778135375
450212000000,,7717,,450,204113664,"""map""",,,-2.8806874752,-3.421916008,3.97952508926,,-0.272550856678,-0.0149155378803,0.0297810895983,-0.961564712295
450244000000,,7718,,450,236113664,"""map""",,,-2.88086986542,-3.49840712547,3.9843416214,,-0.187690432058,-0.00273724814996,0.0351320534853,-0.981595929281
450276000000,,7719,,450,268113664,"""map""",,,-2.88068199158,-3.56765508652,3.98893737793,,-0.118625481953,-0.0080625288011,0.0371066754849,-0.992212762567
450312000000,,7720,,450,308113415,"""map""",,,-2.8811519146,-3.64989638329,3.99480438232,,-0.0774792707482,-0.0103741438305,0.0374508466498,-0.996236353607
450344000000,,7721,,450,340113415,"""map""",,,-2.88165807724,-3.71374702454,4.00149393082,,-0.00538088617375,-0.00156005045111,0.0379236499964,-0.999264941848
450376000000,,7722,,450,372113415,"""map""",,,-2.8816754818,-3.77518987656,4.0091085434,,0.00805803291774,-0.000805797694146,0.0414449770426,-0.999108029131
450412000000,,7723,,450,404113165,"""map""",,,-2.88176941872,-3.83389377594,4.01586294174,,-0.0110075617374,-0.00841607286538,0.0436816681463,-0.99894943054
450444000000,,7724,,450,436113165,"""map""",,,-2.88254141808,-3.89045095444,4.02189826965,,-0.0778844099637,-0.0143182485483,0.0458803006457,-0.995803252592
450476000000,,7725,,450,468113165,"""map""",,,-2.88333559036,-3.94658374786,4.02667427063,,-0.156835967595,-0.00440080533411,0.0453465108093,-0.986573303502
450512000000,,7726,,450,508112916,"""map""",,,-2.8836312294,-4.01786231995,4.02954006195,,-0.184101101071,-0.0051107900707,0.0449274446946,-0.981866722782
450544000000,,7727,,450,540112916,"""map""",,,-2.88442707062,-4.07671165466,4.02882432938,,-0.243026114749,-0.0181239983334,0.0433533441964,-0.968880941581
450576000000,,7728,,450,572112916,"""map""",,,-2.88577342033,-4.13901233673,4.02855348587,,-0.281007474318,-0.0126831457553,0.0430246830717,-0.958656790482
450612000000,,7729,,450,604112666,"""map""",,,-2.88653945923,-4.20661306381,4.02973222733,,-0.290859574112,-0.00864988201359,0.0431633883501,-0.955752493298
450644000000,,7730,,450,636112666,"""map""",,,-2.88696026802,-4.27899503708,4.02972698212,,-0.314209992395,-0.0150085454383,0.0412967044296,-0.948336165247
450676000000,,7731,,450,676112666,"""map""",,,-2.88868927956,-4.37837171555,4.0281047821,,-0.329910683916,-0.0261204356076,0.0380721754906,-0.942882405196
450712000000,,7732,,450,708112415,"""map""",,,-2.89038324356,-4.46465158463,4.02795934677,,-0.332324960766,-0.0224766930399,0.0382112179438,-0.942122539665
450744000000,,7733,,450,740112415,"""map""",,,-2.89118647575,-4.55744075775,4.02869796753,,-0.340299165577,-0.0113724525236,0.0402698807593,-0.939385734057
450776000000,,7734,,450,772112415,"""map""",,,-2.89179873466,-4.65505838394,4.02752828598,,-0.351386357694,-0.0237308778845,0.0380980115087,-0.935154064025
450812000000,,7735,,450,804112165,"""map""",,,-2.89311861992,-4.75702619553,4.02556419373,,-0.353358166391,-0.0294370870208,0.0365026689989,-0.934312054286
450844000000,,7736,,450,836112165,"""map""",,,-2.8944606781,-4.8654718399,4.02511978149,,-0.352122410256,-0.0195108825305,0.0379463671478,-0.934980924772
450876000000,,7737,,450,868112165,"""map""",,,-2.89451050758,-4.97769117355,4.0260014534,,-0.356968244163,-0.0130846682443,0.04052035948,-0.933145513813
450912000000,,7738,,450,908111914,"""map""",,,-2.89438700676,-5.12330293655,4.02423334122,,-0.361672106412,-0.0233310939529,0.0389157025167,-0.931200647488
450944000000,,7739,,450,940111914,"""map""",,,-2.89517879486,-5.24492931366,4.02238035202,,-0.36098325832,-0.0313445164071,0.0364018537372,-0.931334295145
450976000000,,7740,,450,972111914,"""map""",,,-2.89541220665,-5.37351894379,4.02228307724,,-0.358287714476,-0.0158719868503,0.0401955337185,-0.932610543865
451012000000,,7741,,451,4111663,"""map""",,,-2.89471077919,-5.50817537308,4.02225589752,,-0.360953671232,-0.0135512549308,0.0418063862686,-0.931547684639
451044000000,,7742,,451,36111663,"""map""",,,-2.89422392845,-5.64648628235,4.01973199844,,-0.366223407605,-0.0291325338935,0.0397022891504,-0.929223075209
451076000000,,7743,,451,68111663,"""map""",,,-2.8953101635,-5.78473758698,4.01713085175,,-0.36186026048,-0.0297327260897,0.0387113324482,-0.930953624809
451112000000,,7744,,451,108111412,"""map""",,,-2.89590525627,-5.96534967422,4.01616001129,,-0.359563762999,-0.01850408915,0.0418654340034,-0.931997265072
451144000000,,7745,,451,140111412,"""map""",,,-2.89548563957,-6.11534833908,4.01412200928,,-0.359686389254,-0.0168918246804,0.0441623951004,-0.931874575596
451176000000,,7746,,451,172111412,"""map""",,,-2.89572739601,-6.26758813858,4.00899982452,,-0.353268583264,-0.034574724634,0.040960499019,-0.933985121182
451212000000,,7747,,451,204111160,"""map""",,,-2.89673089981,-6.42291116714,4.00349378586,,-0.34275663241,-0.0339892416879,0.0402779308074,-0.937944775453
451244000000,,7748,,451,236111160,"""map""",,,-2.89655160904,-6.58251810074,3.99867844582,,-0.31895183949,-0.0166253301573,0.0448534769754,-0.946562963036
451276000000,,7749,,451,268111160,"""map""",,,-2.89564180374,-6.74150514603,3.99125218391,,-0.296898511544,-0.0230140232116,0.0462958264252,-0.953508426496
451312000000,,7750,,451,308110909,"""map""",,,-2.89562177658,-6.93879938126,3.97892165184,,-0.279314266826,-0.032460406905,0.0446200677284,-0.9586130842
451344000000,,7751,,451,340110909,"""map""",,,-2.89594244957,-7.09729385376,3.97146177292,,-0.243111946806,-0.021748016176,0.043840603912,-0.968762972552
451376000000,,7752,,451,372110909,"""map""",,,-2.89498066902,-7.25632858276,3.96650075912,,-0.217928161686,-0.00938129842265,0.0475302654712,-0.97476160706
451412000000,,7753,,451,404110657,"""map""",,,-2.89394974709,-7.41344022751,3.9600045681,,-0.208962936952,-0.0176590026905,0.0482920276112,-0.97657080268
451444000000,,7754,,451,436110657,"""map""",,,-2.89420032501,-7.56721878052,3.95345950127,,-0.189211179914,-0.0280878346911,0.046983072937,-0.980409495495
451476000000,,7755,,451,476110657,"""map""",,,-2.89439415932,-7.75763273239,3.95061445236,,-0.168408923214,-0.00842783134221,0.0466883400253,-0.98457491068
451512000000,,7756,,451,508110404,"""map""",,,-2.89360380173,-7.90761041641,3.94954991341,,-0.165820748467,-0.00531223093316,0.0479504695508,-0.984975137154
451544000000,,7757,,451,540110404,"""map""",,,-2.89351224899,-8.05396461487,3.94596719742,,-0.166590918903,-0.0219537454803,0.0493813972046,-0.984544101334
451576000000,,7758,,451,572110404,"""map""",,,-2.89457702637,-8.19683742523,3.94340753555,,-0.162119675648,-0.0213083823992,0.0477718512069,-0.985383708703
451612000000,,7759,,451,604110152,"""map""",,,-2.89463114738,-8.33786296844,3.94357633591,,-0.160571200434,-0.0114229549848,0.0477499769925,-0.985802437643
451644000000,,7760,,451,636110152,"""map""",,,-2.89406704903,-8.47655105591,3.94291353226,,-0.165089316253,-0.0132680965974,0.0488564582064,-0.984978508902
451676000000,,7761,,451,668110152,"""map""",,,-2.8949201107,-8.61527824402,3.93804645538,,-0.169082998835,-0.0310540087171,0.0481405939845,-0.983935500842
451712000000,,7762,,451,708109899,"""map""",,,-2.89676976204,-8.7863702774,3.93349432945,,-0.167456836442,-0.0270480455965,0.0470259784288,-0.984385713477
451744000000,,7763,,451,740109899,"""map""",,,-2.89691615105,-8.92134952545,3.93145465851,,-0.150110310487,-0.00954535503047,0.0469171974128,-0.987509258567
451776000000,,7764,,451,772109899,"""map""",,,-2.89707779884,-9.05318069458,3.92864203453,,-0.0877145538837,-0.015227996176,0.0475252499962,-0.994894777272
451812000000,,7765,,451,804109646,"""map""",,,-2.89867520332,-9.17977809906,3.92925739288,,-0.0443138379467,-0.0135972226545,0.0471848299008,-0.997810116931
451844000000,,7766,,451,836109646,"""map""",,,-2.90005660057,-9.30003070831,3.93664979935,,0.0504903598143,0.0154313204757,0.0468808246825,-0.997504341545
451876000000,,7767,,451,868109646,"""map""",,,-2.8998336792,-9.416888237,3.94631314278,,0.12148740048,0.0157963701357,0.0511861674047,-0.9911464473
451912000000,,7768,,451,908109393,"""map""",,,-2.90053915977,-9.5552854538,3.95290970802,,0.17070582109,0.00334819832927,0.0545609920055,-0.98380459273
451944000000,,7769,,451,940109393,"""map""",,,-2.90210604668,-9.65781974792,3.95664286613,,0.23248373387,0.00519208080477,0.0551692974701,-0.971020484199
451976000000,,7770,,451,972109393,"""map""",,,-2.9026992321,-9.75173377991,3.9603574276,,0.249807142279,0.00237475364263,0.0598316239992,-0.966442451367
452012000000,,7771,,452,4109140,"""map""",,,-2.90311837196,-9.83776664734,3.96150994301,,0.242002662827,-0.012360690754,0.0662013193615,-0.967935672063
452044000000,,7772,,452,36109140,"""map""",,,-2.90417599678,-9.91608524323,3.96214270592,,0.180454186953,-0.0371922019772,0.0757380553615,-0.979957554839
452076000000,,7773,,452,68109140,"""map""",,,-2.9033703804,-9.99145126343,3.96678948402,,0.0921416930956,-0.0331038101577,0.0750530004858,-0.992361372355
452112000000,,7774,,452,108108886,"""map""",,,-2.90020632744,-10.0784168243,3.97732257843,,0.0633815529505,-0.0361768475181,0.0743300134464,-0.994559751974
452144000000,,7775,,452,140108886,"""map""",,,-2.89775419235,-10.1435079575,3.98497271538,,-0.00909766066888,-0.059874381977,0.0732879747638,-0.995470376783
452176000000,,7776,,452,172108886,"""map""",,,-2.8954679966,-10.2062883377,3.99238944054,,-0.0862039476128,-0.0607883600946,0.0698295308156,-0.991966498532
452212000000,,7777,,452,204108632,"""map""",,,-2.89193534851,-10.2680969238,3.99966645241,,-0.124344559049,-0.0530210752357,0.0673870366507,-0.988527315693
452244000000,,7778,,452,236108632,"""map""",,,-2.88788986206,-10.3299541473,4.0039358139,,-0.19699241538,-0.0506153462936,0.0616288077666,-0.977156138112
452276000000,,7779,,452,268108632,"""map""",,,-2.88392019272,-10.3978118896,4.00357818604,,-0.254463294295,-0.0523223516102,0.056341738502,-0.96402098848
452312000000,,7780,,452,308108378,"""map""",,,-2.87899923325,-10.4883785248,4.0028128624,,-0.276453433579,-0.0427744677688,0.0546220206422,-0.958519855371
452344000000,,7781,,452,340108378,"""map""",,,-2.8744828701,-10.5649738312,4.00190496445,,-0.295166676465,-0.0287929672717,0.0526302448753,-0.953560520001
452376000000,,7782,,452,372108378,"""map""",,,-2.87029123306,-10.6440143585,3.99774956703,,-0.300124757967,-0.0335476691561,0.0477716826195,-0.952112227845
452412000000,,7783,,452,404108124,"""map""",,,-2.86717295647,-10.7252531052,3.99144458771,,-0.2939303092,-0.0346808082517,0.04550350782,-0.954113023038
452444000000,,7784,,452,436108124,"""map""",,,-2.86435484886,-10.8098726273,3.98528885841,,-0.267507606932,-0.0202580302507,0.0446494440818,-0.9623075505
452476000000,,7785,,452,468108124,"""map""",,,-2.85865163803,-10.8969593048,3.97937273979,,-0.236715878053,-0.0141773358287,0.0443350707387,-0.970463345009
452512000000,,7786,,452,508107869,"""map""",,,-2.85156488419,-11.0069704056,3.96969223022,,-0.216483852408,-0.0224937730503,0.0424578079592,-0.975103165121
452544000000,,7787,,452,540107869,"""map""",,,-2.847417593,-11.0952558517,3.96324396133,,-0.175203385052,-0.0214488156984,0.0390506988724,-0.983523641838
452576000000,,7788,,452,572107869,"""map""",,,-2.84320998192,-11.1842985153,3.96021652222,,-0.141539759379,-0.00469595971424,0.0386692698934,-0.989165924742
452612000000,,7789,,452,604107615,"""map""",,,-2.83892917633,-11.272857666,3.95777654648,,-0.132391058876,-0.00555624011262,0.0386750018648,-0.99042721133
452644000000,,7790,,452,636107615,"""map""",,,-2.83579182625,-11.3594961166,3.95389962196,,-0.109064917178,-0.0223955708932,0.0371503817668,-0.993087773289
452676000000,,7791,,452,668107615,"""map""",,,-2.83180999756,-11.4432287216,3.95175743103,,-0.0901169058096,-0.0122826664007,0.0347149261256,-0.995250201646
452712000000,,7792,,452,708107360,"""map""",,,-2.82556390762,-11.5455970764,3.95215821266,,-0.0839209898062,-0.00383242083763,0.0340791409158,-0.995882109346
452744000000,,7793,,452,740107360,"""map""",,,-2.82106781006,-11.6253681183,3.95038080215,,-0.0803265643196,-0.0158347369388,0.0337366977716,-0.996071643723
452776000000,,7794,,452,772107360,"""map""",,,-2.81831645966,-11.7028455734,3.94789528847,,-0.0771046563877,-0.0199608001383,0.0321882225573,-0.996303367097
452812000000,,7795,,452,804107105,"""map""",,,-2.81565070152,-11.7786197662,3.94767427444,,-0.0755508469629,-0.0125856838023,0.0313584354039,-0.996569313711
452844000000,,7796,,452,836107105,"""map""",,,-2.81253004074,-11.8529119492,3.94817399979,,-0.0753591657301,-0.0052440584057,0.0303188833853,-0.996681635062
452876000000,,7797,,452,868107105,"""map""",,,-2.80818104744,-11.9261369705,3.94570350647,,-0.0771197713013,-0.0229272270454,0.0296210158677,-0.996317992053
452912000000,,7798,,452,908106850,"""map""",,,-2.80394625664,-12.0153923035,3.94337368011,,-0.0764710891558,-0.0213505766629,0.0287916923296,-0.996427278831
452944000000,,7799,,452,940106850,"""map""",,,-2.80009174347,-12.0853500366,3.94399905205,,-0.074421551133,-0.00391524729749,0.0273349708045,-0.996844490485
452976000000,,7800,,452,972106850,"""map""",,,-2.7965464592,-12.1539077759,3.94295096397,,-0.0748025639119,-0.0166953466094,0.0268472474735,-0.996697145102
453012000000,,7801,,453,4106594,"""map""",,,-2.79472184181,-12.22078228,3.94057488441,,-0.074261545891,-0.0242730549437,0.0263629380373,-0.996594770407
453044000000,,7802,,453,36106594,"""map""",,,-2.79327273369,-12.2863349915,3.94025039673,,-0.0707270400521,-0.0124534164549,0.0248216699341,-0.9971090884
453080000000,,7803,,453,76106594,"""map""",,,-2.78640246391,-12.3681640625,3.94149041176,,-0.0689266109774,-0.00753359375482,0.0242633927787,-0.997298243456
453112000000,,7804,,453,108106338,"""map""",,,-2.78132462502,-12.4321908951,3.93996453285,,-0.0685369264844,-0.0179639272369,0.024142009855,-0.997194646502
453144000000,,7805,,453,140106338,"""map""",,,-2.77782702446,-12.494679451,3.93914318085,,-0.0656277652906,-0.0216206734245,0.0231012777247,-0.9973424555
453176000000,,7806,,453,172106338,"""map""",,,-2.77384209633,-12.5559520721,3.94066286087,,-0.0619675367197,-0.00519703305947,0.0221275590836,-0.997819347091
453212000000,,7807,,453,204106083,"""map""",,,-2.76991868019,-12.6159172058,3.9410469532,,-0.0611301051816,-0.01061836111,0.0220127510682,-0.997830558152
453244000000,,7808,,453,236106083,"""map""",,,-2.76755976677,-12.6743373871,3.93957996368,,-0.0592179988121,-0.0247742376073,0.0216402150742,-0.997702979642
453276000000,,7809,,453,268106083,"""map""",,,-2.76335597038,-12.7319335938,3.94015431404,,-0.0556605611363,-0.0102201366118,0.020470387147,-0.998187584106
453312000000,,7810,,453,308105826,"""map""",,,-2.75653719902,-12.8024978638,3.94311785698,,-0.0545105633013,-0.00417122618192,0.020186865297,-0.99830041122
453348000000,,7811,,453,340105826,"""map""",,,-2.75213861465,-12.8575248718,3.94438910484,,-0.0392214318045,-0.0189720548286,0.0202441007173,-0.998845369971
453376000000,,7812,,453,372105826,"""map""",,,-2.74942374229,-12.910774231,3.94782423973,,0.0303518764652,-0.0186707667649,0.0207895230839,-0.999148616546
453412000000,,7813,,453,404105570,"""map""",,,-2.74626541138,-12.9609642029,3.95482397079,,0.0720375488913,-0.00911795174226,0.0211671588465,-0.997135598767
453444000000,,7814,,453,436105570,"""map""",,,-2.74298071861,-13.0072498322,3.96131944656,,0.147718245026,-0.0126100315098,0.0241424313235,-0.988654430588
453476000000,,7815,,453,476105570,"""map""",,,-2.73666620255,-13.0595293045,3.96507525444,,0.209806158414,-0.0293285272757,0.0256690323234,-0.976965887238
453512000000,,7816,,453,508105314,"""map""",,,-2.73147511482,-13.0952281952,3.96772408485,,0.221637147575,-0.0261575985913,0.0243171300105,-0.974475008491
453544000000,,7817,,453,540105314,"""map""",,,-2.72568583488,-13.1248340607,3.97017192841,,0.216503398009,-0.0143753311863,0.0214884442727,-0.975939485036
453576000000,,7818,,453,572105314,"""map""",,,-2.72030806541,-13.1498794556,3.970089674,,0.158539822435,-0.026506042393,0.025112146014,-0.986677237631
453612000000,,7819,,453,604105057,"""map""",,,-2.71627116203,-13.1713552475,3.96946907043,,0.118241671677,-0.0287656086987,0.0264849531637,-0.992214743469
453644000000,,7820,,453,636105057,"""map""",,,-2.71226596832,-13.1896257401,3.97121620178,,0.0358007092856,-0.0119402693547,0.0252597021306,-0.998968312328
453676000000,,7821,,453,668105057,"""map""",,,-2.70468878746,-13.2077007294,3.97418260574,,-0.0363731767581,-0.0108634042043,0.0228926508246,-0.999017034085
453712000000,,7822,,453,708116800,"""map""",,,-2.69575500488,-13.2311382294,3.97593832016,,-0.0691170594149,-0.0183707733998,0.0222454859657,-0.997191359048
453744000000,,7823,,453,740116800,"""map""",,,-2.6902320385,-13.2513074875,3.97818922997,,-0.122637208655,-0.014081225209,0.0219233997494,-0.992109544935
453776000000,,7824,,453,772116800,"""map""",,,-2.6846446991,-13.2736196518,3.98141288757,,-0.151307159812,0.000259134629713,0.0212563837248,-0.988258250212
453812000000,,7825,,453,804116543,"""map""",,,-2.67960834503,-13.2979688644,3.9816904068,,-0.158809414751,-0.00437492190077,0.0200955330763,-0.98709503934
453844000000,,7826,,453,836116543,"""map""",,,-2.67639660835,-13.323928833,3.97962999344,,-0.162027489954,-0.014635545829,0.0179049506249,-0.986515225145
453876000000,,7827,,453,868116543,"""map""",,,-2.67007756233,-13.3518571854,3.97872686386,,-0.149770106394,0.00128951970868,0.01825687681,-0.98855142369
453912000000,,7828,,453,908116286,"""map""",,,-2.66081953049,-13.3900690079,3.97822523117,,-0.142273177763,0.0050854176679,0.0185460884845,-0.989640666843
453944000000,,7829,,453,940116286,"""map""",,,-2.65494513512,-13.4220943451,3.97522354126,,-0.125838793903,-0.0114645223141,0.0177213589528,-0.991826149526
453976000000,,7830,,453,972116286,"""map""",,,-2.65099692345,-13.4550065994,3.9732465744,,-0.0987787048446,-0.00544445613365,0.0170107630869,-0.994949146707
454012000000,,7831,,454,4116029,"""map""",,,-2.6470515728,-13.4892034531,3.97403907776,,-0.088154490591,0.00414268222876,0.0173218911226,-0.995947605548
454044000000,,7832,,454,36116029,"""map""",,,-2.64336776733,-13.5240068436,3.97405338287,,-0.0752497077303,-0.000935941893991,0.017886574599,-0.997003889866
454076000000,,7833,,454,68116029,"""map""",,,-2.63744831085,-13.5578193665,3.97177195549,,-0.0614178785948,-0.0139895242033,0.0177361524967,-0.997856562758
454112000000,,7834,,454,108115771,"""map""",,,-2.63022589684,-13.5995130539,3.971170187,,-0.0541364178245,-0.00673875687546,0.0174412931445,-0.99835844743
454144000000,,7835,,454,140115771,"""map""",,,-2.62452125549,-13.6328468323,3.97218060493,,-0.044551438171,0.0060013938095,0.0174442855707,-0.998836772014
454176000000,,7836,,454,172115771,"""map""",,,-2.61999869347,-13.6658096313,3.97063875198,,-0.0399396615183,-0.0124063134004,0.0177183243797,-0.9989680173
454212000000,,7837,,454,204115513,"""map""",,,-2.6175198555,-13.6981649399,3.96932578087,,-0.0376258311452,-0.0134163995035,0.0175294643516,-0.999048138459
454244000000,,7838,,454,236115513,"""map""",,,-2.61496806145,-13.7300739288,3.9705414772,,-0.0335292523004,0.00616242374677,0.0166960525691,-0.999279271776
454276000000,,7839,,454,268115513,"""map""",,,-2.60854458809,-13.7609481812,3.97101616859,,-0.0321366782787,-0.003141182229,0.0165799380015,-0.999341016909
454312000000,,7840,,454,308115254,"""map""",,,-2.60163998604,-13.7986450195,3.96851992607,,-0.0314133843576,-0.0125956436294,0.0165044951426,-0.99929086216
454344000000,,7841,,454,340115254,"""map""",,,-2.59746932983,-13.8282623291,3.96839809418,,-0.0299785923646,-0.000599436187124,0.0157654080071,-0.99942606925
454376000000,,7842,,454,372115254,"""map""",,,-2.59318614006,-13.8575305939,3.96966505051,,-0.0291122638935,0.00641746881509,0.0153549398495,-0.999437659633
454412000000,,7843,,454,404114995,"""map""",,,-2.58992385864,-13.8864078522,3.96819877625,,-0.0285879729031,-0.00369570963195,0.0153458361302,-0.999466656665
454444000000,,7844,,454,436114995,"""map""",,,-2.58874797821,-13.9148025513,3.96647644043,,-0.0277058801935,-0.00947409129509,0.0151005414719,-0.999457215771
454476000000,,7845,,454,468114995,"""map""",,,-2.58371448517,-13.9420213699,3.96673297882,,-0.0266196808333,0.00861745791619,0.014431670986,-0.999504335947
454512000000,,7846,,454,508114737,"""map""",,,-2.57639837265,-13.9753952026,3.96615672112,,-0.026180876164,0.00605822027364,0.0143459021493,-0.99953598823
454544000000,,7847,,454,540114737,"""map""",,,-2.5728123188,-14.0016813278,3.9636900425,,-0.0246445530716,-0.0123188046891,0.0143651211122,-0.999517190736
454576000000,,7848,,454,572114737,"""map""",,,-2.57033085823,-14.0275068283,3.96315455437,,-0.0234942977456,0.00189166844064,0.0137184620155,-0.999628079094
454608000000,,7849,,454,604114477,"""map""",,,-2.56760382652,-14.0529565811,3.96438765526,,-0.0229225902335,0.00876526493829,0.0134563929115,-0.999608270076
454644000000,,7850,,454,636114477,"""map""",,,-2.5657248497,-14.0780420303,3.96315073967,,-0.0215325878282,-0.00709091750237,0.0134473734859,-0.99965260856
454676000000,,7851,,454,676114477,"""map""",,,-2.56061005592,-14.1079502106,3.96120500565,,-0.0205186887524,-0.00770256442177,0.0132340682856,-0.999672206845
454712000000,,7852,,454,708114218,"""map""",,,-2.55570554733,-14.1312627792,3.96213626862,,-0.0200941303765,0.00469640357323,0.0128184582124,-0.999704870652
454744000000,,7853,,454,740114218,"""map""",,,-2.55129790306,-14.1542720795,3.96190357208,,-0.0195519954641,0.00227526600672,0.0127162099579,-0.999725438315
454776000000,,7854,,454,772114218,"""map""",,,-2.54889845848,-14.1769981384,3.95973181725,,-0.0187602409023,-0.0122615175731,0.0128542408868,-0.999666221992
454812000000,,7855,,454,804113958,"""map""",,,-2.54763436317,-14.1993713379,3.95947861671,,-0.0185316321155,-0.00323285030743,0.012654422678,-0.999743055697
454844000000,,7856,,454,844113958,"""map""",,,-2.5456533432,-14.2268724442,3.96135520935,,-0.018003556799,0.00892649869508,0.0122667138186,-0.999722867357
454876000000,,7857,,454,868113958,"""map""",,,-2.54108834267,-14.2420625687,3.96013879776,,-0.0163456765978,-0.0107410756107,0.0124528343016,-0.999731212433
454912000000,,7858,,454,908113698,"""map""",,,-2.53638219833,-14.2670688629,3.9583132267,,-0.016043927553,-0.0104686660408,0.0124354698,-0.999739220334
454944000000,,7859,,454,940113698,"""map""",,,-2.53289866447,-14.2867326736,3.95966529846,,-0.0159063003119,0.00676358334487,0.0119734981935,-0.999778964812
454976000000,,7860,,454,972113698,"""map""",,,-2.52972793579,-14.3062343597,3.96001529694,,-0.0149002438427,8.77181284639e-06,0.011872345757,-0.999818498556
455012000000,,7861,,455,4113438,"""map""",,,-2.52843403816,-14.3255977631,3.95822501183,,-0.0142856830285,-0.00954388170177,0.0119647737958,-0.99978086142
455044000000,,7862,,455,36113438,"""map""",,,-2.52834606171,-14.3447055817,3.95785260201,,-0.0140611284062,-9.16726882337e-05,0.0118204208397,-0.999831311198
455076000000,,7863,,455,68113438,"""map""",,,-2.52786779404,-14.3635730743,3.95958518982,,-0.013537208341,0.00942814316304,0.0115634936511,-0.999797087957
455112000000,,7864,,455,108113178,"""map""",,,-2.52835440636,-14.3869447708,3.95850801468,,-0.0125524342193,-0.00345885981912,0.0117861975987,-0.999845809714
455140000000,,7865,,455,140113178,"""map""",,,-2.53079032898,-14.4053325653,3.95752930641,,-0.0117286847665,-0.00701828745177,0.0118965380481,-0.999835863058
455176000000,,7866,,455,172113178,"""map""",,,-2.52700805664,-14.4212341309,3.95852708817,,-0.0115014817252,0.00940575487236,0.0115263201308,-0.999823219003
455212000000,,7867,,455,204112917,"""map""",,,-2.52353453636,-14.4370546341,3.95885157585,,-0.0111577405075,0.00719363085392,0.0114895680789,-0.999845894008
455248000000,,7868,,455,236112917,"""map""",,,-2.52187204361,-14.4528264999,3.9569568634,,-0.00982009378999,-0.0117102931825,0.0117757030334,-0.99981390455
455276000000,,7869,,455,268112917,"""map""",,,-2.52156400681,-14.4684400558,3.9566245079,,-0.00996839513205,0.00204266117179,0.0115437267792,-0.999881592388
455312000000,,7870,,455,308112656,"""map""",,,-2.52072572708,-14.4876937866,3.95864319801,,-0.00997812450977,0.00951037277578,0.0113320231591,-0.999840836386
455344000000,,7871,,455,340112656,"""map""",,,-2.52095866203,-14.5030221939,3.95777130127,,-0.008908948628,-0.00845206398968,0.0115730188389,-0.999857610831
455376000000,,7872,,455,372112656,"""map""",,,-2.5166926384,-14.5164442062,3.95608305931,,-0.00914233138922,-0.0056964070306,0.0116693243878,-0.999873921662
455412000000,,7873,,455,404112395,"""map""",,,-2.51263546944,-14.5297451019,3.95708012581,,-0.00918923786816,0.00284959716012,0.011543516045,-0.999887113625
455444000000,,7874,,455,436112395,"""map""",,,-2.50884032249,-14.5430383682,3.95760917664,,-0.00856548657144,0.00288251812934,0.0115276688299,-0.999892761303
455476000000,,7875,,455,468112395,"""map""",,,-2.50678300858,-14.5563907623,3.95572185516,,-0.00764546021648,-0.011949716011,0.0118985610968,-0.9998286138
455512000000,,7876,,455,508112134,"""map""",,,-2.50601267815,-14.5729627609,3.95542860031,,-0.0077627959726,-0.00515687394524,0.0118673302821,-0.999886228542
455544000000,,7877,,455,540112134,"""map""",,,-2.50510835648,-14.5861349106,3.95735025406,,-0.00539970243671,0.00925174855922,0.0112808990319,-0.999879063577
455576000000,,7878,,455,572112134,"""map""",,,-2.49855136871,-14.5971870422,3.957072258,,0.0173442371739,-0.0174846408592,0.0103819489,-0.999642830491
455612000000,,7879,,455,604111872,"""map""",,,-2.49431419373,-14.6080274582,3.95620298386,,0.0318823027855,-0.0264091278551,0.00964947881972,-0.999096059426
455644000000,,7880,,455,636111872,"""map""",,,-2.4899289608,-14.6178455353,3.95711994171,,0.0562948633039,-0.020036551196,0.00739243078827,-0.998185771792
455676000000,,7881,,455,668111872,"""map""",,,-2.48534703255,-14.6265525818,3.95721411705,,0.0701656269078,-0.035691356653,0.00714153059908,-0.996871085146
455712000000,,7882,,455,708111610,"""map""",,,-2.48113870621,-14.6360826492,3.95380926132,,0.0737761314171,-0.0454791350878,0.00730489178391,-0.996210559736
455744000000,,7883,,455,740111610,"""map""",,,-2.47809052467,-14.641834259,3.95317554474,,0.0692403837278,-0.0414579451011,0.00619095057777,-0.996719019317
455776000000,,7884,,455,772111610,"""map""",,,-2.46771812439,-14.6437177658,3.95487165451,,0.0413720682631,-0.0201475528241,0.00416705891227,-0.998931981744
455812000000,,7885,,455,804111348,"""map""",,,-2.45815229416,-14.6452665329,3.95499181747,,0.0220104697877,-0.0201868390376,0.00405920512693,-0.999545682006
455844000000,,7886,,455,836111348,"""map""",,,-2.45058083534,-14.6471624374,3.95444107056,,-0.00525954177489,-0.0132308536006,0.00458566141168,-0.99988812515
455876000000,,7887,,455,868111348,"""map""",,,-2.44383144379,-14.6494541168,3.95591187477,,-0.0287228224034,0.0179322374166,0.00479820796872,-0.999415111069
455912000000,,7888,,455,908111086,"""map""",,,-2.4360563755,-14.653421402,3.95798015594,,-0.034535796751,0.0214684403248,0.00477136042622,-0.999161513481
455944000000,,7889,,455,940111086,"""map""",,,-2.43201518059,-14.6578102112,3.95723223686,,-0.0407672004008,0.0127775046465,0.00504194319366,-0.999074269505
455976000000,,7890,,455,972111086,"""map""",,,-2.42586970329,-14.6624002457,3.95599365234,,-0.0433893283854,0.0273875108024,0.00613944712888,-0.998663927788
456012000000,,7891,,456,4110824,"""map""",,,-2.42050933838,-14.6681480408,3.95669364929,,-0.0426705547138,0.0361670536442,0.00659893207135,-0.998412563983
456040000000,,7892,,456,36110824,"""map""",,,-2.41635942459,-14.674946785,3.95525527,,-0.0384037249915,0.0232383116172,0.00732950554344,-0.998965193461
456076000000,,7893,,456,68110824,"""map""",,,-2.41476392746,-14.6825389862,3.95307636261,,-0.0322034362526,0.0170349198166,0.008089160341,-0.999303464067
456112000000,,7894,,456,108110561,"""map""",,,-2.41431808472,-14.6930055618,3.95332312584,,-0.0289027469705,0.0255121640581,0.0084173999972,-0.999221193419
456144000000,,7895,,456,140110561,"""map""",,,-2.41433262825,-14.702047348,3.95346403122,,-0.0234327731426,0.0255389356211,0.00919218551338,-0.999356948418
456176000000,,7896,,456,172110561,"""map""",,,-2.40924191475,-14.7079429626,3.95031428337,,-0.0176997007411,0.00521848580536,0.0101044119025,-0.999778754078
456212000000,,7897,,456,204110298,"""map""",,,-2.40622997284,-14.714348793,3.94866037369,,-0.0153643758045,0.00876738709796,0.0104955768036,-0.99978849
456244000000,,7898,,456,236110298,"""map""",,,-2.40347862244,-14.7211399078,3.94923949242,,-0.0117158074226,0.0222562488879,0.0109811084984,-0.999623358647
456276000000,,7899,,456,268110298,"""map""",,,-2.40152287483,-14.7283506393,3.9477558136,,-0.00826265356235,0.00178871982406,0.0118594909682,-0.999893983562
456312000000,,7900,,456,308110035,"""map""",,,-2.4020383358,-14.7378759384,3.94526171684,,-0.0076816655118,-0.000889795046139,0.0121169239189,-0.99989668096
456344000000,,7901,,456,340110035,"""map""",,,-2.40289497375,-14.7456502914,3.94612360001,,-0.007139309987,0.0174472463868,0.0124057141249,-0.999745373774
456376000000,,7902,,456,372110035,"""map""",,,-2.39732336998,-14.7506017685,3.94686460495,,-0.00623523078121,0.0118316585724,0.0128327881409,-0.999828276625
456412000000,,7903,,456,404109772,"""map""",,,-2.39379644394,-14.7560739517,3.94534301758,,-0.0054562885321,0.000999248106816,0.0132406431939,-0.999897018135
456444000000,,7904,,456,436109772,"""map""",,,-2.39216923714,-14.7618904114,3.9452650547,,-0.00575852341814,0.00724768978476,0.0136011251893,-0.999864691502
456476000000,,7905,,456,468109772,"""map""",,,-2.39054226875,-14.7679042816,3.94754743576,,-0.00624755379532,0.0197775482752,0.0135447327059,-0.999693153829
456512000000,,7906,,456,508109508,"""map""",,,-2.38965630531,-14.7759542465,3.9474260807,,-0.00561134036696,0.00818641435857,0.0138030928873,-0.999855503489
456544000000,,7907,,456,540109508,"""map""",,,-2.39136481285,-14.7827978134,3.94669294357,,-0.00569260294825,0.00259892812005,0.014127581474,-0.999880665158
456576000000,,7908,,456,572109508,"""map""",,,-2.38801240921,-14.7870674133,3.94903063774,,-0.00644831701547,0.0211295408086,0.0140017731312,-0.999657919063
456612000000,,7909,,456,608109245,"""map""",,,-2.38508915901,-14.7918100357,3.95110440254,,-0.00626602728585,0.0198537234355,0.0139749255887,-0.999685609543
456644000000,,7910,,456,640109245,"""map""",,,-2.38420581818,-14.7970371246,3.95110201836,,-0.00509072800618,0.00268674585337,0.0143504961558,-0.999880454423
456676000000,,7911,,456,672109245,"""map""",,,-2.38485527039,-14.8025465012,3.95240449905,,-0.00586968556645,0.0169110021551,0.0143837500193,-0.999736354348
456712000000,,7912,,456,704108981,"""map""",,,-2.38537096977,-14.8083248138,3.95540165901,,-0.00592603590291,0.0228538816508,0.0143257559557,-0.999618596054
456744000000,,7913,,456,736108981,"""map""",,,-2.38658761978,-14.8144989014,3.95556521416,,-0.00524516871174,0.0081508541076,0.014531559017,-0.999847495588
456776000000,,7914,,456,768108981,"""map""",,,-2.38617944717,-14.8189888,3.95412254333,,-0.00517048984685,0.00659892145232,0.0148311388162,-0.999854913433
456812000000,,7915,,456,808108717,"""map""",,,-2.38494634628,-14.8242168427,3.95529127121,,-0.00538486641676,0.0150435622254,0.014739933036,-0.999763707653
456844000000,,7916,,456,840108717,"""map""",,,-2.38430356979,-14.8288860321,3.95577526093,,-0.00508119969033,0.015448984615,0.0147913100444,-0.999758355003
456876000000,,7917,,456,872108717,"""map""",,,-2.38556361198,-14.8339910507,3.95411515236,,-0.00400215623939,-0.00185307625074,0.0150930814797,-0.999876450473
456912000000,,7918,,456,904108453,"""map""",,,-2.38815689087,-14.8393354416,3.95414328575,,-0.00442806314984,0.00626368023323,0.0150527890925,-0.999857315804
456944000000,,7919,,456,936108453,"""map""",,,-2.39036369324,-14.8448734283,3.95628380775,,-0.00472135780027,0.019468965514,0.0148611052255,-0.999688896997
456976000000,,7920,,456,968108453,"""map""",,,-2.38884949684,-14.84877491,3.95546412468,,-0.00353330136103,0.000459952838339,0.0150920699553,-0.999879822221
457012000000,,7921,,457,8108188,"""map""",,,-2.3883395195,-14.8535022736,3.95353007317,,-0.00351935672223,-0.00255372097405,0.0153004439744,-0.999873500193
457044000000,,7922,,457,40108188,"""map""",,,-2.3883125782,-14.8575725555,3.9548060894,,-0.00403921303276,0.0155103721584,0.0152514271895,-0.999755278283
457076000000,,7923,,457,72108188,"""map""",,,-2.38852477074,-14.8619813919,3.95530295372,,-0.00340964415386,0.00902895636672,0.0153943471528,-0.99983489368
457112000000,,7924,,457,104107924,"""map""",,,-2.39050793648,-14.8668088913,3.95349216461,,-0.00301978473499,-0.00151686384314,0.015616587485,-0.999872362228
457144000000,,7925,,457,136107924,"""map""",,,-2.39386367798,-14.8719091415,3.95330715179,,-0.00391967074095,0.00681039993249,0.0156465117475,-0.999846736945
457176000000,,7926,,457,168107924,"""map""",,,-2.39207649231,-14.8752088547,3.95607376099,,-0.00429247081128,0.0172709316315,0.0154469464198,-0.999722361595
457212000000,,7927,,457,208107659,"""map""",,,-2.38932919502,-14.8792600632,3.95646214485,,-0.00370642974872,0.00672733870151,0.0155766744195,-0.999849223609
457244000000,,7928,,457,240107659,"""map""",,,-2.38970112801,-14.8830537796,3.95631504059,,-0.00322381795791,-0.00128633902103,0.0158007270662,-0.999869201215
457276000000,,7929,,457,272107659,"""map""",,,-2.39016795158,-14.8871202469,3.95847868919,,-0.00373204087391,0.017927419505,0.0155768851537,-0.999710939799
457312000000,,7930,,457,304107394,"""map""",,,-2.39082717896,-14.8915719986,3.9598596096,,-0.00357061251721,0.016406402304,0.015560953645,-0.999737998075
457344000000,,7931,,457,336107394,"""map""",,,-2.39324331284,-14.8964262009,3.95872592926,,-0.00239584141081,-0.00191385429062,0.0159275047865,-0.999868442572
457376000000,,7932,,457,368107394,"""map""",,,-2.39326262474,-14.8992767334,3.95878744125,,-0.00285595145607,0.0141819120545,0.0159309186812,-0.9997684281
457412000000,,7933,,457,408107129,"""map""",,,-2.39169979095,-14.9024333954,3.96120619774,,-0.00288608908694,0.019444093605,0.0158732617925,-0.999680762655
457444000000,,7934,,457,440107129,"""map""",,,-2.39166116714,-14.905544281,3.96027421951,,-0.00191458496633,0.0036099014472,0.0162163371394,-0.999860223936
457476000000,,7935,,457,472107129,"""map""",,,-2.39385223389,-14.9090957642,3.95936059952,,-0.00253041059758,0.00514648902762,0.0163799090584,-0.999849392196
457512000000,,7936,,457,504106863,"""map""",,,-2.39609217644,-14.9129037857,3.96085810661,,-0.00300756980451,0.0139652887776,0.0162742047624,-0.999765519967
457544000000,,7937,,457,536106863,"""map""",,,-2.39834690094,-14.917093277,3.9617369175,,-0.0029312128859,0.0132896655764,0.0162360197176,-0.999775635211
457576000000,,7938,,457,568106863,"""map""",,,-2.39845919609,-14.9196434021,3.95866727829,,-0.00202415717212,-0.00236734095246,0.0165123344564,-0.99985883309
457612000000,,7939,,457,608106598,"""map""",,,-2.39914536476,-14.9225244522,3.95656347275,,-0.00246313459614,0.00665237592162,0.0164792491804,-0.999839066218
457644000000,,7940,,457,640106598,"""map""",,,-2.39963579178,-14.9252672195,3.95688080788,,-0.00263420700789,0.0186596478994,0.0161879301635,-0.999691383661
457676000000,,7941,,457,672106598,"""map""",,,-2.40121531487,-14.9284791946,3.95474743843,,-0.0013795690847,-0.00117039888536,0.0164178412221,-0.999863637831
457712000000,,7942,,457,712106332,"""map""",,,-2.40589094162,-14.9330730438,3.95272731781,,-0.00148374736851,-0.00304923937289,0.0165275916156,-0.999857652978
457744000000,,7943,,457,736106332,"""map""",,,-2.40851020813,-14.9359693527,3.95353937149,,-0.00246538714763,0.0153940738569,0.0163229265192,-0.99974528948
457776000000,,7944,,457,768106332,"""map""",,,-2.40739369392,-14.9378824234,3.95342564583,,-0.00187510242427,0.00684184642056,0.0163963041825,-0.999840414917
457812000000,,7945,,457,808106067,"""map""",,,-2.40681171417,-14.9401407242,3.95033288002,,-0.00130188569282,-0.00329503287868,0.0166210311788,-0.999855587783
457844000000,,7946,,457,840106067,"""map""",,,-2.40773892403,-14.9423751831,3.94999361038,,-0.00181410638557,0.00628890117079,0.0167024588901,-0.999839150512
457876000000,,7947,,457,872106067,"""map""",,,-2.40848088264,-14.9449424744,3.95124220848,,-0.00216078331237,0.0151158881931,0.0165060967229,-0.999747143942
457912000000,,7948,,457,904105801,"""map""",,,-2.41017460823,-14.948009491,3.949842453,,-0.00164386522164,0.00418792835237,0.016638479974,-0.999851457392
457944000000,,7949,,457,936105801,"""map""",,,-2.41398024559,-14.9514923096,3.94842934608,,-0.00178883780128,-0.00164947608773,0.0168389303856,-0.999855250608
457976000000,,7950,,457,968105801,"""map""",,,-2.41337633133,-14.9528799057,3.9503672123,,-0.00255352147623,0.0171193169051,0.0165852906512,-0.999712709966
458012000000,,7951,,458,8105535,"""map""",,,-2.41135454178,-14.9544115067,3.95225167274,,-0.00237231900359,0.0141925343774,0.0166576567901,-0.999757764947
458044000000,,7952,,458,40105535,"""map""",,,-2.41203761101,-14.9562578201,3.95143294334,,-0.00133297343877,-0.00459373747226,0.0170014907803,-0.999844081693
458076000000,,7953,,458,72105535,"""map""",,,-2.41379547119,-14.9584627151,3.95261383057,,-0.00207838556498,0.0101913246311,0.0168587394044,-0.999803831453
458112000000,,7954,,458,104105268,"""map""",,,-2.41528630257,-14.9610290527,3.9551756382,,-0.00239547408703,0.0170547248841,0.0167108882598,-0.999712035617
458144000000,,7955,,458,136105268,"""map""",,,-2.41759753227,-14.9640636444,3.95459604263,,0.000844200058584,-0.00263137987632,0.0169640643788,-0.999852258182
458176000000,,7956,,458,168105268,"""map""",,,-2.41808629036,-14.9653511047,3.95212459564,,0.0115832532791,-0.0160752841497,0.0170449441811,-0.999658424825
458212000000,,7957,,458,208105002,"""map""",,,-2.4169356823,-14.9662904739,3.95108819008,,0.017377323942,-0.0134606532005,0.0168227881426,-0.99961691018
458244000000,,7958,,458,240105002,"""map""",,,-2.41586112976,-14.967165947,3.94898104668,,0.0275553741062,-0.0278589598728,0.016983199048,-0.99908771435
458276000000,,7959,,458,272105002,"""map""",,,-2.41595196724,-14.9680709839,3.94491839409,,0.0344215807672,-0.0526084635156,0.0174710909664,-0.997868911784
458312000000,,7960,,458,304104735,"""map""",,,-2.4160399437,-14.9685611725,3.94290518761,,0.0350873488499,-0.0477425301712,0.0171049612934,-0.998096715501
458344000000,,7961,,458,336104735,"""map""",,,-2.41483664513,-14.9685716629,3.9428229332,,0.0328018432169,-0.0351601396677,0.0163022324166,-0.998710205028
458376000000,,7962,,458,368104735,"""map""",,,-2.40970921516,-14.9666213989,3.94042372704,,0.0224840845435,-0.0370552879398,0.0166580361117,-0.998921360739
458412000000,,7963,,458,408104469,"""map""",,,-2.40360927582,-14.9637422562,3.93720245361,,0.0145687147567,-0.030878089747,0.0167889863701,-0.999275942175
458444000000,,7964,,458,440104469,"""map""",,,-2.39903378487,-14.9617118835,3.93755435944,,-0.00027118212526,0.00127227086398,0.0163149607649,-0.999866124495
458476000000,,7965,,458,472104469,"""map""",,,-2.39488887787,-14.9602880478,3.93794393539,,-0.0109692800512,0.0119977546926,0.015835287482,-0.999742507788
458508000000,,7966,,458,504104202,"""map""",,,-2.39256024361,-14.9596776962,3.93659543991,,-0.0138417785905,0.0101012270167,0.0158711965969,-0.999727250629
458544000000,,7967,,458,536104202,"""map""",,,-2.39219379425,-14.9598588943,3.9361140728,,-0.0197327190102,0.0246768094047,0.0160541560663,-0.999371826256
458576000000,,7968,,458,568104202,"""map""",,,-2.38756561279,-14.9587516785,3.93683505058,,-0.0214189645344,0.0390168134648,0.0160131050358,-0.998880646883
458612000000,,7969,,458,608103935,"""map""",,,-2.38180398941,-14.9578990936,3.9349822998,,-0.0207611766941,0.0307374569088,0.0160614474711,-0.99918279764
458644000000,,7970,,458,632103935,"""map""",,,-2.38040494919,-14.958032608,3.93352365494,,-0.0185410246888,0.021053465994,0.0162666604765,-0.99947407451
