rosbagTimestamp,header,seq,stamp,secs,nsecs,frame_id,pose,position,x,y,z,orientation,x,y,z,w
510644000000,,11904,,510,640072401,"""map""",,,0.255482882261,-0.114859998226,0.0566624589264,,0.00330820508593,-0.00776314376642,0.0459146503272,-0.998909770355
510676000000,,11905,,510,672072115,"""map""",,,0.253951102495,-0.116281092167,0.0564533174038,,0.003344210513,-0.00773464179548,0.0459290224026,-0.998909222446
510712000000,,11906,,510,704072115,"""map""",,,0.252854436636,-0.117094412446,0.0562524832785,,0.0033757432704,-0.00769388809787,0.0458929447002,-0.998910992614
510744000000,,11907,,510,736072115,"""map""",,,0.252182245255,-0.117395453155,0.0559911243618,,0.00335913000346,-0.00769556294119,0.0458985923779,-0.998910824027
510776000000,,11908,,510,768071829,"""map""",,,0.251906126738,-0.117249086499,0.0556983612478,,0.00335860860085,-0.00766688777305,0.045928348053,-0.998909728208
510812000000,,11909,,510,808071829,"""map""",,,0.252018600702,-0.116512402892,0.05540869385,,0.00332565602149,-0.00759342746245,0.0459072746287,-0.998911329789
510844000000,,11910,,510,840071829,"""map""",,,0.251691818237,-0.116297788918,0.0552696697414,,0.00336799582354,-0.00761097438087,0.0459061366638,-0.998911119054
510876000000,,11911,,510,872071544,"""map""",,,0.24960437417,-0.118039995432,0.0552303269506,,0.00330253468845,-0.007576791805,0.0458671929758,-0.998913394984
510912000000,,11912,,510,904071544,"""map""",,,0.248020932078,-0.119209848344,0.0551507808268,,0.00329438849288,-0.00754201406953,0.0458296822806,-0.998915333739
510944000000,,11913,,510,936071544,"""map""",,,0.246888503432,-0.119833253324,0.0550905652344,,0.00325762722136,-0.00750914940586,0.0457783052723,-0.998918157578
510976000000,,11914,,510,968071258,"""map""",,,0.246158778667,-0.119955420494,0.0551529154181,,0.00324102696067,-0.00750349020363,0.0457750178181,-0.998918326166
511012000000,,11915,,511,8071258,"""map""",,,0.245727092028,-0.119551934302,0.0551614053547,,0.00320713381512,-0.00744890921163,0.0457475802197,-0.99892013848
511044000000,,11916,,511,40071258,"""map""",,,0.245103731751,-0.119639635086,0.0550735592842,,0.00319954771166,-0.00738375446437,0.0457811291111,-0.998919126956
511076000000,,11917,,511,72070973,"""map""",,,0.243039265275,-0.121662132442,0.0548704639077,,0.00321335310945,-0.00737674590445,0.0457202690619,-0.998921908648
511112000000,,11918,,511,104070973,"""map""",,,0.241442754865,-0.123081177473,0.0546352416277,,0.00315806138329,-0.0073349780483,0.0457003336025,-0.998923299494
511140000000,,11919,,511,144070973,"""map""",,,0.240038082004,-0.12407258153,0.0541663579643,,0.00317254574047,-0.00724247197199,0.0456431403291,-0.998926544801
511176000000,,11920,,511,168070688,"""map""",,,0.239454180002,-0.124289631844,0.0538992583752,,0.00316852417379,-0.00740260085574,0.0456204231778,-0.99892641836
511212000000,,11921,,511,208070688,"""map""",,,0.238880932331,-0.124101422727,0.053333863616,,0.00319769506132,-0.00737172565503,0.045633699435,-0.998925954745
511244000000,,11922,,511,240070688,"""map""",,,0.238143891096,-0.124299436808,0.052934832871,,0.00318748745681,-0.00737637843661,0.0455560227932,-0.998929537227
511276000000,,11923,,511,272070403,"""map""",,,0.235985547304,-0.126410365105,0.0527169443667,,0.00320874609671,-0.00737116655074,0.0455475934235,-0.998929874402
511312000000,,11924,,511,312070403,"""map""",,,0.233879491687,-0.128253564239,0.0523391924798,,0.00316166674983,-0.00735906777104,0.0455018640929,-0.998932108185
511344000000,,11925,,511,336070403,"""map""",,,0.232911869884,-0.128965303302,0.0521100386977,,0.00319794530823,-0.00736762753255,0.0454655756563,-0.998933583325
511376000000,,11926,,511,368070118,"""map""",,,0.231919556856,-0.129520595074,0.0518123544753,,0.00319549815684,-0.00737039341949,0.045463721195,-0.998933667618
511412000000,,11927,,511,408070118,"""map""",,,0.23118185997,-0.129581570625,0.0512156039476,,0.00321678478488,-0.00732393722035,0.0454922967583,-0.998932740388
511444000000,,11928,,511,440070118,"""map""",,,0.230416193604,-0.129958465695,0.0508821494877,,0.00322402959765,-0.00730252909085,0.0454695796069,-0.998933878353
511476000000,,11929,,511,472069834,"""map""",,,0.228404656053,-0.132082164288,0.0507827438414,,0.00320165159672,-0.00726499929788,0.0454851739409,-0.998933456884
511512000000,,11930,,511,504069834,"""map""",,,0.226799860597,-0.13363198936,0.0506570376456,,0.00316411011459,-0.00724477918267,0.045440076813,-0.998935817108
511544000000,,11931,,511,536069834,"""map""",,,0.225563064218,-0.134673416615,0.0504490546882,,0.00318209134311,-0.00719977655591,0.0453934623985,-0.998938177331
511576000000,,11932,,511,568081550,"""map""",,,0.224680244923,-0.135229513049,0.0503158345819,,0.00316058887711,-0.00720301560707,0.0453419168028,-0.998940579702
511612000000,,11933,,511,608081550,"""map""",,,0.223990917206,-0.135365977883,0.0500013157725,,0.0031504560174,-0.00712423837275,0.0453100959322,-0.998942644897
511644000000,,11934,,511,640081550,"""map""",,,0.223236009479,-0.135807454586,0.0494218915701,,0.00317614386302,-0.00708826998882,0.045262849315,-0.998944962974
511676000000,,11935,,511,672081266,"""map""",,,0.22132563591,-0.137985751033,0.0486290380359,,0.0031421109414,-0.00718189592006,0.0452743554046,-0.998943825009
511712000000,,11936,,511,704081266,"""map""",,,0.219768330455,-0.139596059918,0.0478825196624,,0.00309588556211,-0.00719837681955,0.045270646482,-0.99894407789
511744000000,,11937,,511,736081266,"""map""",,,0.218554794788,-0.140682518482,0.0470858477056,,0.0031423939509,-0.00718070082641,0.0452372240311,-0.99894555303
511776000000,,11938,,511,768080982,"""map""",,,0.217659443617,-0.141314417124,0.0463095456362,,0.00313861505788,-0.00714600623219,0.0452008513008,-0.998947449638
511812000000,,11939,,511,808080982,"""map""",,,0.21693199873,-0.141558781266,0.0453190170228,,0.00317839147543,-0.00712738160569,0.0451469033347,-0.998949894155
511844000000,,11940,,511,840080982,"""map""",,,0.21611520648,-0.142104715109,0.0444124601781,,0.00313636151857,-0.00713869046125,0.0450775296221,-0.998953097316
511876000000,,11941,,511,872080698,"""map""",,,0.214008659124,-0.144453942776,0.043593827635,,0.00314871317936,-0.00708831970893,0.0450669086163,-0.998953940253
511912000000,,11942,,511,904080698,"""map""",,,0.212275013328,-0.146288692951,0.0428761392832,,0.00312834604409,-0.00702340928168,0.0451128486812,-0.998952338672
511944000000,,11943,,511,936080698,"""map""",,,0.210887357593,-0.147653505206,0.0421288087964,,0.00313763053384,-0.00691923708941,0.0451031127591,-0.998953476637
511976000000,,11944,,511,968080414,"""map""",,,0.20980244875,-0.148566812277,0.0413622781634,,0.00312501068079,-0.0069059570455,0.0450799741393,-0.998954698896
512012000000,,11945,,512,8080414,"""map""",,,0.20884886384,-0.149150252342,0.0403622165322,,0.0030931935968,-0.00687010407149,0.044991592198,-0.998958955728
512044000000,,11946,,512,39080414,"""map""",,,0.207959517837,-0.149766787887,0.0396486707032,,0.00304606930426,-0.00684199228817,0.0449588862435,-0.998960810189
512076000000,,11947,,512,72080131,"""map""",,,0.206182554364,-0.151702776551,0.0391807183623,,0.00303110503277,-0.00681442380407,0.0449706030674,-0.998960473014
512112000000,,11948,,512,104080131,"""map""",,,0.204728424549,-0.153156891465,0.0386571921408,,0.00296988574749,-0.00677038396937,0.0449852280239,-0.998960346574
512144000000,,11949,,512,135080131,"""map""",,,0.203602671623,-0.154170170426,0.038270201534,,0.0029816587123,-0.00681279275396,0.0449402573365,-0.998961990301
512176000000,,11950,,512,168079847,"""map""",,,0.20276376605,-0.154762759805,0.0378346815705,,0.00293228334999,-0.0067606363582,0.0449479280629,-0.998962158888
512212000000,,11951,,512,207079847,"""map""",,,0.202027738094,-0.155003204942,0.0371279455721,,0.00287228138424,-0.00690586583709,0.0449435026438,-0.998961610979
512244000000,,11952,,512,240079847,"""map""",,,0.201238945127,-0.155437633395,0.0367329120636,,0.00285138510845,-0.00684023924269,0.0449165708076,-0.998963254706
512276000000,,11953,,512,272079564,"""map""",,,0.199523389339,-0.15732473135,0.0367666855454,,0.00282528814206,-0.00686162695731,0.044890313321,-0.998964392671
512312000000,,11954,,512,304079564,"""map""",,,0.198102414608,-0.15869705379,0.0367496460676,,0.0028332428658,-0.00682282666735,0.0448910298174,-0.998964603405
512344000000,,11955,,512,336079564,"""map""",,,0.196968972683,-0.159632131457,0.0366281792521,,0.00277611956273,-0.00677994998689,0.044881420336,-0.998965530636
512376000000,,11956,,512,368079281,"""map""",,,0.196124076843,-0.160204336047,0.0365626402199,,0.00278022690482,-0.00673415611889,0.0448801137837,-0.998965825664
512412000000,,11957,,512,408079281,"""map""",,,0.19535574317,-0.160404130816,0.0363531634212,,0.00274976559934,-0.00665570074821,0.0448752247492,-0.998966668601
512444000000,,11958,,512,440079281,"""map""",,,0.194656565785,-0.160803720355,0.0360727868974,,0.00281436799239,-0.00657320635942,0.0448220354264,-0.998969365999
512476000000,,11959,,512,472079001,"""map""",,,0.193246752024,-0.162618234754,0.0357191711664,,0.00277587162072,-0.00656549463859,0.0448111193927,-0.998970082496
512512000000,,11960,,512,504079001,"""map""",,,0.19211357832,-0.163971915841,0.0353552810848,,0.00278709503013,-0.00646899103249,0.0447580986572,-0.998973032775
512544000000,,11961,,512,535079001,"""map""",,,0.19124828279,-0.164921402931,0.0350521467626,,0.00271232470988,-0.00641487168018,0.0447322204922,-0.998974802943
512576000000,,11962,,512,568078718,"""map""",,,0.19061075151,-0.165497481823,0.0345822200179,,0.00273362631981,-0.00640547523787,0.0447024226704,-0.998976109495
512612000000,,11963,,512,607078718,"""map""",,,0.190069183707,-0.165731713176,0.0339410491288,,0.00273254367264,-0.00637845449816,0.0446675250798,-0.998977795369
512644000000,,11964,,512,640078718,"""map""",,,0.189838916063,-0.165569171309,0.0333708152175,,0.00274919299489,-0.00642362274888,0.0446898207626,-0.998976488816
512676000000,,11965,,512,672078435,"""map""",,,0.188469365239,-0.167390108109,0.0336240157485,,0.00271365480515,-0.00639767066227,0.0446732570512,-0.998977542488
512712000000,,11966,,512,703078435,"""map""",,,0.187398359179,-0.168784499168,0.0336035750806,,0.00264732686085,-0.00660364099385,0.0446857746652,-0.998975814467
512744000000,,11967,,512,744078435,"""map""",,,0.186293527484,-0.169973090291,0.0335342660546,,0.00259812617748,-0.00659709588463,0.0446535744729,-0.998977416047
512776000000,,11968,,512,768078152,"""map""",,,0.185789972544,-0.170410230756,0.0334905795753,,0.00256130547231,-0.00659239074875,0.0446116383587,-0.998979396949
512812000000,,11969,,512,808078152,"""map""",,,0.185178592801,-0.170746356249,0.0335207134485,,0.0025948879495,-0.00662296433608,0.0445951589409,-0.998979860564
512844000000,,11970,,512,840078152,"""map""",,,0.184870004654,-0.170669898391,0.0334602668881,,0.00263796137013,-0.00664363143837,0.0445986992762,-0.998979439096
512876000000,,11971,,512,871077870,"""map""",,,0.183762401342,-0.172443971038,0.0335562042892,,0.00263429426504,-0.00660475986097,0.0445562152529,-0.998981630732
512912000000,,11972,,512,904077870,"""map""",,,0.182875335217,-0.173791706562,0.0335039235651,,0.00264840654457,-0.00656071080665,0.0445418010307,-0.998982473669
512944000000,,11973,,512,936077870,"""map""",,,0.182202339172,-0.174753725529,0.0332261957228,,0.00261142762409,-0.0064912386416,0.0445112024187,-0.998984412424
512976000000,,11974,,512,967077591,"""map""",,,0.181738823652,-0.175365209579,0.0327362455428,,0.00261351537481,-0.00646768299846,0.0445251530255,-0.998983948809
513012000000,,11975,,513,8077591,"""map""",,,0.181357964873,-0.175695255399,0.0318630412221,,0.00259022347875,-0.0063274214147,0.0445348046538,-0.998984496718
513044000000,,11976,,513,39077591,"""map""",,,0.181193605065,-0.175625383854,0.0311365593225,,0.00263103940881,-0.00624465488239,0.0445274711022,-0.998985255361
513076000000,,11977,,513,72077309,"""map""",,,0.179994538426,-0.177324682474,0.0304196104407,,0.00262607744057,-0.00625784404716,0.0444864622186,-0.998986983382
513112000000,,11978,,513,104077309,"""map""",,,0.179017826915,-0.178587004542,0.0296248979867,,0.00264382982488,-0.00621253552647,0.044437656168,-0.998989343605
513144000000,,11979,,513,135077309,"""map""",,,0.178234234452,-0.179465159774,0.0287444517016,,0.00262337526782,-0.00616456269933,0.0443878385931,-0.99899195671
513176000000,,11980,,513,168077027,"""map""",,,0.17762760818,-0.180020004511,0.0278572868556,,0.00260133263069,-0.0061370182521,0.0443133229649,-0.998995497045
513212000000,,11981,,513,207077027,"""map""",,,0.177139356732,-0.180272087455,0.026539478451,,0.00264211859697,-0.0061146162143,0.0443229324464,-0.998995075577
513244000000,,11982,,513,240077027,"""map""",,,0.176914334297,-0.180163964629,0.0254287533462,,0.00263136621152,-0.00630996718642,0.0442616087818,-0.99899663501
513276000000,,11983,,513,272076745,"""map""",,,0.17573697865,-0.181730762124,0.0245589297265,,0.00264171704946,-0.00630145237057,0.0442618616629,-0.99899663501
513316000000,,11984,,513,304076745,"""map""",,,0.174768134952,-0.182892084122,0.023683577776,,0.00262201240996,-0.00628799336719,0.0442224543595,-0.998998531618
513344000000,,11985,,513,336076745,"""map""",,,0.173978224397,-0.183728292584,0.0228737033904,,0.00255950781044,-0.00626218319692,0.0441619736319,-0.999001524045
513376000000,,11986,,513,368076463,"""map""",,,0.173377767205,-0.184269577265,0.0220316983759,,0.00254499200776,-0.00625539442623,0.0441255587548,-0.999003209918
513412000000,,11987,,513,408076463,"""map""",,,0.172851681709,-0.184521913528,0.0210002940148,,0.00252189224205,-0.00624575201754,0.0440538669655,-0.999006455226
513444000000,,11988,,513,440076463,"""map""",,,0.172614380717,-0.184418559074,0.0201254785061,,0.00253777896976,-0.00613816560127,0.0439885393503,-0.999009995561
513476000000,,11989,,513,472076184,"""map""",,,0.171594530344,-0.185950577259,0.0191214736551,,0.00252824999537,-0.0061051282343,0.0439731136037,-0.999010922792
513516000000,,11990,,513,504076184,"""map""",,,0.170766815543,-0.187091082335,0.0181962363422,,0.00248705161559,-0.00612568848775,0.0439394804186,-0.999012355785
513544000000,,11991,,513,535076184,"""map""",,,0.170092999935,-0.187869757414,0.0172685906291,,0.00245321000114,-0.00612973425594,0.0438842680471,-0.999014884595
513576000000,,11992,,513,568075903,"""map""",,,0.169564783573,-0.188326254487,0.0163190737367,,0.00244049729332,-0.00607817960522,0.0438513092115,-0.999016654763
513612000000,,11993,,513,607075903,"""map""",,,0.169066846371,-0.188498347998,0.0150781888515,,0.00242602100331,-0.00607845899273,0.0438556924838,-0.999016486176
513644000000,,11994,,513,640075903,"""map""",,,0.168811455369,-0.188356086612,0.0141374478117,,0.00237776236786,-0.00605034688014,0.0438435541914,-0.999017244819
513676000000,,11995,,513,672075622,"""map""",,,0.16780680418,-0.189469516277,0.0134260663763,,0.00235200570433,-0.00604562083547,0.043852278589,-0.999016949791
513712000000,,11996,,513,703075622,"""map""",,,0.166691631079,-0.190717726946,0.0127521147951,,0.00232579151701,-0.00595790550582,0.0438488225475,-0.999017792728
513744000000,,11997,,513,736075622,"""map""",,,0.165764465928,-0.191634938121,0.0118387658149,,0.00229349748216,-0.0060486532683,0.0437966026022,-0.999019520749
513776000000,,11998,,513,768075341,"""map""",,,0.164971858263,-0.19226513803,0.0111302919686,,0.00228837762788,-0.00614673787513,0.0437738011571,-0.999019984364
513812000000,,11999,,513,808075341,"""map""",,,0.164147824049,-0.192679300904,0.0100870309398,,0.00228458490542,-0.00613658064928,0.0437845907503,-0.999019562896
513844000000,,12000,,513,840075341,"""map""",,,0.163645267487,-0.192707881331,0.00929415505379,,0.00231210827922,-0.00612060880469,0.0437474593768,-0.999021206623
513876000000,,12001,,513,871075060,"""map""",,,0.162600934505,-0.193800449371,0.00883733760566,,0.00233047508555,-0.00611006748275,0.0437519269427,-0.999021038035
513912000000,,12002,,513,904075060,"""map""",,,0.16152395308,-0.194976717234,0.00847645662725,,0.00236547343343,-0.00611597726116,0.0437287461761,-0.999021965266
513944000000,,12003,,513,936075060,"""map""",,,0.160597413778,-0.195809677243,0.00799849163741,,0.00233172895429,-0.00615047511522,0.0436676753926,-0.99902445193
513976000000,,12004,,513,967074782,"""map""",,,0.159802764654,-0.196379959583,0.00741473352537,,0.0023249994526,-0.00609861983893,0.043659751785,-0.999025210573
514012000000,,12005,,514,8074782,"""map""",,,0.158992007375,-0.196719035506,0.00665662344545,,0.0022423865258,-0.00609567071199,0.0436258657188,-0.999026896447
514044000000,,12006,,514,39074782,"""map""",,,0.158458769321,-0.196738511324,0.00596560398117,,0.00224959116736,-0.00610886382803,0.0435937498203,-0.999028160853
514076000000,,12007,,514,72074501,"""map""",,,0.157467782497,-0.197711721063,0.00554539449513,,0.00223767793257,-0.00613361275382,0.0436004090223,-0.999027739384
514112000000,,12008,,514,104074501,"""map""",,,0.156412377954,-0.198770657182,0.00510693853721,,0.00224278148787,-0.00611802977976,0.0435243339608,-0.999031153279
514144000000,,12009,,514,135074501,"""map""",,,0.155482813716,-0.199541524053,0.00460817944258,,0.00223971431682,-0.00603664388601,0.0434353198167,-0.999035536551
514176000000,,12010,,514,168074221,"""map""",,,0.154682740569,-0.200040280819,0.00400925893337,,0.0022414709843,-0.00605368603006,0.0434147943015,-0.999036337341
514212000000,,12011,,514,207074221,"""map""",,,0.153878539801,-0.200314983726,0.00331355002709,,0.00217216954691,-0.00604082350337,0.0434191775737,-0.999036337341
514244000000,,12012,,514,240074221,"""map""",,,0.153385415673,-0.200279533863,0.00261182407849,,0.00219460549975,-0.00602713302159,0.0434062806381,-0.999036927397
514276000000,,12013,,514,272073941,"""map""",,,0.152349740267,-0.201233848929,0.00204071449116,,0.00217641929926,-0.00613738374431,0.0434272697687,-0.999035410111
514312000000,,12014,,514,304073941,"""map""",,,0.151191532612,-0.202332019806,0.00160826579668,,0.00216811274811,-0.00620010121834,0.0434617880376,-0.999033513503
514344000000,,12015,,514,336073941,"""map""",,,0.150188863277,-0.203133359551,0.00106120633427,,0.00215117037355,-0.00619872354323,0.0434170702313,-0.999035494404
514376000000,,12016,,514,368073661,"""map""",,,0.149347946048,-0.203686371446,0.000553516438231,,0.00214336678576,-0.00616923704825,0.04340518482,-0.999036253048
514412000000,,12017,,514,408073661,"""map""",,,0.148490235209,-0.20406037569,-0.000241687419475,,0.00213833122518,-0.00612212049361,0.0433819197597,-0.999037517453
514444000000,,12018,,514,440073661,"""map""",,,0.147944808006,-0.204134702682,-0.000950579822529,,0.00214147643375,-0.00609375237184,0.0433485816025,-0.99903916118
514480000000,,12019,,514,472073384,"""map""",,,0.147247195244,-0.204912722111,-0.00142202363349,,0.00211189395591,-0.00607927558792,0.0433348838767,-0.999039877677
514512000000,,12020,,514,504073384,"""map""",,,0.146435320377,-0.206310942769,-0.00177052768413,,0.00211015869113,-0.00600565360465,0.0433823412281,-0.999038276096
514544000000,,12021,,514,535073384,"""map""",,,0.145753845572,-0.207441955805,-0.00218524807133,,0.00209877739567,-0.00594799441098,0.0433810768227,-0.999038697565
514576000000,,12022,,514,568073104,"""map""",,,0.145193651319,-0.208294168115,-0.00268047070131,,0.00212952220457,-0.00592873527684,0.0433508153855,-0.999040046264
514612000000,,12023,,514,607073104,"""map""",,,0.144614011049,-0.209033429623,-0.00345638021827,,0.00215920099455,-0.0058751243209,0.0433319757442,-0.999041184229
514644000000,,12024,,514,640073104,"""map""",,,0.14422878623,-0.209409281611,-0.00421096524224,,0.00214673589947,-0.00586532534326,0.0433309642198,-0.999041268523
514676000000,,12025,,514,672072825,"""map""",,,0.143697828054,-0.210249617696,-0.0050611840561,,0.00210481394391,-0.00585709584182,0.0433336194713,-0.99904131067
514712000000,,12026,,514,703072825,"""map""",,,0.143046319485,-0.211499333382,-0.0059598563239,,0.00209145685029,-0.00580659650867,0.0433270867097,-0.999041858579
514744000000,,12027,,514,736072825,"""map""",,,0.142481908202,-0.212493538857,-0.00666796509176,,0.00214219737535,-0.00581652373786,0.0432384518873,-0.999045609648
514776000000,,12028,,514,768072545,"""map""",,,0.142028957605,-0.213229686022,-0.0073477239348,,0.00216135459973,-0.00581493845659,0.0432177999316,-0.999046452585
514812000000,,12029,,514,808072545,"""map""",,,0.141552090645,-0.213839441538,-0.0080293379724,,0.00217799601944,-0.00602413104645,0.043223531903,-0.999044935298
514844000000,,12030,,514,840072545,"""map""",,,0.141239002347,-0.21411973238,-0.00850409734994,,0.00217334949403,-0.00608109366467,0.0432520231725,-0.999043333718
514876000000,,12031,,514,871072266,"""map""",,,0.140582695603,-0.214762434363,-0.00870043411851,,0.00216150902842,-0.006059549875,0.0432489885995,-0.999043670893
514912000000,,12032,,514,904072266,"""map""",,,0.139647901058,-0.215732529759,-0.00866518728435,,0.00214513629486,-0.00612189889338,0.0432873843784,-0.999041605697
514944000000,,12033,,514,936072266,"""map""",,,0.138836443424,-0.216469556093,-0.00865714717656,,0.00213088473316,-0.00611544186448,0.0432776906033,-0.99904211146
514976000000,,12034,,514,967071990,"""map""",,,0.138137802482,-0.216989174485,-0.00873773917556,,0.00212772668297,-0.00608887584976,0.0432963616572,-0.999041479257
515012000000,,12035,,515,8071990,"""map""",,,0.137440606952,-0.217335805297,-0.00880336016417,,0.00209213383404,-0.00602815129604,0.043253835487,-0.999043797334
515044000000,,12036,,515,39071990,"""map""",,,0.13697591424,-0.217410251498,-0.00892167538404,,0.00207814997069,-0.0060331229778,0.0432805144421,-0.999042659369
515076000000,,12037,,515,72071712,"""map""",,,0.136479243636,-0.217954695225,-0.00886674411595,,0.00206400031875,-0.00603276423568,0.043268038975,-0.999043165131
515112000000,,12038,,515,104071712,"""map""",,,0.136004298925,-0.218899562955,-0.00869637075812,,0.00201905317436,-0.00599534260865,0.0432776063096,-0.99904303869
515144000000,,12039,,515,135071712,"""map""",,,0.135626941919,-0.219601497054,-0.0087858485058,,0.00199718982596,-0.00593590929608,0.0432585980809,-0.999044345243
515176000000,,12040,,515,168071433,"""map""",,,0.135361745954,-0.220069244504,-0.00891047157347,,0.00198635133582,-0.00592969280056,0.0432734759184,-0.99904371304
515212000000,,12041,,515,207071433,"""map""",,,0.135121926665,-0.220328882337,-0.00906526111066,,0.00198982779227,-0.00593727989183,0.0432351644331,-0.999045356767
515244000000,,12042,,515,240071433,"""map""",,,0.13501688838,-0.220326185226,-0.00921003799886,,0.00200597513897,-0.00587451286233,0.0432034700031,-0.999047042641
515276000000,,12043,,515,272071155,"""map""",,,0.134890183806,-0.22051820159,-0.00934699457139,,0.00201591784395,-0.00585469857517,0.0431839560122,-0.999048012018
515312000000,,12044,,515,304071155,"""map""",,,0.134582474828,-0.221575677395,-0.0092635191977,,0.00193375322133,-0.00601771665831,0.0431548746867,-0.999048433487
515344000000,,12045,,515,336071155,"""map""",,,0.134300515056,-0.222395941615,-0.0092224245891,,0.00194220695718,-0.00593040485181,0.0431252875991,-0.999050203655
515376000000,,12046,,515,368070876,"""map""",,,0.134070470929,-0.222982198,-0.00941738206893,,0.00195705614801,-0.00593085694261,0.0430990301125,-0.999051341619
515412000000,,12047,,515,408070876,"""map""",,,0.133845925331,-0.223406612873,-0.00980616454035,,0.00194215773097,-0.00593123313616,0.0430782517161,-0.999052226703
515444000000,,12048,,515,440070876,"""map""",,,0.133763700724,-0.223514661193,-0.0102668879554,,0.00198202321667,-0.00595986023056,0.0429557308275,-0.999057242178
515476000000,,12049,,515,472070601,"""map""",,,0.133702769876,-0.223740935326,-0.0106232790276,,0.00202010733948,-0.00596213500793,0.0429860765584,-0.999055893479
515512000000,,12050,,515,504070601,"""map""",,,0.133440300822,-0.224613681436,-0.0106410970911,,0.00199769246006,-0.00591643992161,0.0428952922468,-0.999060108164
515544000000,,12051,,515,535070601,"""map""",,,0.13324701786,-0.225306645036,-0.0106875672936,,0.00198748156283,-0.00586098800449,0.0428674331799,-0.999061667597
515576000000,,12052,,515,576070324,"""map""",,,0.133100658655,-0.2259285748,-0.0107918865979,,0.00195123675483,-0.00584914457543,0.0428957137152,-0.999060529632
515612000000,,12053,,515,607070324,"""map""",,,0.133050709963,-0.22621203959,-0.0111600849777,,0.00200184343073,-0.005794794074,0.0428730808576,-0.999061751891
515644000000,,12054,,515,640070324,"""map""",,,0.13303771615,-0.226320520043,-0.0115153752267,,0.00203384523646,-0.00581497006673,0.0427820436648,-0.999065460814
515676000000,,12055,,515,672070046,"""map""",,,0.132968574762,-0.226675450802,-0.0118386037648,,0.00205777641461,-0.00583716993136,0.0427607173595,-0.999066219457
515712000000,,12056,,515,703070046,"""map""",,,0.132707625628,-0.227949723601,-0.0123709682375,,0.00203973575245,-0.00580378682853,0.0427444486759,-0.999067146688
515744000000,,12057,,515,736070046,"""map""",,,0.132521644235,-0.228952214122,-0.01303210482,,0.00199251185505,-0.00583416384032,0.0427423413335,-0.999067146688
515776000000,,12058,,515,768069769,"""map""",,,0.132403850555,-0.229725927114,-0.0136503940448,,0.00200865327485,-0.00582601715085,0.0427282642861,-0.999067736744
515812000000,,12059,,515,808069769,"""map""",,,0.132353007793,-0.230451256037,-0.0145636927336,,0.00201647069207,-0.00582630509944,0.0426972020587,-0.999069043296
515844000000,,12060,,515,840069769,"""map""",,,0.132344663143,-0.230846092105,-0.0153214903548,,0.00199093414705,-0.00597524564126,0.0427144822666,-0.999067526009
515876000000,,12061,,515,871069491,"""map""",,,0.132245495915,-0.231336459517,-0.0158695913851,,0.00193995819232,-0.00594923379174,0.0426712817469,-0.999069591205
515912000000,,12062,,515,904069491,"""map""",,,0.13196246326,-0.232381105423,-0.0160029232502,,0.00196211903819,-0.00586925339661,0.0426647911322,-0.999070349848
515944000000,,12063,,515,936069491,"""map""",,,0.131732046604,-0.233206942677,-0.0162846148014,,0.00190517024941,-0.00583825751762,0.0426405988412,-0.999071614254
515976000000,,12064,,515,967069217,"""map""",,,0.131533816457,-0.233837634325,-0.0166691802442,,0.00191014983371,-0.00578617553739,0.0425984098458,-0.999073679449
516012000000,,12065,,516,8069217,"""map""",,,0.131334632635,-0.234419181943,-0.0173140708357,,0.00192869345924,-0.00575059799962,0.0425924249934,-0.999074185211
516044000000,,12066,,516,39069217,"""map""",,,0.131214141846,-0.234703570604,-0.0179590750486,,0.0019516549306,-0.0056880013685,0.0425992527828,-0.999074185211
516076000000,,12067,,516,72068941,"""map""",,,0.131130173802,-0.234845384955,-0.0186670161784,,0.00193820564075,-0.0056499979174,0.0425606041227,-0.99907608182
516112000000,,12068,,516,104068941,"""map""",,,0.131190448999,-0.235773980618,-0.018832443282,,0.00195610323411,-0.00557434136087,0.0425245264204,-0.999078020575
516144000000,,12069,,516,135068941,"""map""",,,0.131237789989,-0.236508741975,-0.0192002411932,,0.00189777199577,-0.00549539043544,0.0424613904413,-0.999081223735
516176000000,,12070,,516,168068664,"""map""",,,0.13125154376,-0.23706138134,-0.0197594389319,,0.00190319823788,-0.00542011698718,0.0424103927546,-0.999083752546
516212000000,,12071,,516,207068664,"""map""",,,0.131256714463,-0.237531512976,-0.0205696951598,,0.00189266136112,-0.00544322613715,0.0424172205441,-0.999083415371
516244000000,,12072,,516,240068664,"""map""",,,0.131256982684,-0.237791582942,-0.0212608315051,,0.00190393399673,-0.00546223535364,0.0423415248042,-0.999086449944
516276000000,,12073,,516,272068388,"""map""",,,0.131244003773,-0.237928926945,-0.02192042768,,0.00190656323568,-0.00541460842701,0.0423344441336,-0.99908704
516312000000,,12074,,516,304068388,"""map""",,,0.130837917328,-0.238366931677,-0.0221939142793,,0.00190904199721,-0.00537609740273,0.0423633147248,-0.999085986329
516344000000,,12075,,516,336068388,"""map""",,,0.130457118154,-0.238607093692,-0.0225507840514,,0.00192011245966,-0.00553734630605,0.0422986614592,-0.99908784079
516376000000,,12076,,516,368068112,"""map""",,,0.130089148879,-0.238659471273,-0.0227350648493,,0.00188705797054,-0.00551521278977,0.0422769558322,-0.999088978755
516412000000,,12077,,516,408068112,"""map""",,,0.129650652409,-0.23854893446,-0.0230984184891,,0.00190300248553,-0.00548957581671,0.0422477480662,-0.999090285307
516444000000,,12078,,516,440068112,"""map""",,,0.129337698221,-0.238321065903,-0.0235046371818,,0.00190816366347,-0.00551949003635,0.0422347668369,-0.999090706776
516476000000,,12079,,516,472067839,"""map""",,,0.129008740187,-0.238009348512,-0.0240196064115,,0.00187109073576,-0.00554645101314,0.0422213219922,-0.999091170391
516512000000,,12080,,516,504067839,"""map""",,,0.128581136465,-0.238476350904,-0.024158006534,,0.00185038543788,-0.00551233379782,0.0421133417663,-0.999095975132
516544000000,,12081,,516,535067839,"""map""",,,0.128195911646,-0.238825023174,-0.0244695283473,,0.001843033447,-0.00543382014594,0.0420392054598,-0.999099557614
516576000000,,12082,,516,568067563,"""map""",,,0.127832502127,-0.239067420363,-0.02496201545,,0.00182611198123,-0.00541534286877,0.0420582558353,-0.999098883265
516612000000,,12083,,516,607067563,"""map""",,,0.127411007881,-0.239177986979,-0.0256656520069,,0.00185230740003,-0.0053712594055,0.0420280786918,-0.999100316257
516644000000,,12084,,516,640067563,"""map""",,,0.127068221569,-0.239136099815,-0.0261675715446,,0.00188916630078,-0.00534340214963,0.0419703375093,-0.999102845068
516676000000,,12085,,516,672067288,"""map""",,,0.126716852188,-0.239012405276,-0.0265809185803,,0.00184909337356,-0.00533080666273,0.0419224586894,-0.999104952411
516712000000,,12086,,516,703067288,"""map""",,,0.126295179129,-0.239469245076,-0.026744088158,,0.00178542298562,-0.00531186132506,0.0419476625048,-0.999104109474
516744000000,,12087,,516,736067288,"""map""",,,0.125892326236,-0.239774569869,-0.0269344914705,,0.00183688214738,-0.00531560992503,0.0419451758408,-0.999104151621
516776000000,,12088,,516,768067012,"""map""",,,0.125487849116,-0.239962399006,-0.0270368736237,,0.00180803361739,-0.00529325266826,0.0419573141331,-0.999103814446
516812000000,,12089,,516,808067012,"""map""",,,0.124979995191,-0.24006305635,-0.0271020364016,,0.00183948224574,-0.00523224790385,0.041944290757,-0.999104615236
516844000000,,12090,,516,840067012,"""map""",,,0.124711699784,-0.240057572722,-0.027520865202,,0.0018061911745,-0.00546335981839,0.0419214471651,-0.999104362355
516876000000,,12091,,516,871066737,"""map""",,,0.124534204602,-0.239974498749,-0.0282554887235,,0.00181874583163,-0.00550379033528,0.0418938831261,-0.999105289586
516912000000,,12092,,516,904066737,"""map""",,,0.124350070953,-0.240189552307,-0.0286689121276,,0.00185091441376,-0.00555179822991,0.0418677520801,-0.999106048229
516944000000,,12093,,516,936066737,"""map""",,,0.124151803553,-0.240406855941,-0.0289982091635,,0.00186048421791,-0.0055744964481,0.0417987155422,-0.999108829921
516976000000,,12094,,516,967066465,"""map""",,,0.123953267932,-0.240512862802,-0.0295458771288,,0.00183496677068,-0.00554916635678,0.041806849884,-0.999108619187
517012000000,,12095,,517,8066465,"""map""",,,0.123720020056,-0.240484654903,-0.0303154494613,,0.00182231201478,-0.00556417409221,0.0418760550092,-0.999105753201
517044000000,,12096,,517,39066465,"""map""",,,0.123578213155,-0.240324154496,-0.0309503842145,,0.00180003542971,-0.00555862453764,0.0418631159267,-0.99910630111
517076000000,,12097,,517,72066191,"""map""",,,0.123469121754,-0.240103185177,-0.0316600613296,,0.00176896809864,-0.00555028851662,0.0418706602126,-0.999106090376
517112000000,,12098,,517,104066191,"""map""",,,0.123227670789,-0.240387320518,-0.0317197144032,,0.00178916944533,-0.00554976316274,0.0418028459333,-0.999108829921
517144000000,,12099,,517,135066191,"""map""",,,0.122923970222,-0.240747570992,-0.031793858856,,0.00178454037134,-0.00543520753458,0.0417566108405,-0.999111485172
517176000000,,12100,,517,168065916,"""map""",,,0.122635111213,-0.240980997682,-0.031882096082,,0.00182961790755,-0.00545726992805,0.0417516796593,-0.999111443025
517212000000,,12101,,517,207065916,"""map""",,,0.122296348214,-0.241123378277,-0.0319903939962,,0.00182527200771,-0.00536425990056,0.0416699147731,-0.999115404829
517244000000,,12102,,517,240065916,"""map""",,,0.122055470943,-0.241096958518,-0.0321277789772,,0.00186770795726,-0.00531464845005,0.041681926625,-0.999115109801
517276000000,,12103,,517,272065642,"""map""",,,0.121806524694,-0.240954428911,-0.0323570035398,,0.00187647433711,-0.00529069010694,0.041706961853,-0.999114098277
517312000000,,12104,,517,304065642,"""map""",,,0.121608830988,-0.241329088807,-0.0320926196873,,0.00187240634305,-0.00527463100521,0.041691662547,-0.999114899067
517344000000,,12105,,517,336065642,"""map""",,,0.121434219182,-0.241799667478,-0.031639624387,,0.00181061856922,-0.00521544151874,0.0416650257387,-0.999116416354
517376000000,,12106,,517,376065368,"""map""",,,0.121238976717,-0.242173567414,-0.0314056947827,,0.00177558959903,-0.00543573881536,0.0416541518518,-0.999115742004
517412000000,,12107,,517,408065368,"""map""",,,0.121034070849,-0.242322534323,-0.0312672667205,,0.00179929785986,-0.00542809838198,0.0416286530085,-0.999116795675
517444000000,,12108,,517,440065368,"""map""",,,0.120838865638,-0.242378547788,-0.0312296915799,,0.00177993961478,-0.0054406479354,0.0415659806447,-0.999119366633
517476000000,,12109,,517,472065098,"""map""",,,0.120689280331,-0.242340818048,-0.0312923118472,,0.00174826823375,-0.00544545860303,0.0415626088968,-0.999119619514
517512000000,,12110,,517,504065098,"""map""",,,0.120683833957,-0.242639571428,-0.0312340352684,,0.00177656128145,-0.00546046683237,0.0415308301731,-0.999120715332
517544000000,,12111,,517,535065098,"""map""",,,0.120707683265,-0.242953151464,-0.0313686542213,,0.00177799032303,-0.00544086262091,0.0414700122707,-0.999123370584
517576000000,,12112,,517,568064824,"""map""",,,0.120751708746,-0.243147656322,-0.0316169522703,,0.00176555305145,-0.00540004734939,0.0414509197483,-0.999124424255
517612000000,,12113,,517,607064824,"""map""",,,0.120785430074,-0.243281930685,-0.0319283716381,,0.00177779819267,-0.00538084797817,0.0414126504098,-0.999126110129
517644000000,,12114,,517,640064824,"""map""",,,0.120817102492,-0.243300974369,-0.0322815924883,,0.00181080147996,-0.00533051772633,0.0413729480785,-0.99912796459
517676000000,,12115,,517,672064551,"""map""",,,0.120852433145,-0.243224665523,-0.0323885604739,,0.00179689104432,-0.00529034651134,0.0413595453807,-0.999128723233
517712000000,,12116,,517,703064551,"""map""",,,0.120852723718,-0.243427783251,-0.0322165712714,,0.00181493648093,-0.00530130403341,0.041328314566,-0.999129945492
517744000000,,12117,,517,736064551,"""map""",,,0.120821714401,-0.243912041187,-0.0319082997739,,0.00186170697043,-0.0052631683795,0.0412878957382,-0.999131757806
517776000000,,12118,,517,768064278,"""map""",,,0.120778873563,-0.24430115521,-0.0318707078695,,0.0018541109888,-0.00522504359157,0.0412941756187,-0.99913171566
517812000000,,12119,,517,808064278,"""map""",,,0.120735026896,-0.244627028704,-0.0322109647095,,0.00183264638911,-0.0051318285921,0.0412340742127,-0.999134665939
517844000000,,12120,,517,840064278,"""map""",,,0.12070441246,-0.244779720902,-0.032585144043,,0.00181648636543,-0.00508420331183,0.0412356757929,-0.99913491882
517876000000,,12121,,517,871070005,"""map""",,,0.120698750019,-0.244828417897,-0.0330238454044,,0.00182309848156,-0.0052766461514,0.0412461703582,-0.99913344368
517912000000,,12122,,517,904070005,"""map""",,,0.120546296239,-0.245041519403,-0.0331046171486,,0.00180245426369,-0.00528570854701,0.0413111186518,-0.999130704135
517944000000,,12123,,517,936070005,"""map""",,,0.120269723237,-0.245403528214,-0.0330153182149,,0.00181803114621,-0.0052875600449,0.041284355403,-0.9991318421
517976000000,,12124,,517,967069736,"""map""",,,0.119998171926,-0.24563498795,-0.0328487530351,,0.00179622113992,-0.00529941219968,0.0412549369027,-0.999133022212
518012000000,,12125,,518,8069736,"""map""",,,0.119695492089,-0.245790526271,-0.0325858667493,,0.00180586042052,-0.00527692800845,0.0412220623609,-0.999134455205
518044000000,,12126,,518,39069736,"""map""",,,0.119419023395,-0.245825126767,-0.032381772995,,0.00181340816376,-0.00524313397384,0.0412074795513,-0.999135213848
518076000000,,12127,,518,72069464,"""map""",,,0.119127012789,-0.245755031705,-0.0322450697422,,0.00183394438033,-0.00524840545799,0.0412110198866,-0.999135045261
518112000000,,12128,,518,104069464,"""map""",,,0.118938811123,-0.245965257287,-0.0318674258888,,0.00185111131857,-0.005174528618,0.0412173419138,-0.999135129554
518144000000,,12129,,518,135069464,"""map""",,,0.118825398386,-0.246445223689,-0.0312520675361,,0.0017862919351,-0.00510465721034,0.0411754057996,-0.999137279044
518176000000,,12130,,518,168069191,"""map""",,,0.118683561683,-0.246805980802,-0.0308293811977,,0.00181099854941,-0.0050767112156,0.0411468723831,-0.999138585596
518212000000,,12131,,518,207069191,"""map""",,,0.118481121957,-0.247128427029,-0.0305197481066,,0.00178323052632,-0.00501854905856,0.0411049784157,-0.999140692938
518244000000,,12132,,518,240069191,"""map""",,,0.118298143148,-0.247277334332,-0.0302422512323,,0.00180258630186,-0.00496210800759,0.0410655711123,-0.999142505253
518276000000,,12133,,518,272068919,"""map""",,,0.118101067841,-0.247334942222,-0.0299333482981,,0.00180364952197,-0.00490243893609,0.0410426432268,-0.999143769658
518312000000,,12134,,518,304068919,"""map""",,,0.117925494909,-0.247620865703,-0.0294261611998,,0.00182281036834,-0.00488037851825,0.0410482909045,-0.999143601071
518344000000,,12135,,518,336068919,"""map""",,,0.117762073874,-0.24810950458,-0.0288633536547,,0.0018037927554,-0.00497464010958,0.0409982204484,-0.999145202651
518376000000,,12136,,518,368068648,"""map""",,,0.117526933551,-0.248494103551,-0.0282500460744,,0.00180553756907,-0.00509063449286,0.0410042474478,-0.999144401861
518412000000,,12137,,518,408068648,"""map""",,,0.117217101157,-0.248827531934,-0.027591176331,,0.00179077612929,-0.00507381938203,0.0409821203523,-0.999145371238
518444000000,,12138,,518,440068648,"""map""",,,0.116955444217,-0.248989164829,-0.0270874965936,,0.00181049970194,-0.0050685120072,0.0409511424186,-0.999146677791
518476000000,,12139,,518,472068379,"""map""",,,0.116691783071,-0.249081775546,-0.0266816746444,,0.0017999447152,-0.00503297348819,0.0409003133193,-0.999148953721
518512000000,,12140,,518,504068379,"""map""",,,0.116434551775,-0.249100849032,-0.026134442538,,0.00178604695654,-0.00500564504356,0.0408879642927,-0.999149670217
518544000000,,12141,,518,535068379,"""map""",,,0.116126649082,-0.249073579907,-0.0255907401443,,0.00176902456883,-0.00492190156048,0.0409192372543,-0.99914882728
518572000000,,12142,,518,568080111,"""map""",,,0.115771234035,-0.248983517289,-0.025139471516,,0.0017714843972,-0.00490547795436,0.040950763097,-0.999147562875
518612000000,,12143,,518,607080111,"""map""",,,0.11539477855,-0.249129831791,-0.0244360063225,,0.00175188314919,-0.00488958694611,0.0409518589151,-0.999147647168
518644000000,,12144,,518,640080111,"""map""",,,0.115161776543,-0.249524608254,-0.0235881712288,,0.00172212730951,-0.00485440305331,0.0409072254025,-0.999149712364
518676000000,,12145,,518,672079840,"""map""",,,0.114892430604,-0.249853745103,-0.0228365398943,,0.00166866864198,-0.00485330328399,0.0408914203343,-0.99915042886
518712000000,,12146,,518,703079840,"""map""",,,0.114672757685,-0.250268310308,-0.0218969788402,,0.0016419419424,-0.0047826055676,0.0408900294883,-0.999150892476
518744000000,,12147,,518,736079840,"""map""",,,0.114632114768,-0.250954687595,-0.020467299968,,0.00163858089587,-0.00472582701258,0.0408583772051,-0.999152451909
518776000000,,12148,,518,768079568,"""map""",,,0.11455373466,-0.251541614532,-0.0192224252969,,0.00160777072643,-0.00469115019906,0.0408422771089,-0.999153294846
518812000000,,12149,,518,808079568,"""map""",,,0.114397980273,-0.252115577459,-0.0179762691259,,0.00153807103424,-0.00468154005905,0.040797475009,-0.999155275748
518844000000,,12150,,518,840079568,"""map""",,,0.114205025136,-0.252510160208,-0.017066469416,,0.00151222069276,-0.00459944376042,0.0407741678017,-0.999156666594
518876000000,,12151,,518,871079297,"""map""",,,0.113980911672,-0.252830386162,-0.0162779986858,,0.00150414018702,-0.00455929510058,0.0407314730442,-0.999158647496
518912000000,,12152,,518,904079297,"""map""",,,0.113681577146,-0.253058075905,-0.0153479566798,,0.00151041150637,-0.00465608665527,0.040753220818,-0.999157298797
518944000000,,12153,,518,936079297,"""map""",,,0.113332390785,-0.253191620111,-0.014538009651,,0.00150304568604,-0.00459303760408,0.0406844371613,-0.999160417663
518976000000,,12154,,518,967079029,"""map""",,,0.112943559885,-0.253231853247,-0.0138341346756,,0.00150893076904,-0.00455723879535,0.0406450298579,-0.999162145684
519012000000,,12155,,519,8079029,"""map""",,,0.112437441945,-0.253335028887,-0.0129919564351,,0.00147554305639,-0.00460811415741,0.0406189409587,-0.999163030768
519044000000,,12156,,519,39079029,"""map""",,,0.112168766558,-0.253736823797,-0.0121543500572,,0.00151843060284,-0.00462007744158,0.0405899860738,-0.999164084439
519076000000,,12157,,519,72078758,"""map""",,,0.111859284341,-0.254052519798,-0.0114441029727,,0.00153108420629,-0.00457243997823,0.0405630542376,-0.999165390992
519112000000,,12158,,519,104078758,"""map""",,,0.111509151757,-0.254280775785,-0.0109023330733,,0.00150724588292,-0.00457306987605,0.0405334671499,-0.999166571103
519144000000,,12159,,519,135078758,"""map""",,,0.111084714532,-0.254446804523,-0.0104870218784,,0.00148416175764,-0.00452580630135,0.0405201065989,-0.999167371893
519176000000,,12160,,519,168078488,"""map""",,,0.110618948936,-0.254558861256,-0.0101759694517,,0.00151027156566,-0.00453604485745,0.0404841131903,-0.999168804886
519212000000,,12161,,519,207078488,"""map""",,,0.110067948699,-0.254787862301,-0.0101537602022,,0.0015314584242,-0.00447689159093,0.040466116486,-0.999169774264
519244000000,,12162,,519,240078488,"""map""",,,0.109941996634,-0.25535428524,-0.0103128841147,,0.00154363244261,-0.00441629874612,0.0404073216323,-0.999172345222
519276000000,,12163,,519,272078217,"""map""",,,0.109739504755,-0.255817502737,-0.0102875037119,,0.00150484367719,-0.00439367691909,0.0403965741859,-0.999172977424
519312000000,,12164,,519,304078217,"""map""",,,0.109368853271,-0.256221592426,-0.00975222326815,,0.000199941850522,-0.00414215127725,0.0401533447232,-0.999184989276
519344000000,,12165,,519,336078217,"""map""",,,0.108744747937,-0.256680846214,-0.00805470347404,,-0.00249706449672,-0.0027624176799,0.0398207217947,-0.99919990926
519376000000,,12166,,519,368077946,"""map""",,,0.108004048467,-0.257135719061,-0.00594841735438,,-0.00430371463558,-0.00135091531925,0.0396723227411,-0.999202564512
519412000000,,12167,,519,408077946,"""map""",,,0.106983028352,-0.257777899504,-0.00276860408485,,-0.00721199403825,0.00181561725131,0.0393961765897,-0.999196073897
519444000000,,12168,,519,440077946,"""map""",,,0.106088481843,-0.258835583925,0.00183607742656,,-0.0121627326042,0.00707691388268,0.0390134410584,-0.999139639267
519476000000,,12169,,519,472077679,"""map""",,,0.104812189937,-0.260046154261,0.00780699588358,,-0.0155778535434,0.0107627466641,0.038843547112,-0.999065924429
519512000000,,12170,,519,504077679,"""map""",,,0.103200286627,-0.261405229568,0.014708164148,,-0.0239451304011,0.0198341050653,0.0384347648283,-0.998777260664
519544000000,,12171,,519,535077679,"""map""",,,0.101255722344,-0.262894690037,0.0221425108612,,-0.0341370936557,0.0317948546603,0.0381885007924,-0.998181093491
519576000000,,12172,,519,568077409,"""map""",,,0.0990187227726,-0.264505714178,0.0299711488187,,-0.0379272999793,0.0365309083752,0.038105429354,-0.997885264762
519612000000,,12173,,519,607077409,"""map""",,,0.0960147827864,-0.26677981019,0.0400756672025,,-0.0488844108278,0.0502150526074,0.0378691962681,-0.996822279095
519644000000,,12174,,519,640077409,"""map""",,,0.0935801193118,-0.269061535597,0.0480502061546,,-0.0586538382201,0.062130652926,0.0376002572278,-0.995633358646
519676000000,,12175,,519,672077138,"""map""",,,0.0898104310036,-0.272285997868,0.0564772374928,,-0.0642182421444,0.0689741442261,0.0374644600819,-0.994844201054
519712000000,,12176,,519,712077138,"""map""",,,0.0827675685287,-0.278038233519,0.0682889297605,,-0.0741276081455,0.0810007377351,0.0372146978576,-0.993256782152
519744000000,,12177,,519,736077138,"""map""",,,0.077124863863,-0.28257894516,0.0762954428792,,-0.0816013658878,0.0900374915981,0.0374432602171,-0.9918833428
519776000000,,12178,,519,768076868,"""map""",,,0.0679083913565,-0.289904296398,0.0881991460919,,-0.0840727885959,0.0931440673132,0.0376014373395,-0.991383944791
519812000000,,12179,,519,808076868,"""map""",,,0.0537544079125,-0.30104726553,0.105013184249,,-0.0869134068309,0.0962913782867,0.0376373886013,-0.990836752257
519844000000,,12180,,519,840076868,"""map""",,,0.0415860302746,-0.311333715916,0.11902499944,,-0.0886352738507,0.0964180298957,0.0374415743431,-0.990679375925
519876000000,,12181,,519,871076598,"""map""",,,0.0274643562734,-0.323016941547,0.13422305882,,-0.0892402694705,0.0959383157831,0.0373509586188,-0.990674992653
519912000000,,12182,,519,904076598,"""map""",,,0.0114604504779,-0.336074382067,0.150672703981,,-0.0897916873909,0.0953062287946,0.0371430482151,-0.990694000881
519944000000,,12183,,519,936076598,"""map""",,,-0.00629641115665,-0.350468665361,0.168716832995,,-0.0895952796195,0.095596961213,0.0368057891334,-0.990696361105
519976000000,,12184,,519,967076331,"""map""",,,-0.0256606563926,-0.366137862206,0.188311383128,,-0.0895167208574,0.0953122562878,0.0366604667997,-0.990736316317
520012000000,,12185,,520,8076331,"""map""",,,-0.0519729033113,-0.387440532446,0.214980840683,,-0.0889960875878,0.0931846344781,0.0362642442768,-0.991000113442
520044000000,,12186,,520,39076331,"""map""",,,-0.0716084390879,-0.403929591179,0.237671718001,,-0.0886176601723,0.0909990162175,0.035758397801,-0.991255523344
520076000000,,12187,,520,72076062,"""map""",,,-0.0927649661899,-0.421722352505,0.261822611094,,-0.088621358229,0.0907528262679,0.0356332638078,-0.991282286593
520112000000,,12188,,520,104076062,"""map""",,,-0.115308493376,-0.440739184618,0.287286400795,,-0.0888636355187,0.0903227215478,0.0355771663524,-0.991301884877
520144000000,,12189,,520,135076062,"""map""",,,-0.139113917947,-0.460891664028,0.314129889011,,-0.0888181707995,0.0892251848089,0.0357396003066,-0.991399496979
520176000000,,12190,,520,168069792,"""map""",,,-0.164155423641,-0.482073515654,0.342258691788,,-0.0888724974261,0.0889234561815,0.0358026098451,-0.991419432438
520212000000,,12191,,520,207069792,"""map""",,,-0.197148248553,-0.509998857975,0.379328012466,,-0.0891398219803,0.0892002052948,0.0359460777174,-0.991365400178
520244000000,,12192,,520,240069792,"""map""",,,-0.223033264279,-0.532011985779,0.409669727087,,-0.0900283607344,0.0896724196916,0.0364017694435,-0.99122589411
520276000000,,12193,,520,272081523,"""map""",,,-0.250077068806,-0.555130541325,0.441462785006,,-0.0902846125238,0.0895103450352,0.0366474434235,-0.991208150286
520312000000,,12194,,520,304081523,"""map""",,,-0.278220117092,-0.579280376434,0.474518090487,,-0.0903276412869,0.0885849087783,0.0372827228711,-0.991263657686
520344000000,,12195,,520,336081523,"""map""",,,-0.30737811327,-0.604350030422,0.509056806564,,-0.0895823590586,0.0879875610004,0.0378854228048,-0.991361691255
520376000000,,12196,,520,368075256,"""map""",,,-0.337476074696,-0.630330681801,0.545029163361,,-0.0893781375743,0.0878354308806,0.0380865475659,-0.991385883547
520412000000,,12197,,520,408075256,"""map""",,,-0.37634575367,-0.66400384903,0.591813147068,,-0.0887964923786,0.0870980272318,0.038566726611,-0.991484633613
520444000000,,12198,,520,440075256,"""map""",,,-0.407122403383,-0.690448045731,0.629785358906,,-0.0882251435264,0.0864495409211,0.0389412435069,-0.991577778148
520476000000,,12199,,520,472074990,"""map""",,,-0.438746094704,-0.717726409435,0.669309914112,,-0.0878865941912,0.0862685039077,0.0391430847644,-0.991615668165
520512000000,,12200,,520,504074990,"""map""",,,-0.471105664968,-0.745789825916,0.710413038731,,-0.0872774466129,0.0858922054843,0.0394983826973,-0.991687992157
520544000000,,12201,,520,535074990,"""map""",,,-0.504213035107,-0.77453327179,0.753024101257,,-0.0864916200218,0.0852662285541,0.03973078042,-0.99180162006
520576000000,,12202,,520,568074721,"""map""",,,-0.537990808487,-0.803894281387,0.797049760818,,-0.0860886018959,0.0850163709232,0.0399189239518,-0.991850510405
520612000000,,12203,,520,607074721,"""map""",,,-0.581048905849,-0.841443657875,0.854088187218,,-0.0854388846831,0.0846810952129,0.0401229989922,-0.991927217669
520644000000,,12204,,520,640074721,"""map""",,,-0.615611374378,-0.871353805065,0.900652289391,,-0.084924060517,0.0841208270305,0.0403831714881,-0.99200851894
520676000000,,12205,,520,672074452,"""map""",,,-0.650565683842,-0.901557087898,0.948604822159,,-0.084691743466,0.0838052771977,0.0404836917218,-0.992050960816
520712000000,,12206,,520,703074452,"""map""",,,-0.686071157455,-0.932292461395,0.998056948185,,-0.0840923745739,0.0834212126001,0.0406489916617,-0.992127583787
520744000000,,12207,,520,736074452,"""map""",,,-0.722077786922,-0.963533163071,1.04904747009,,-0.0836123358193,0.0831063723284,0.0408188434612,-0.992187600899
520776000000,,12208,,520,768074183,"""map""",,,-0.758519470692,-0.99523639679,1.10147964954,,-0.08328299697,0.0827830672285,0.0408738029516,-0.992240031578
520812000000,,12209,,520,808074183,"""map""",,,-0.804592788219,-1.03545796871,1.16906988621,,-0.0819255955842,0.0814663880536,0.0410619886302,-0.992454264009
520844000000,,12210,,520,840074183,"""map""",,,-0.841657817364,-1.06746280193,1.22391307354,,-0.0791424400908,0.0787948773393,0.0412094183063,-0.992889556661
520876000000,,12211,,520,871073915,"""map""",,,-0.878883838654,-1.09959340096,1.28010439873,,-0.0773003435777,0.0769891219669,0.0412599945245,-0.993174216476
520912000000,,12212,,520,904073915,"""map""",,,-0.91623288393,-1.13194012642,1.33789670467,,-0.0731303704105,0.0728399815877,0.0413940215028,-0.99379723119
520944000000,,12213,,520,936073915,"""map""",,,-0.953588068485,-1.16443443298,1.39727950096,,-0.0686041952419,0.068261994936,0.0416520023625,-0.994433943631
520976000000,,12214,,520,967073649,"""map""",,,-0.9908618927,-1.19696247578,1.45824873447,,-0.0658886481297,0.0655265110062,0.041792098487,-0.994795647885
521012000000,,12215,,521,8073649,"""map""",,,-1.03719878197,-1.23753833771,1.5365408659,,-0.061925522465,0.0615137565219,0.0420598152687,-0.99529508804
521044000000,,12216,,521,39073649,"""map""",,,-1.07419466972,-1.26919674873,1.60068666935,,-0.0577713681028,0.0573654242694,0.042300684508,-0.995782263462
521076000000,,12217,,521,72073381,"""map""",,,-1.11089634895,-1.30048131943,1.66626060009,,-0.0555178760059,0.0550904271546,0.0424309604167,-0.996033416532
521112000000,,12218,,521,104073381,"""map""",,,-1.14717638493,-1.33156132698,1.73322534561,,-0.0525361931538,0.0520208340849,0.0427261147968,-0.9963474527
521144000000,,12219,,521,135073381,"""map""",,,-1.18295764923,-1.36235189438,1.80173635483,,-0.0493078460149,0.0488338302879,0.0430700752275,-0.996658875764
521176000000,,12220,,521,168073112,"""map""",,,-1.2182315588,-1.39282536507,1.87146139145,,-0.0482991617267,0.0477869495539,0.0431673923007,-0.996754844138
521212000000,,12221,,521,207073112,"""map""",,,-1.26150453091,-1.43045175076,1.95831596851,,-0.0459663461946,0.0463155905395,0.0523676278622,-0.996493702264
521244000000,,12222,,521,240073112,"""map""",,,-1.2966080904,-1.46006417274,2.02575731277,,-0.0454218740666,0.0457961919174,0.0523350062014,-0.996544362776
521276000000,,12223,,521,272072844,"""map""",,,-1.33144760132,-1.48925745487,2.0905854702,,-0.0456294636356,0.0459642361357,0.0521262950076,-0.996538040749
521312000000,,12224,,521,304072844,"""map""",,,-1.36567628384,-1.51806223392,2.1525285244,,-0.0465640520354,0.0468834663309,0.0513809701385,-0.996490751985
521344000000,,12225,,521,336072844,"""map""",,,-1.3993242979,-1.54653251171,2.21185135841,,-0.0468554914734,0.0471492082303,0.0504811770697,-0.996510518857
521376000000,,12226,,521,368072576,"""map""",,,-1.43246030807,-1.5747025013,2.26880216599,,-0.0465920295168,0.0469018714563,0.049951644065,-0.996561263663
521412000000,,12227,,521,408072576,"""map""",,,-1.47320663929,-1.60949897766,2.33738303185,,-0.0452316037859,0.0454417036443,0.0487414394568,-0.996751430243
521444000000,,12228,,521,440072576,"""map""",,,-1.50647056103,-1.63662576675,2.3924498558,,-0.0430034415334,0.0428790547,0.0476163293358,-0.99701800906
521476000000,,12229,,521,472072311,"""map""",,,-1.5395065546,-1.66336846352,2.4464161396,,-0.0417432527179,0.0413941718567,0.0470293923235,-0.997162151282
521512000000,,12230,,521,504072311,"""map""",,,-1.57187652588,-1.68979847431,2.49842715263,,-0.0390054165289,0.0381225154559,0.0459632034967,-0.997453090977
521544000000,,12231,,521,535072311,"""map""",,,-1.6035823822,-1.71587371826,2.54878497124,,-0.0362518431429,0.0349211553475,0.0450345398366,-0.99771650878
521576000000,,12232,,521,568072044,"""map""",,,-1.63461112976,-1.74158036709,2.59734892845,,-0.0350178331386,0.0334235069276,0.0446088988135,-0.997831021768
521612000000,,12233,,521,607072044,"""map""",,,-1.67245721817,-1.77313184738,2.65571904182,,-0.0328219609285,0.0306640687911,0.0437670576613,-0.998031556473
521644000000,,12234,,521,640072044,"""map""",,,-1.70254552364,-1.79781889915,2.70138406754,,-0.030760762552,0.0280473252312,0.0429933679632,-0.998207772447
521676000000,,12235,,521,672071776,"""map""",,,-1.73240673542,-1.8219922781,2.74635481834,,-0.0300723470413,0.0271698114639,0.0427581885485,-0.998263153405
521712000000,,12236,,521,703071776,"""map""",,,-1.7615083456,-1.84576570988,2.78968214989,,-0.0284712254742,0.0251883297354,0.042243912703,-0.998383946273
521744000000,,12237,,521,736071776,"""map""",,,-1.78986978531,-1.86913371086,2.83136510849,,-0.0269997578205,0.0234525908048,0.0419686516354,-0.998478734536
521776000000,,12238,,521,768071509,"""map""",,,-1.81751871109,-1.89209496975,2.87134099007,,-0.0263488468312,0.0226886795048,0.041875001338,-0.998517678224
521812000000,,12239,,521,808071509,"""map""",,,-1.85113751888,-1.92024481297,2.91944766045,,-0.0251139390661,0.0212276746416,0.0416981953085,-0.998589032838
521844000000,,12240,,521,840071509,"""map""",,,-1.87799310684,-1.9419426918,2.9572520256,,-0.0240116499818,0.0198813213895,0.0416762789473,-0.998644750972
521876000000,,12241,,521,871071242,"""map""",,,-1.90482258797,-1.96293389797,2.9945089817,,-0.0234110475124,0.0192560458915,0.0416997547419,-0.998670249815
521912000000,,12242,,521,904071242,"""map""",,,-1.9309066534,-1.98357748985,3.03017687798,,-0.0222978168757,0.0179800270038,0.0417765884467,-0.998716316321
521944000000,,12243,,521,936071242,"""map""",,,-1.9562510252,-2.00381469727,3.06420183182,,-0.0212933420658,0.0167430876289,0.0419771652988,-0.998751340352
521976000000,,12244,,521,967070978,"""map""",,,-1.98085725307,-2.02370667458,3.09679150581,,-0.0208650632427,0.0160915668273,0.0420823638327,-0.998766681805
522012000000,,12245,,522,8070978,"""map""",,,-2.01064229012,-2.04809308052,3.13560986519,,-0.020160820191,0.0148507934063,0.0422950789771,-0.998791337711
522044000000,,12246,,522,39070978,"""map""",,,-2.03422832489,-2.06682896614,3.16625905037,,-0.0193417692886,0.0137758465961,0.0425606884164,-0.998811652492
522076000000,,12247,,522,72070711,"""map""",,,-2.05760216713,-2.08492445946,3.19685196877,,-0.0189698223627,0.0132985608663,0.0427104361692,-0.998818859603
522112000000,,12248,,522,104070711,"""map""",,,-2.08029603958,-2.10273504257,3.22619390488,,-0.0182116848517,0.0123924642094,0.0430504347961,-0.998830028518
522144000000,,12249,,522,135070711,"""map""",,,-2.1023273468,-2.1202788353,3.2544002533,,-0.0175455535817,0.0115645476516,0.043343144659,-0.998839258678
522176000000,,12250,,522,176070444,"""map""",,,-2.12898230553,-2.14182400703,3.2879011631,,-0.0171440376781,0.0111311739989,0.0434821449654,-0.998845159237
522212000000,,12251,,522,207070444,"""map""",,,-2.14966702461,-2.15872240067,3.31332826614,,-0.0164098876508,0.0102344385522,0.0437533599356,-0.998855232333
522244000000,,12252,,522,240070444,"""map""",,,-2.1702311039,-2.17493343353,3.33885765076,,-0.0156333481013,0.00922993921148,0.0440239848499,-0.998865558311
522276000000,,12253,,522,272070178,"""map""",,,-2.19064736366,-2.1905400753,3.36417508125,,-0.0152446343029,0.0087519531196,0.0441269496008,-0.998871332429
522312000000,,12254,,522,304070178,"""map""",,,-2.21045875549,-2.20593142509,3.38825750351,,-0.0146062475131,0.00760040803424,0.0444036015144,-0.998877991632
522344000000,,12255,,522,336070178,"""map""",,,-2.2296731472,-2.22109222412,3.41143965721,,-0.0141345992536,0.00656672496437,0.0445793538727,-0.998884313659
522376000000,,12256,,522,368069911,"""map""",,,-2.24826908112,-2.23600769043,3.43334388733,,-0.0139109022209,0.00617532825567,0.0447020433487,-0.998884440099
522412000000,,12257,,522,408069911,"""map""",,,-2.27074337006,-2.25438642502,3.45912051201,,-0.0133340379761,0.00516794383146,0.0449757028361,-0.998885746652
522444000000,,12258,,522,440069911,"""map""",,,-2.28834486008,-2.2686984539,3.47883963585,,-0.0128767881337,0.00452386227796,0.0451403705732,-0.998887474672
522476000000,,12259,,522,472069648,"""map""",,,-2.30601453781,-2.28229284286,3.49831414223,,-0.0126064961136,0.00421917118555,0.0452729645586,-0.998886210267
522512000000,,12260,,522,504069648,"""map""",,,-2.32312726974,-2.29575181007,3.51685881615,,-0.0118269552475,0.00356824933025,0.045381914162,-0.998893333084
522544000000,,12261,,522,535069648,"""map""",,,-2.33971166611,-2.30902552605,3.53443193436,,-0.0109183324139,0.00289681578915,0.0455105463437,-0.99890007658
522576000000,,12262,,522,568069382,"""map""",,,-2.35577630997,-2.3220911026,3.55109858513,,-0.0105858309869,0.00266037032265,0.0455505858498,-0.998902436804
522612000000,,12263,,522,607069382,"""map""",,,-2.37513303757,-2.33818554878,3.57073354721,,-0.00992950445686,0.00198547678871,0.0456099707593,-0.998908042335
522644000000,,12264,,522,640069382,"""map""",,,-2.39026069641,-2.35066914558,3.58596229553,,-0.00943788221313,0.00146763196122,0.0456259865618,-0.998913015663
522676000000,,12265,,522,672069116,"""map""",,,-2.40535020828,-2.36244320869,3.60150146484,,-0.00923716772527,0.00119945814959,0.0456389677911,-0.998914617243
522712000000,,12266,,522,703069116,"""map""",,,-2.4199450016,-2.37405467033,3.6162583828,,-0.00872812039386,0.000576552424016,0.0457173187825,-0.998916092383
522744000000,,12267,,522,736069116,"""map""",,,-2.43406581879,-2.38553595543,3.63036251068,,-0.0082667223796,0.000136781011397,0.0457403309618,-0.998919126956
522776000000,,12268,,522,768068850,"""map""",,,-2.44773292542,-2.39689683914,3.64385509491,,-0.00811454624396,-7.93332105153e-05,0.0457161808176,-0.99892161362
522812000000,,12269,,522,808068850,"""map""",,,-2.46424055099,-2.4108979702,3.65992093086,,-0.00784856933681,-0.000576280774407,0.0457287405784,-0.998922878025
522844000000,,12270,,522,840068850,"""map""",,,-2.47710752487,-2.42164134979,3.67233538628,,-0.00732186774423,-0.00100684277135,0.0457343039624,-0.998926334067
522876000000,,12271,,522,871068585,"""map""",,,-2.48981142044,-2.43141341209,3.68480348587,,-0.00721289904304,-0.00122234816887,0.045733587466,-0.998926881976
522912000000,,12272,,522,904068585,"""map""",,,-2.50210595131,-2.44115567207,3.69670534134,,-0.00685165099583,-0.00170163439224,0.0458352456646,-0.998924100284
522944000000,,12273,,522,936068585,"""map""",,,-2.51402592659,-2.45086956024,3.70798301697,,-0.0064159905473,-0.00217519802847,0.0458883506938,-0.998923678815
