rosbagTimestamp,header,seq,stamp,secs,nsecs,frame_id,pose,position,x,y,z,orientation,x,y,z,w
2116760000000,,45459,,2116,755346690,"""map""",,,0.0419297218323,-0.366737157106,0.0358492434025,,0.00133377654923,-0.00117396768725,0.0354578064774,-0.999369634619
2116796000000,,45460,,2116,788346690,"""map""",,,0.0420691631734,-0.366511106491,0.0360344164073,,0.00127985547028,-0.00113867886979,0.0354232460616,-0.999370983319
2116828000000,,45461,,2116,820345757,"""map""",,,0.0426717586815,-0.36621761322,0.0362615063787,,0.00121222830513,-0.0011038793149,0.0353626388935,-0.999373259248
2116860000000,,45462,,2116,851345757,"""map""",,,0.0429053716362,-0.365948855877,0.0364807508886,,0.00119063820897,-0.00114719117237,0.0353051084453,-0.99937524015
2116896000000,,45463,,2116,891345757,"""map""",,,0.0410648323596,-0.365824133158,0.0367147549987,,0.0012185012554,-0.00109784113574,0.0353171202971,-0.999374860829
2116932000000,,45464,,2116,924344826,"""map""",,,0.0402784235775,-0.365660369396,0.03684367612,,0.00116851469691,-0.00110808403926,0.0353138328429,-0.999375029416
2116960000000,,45465,,2116,956344826,"""map""",,,0.0400561615825,-0.365438640118,0.0370140559971,,0.00112716877486,-0.00105346125798,0.0353350327077,-0.999374397213
2116996000000,,45466,,2116,987344826,"""map""",,,0.0403351634741,-0.365165561438,0.0372944101691,,0.00117249780562,-0.0010599300455,0.0353355384699,-0.99937431292
2117028000000,,45467,,2117,20343892,"""map""",,,0.0410642139614,-0.364876717329,0.0375527963042,,0.00115743434343,-0.00109224227007,0.0353519757408,-0.999373722864
2117060000000,,45468,,2117,52343892,"""map""",,,0.0415153130889,-0.364590734243,0.0378447659314,,0.0011087356176,-0.00109132114895,0.0353172467376,-0.999374987269
2117096000000,,45469,,2117,92343892,"""map""",,,0.0401793755591,-0.364347994328,0.0382704697549,,0.00114054440291,-0.00105340024743,0.0352875332094,-0.99937604094
2117128000000,,45470,,2117,123342958,"""map""",,,0.03977971524,-0.364106893539,0.038533937186,,0.00112905404116,-0.000993758911967,0.0352988285648,-0.999375703766
2117160000000,,45471,,2117,156342958,"""map""",,,0.0398892611265,-0.363831043243,0.0388138629496,,0.00108749448058,-0.000931712463917,0.0353528186778,-0.999373891451
2117196000000,,45472,,2117,188342958,"""map""",,,0.0404933094978,-0.363472700119,0.0388420969248,,0.00126852675033,-0.000942683290642,0.0353692559487,-0.999373132808
2117228000000,,45473,,2117,219342024,"""map""",,,0.0415330640972,-0.363109499216,0.0388926565647,,0.00125883058795,-0.000981706086325,0.0353864518629,-0.999372458458
2117260000000,,45474,,2117,252342024,"""map""",,,0.0422004424036,-0.362750381231,0.0387750528753,,0.00120715305695,-0.00096987062153,0.0353938275614,-0.999372247724
2117296000000,,45475,,2117,292342024,"""map""",,,0.0409901812673,-0.362394183874,0.0382279194891,,0.00121601968991,-0.000975744354923,0.0353249596109,-0.999374692241
2117328000000,,45476,,2117,324341089,"""map""",,,0.0406456254423,-0.362071722746,0.037772603333,,0.00119015617754,-0.000937492138632,0.0353260975758,-0.999374734388
2117360000000,,45477,,2117,356341089,"""map""",,,0.0408368371427,-0.361750692129,0.0373474024236,,0.00121182725152,-0.000926525540997,0.0353213771288,-0.999374902975
2117396000000,,45478,,2117,388341089,"""map""",,,0.0415083542466,-0.361392140388,0.0368604436517,,0.00118891790807,-0.000914311742383,0.0352656589951,-0.99937684173
2117428000000,,45479,,2117,420340157,"""map""",,,0.0426100119948,-0.361001849174,0.0366362258792,,0.0011803208359,-0.000922335057657,0.0352541107586,-0.999377263199
2117460000000,,45480,,2117,452340157,"""map""",,,0.0441191457212,-0.36057689786,0.0364456959069,,0.00116568861489,-0.000885067221349,0.0352176537346,-0.999378654045
2117496000000,,45481,,2117,492340157,"""map""",,,0.0426587499678,-0.360317200422,0.0356554873288,,0.00113906911401,-0.000871764272436,0.0352017222259,-0.999379244101
2117528000000,,45482,,2117,524339222,"""map""",,,0.0421790257096,-0.360044687986,0.0350028388202,,0.00116482763998,-0.000855618520649,0.0351776142285,-0.999380002744
2117560000000,,45483,,2117,556339222,"""map""",,,0.0422613061965,-0.359737128019,0.0344639457762,,0.0011671696712,-0.000835152192112,0.0351218118011,-0.999382025793
2117600000000,,45484,,2117,588339222,"""map""",,,0.0428458489478,-0.359384417534,0.0341004170477,,0.0011358219751,-0.00084002672827,0.0350394147123,-0.999384933925
2117628000000,,45485,,2117,620338286,"""map""",,,0.0439146868885,-0.359023541212,0.0337652862072,,0.00110904715031,-0.000835668696801,0.0350282457974,-0.999385397541
2117660000000,,45486,,2117,652338286,"""map""",,,0.0453968793154,-0.358639121056,0.0334822013974,,0.00111370987181,-0.000806536930935,0.0350019040171,-0.999386282625
2117696000000,,45487,,2117,692338286,"""map""",,,0.0441205054522,-0.358488589525,0.0327352918684,,0.00110242033012,-0.000810356602269,0.0350558519832,-0.999384428163
2117728000000,,45488,,2117,724337351,"""map""",,,0.0437324456871,-0.358327388763,0.0322625897825,,0.00112993600718,-0.000785973127521,0.0350398783276,-0.999384976072
2117760000000,,45489,,2117,755337351,"""map""",,,0.0438362658024,-0.358156502247,0.0317364297807,,0.00111337697756,-0.000793348260074,0.0350131993725,-0.99938594545
2117796000000,,45490,,2117,788337351,"""map""",,,0.0444037653506,-0.357998222113,0.0310874711722,,0.00110748648215,-0.000795442081758,0.0350427864601,-0.999384849632
2117828000000,,45491,,2117,820336415,"""map""",,,0.0454081818461,-0.357790082693,0.0302780158818,,0.000899895302749,-0.00076418772919,0.0350466218234,-0.999385060366
2117860000000,,45492,,2117,851336415,"""map""",,,0.0468126013875,-0.357508838177,0.0295542143285,,0.00088964175447,-0.000740374605435,0.0350066244641,-0.999386451212
2117896000000,,45493,,2117,891336415,"""map""",,,0.0451366379857,-0.357487767935,0.0288566220552,,0.000917472642834,-0.00072372267473,0.0350320811606,-0.999385523981
2117928000000,,45494,,2117,924335481,"""map""",,,0.0444682687521,-0.357411801815,0.0284256655723,,0.000927029481893,-0.000721329482829,0.0350347364121,-0.999385397541
2117960000000,,45495,,2117,956335481,"""map""",,,0.0443264581263,-0.357265472412,0.0281284470111,,0.000912686526565,-0.000704106753528,0.0349842023407,-0.999387209855
2117996000000,,45496,,2117,987335481,"""map""",,,0.0446800664067,-0.357068479061,0.0279105920345,,0.00087647746519,-0.000716189049036,0.0349836965785,-0.999387294149
2118028000000,,45497,,2118,20334545,"""map""",,,0.0454939119518,-0.356824845076,0.0277169104666,,0.000888416136257,-0.000694814916895,0.0349712211114,-0.999387715617
2118060000000,,45498,,2118,52334545,"""map""",,,0.0466954037547,-0.356518447399,0.027509002015,,0.000901798480943,-0.000699865726896,0.034974382125,-0.999387589177
2118096000000,,45499,,2118,92334545,"""map""",,,0.0445879288018,-0.356568217278,0.0265645757318,,0.000896381551064,-0.000683967711321,0.0349817156766,-0.999387336296
2118128000000,,45500,,2118,123345609,"""map""",,,0.0436266362667,-0.356509029865,0.0258986931294,,0.000882964931195,-0.000691656640332,0.0349796504811,-0.999387462736
2118160000000,,45501,,2118,156345609,"""map""",,,0.0432835631073,-0.356423139572,0.0250151753426,,0.00090939104637,-0.000675617912317,0.0349968042484,-0.999386830534
2118196000000,,45502,,2118,188345609,"""map""",,,0.0434792041779,-0.356301546097,0.0240653213114,,0.000854574089639,-0.000629340549175,0.034902058133,-0.999390202281
2118228000000,,45503,,2118,219344672,"""map""",,,0.0441345088184,-0.356122881174,0.0230882801116,,0.000858171944661,-0.000639407986602,0.0348905941902,-0.99939062375
2118260000000,,45504,,2118,252344672,"""map""",,,0.0452031828463,-0.355903297663,0.0220923647285,,0.00082396611394,-0.000578768920194,0.0348549801032,-0.999391930302
2118296000000,,45505,,2118,292344672,"""map""",,,0.0440185666084,-0.356079190969,0.0212097149342,,0.000817108473894,-0.000585164426632,0.0348087871572,-0.999393531883
2118328000000,,45506,,2118,324343734,"""map""",,,0.043125718832,-0.356261044741,0.0206421446055,,0.000798457443872,-0.000571141853208,0.0347898210754,-0.999394206232
2118360000000,,45507,,2118,356343734,"""map""",,,0.042770948261,-0.356375843287,0.0201484914869,,0.000810695588055,-0.000509901823777,0.0347515938838,-0.999395597078
2118396000000,,45508,,2118,388343734,"""map""",,,0.0428811125457,-0.356437146664,0.019673731178,,0.000800811009916,-0.000554101180594,0.034720363069,-0.999396650749
2118428000000,,45509,,2118,420342800,"""map""",,,0.0434239208698,-0.356426626444,0.0192010570318,,0.000844804818527,-0.000533763525479,0.0347475899332,-0.999395639225
2118460000000,,45510,,2118,452342800,"""map""",,,0.0443743541837,-0.356364428997,0.018615251407,,0.000644010330366,-0.000558365994573,0.0347754911469,-0.999394796288
2118496000000,,45511,,2118,492342800,"""map""",,,0.0461063086987,-0.356226444244,0.0180395618081,,0.000607593009436,-0.000543401861994,0.0347338500606,-0.999396313575
2118528000000,,45512,,2118,524341862,"""map""",,,0.0479064621031,-0.356078207493,0.0175436008722,,0.000627592633139,-0.000546352020485,0.0347243248728,-0.999396566456
2118560000000,,45513,,2118,556341862,"""map""",,,0.05003079772,-0.355899006128,0.0169677436352,,0.000599827913064,-0.000556652140208,0.0346693232355,-0.999398547357
2118596000000,,45514,,2118,592341862,"""map""",,,0.0497279949486,-0.35599899292,0.0162530057132,,0.000581941792778,-0.000522983198188,0.0345959034254,-0.999401076168
2118628000000,,45515,,2118,623340924,"""map""",,,0.0490859858692,-0.356113821268,0.0154505455866,,0.000566647657372,-0.00051903466307,0.0345877690836,-0.999401371196
2118660000000,,45516,,2118,656340924,"""map""",,,0.0489862449467,-0.356186032295,0.0147237610072,,0.000521105661428,-0.000502205250119,0.0345312080129,-0.999403394245
2118696000000,,45517,,2118,688340924,"""map""",,,0.0471760369837,-0.356478124857,0.0141003197059,,0.000548064660658,-0.000500296872383,0.0345429248368,-0.999402972777
2118728000000,,45518,,2118,719339986,"""map""",,,0.0452933348715,-0.356801509857,0.0134964352474,,0.000588317807843,-0.000523149164266,0.0345529979336,-0.999402593455
2118760000000,,45519,,2118,752339986,"""map""",,,0.0440510027111,-0.357048839331,0.0128805665299,,0.00054442866279,-0.000537618491969,0.0345923630901,-0.999401244756
2118796000000,,45520,,2118,792339986,"""map""",,,0.0432898141444,-0.357308894396,0.0120959589258,,0.000553810058903,-0.000533646874352,0.0345650940791,-0.999402214133
2118828000000,,45521,,2118,824339048,"""map""",,,0.0432414598763,-0.357481986284,0.0114249112085,,0.000772638033405,-0.000578020700446,0.0345943861388,-0.999400991875
2118860000000,,45522,,2118,856339048,"""map""",,,0.0436291024089,-0.357640266418,0.0107782976702,,0.000761771627143,-0.000578228152255,0.0346026047743,-0.999400696847
2118896000000,,45523,,2118,888339048,"""map""",,,0.0444219633937,-0.357783913612,0.0101243723184,,0.000782188122382,-0.000575720774911,0.034658617936,-0.999398800239
2118928000000,,45524,,2118,920338112,"""map""",,,0.0456162653863,-0.357889354229,0.00940680317581,,0.00076216602842,-0.000606679564471,0.034643023602,-0.999399306001
2118960000000,,45525,,2118,952338112,"""map""",,,0.0471937246621,-0.357986956835,0.00860182568431,,0.000712491550571,-0.00063528506324,0.0346192527795,-0.999400148938
2118996000000,,45526,,2118,992338112,"""map""",,,0.0470386557281,-0.358347028494,0.00771999452263,,0.000721570391787,-0.000655723339325,0.0345931217334,-0.999401076168
2119028000000,,45527,,2119,24337173,"""map""",,,0.0461019948125,-0.358701527119,0.00710559729487,,0.000705201333602,-0.000694962248864,0.0345734391551,-0.999401708371
2119060000000,,45528,,2119,56337173,"""map""",,,0.0457297600806,-0.359024971724,0.00658819638193,,0.000681508361743,-0.000684764297755,0.034547603137,-0.999402593455
2119096000000,,45529,,2119,96337173,"""map""",,,0.0460023917258,-0.359419643879,0.00612759171054,,0.0006277554274,-0.000740861897501,0.034540353879,-0.999402846336
2119128000000,,45530,,2119,120336234,"""map""",,,0.0465088486671,-0.359638422728,0.00573460711166,,0.000587214949014,-0.000719254954442,0.0345331046211,-0.999403183511
2119160000000,,45531,,2119,152336234,"""map""",,,0.04755262658,-0.359901160002,0.00515616359189,,0.000544631979403,-0.000742667446471,0.0344690835582,-0.999405333
2119196000000,,45532,,2119,192336234,"""map""",,,0.0469816364348,-0.36042329669,0.00453703058884,,0.00054012406732,-0.000768816118904,0.0344352817857,-0.999406513112
2119228000000,,45533,,2119,224335294,"""map""",,,0.0458484664559,-0.360916048288,0.00415301229805,,0.000522881159803,-0.000714345340499,0.034402365097,-0.999407651077
2119260000000,,45534,,2119,255335294,"""map""",,,0.0452720709145,-0.361356943846,0.00355551834218,,0.00050319297363,-0.000732064890183,0.034383441162,-0.999408367573
2119296000000,,45535,,2119,288335294,"""map""",,,0.0452162623405,-0.361759275198,0.00294049317017,,0.000501297322395,-0.00078170320725,0.0343612719197,-0.999409041923
2119328000000,,45536,,2119,320334355,"""map""",,,0.0456376597285,-0.362111926079,0.00229701492935,,0.000460151204292,-0.000790475606612,0.0343648544018,-0.999408999776
2119360000000,,45537,,2119,351334355,"""map""",,,0.0464703515172,-0.362418055534,0.00171530258376,,0.000448912792412,-0.000833506407068,0.0343474899003,-0.999409505538
2119396000000,,45538,,2119,391334355,"""map""",,,0.0457166209817,-0.36291077733,0.000972975627519,,0.000497329715211,-0.000771122084527,0.0343350144331,-0.9994100113
2119428000000,,45539,,2119,424345415,"""map""",,,0.0444926507771,-0.363335877657,0.000442110962467,,0.000518196943008,-0.000758594252789,0.0343562142979,-0.999409294804
2119460000000,,45540,,2119,456345415,"""map""",,,0.0438443720341,-0.363707065582,-0.000146092192153,,0.000519890554846,-0.000753674184452,0.0343491757742,-0.999409505538
2119496000000,,45541,,2119,487345415,"""map""",,,0.0437243506312,-0.364030361176,-0.000864624977112,,0.000528224589941,-0.000778625458332,0.0343337500276,-0.9994100113
2119528000000,,45542,,2119,520344475,"""map""",,,0.0440708845854,-0.364327937365,-0.00156388245523,,0.000527269329973,-0.000795742635297,0.0343302096924,-0.999410095594
2119560000000,,45543,,2119,552344475,"""map""",,,0.0448686182499,-0.364606827497,-0.00226944405586,,0.000571017537498,-0.000732392274266,0.0343375010972,-0.99940988486
2119596000000,,45544,,2119,592344475,"""map""",,,0.0439222082496,-0.364925026894,-0.00290169287473,,0.000605801812105,-0.000692424678154,0.0343771191348,-0.999408536161
2119628000000,,45545,,2119,623343535,"""map""",,,0.042497381568,-0.365179240704,-0.00336775067262,,0.000625694476348,-0.000676323830871,0.0343744217365,-0.999408620454
2119660000000,,45546,,2119,656343535,"""map""",,,0.0416631996632,-0.365421146154,-0.00378645397723,,0.000602378556269,-0.000658667992795,0.034335309461,-0.999409969153
2119696000000,,45547,,2119,688343535,"""map""",,,0.0413608513772,-0.365697681904,-0.00417103944346,,0.000339702281909,-0.000711437321139,0.0344192659833,-0.999407187461
2119728000000,,45548,,2119,719342594,"""map""",,,0.0415310412645,-0.365922868252,-0.0044388002716,,0.000348887804763,-0.000714099013983,0.0344328372685,-0.999406765993
2119760000000,,45549,,2119,752342594,"""map""",,,0.0421402305365,-0.366093546152,-0.00483770947903,,0.000524033087914,-0.000644309821488,0.0344809268226,-0.999405037972
2119796000000,,45550,,2119,792342594,"""map""",,,0.0419159457088,-0.366376876831,-0.00521098449826,,0.000512477350189,-0.000625546170066,0.0344754055855,-0.999405248706
2119828000000,,45551,,2119,824341653,"""map""",,,0.0405511781573,-0.366690993309,-0.00554630160332,,0.000487692317638,-0.000608682872299,0.0344335959118,-0.999406681699
2119860000000,,45552,,2119,856341653,"""map""",,,0.0397840328515,-0.367003947496,-0.00594136491418,,0.000420987500664,-0.000613202483837,0.0343692376741,-0.999408999776
2119896000000,,45553,,2119,888341653,"""map""",,,0.0395483486354,-0.367304444313,-0.00645873229951,,0.000453929003102,-0.000622473025816,0.034324477721,-0.999410517062
2119928000000,,45554,,2119,920340715,"""map""",,,0.0398107022047,-0.367604643106,-0.00694567151368,,0.000447862779208,-0.000603938002526,0.0342937105216,-0.999411528587
2119960000000,,45555,,2119,952340715,"""map""",,,0.0405263416469,-0.367898732424,-0.00745195895433,,0.000432553708218,-0.000595689948648,0.0342920246476,-0.999411612881
2119996000000,,45556,,2119,992340715,"""map""",,,0.0404331609607,-0.368230015039,-0.00811136141419,,0.00036694601096,-0.000576286958551,0.0343407885513,-0.999409969153
2120028000000,,45557,,2120,24339774,"""map""",,,0.0390982553363,-0.368456125259,-0.00865282770246,,0.000366485317918,-0.000566610922936,0.0343686897651,-0.999409041923
2120060000000,,45558,,2120,56339774,"""map""",,,0.0383590869606,-0.368690192699,-0.00931984838098,,0.000294058438583,-0.000472736133896,0.0343974760626,-0.999408072545
2120096000000,,45559,,2120,88339774,"""map""",,,0.0381444990635,-0.368928194046,-0.0100768189877,,0.000265916676053,-0.000429816416522,0.0344145033894,-0.999407566783
2120128000000,,45560,,2120,120338832,"""map""",,,0.0383916199207,-0.369180142879,-0.0108304005116,,0.000235335613216,-0.000440123198864,0.0344070012504,-0.999407819664
2120160000000,,45561,,2120,152338832,"""map""",,,0.0390424989164,-0.369430989027,-0.0114062093198,,0.000188975715926,-0.000448089745544,0.0343804908826,-0.999408789042
2120196000000,,45562,,2120,192338832,"""map""",,,0.038924664259,-0.369948446751,-0.011684441939,,0.000119408504379,-0.00047996499754,0.0343070710725,-0.999411233559
2120228000000,,45563,,2120,224337890,"""map""",,,0.0376654602587,-0.37053450942,-0.0119455978274,,8.6833579712e-05,-0.00049863224422,0.0342926568503,-0.999411739321
2120260000000,,45564,,2120,255337890,"""map""",,,0.03696994856,-0.371086865664,-0.0122805247083,,5.23299633969e-05,-0.000504127798139,0.0342462531701,-0.999413298754
2120296000000,,45565,,2120,288337890,"""map""",,,0.0368168540299,-0.371628642082,-0.0126564661041,,4.0629500226e-05,-0.000505498908384,0.0341652469273,-0.999416080446
2120328000000,,45566,,2120,320336948,"""map""",,,0.0371351763606,-0.372156649828,-0.0129546159878,,2.19365908898e-05,-0.000551694817802,0.0341415182516,-0.999416881237
2120360000000,,45567,,2120,351336948,"""map""",,,0.0378985069692,-0.372666686773,-0.013326741755,,-2.15796597664e-05,-0.000574815286502,0.0341605264803,-0.999416249034
2120396000000,,45568,,2120,391336948,"""map""",,,0.0379230976105,-0.373321771622,-0.0136092649773,,1.87891803115e-05,-0.000533672409673,0.0341854774146,-0.999415406097
2120428000000,,45569,,2120,424336009,"""map""",,,0.0367534160614,-0.373910963535,-0.0135966641828,,-5.8330579794e-06,-0.000517101618855,0.0341861096173,-0.99941536395
2120460000000,,45570,,2120,456336009,"""map""",,,0.0361209213734,-0.374491006136,-0.0137742282823,,-4.12459390444e-05,-0.000506897656919,0.0341891441904,-0.999415279656
2120496000000,,45571,,2120,487336009,"""map""",,,0.0359574146569,-0.375077843666,-0.0140326591209,,-2.78734725268e-05,-0.000515998145213,0.0341414761047,-0.999416923383
2120528000000,,45572,,2120,520335067,"""map""",,,0.0362451262772,-0.375660866499,-0.0143532771617,,-4.90908299162e-05,-0.000548434837272,0.0341258396239,-0.999417471292
2120560000000,,45573,,2120,552335067,"""map""",,,0.0369685590267,-0.37625092268,-0.0147609720007,,-3.64569622233e-05,-0.000562174277717,0.0340755162868,-0.999419157166
2120596000000,,45574,,2120,592335067,"""map""",,,0.0376634299755,-0.376927286386,-0.0153986811638,,-3.21787072477e-05,-0.000589042708427,0.0341373457136,-0.999417007677
2120628000000,,45575,,2120,623334124,"""map""",,,0.0363249816,-0.377319216728,-0.015549142845,,-5.46432861967e-05,-0.000579817425948,0.0341628024101,-0.99941616474
2120660000000,,45576,,2120,656334124,"""map""",,,0.0355377458036,-0.377751231194,-0.0157233327627,,-7.44510084874e-05,-0.000546511146446,0.0341285370222,-0.999417302705
2120696000000,,45577,,2120,688334124,"""map""",,,0.0352749191225,-0.378182202578,-0.0158928930759,,-0.000104246628376,-0.00054888295623,0.0341099081152,-0.999417977055
2120728000000,,45578,,2120,719345181,"""map""",,,0.0354890823364,-0.378681778908,-0.0160281732678,,-0.000120717073475,-0.000562982311828,0.0341124369261,-0.999417892761
2120760000000,,45579,,2120,752345181,"""map""",,,0.0360975973308,-0.379237294197,-0.0162054542452,,-0.000111400953014,-0.000543525387965,0.0340401550809,-0.999420379425
2120796000000,,45580,,2120,792345181,"""map""",,,0.0366854183376,-0.379920989275,-0.0161768961698,,-9.74888504306e-05,-0.00057160002526,0.0339944257503,-0.999421854565
2120828000000,,45581,,2120,824344238,"""map""",,,0.0353037714958,-0.380282968283,-0.0158471241593,,-8.61729978319e-05,-0.000587975722267,0.0339996941063,-0.999421728124
2120860000000,,45582,,2120,856344238,"""map""",,,0.0344750694931,-0.380684286356,-0.0156359300017,,-7.39667724788e-05,-0.000575855889722,0.0339688004664,-0.999422781795
2120896000000,,45583,,2120,888344238,"""map""",,,0.0342173837125,-0.381141036749,-0.0155860055238,,-9.30400118479e-05,-0.000755054349684,0.0339537961883,-0.99942311897
2120928000000,,45584,,2120,920343298,"""map""",,,0.0344203673303,-0.381645768881,-0.0154788000509,,-8.28106547898e-05,-0.000707813597665,0.0339526582234,-0.999423245411
2120960000000,,45585,,2120,952343298,"""map""",,,0.0350620858371,-0.38221436739,-0.0153978718445,,-8.74244999307e-05,-0.000663680167328,0.0339103006407,-0.999424636257
2120996000000,,45586,,2120,992343298,"""map""",,,0.0357005633414,-0.382988512516,-0.0151896495372,,-9.92344461261e-05,-0.00062272048935,0.0339387497634,-0.999423751173
2121028000000,,45587,,2121,24342354,"""map""",,,0.0344685316086,-0.383562445641,-0.014918288216,,-0.000104618561967,-0.000590960348875,0.0339133773606,-0.99942459411
2121060000000,,45588,,2121,56342354,"""map""",,,0.033836144954,-0.384241908789,-0.0147151900455,,-0.00010856196764,-0.000563658410663,0.0338309381249,-0.999427460096
2121096000000,,45589,,2121,88342354,"""map""",,,0.0337126366794,-0.384998828173,-0.0145732183009,,-0.000116093720598,-0.000511005122492,0.0337728597677,-0.999429398851
2121128000000,,45590,,2121,120341410,"""map""",,,0.0340781360865,-0.385806560516,-0.0144808832556,,-0.000150137395023,-0.000444975858997,0.0337520392245,-0.999430157494
2121160000000,,45591,,2121,152341410,"""map""",,,0.0348810516298,-0.386656761169,-0.0144585836679,,-9.20778989012e-05,-0.000427700456424,0.033735770541,-0.99943074755
2121196000000,,45592,,2121,192341410,"""map""",,,0.0358144529164,-0.38765463233,-0.0146057400852,,-8.88807270535e-05,-0.000364865617411,0.0336832134209,-0.999432559864
2121228000000,,45593,,2121,224340466,"""map""",,,0.0350439362228,-0.388197153807,-0.0148732354864,,-9.3783570336e-05,-0.000344480228109,0.0336750790791,-0.999432770598
2121260000000,,45594,,2121,255340466,"""map""",,,0.034807484597,-0.388823658228,-0.0151818385348,,-8.65045749916e-05,-0.000338941066196,0.0337189539484,-0.999431295459
2121296000000,,45595,,2121,288340466,"""map""",,,0.0350621119142,-0.389541596174,-0.0155170224607,,-6.25876481585e-05,-0.000323858246404,0.0337213984656,-0.999431211165
2121328000000,,45596,,2121,320339522,"""map""",,,0.0357652381063,-0.390333145857,-0.015948176384,,-6.89041395454e-05,-0.000303604030937,0.0337237165423,-0.999431169018
2121360000000,,45597,,2121,351339522,"""map""",,,0.0368902459741,-0.391145080328,-0.0164140611887,,-0.000105928566484,-0.00022053799979,0.0337307972128,-0.999430916137
2121396000000,,45598,,2121,391339522,"""map""",,,0.0387865938246,-0.392210483551,-0.0169025473297,,6.34272718268e-05,-0.000209486413899,0.0336786615612,-0.999432728452
2121428000000,,45599,,2121,424338580,"""map""",,,0.0377714857459,-0.392471164465,-0.0164924152195,,6.13079778474e-05,-0.000200078606549,0.0336455341383,-0.99943382427
2121460000000,,45600,,2121,456338580,"""map""",,,0.0372896008193,-0.392838925123,-0.0161640699953,,8.74545254445e-05,-9.27623941787e-05,0.0336196138265,-0.999434709354
2121496000000,,45601,,2121,487338580,"""map""",,,0.0373224504292,-0.393298923969,-0.0159273445606,,2.746374144e-05,-4.9019067215e-05,0.0335444238487,-0.999437238164
2121528000000,,45602,,2121,520337636,"""map""",,,0.0377822369337,-0.393853843212,-0.0157208610326,,5.56500888484e-05,-3.21801053686e-05,0.0335841683269,-0.999435931612
2121560000000,,45603,,2121,552337636,"""map""",,,0.0386448465288,-0.394498705864,-0.015593893826,,5.78718533822e-05,2.87002532909e-05,0.0336473885996,-0.99943382427
2121596000000,,45604,,2121,592337636,"""map""",,,0.0402339473367,-0.39539322257,-0.0155509756878,,6.8580308001e-05,2.0680687347e-05,0.0336521511935,-0.999433613535
2121628000000,,45605,,2121,623336691,"""map""",,,0.0389817729592,-0.395626842976,-0.0154700409621,,7.85893073205e-05,3.99515337999e-05,0.0336399286075,-0.999434035004
2121660000000,,45606,,2121,656336691,"""map""",,,0.0383183844388,-0.395945549011,-0.0154191879556,,0.000103750556574,2.41133711744e-05,0.0336172957498,-0.999434835794
2121696000000,,45607,,2121,688336691,"""map""",,,0.0381921716034,-0.396360367537,-0.0154001135379,,0.000123831453931,1.52140244957e-05,0.0336266102033,-0.999434540766
2121728000000,,45608,,2121,719335746,"""map""",,,0.0385590009391,-0.396818935871,-0.0153877129778,,0.000146934285985,3.19959199878e-05,0.0335851798512,-0.999435847318
2121760000000,,45609,,2121,752335746,"""map""",,,0.0393340550363,-0.397372156382,-0.0154620502144,,9.50268972223e-05,2.17767755144e-05,0.0335592173926,-0.999436774549
2121796000000,,45610,,2121,792335746,"""map""",,,0.0408472567797,-0.398170381784,-0.0155202243477,,8.11843997069e-05,-7.91741308571e-06,0.033580796579,-0.999436015906
2121828000000,,45611,,2121,824334800,"""map""",,,0.0394550934434,-0.398281157017,-0.0156818572432,,7.51901218001e-05,1.50484622911e-06,0.0335838732989,-0.999435973759
2121860000000,,45612,,2121,856334800,"""map""",,,0.0386273190379,-0.398477554321,-0.0158032122999,,0.000115581095147,4.05530679046e-06,0.0335975710247,-0.999435510144
2121896000000,,45613,,2121,896334800,"""map""",,,0.0382543802261,-0.398868888617,-0.0159751046449,,7.79051464601e-05,1.66745733169e-05,0.0335981610806,-0.99943542585
2121928000000,,45614,,2121,920333858,"""map""",,,0.0383547954261,-0.399166852236,-0.0161414202303,,8.83951688112e-05,4.40081370998e-05,0.033616410666,-0.999434877941
2121960000000,,45615,,2121,952333858,"""map""",,,0.0388756766915,-0.399622917175,-0.0164625253528,,7.11991890216e-05,4.40442991679e-05,0.0335687004335,-0.999436479521
2121996000000,,45616,,2121,992333858,"""map""",,,0.0401146747172,-0.400305300951,-0.0168364904821,,6.92991170488e-05,-0.000132950252849,0.0335687004335,-0.999436479521
2122028000000,,45617,,2122,24332912,"""map""",,,0.0386544652283,-0.400357693434,-0.0168961882591,,7.16814622588e-05,-0.000114547783507,0.0335773826843,-0.999436142346
2122060000000,,45618,,2122,56332912,"""map""",,,0.0377421788871,-0.400505304337,-0.0170348677784,,3.08519368558e-05,-6.90877178305e-05,0.0335986668428,-0.99943542585
2122096000000,,45619,,2122,88332912,"""map""",,,0.0373273640871,-0.400759577751,-0.0171800814569,,7.96985393675e-05,-8.70900300628e-05,0.0335656658604,-0.999436479521
2122128000000,,45620,,2122,120331966,"""map""",,,0.0374017395079,-0.401131272316,-0.0174417197704,,7.32136985372e-05,-0.000117443765136,0.0335465311912,-0.999437153871
2122160000000,,45621,,2122,152331966,"""map""",,,0.0378772802651,-0.401615589857,-0.0175614319742,,0.000143380062109,-7.16812706119e-05,0.0335233925713,-0.999437954661
2122196000000,,45622,,2122,192331966,"""map""",,,0.0390297137201,-0.402331978083,-0.0177093166858,,0.000172326650919,-5.56970603071e-05,0.0335286187805,-0.999437786073
2122228000000,,45623,,2122,224331020,"""map""",,,0.0382355824113,-0.402600616217,-0.0177080053836,,0.000127626820856,-2.46580878075e-05,0.0335084725869,-0.999438460423
2122260000000,,45624,,2122,255331020,"""map""",,,0.0372971557081,-0.402831286192,-0.0177304092795,,0.00010558708286,-3.64347594981e-05,0.0335687425803,-0.999436437374
2122296000000,,45625,,2122,288331020,"""map""",,,0.0368798971176,-0.403164744377,-0.0177980605513,,0.000113242670483,-4.76500837343e-05,0.0335961801787,-0.99943555229
2122328000000,,45626,,2122,320330074,"""map""",,,0.0369330272079,-0.403588443995,-0.0179011132568,,5.85713562717e-05,-7.77535821843e-05,0.0335998469545,-0.99943542585
2122360000000,,45627,,2122,351330074,"""map""",,,0.0374070219696,-0.404093265533,-0.0180812459439,,5.85561415784e-05,-8.12380196354e-05,0.0335785206492,-0.9994361002
2122396000000,,45628,,2122,391330074,"""map""",,,0.0385653451085,-0.40485611558,-0.0182399302721,,6.58435050689e-06,-3.01416348653e-05,0.0335544126518,-0.999436943136
2122428000000,,45629,,2122,424329131,"""map""",,,0.0377207659185,-0.404962033033,-0.0181539431214,,6.70409242e-06,-2.19778258084e-05,0.0335168598098,-0.999438165395
2122460000000,,45630,,2122,456329131,"""map""",,,0.0367051064968,-0.404994159937,-0.018014203757,,5.49615689894e-05,1.25737137681e-05,0.0334890428898,-0.999439092626
2122496000000,,45631,,2122,487329131,"""map""",,,0.0362138152122,-0.405150204897,-0.0179239716381,,0.000102569278214,7.67859770794e-05,0.0335043421958,-0.99943862901
2122528000000,,45632,,2122,520328184,"""map""",,,0.0361585840583,-0.405433267355,-0.0179727170616,,9.29070681755e-05,0.000190453088501,0.0334830158904,-0.99943930336
2122560000000,,45633,,2122,552328184,"""map""",,,0.0365398712456,-0.405853509903,-0.0180236715823,,0.000134717204937,0.000276650154077,0.0334767781569,-0.999439471947
2122596000000,,45634,,2122,592328184,"""map""",,,0.0375748760998,-0.40653476119,-0.0181512124836,,0.000118626585673,0.000323257602364,0.0335108749573,-0.999438333982
2122628000000,,45635,,2122,623327238,"""map""",,,0.0368217155337,-0.40654951334,-0.0180651377887,,0.000123172806525,0.000335402233226,0.033525710648,-0.99943782822
2122660000000,,45636,,2122,656327238,"""map""",,,0.0359199419618,-0.406454205513,-0.0179756842554,,0.000129476939913,0.000344893866089,0.0335044264895,-0.999438544717
2122696000000,,45637,,2122,688327238,"""map""",,,0.0355421938002,-0.406466722488,-0.0179481133819,,0.00010771006829,0.000392506387062,0.0335441288208,-0.999437196018
2122728000000,,45638,,2122,719326291,"""map""",,,0.0356374531984,-0.406575322151,-0.0181000493467,,0.00013457636902,0.000451364100866,0.0334922460503,-0.999438924038
2122760000000,,45639,,2122,752326291,"""map""",,,0.0361524671316,-0.406801968813,-0.0185369271785,,0.000179351900833,0.000495844604738,0.0334654406546,-0.999439766975
2122796000000,,45640,,2122,792326291,"""map""",,,0.037327427417,-0.407259851694,-0.0194456782192,,0.000224169517755,0.000570359821315,0.0334911502322,-0.999438839745
2122828000000,,45641,,2122,824337344,"""map""",,,0.0366072654724,-0.40720552206,-0.020159766078,,0.000214167533478,0.000549327977971,0.0334732378216,-0.999439471947
2122860000000,,45642,,2122,856337344,"""map""",,,0.0358166433871,-0.407114267349,-0.0209722295403,,0.000269989387969,0.00026728027992,0.0334182783311,-0.999441410702
2122896000000,,45643,,2122,888337344,"""map""",,,0.0354979522526,-0.407173663378,-0.0217493921518,,0.000468586480315,0.000178038989458,0.0334677587313,-0.999439724828
2122928000000,,45644,,2122,920336400,"""map""",,,0.0356493964791,-0.40739774704,-0.0224737040699,,0.000509718624927,0.00019891107402,0.0334227037502,-0.999441199968
2122960000000,,45645,,2122,952336400,"""map""",,,0.0361894331872,-0.407734364271,-0.0234442763031,,0.000521202107972,0.000238383048507,0.0333660583858,-0.99944305443
2122996000000,,45646,,2122,992336400,"""map""",,,0.0373433195055,-0.408314675093,-0.0247884634882,,0.000532264081373,0.000287397867981,0.0333057462456,-0.999445035331
2123028000000,,45647,,2123,24347456,"""map""",,,0.037186190486,-0.408529311419,-0.0255459398031,,0.000751792311203,0.000292529051282,0.0332786036752,-0.999445793975
2123060000000,,45648,,2123,56347456,"""map""",,,0.0360365733504,-0.408488959074,-0.0261048171669,,0.000741115349674,0.000315598585679,0.0332783507941,-0.999445793975
2123096000000,,45649,,2123,88347456,"""map""",,,0.0354017913342,-0.40855461359,-0.0265924427658,,0.0007058006329,0.000232680114806,0.0331836046786,-0.999448997135
2123128000000,,45650,,2123,120346509,"""map""",,,0.0352625325322,-0.408726990223,-0.0271294582635,,0.000697113895772,0.000247979132702,0.0331675467293,-0.999449545044
2123160000000,,45651,,2123,152346509,"""map""",,,0.0355403274298,-0.408995836973,-0.0278376992792,,0.00074832075267,0.00021828140957,0.0331221124267,-0.999451062331
2123196000000,,45652,,2123,192346509,"""map""",,,0.0364202074707,-0.409509003162,-0.0285527426749,,0.000768988328293,0.00021720256961,0.0331162961616,-0.999451230918
2123228000000,,45653,,2123,224345561,"""map""",,,0.0360593497753,-0.409788489342,-0.0288288574666,,0.000777705975853,0.000194067983362,0.0331361051804,-0.999450556569
2123260000000,,45654,,2123,255345561,"""map""",,,0.0347487479448,-0.409921377897,-0.0288961082697,,0.00082786076674,0.000169889315956,0.0331312582928,-0.999450683009
2123296000000,,45655,,2123,288345561,"""map""",,,0.0339438170195,-0.410146653652,-0.0290500093251,,0.000827887334895,0.000123832873917,0.0330843909972,-0.999452284589
2123328000000,,45656,,2123,320356613,"""map""",,,0.0336202643812,-0.41043689847,-0.0294360835105,,0.000813025487655,0.000158279752507,0.0330976672545,-0.999451820974
2123360000000,,45657,,2123,351356613,"""map""",,,0.0337073169649,-0.410790711641,-0.029824251309,,0.000763888456725,0.000149454741612,0.0330970771986,-0.999451905268
2123396000000,,45658,,2123,391356613,"""map""",,,0.0343698486686,-0.411339253187,-0.030312133953,,0.000750613763487,0.000218113192607,0.0331248519718,-0.99945093589
2123428000000,,45659,,2123,424355668,"""map""",,,0.0339072793722,-0.411332011223,-0.0306954625994,,0.000773177453385,0.000194997395458,0.0331499714935,-0.999450092953
2123460000000,,45660,,2123,456355668,"""map""",,,0.0325573794544,-0.410935610533,-0.0310821197927,,0.000726330778516,0.000153212869904,0.0331166754832,-0.999451273065
2123496000000,,45661,,2123,487355668,"""map""",,,0.0317296385765,-0.410750687122,-0.0314584486187,,0.000684198315086,0.000167353816703,0.0330473860642,-0.999453548995
2123528000000,,45662,,2123,520366722,"""map""",,,0.0314004160464,-0.410681694746,-0.031842853874,,0.000675363096752,0.000156368903299,0.0330151015783,-0.999454644813
2123560000000,,45663,,2123,552366722,"""map""",,,0.0314961858094,-0.410709828138,-0.0322191938758,,0.000650646624858,0.000148526276174,0.0329692036603,-0.999456204246
2123596000000,,45664,,2123,592366722,"""map""",,,0.032144755125,-0.410893589258,-0.0329558439553,,0.00067450536311,0.000140578467143,0.0329313136434,-0.999457426505
2123628000000,,45665,,2123,623365773,"""map""",,,0.0317038372159,-0.410772949457,-0.0333546288311,,0.000633408769612,0.000159612667171,0.0329518391587,-0.999456710008
2123660000000,,45666,,2123,656365773,"""map""",,,0.0303851049393,-0.410453557968,-0.0336390435696,,0.000625105367126,0.000175568274521,0.0329395744257,-0.999457173624
2123696000000,,45667,,2123,688365773,"""map""",,,0.0295698083937,-0.410246044397,-0.0340445302427,,0.000594690242071,0.00018227151675,0.0329316508182,-0.999457426505
2123728000000,,45668,,2123,719364824,"""map""",,,0.0292413923889,-0.410180032253,-0.0342223905027,,0.000607021734937,0.000161681628799,0.0329045503946,-0.999458311589
2123760000000,,45669,,2123,752364824,"""map""",,,0.0293777417392,-0.410243928432,-0.0344668999314,,0.000586744202879,0.000209120005909,0.0329256659657,-0.999457595092
2123796000000,,45670,,2123,792364824,"""map""",,,0.0301177371293,-0.410505503416,-0.0347978509963,,0.000544296553874,0.000238241265932,0.0329457700125,-0.99945696289
2123828000000,,45671,,2123,824363874,"""map""",,,0.0304637141526,-0.410584241152,-0.0348231457174,,0.000546214461856,0.000271203085497,0.0329244437071,-0.999457721533
2123860000000,,45672,,2123,856363874,"""map""",,,0.0293373838067,-0.410134375095,-0.0346055924892,,0.000545663671693,0.000309708347515,0.0328442804013,-0.999460334637
2123900000000,,45673,,2123,888363874,"""map""",,,0.0287240706384,-0.409831106663,-0.0344853550196,,0.000568713984823,0.000352202722311,0.0328625299867,-0.999459702435
2123928000000,,45674,,2123,928362926,"""map""",,,0.0286247637123,-0.409679353237,-0.0344228595495,,0.000576811849394,0.000401059738057,0.032856882309,-0.999459871022
2123960000000,,45675,,2123,952362926,"""map""",,,0.0288741588593,-0.409662932158,-0.0344124995172,,0.000586022108826,0.000456328888491,0.0328798944883,-0.999459112379
2123996000000,,45676,,2123,992362926,"""map""",,,0.029749494046,-0.409827619791,-0.0344943515956,,0.00061333819031,0.000490821242666,0.0328617713434,-0.999459618141
2124028000000,,45677,,2124,24361976,"""map""",,,0.0301586594433,-0.409845918417,-0.0343396477401,,0.000577303087582,0.000490056549015,0.0328621928119,-0.999459618141
2124060000000,,45678,,2124,56361976,"""map""",,,0.0290468558669,-0.409193307161,-0.0338016562164,,0.00057330590249,0.00052822420922,0.0328082869926,-0.999461430455
2124096000000,,45679,,2124,88361976,"""map""",,,0.0284846555442,-0.408707112074,-0.0333945564926,,0.000559741182135,0.000334648693673,0.0327353307979,-0.99946391712
2124128000000,,45680,,2124,120361024,"""map""",,,0.0283499453217,-0.408360302448,-0.0328817032278,,0.000571515021569,0.000326404488165,0.0326944483548,-0.999465181525
2124160000000,,45681,,2124,152361024,"""map""",,,0.0286323688924,-0.408131569624,-0.0324548259377,,0.000589434655597,0.000356928622916,0.0327129508213,-0.999464549322
2124196000000,,45682,,2124,192361024,"""map""",,,0.0295361839235,-0.408036381006,-0.0319818072021,,0.000570902492859,0.000358777219088,0.0327403462728,-0.999463706385
2124228000000,,45683,,2124,224360073,"""map""",,,0.0299692582339,-0.40792798996,-0.0316265709698,,0.000547846067613,0.000366128098681,0.0327491549642,-0.999463411357
2124260000000,,45684,,2124,255360073,"""map""",,,0.0287677869201,-0.407438784838,-0.0310036242008,,0.000527426500881,0.000388991112492,0.0327628948368,-0.999462989889
2124296000000,,45685,,2124,288360073,"""map""",,,0.0280708931386,-0.407088935375,-0.030404413119,,0.000544340141288,0.000337564800782,0.0327912596658,-0.999462020511
2124328000000,,45686,,2124,320359121,"""map""",,,0.027844928205,-0.406908273697,-0.0298884920776,,0.000544412817849,0.00034371462896,0.0327632320116,-0.999462905595
2124360000000,,45687,,2124,351359121,"""map""",,,0.0280233509839,-0.406883358955,-0.0293877553195,,0.000534311568277,0.000293131249075,0.0327373116997,-0.999463874973
2124396000000,,45688,,2124,391359121,"""map""",,,0.0287345927209,-0.407020807266,-0.0287576485425,,0.00054861348805,0.000375143850819,0.0327899531135,-0.999462062658
2124428000000,,45689,,2124,424358171,"""map""",,,0.0290240980685,-0.407099574804,-0.0284940917045,,0.000555918717132,0.000391199582659,0.0327773933527,-0.999462484127
2124460000000,,45690,,2124,456358171,"""map""",,,0.0277369190007,-0.406845748425,-0.028277663514,,0.000598736349818,0.000364625526489,0.0328049995385,-0.999461599043
2124496000000,,45691,,2124,487358171,"""map""",,,0.0269595962018,-0.406728029251,-0.0282585453242,,0.000578684749974,0.000383605756736,0.0328102257477,-0.999461346162
2124528000000,,45692,,2124,520357219,"""map""",,,0.0266535710543,-0.406752079725,-0.0284573026001,,0.000559868301804,0.000400941302943,0.0327950528822,-0.999461936218
2124560000000,,45693,,2124,552357219,"""map""",,,0.0267877876759,-0.406870186329,-0.0289388261735,,0.000590575764027,0.000432534456081,0.0328277166898,-0.999460798253
2124596000000,,45694,,2124,592357219,"""map""",,,0.0274884272367,-0.407124429941,-0.0298813693225,,0.000560670619955,0.000460270930771,0.0328139346703,-0.999461261868
2124628000000,,45695,,2124,623368265,"""map""",,,0.0284093990922,-0.407411038876,-0.0307931639254,,0.000737801409653,0.000475735351381,0.032833237927,-0.999460503225
2124660000000,,45696,,2124,656368265,"""map""",,,0.026875577867,-0.407086461782,-0.0313033647835,,0.000688802961184,0.000527229436582,0.0328181072083,-0.99946096684
2124696000000,,45697,,2124,688368265,"""map""",,,0.0258907731622,-0.406899809837,-0.0319580994546,,0.000722240486548,0.000546388626299,0.0328393070731,-0.999460250344
2124728000000,,45698,,2124,719367312,"""map""",,,0.0253762993962,-0.406851530075,-0.0327587239444,,0.000721247175056,0.000573003352737,0.032829613298,-0.999460587518
2124760000000,,45699,,2124,752367312,"""map""",,,0.0252722352743,-0.406916320324,-0.0335851162672,,0.000709533574436,0.000656687307,0.0328526254773,-0.999459744582
2124796000000,,45700,,2124,792367312,"""map""",,,0.0256223678589,-0.407125353813,-0.0346085838974,,0.000715145271426,0.00062711520895,0.0328097199855,-0.999461177574
2124828000000,,45701,,2124,824366358,"""map""",,,0.0262833256274,-0.407386392355,-0.0354976281524,,0.000699213389685,0.000624642582691,0.0328164213344,-0.99946096684
2124860000000,,45702,,2124,856366358,"""map""",,,0.0247831102461,-0.407316595316,-0.0359546206892,,0.000690265443836,0.000675530676393,0.0327874664495,-0.999461936218
2124896000000,,45703,,2124,888366358,"""map""",,,0.0238189008087,-0.407368272543,-0.0364581272006,,0.000716581186566,0.000634781202091,0.0326770417064,-0.999465476553
2124928000000,,45704,,2124,920365406,"""map""",,,0.0233499053866,-0.407503843307,-0.0370483510196,,0.000712843488589,0.000625431892015,0.0326464852412,-0.999466530224
2124960000000,,45705,,2124,952365406,"""map""",,,0.0233197323978,-0.407733172178,-0.0377514697611,,0.000689850332492,0.000629208719369,0.0326275613062,-0.999467162427
2124996000000,,45706,,2124,992365406,"""map""",,,0.0237898845226,-0.408161371946,-0.0385602340102,,0.000693692475371,0.00066771156458,0.0325887019119,-0.999468426832
2125028000000,,45707,,2125,24364451,"""map""",,,0.024545006454,-0.408595025539,-0.0391594730318,,0.000693761733159,0.000666027967248,0.0325732761653,-0.999468932594
2125060000000,,45708,,2125,56364451,"""map""",,,0.0233025476336,-0.40825521946,-0.0394577309489,,0.000698989021513,0.000725230533286,0.0325594941459,-0.999469311916
2125096000000,,45709,,2125,88364451,"""map""",,,0.02257687971,-0.408014565706,-0.0398693829775,,0.000729142098589,0.000764980967915,0.0325543522304,-0.999469480504
2125128000000,,45710,,2125,120357499,"""map""",,,0.022319374606,-0.407882809639,-0.0403642095625,,0.000733662905025,0.000784997200575,0.0325561645448,-0.999469354063
2125160000000,,45711,,2125,152357499,"""map""",,,0.0224737711251,-0.407890081406,-0.0410179682076,,0.000463613275668,0.000829956893329,0.0325439419588,-0.999469944119
2125196000000,,45712,,2125,192357499,"""map""",,,0.0232153590769,-0.408020615578,-0.0417547188699,,0.000436348874493,0.000827408243766,0.0324958945515,-0.999471461405
2125228000000,,45713,,2125,224356544,"""map""",,,0.0241858400404,-0.408244490623,-0.0424084179103,,0.000448017583471,0.000831432568095,0.0324922699225,-0.999471545699
2125260000000,,45714,,2125,255356544,"""map""",,,0.022965496406,-0.40774422884,-0.0431408211589,,0.000445758158423,0.000847475494331,0.0324556021643,-0.999472725811
2125296000000,,45715,,2125,288356544,"""map""",,,0.0222333651036,-0.407376825809,-0.0438955053687,,0.00042769852195,0.000807934465279,0.0324629357159,-0.999472557223
2125328000000,,45716,,2125,320355588,"""map""",,,0.0219614841044,-0.407171308994,-0.0446938350797,,0.00039878030972,0.000813169276732,0.032481269595,-0.999471925021
2125360000000,,45717,,2125,351355588,"""map""",,,0.0220983177423,-0.407103657722,-0.0455186292529,,0.000279955605047,0.000851814211924,0.0324869172727,-0.999471840727
2125396000000,,45718,,2125,391355588,"""map""",,,0.022756639868,-0.407112687826,-0.0465545430779,,0.000322393098061,0.000881278419289,0.0324815224761,-0.999471925021
2125428000000,,45719,,2125,424354634,"""map""",,,0.0236563310027,-0.407197654247,-0.0475172549486,,0.000315808805434,0.000896222358219,0.0324743996587,-0.999472135755
2125460000000,,45720,,2125,456354634,"""map""",,,0.0229097045958,-0.406921714544,-0.0480879880488,,0.0005784991639,0.000827392274061,0.0324604490519,-0.999472515077
2125496000000,,45721,,2125,487354634,"""map""",,,0.0219795256853,-0.406594306231,-0.0486729554832,,0.000625395919021,0.000862959943955,0.0324942929712,-0.999471377112
2125528000000,,45722,,2125,520353678,"""map""",,,0.0215105526149,-0.406353980303,-0.04912301898,,0.000665085120587,0.000841005345989,0.0324355402644,-0.999473315867
2125560000000,,45723,,2125,552353678,"""map""",,,0.0214895475656,-0.406216561794,-0.0495750308037,,0.000601945982562,0.000840335307821,0.0324820703852,-0.99947179858
2125596000000,,45724,,2125,592353678,"""map""",,,0.0219852253795,-0.406187683344,-0.0501295775175,,0.000576560964515,0.000884325031399,0.0325304549673,-0.999470197
2125628000000,,45725,,2125,623352721,"""map""",,,0.0227586533874,-0.406258076429,-0.0506720207632,,0.000529162532246,0.00088961563392,0.0325376199315,-0.999470028413
2125660000000,,45726,,2125,656352721,"""map""",,,0.0220567788929,-0.406049072742,-0.0501858368516,,0.000567520074499,0.000916534669659,0.0325522027411,-0.999469438357
2125696000000,,45727,,2125,688352721,"""map""",,,0.0212397687137,-0.40583717823,-0.0495686158538,,0.000511099273778,0.00095702198601,0.0325841500523,-0.999468426832
2125728000000,,45728,,2125,719351763,"""map""",,,0.0208736024797,-0.405736386776,-0.0490639843047,,0.000493246337961,0.000969219176955,0.0325817898287,-0.999468511126
2125760000000,,45729,,2125,752351763,"""map""",,,0.0209331922233,-0.405703872442,-0.0488215535879,,0.000494941102253,0.00103883918525,0.0326235152088,-0.999467078133
2125796000000,,45730,,2125,792351763,"""map""",,,0.0215415991843,-0.405757665634,-0.0487643368542,,0.000454500583721,0.00106160436919,0.0326397417454,-0.999466530224
2125828000000,,45731,,2125,824350806,"""map""",,,0.0223985966295,-0.405881762505,-0.0489055290818,,0.000469542213612,0.00108977642991,0.0326076679937,-0.999467583895
2125860000000,,45732,,2125,856350806,"""map""",,,0.021649453789,-0.405501425266,-0.0488120652735,,0.000414343897872,0.00110685341508,0.0325744562771,-0.999468679713
2125896000000,,45733,,2125,888350806,"""map""",,,0.0207442846149,-0.405037939548,-0.0487930551171,,0.00050183995278,0.00111961697488,0.0326215764537,-0.999467078133
2125928000000,,45734,,2125,920361848,"""map""",,,0.0203463360667,-0.404678702354,-0.0488970726728,,0.000959610467227,0.000821914593452,0.0326493512269,-0.999466108756
2125960000000,,45735,,2125,952361848,"""map""",,,0.0202827397734,-0.40443444252,-0.0487903319299,,0.00100931196341,0.000578819648701,0.0326781796713,-0.999465265819
2125996000000,,45736,,2125,992361848,"""map""",,,0.0207091141492,-0.404207617044,-0.0486638695002,,0.000968713064922,0.000591063267034,0.0327034677804,-0.999464507175
2126028000000,,45737,,2126,24360890,"""map""",,,0.0214315652847,-0.404106885195,-0.048587244004,,0.000959876817611,0.000585833332926,0.032672405553,-0.999465476553
2126060000000,,45738,,2126,56360890,"""map""",,,0.0206007976085,-0.403676390648,-0.0478070639074,,0.000989464707867,0.000594836644747,0.0325880697092,-0.999468216098
2126096000000,,45739,,2126,88360890,"""map""",,,0.0196386948228,-0.403212338686,-0.0470175258815,,0.000965127886882,0.000608620619264,0.0326132313777,-0.999467415308
2126128000000,,45740,,2126,120359931,"""map""",,,0.0191620960832,-0.402836054564,-0.0462753809988,,0.000958352101859,0.000599539475714,0.0326681487213,-0.999465602993
2126160000000,,45741,,2126,152359931,"""map""",,,0.0191004257649,-0.402525097132,-0.0455995127559,,0.000956168512328,0.000602406140537,0.0326740492801,-0.999465434406
2126196000000,,45742,,2126,192359931,"""map""",,,0.0195728614926,-0.402210265398,-0.0450352989137,,0.000938023316517,0.000601475442222,0.0327237404145,-0.999463874973
2126228000000,,45743,,2126,224358972,"""map""",,,0.0203722529113,-0.402013361454,-0.0445935130119,,0.000969750457737,0.000622873745004,0.0327286715958,-0.999463579945
2126260000000,,45744,,2126,255358972,"""map""",,,0.0202963259071,-0.401603758335,-0.0442599020898,,0.000954359099553,0.000650338199653,0.0327420321468,-0.999463200623
2126296000000,,45745,,2126,288358972,"""map""",,,0.0194829571992,-0.401039689779,-0.0439188107848,,0.000911637413715,0.000626706587228,0.0327811444222,-0.999461936218
2126328000000,,45746,,2126,320358013,"""map""",,,0.0191111154854,-0.400587826967,-0.0435479395092,,0.000872927550151,0.000641623073083,0.032788435827,-0.999461725483
2126360000000,,45747,,2126,351358013,"""map""",,,0.0191636346281,-0.400224328041,-0.0432357192039,,0.000833067415126,0.000613311503823,0.0328259043753,-0.999460587518
2126396000000,,45748,,2126,391358013,"""map""",,,0.0197732038796,-0.399877071381,-0.0430048331618,,0.000864029080674,0.000597698041214,0.0328321842557,-0.999460376784
2126428000000,,45749,,2126,424357056,"""map""",,,0.0206637643278,-0.399650603533,-0.0429309420288,,0.000866903637741,0.000611548539016,0.0328339544234,-0.999460292491
2126460000000,,45750,,2126,456357056,"""map""",,,0.0204528104514,-0.399279087782,-0.042789708823,,0.000855054899158,0.000628063723982,0.0328186551174,-0.999460756106
2126496000000,,45751,,2126,487357056,"""map""",,,0.0193009264767,-0.398771435022,-0.0425397977233,,0.000851634357245,0.00063794113016,0.0328450811914,-0.999459871022
2126528000000,,45752,,2126,520356096,"""map""",,,0.0186372511089,-0.398343652487,-0.0423127673566,,0.000810393254387,0.000586440068503,0.0328245556762,-0.999460671812
2126560000000,,45753,,2126,552356096,"""map""",,,0.0184030663222,-0.397981524467,-0.0421364046633,,0.000830987999103,0.000642370829793,0.0327736422832,-0.999462273392
2126596000000,,45754,,2126,592356096,"""map""",,,0.0186797492206,-0.397633343935,-0.0420696921647,,0.000857402816124,0.000642221566564,0.0327815237438,-0.999461978364
2126628000000,,45755,,2126,623355136,"""map""",,,0.0192973129451,-0.397436290979,-0.0420743301511,,0.000825482875709,0.00065095596585,0.0327718721155,-0.999462357686
2126660000000,,45756,,2126,656355136,"""map""",,,0.0190422292799,-0.397067517042,-0.0416959561408,,0.000862404893832,0.000655140131279,0.0328199616697,-0.999460713959
2126696000000,,45757,,2126,688355136,"""map""",,,0.0180811919272,-0.396547406912,-0.0411071889102,,0.000854621206441,0.000616863240149,0.0327287558895,-0.999463748532
2126728000000,,45758,,2126,719354175,"""map""",,,0.0176013298333,-0.396100342274,-0.0406786464155,,0.000849179370203,0.0006802183036,0.0327264378128,-0.999463790679
2126760000000,,45759,,2126,752354175,"""map""",,,0.0175817795098,-0.39566937089,-0.0403266809881,,0.00106651204866,0.000684921314638,0.0327461625379,-0.999462947742
2126796000000,,45760,,2126,792354175,"""map""",,,0.0181032046676,-0.395249724388,-0.0397061109543,,0.00106607765624,0.000669964863363,0.032677421028,-0.999465181525
2126828000000,,45761,,2126,824353214,"""map""",,,0.0189590640366,-0.394989818335,-0.0391530953348,,0.00109184279852,0.000669740711276,0.032703299193,-0.999464338588
2126860000000,,45762,,2126,856353214,"""map""",,,0.0189199596643,-0.394632846117,-0.0386785529554,,0.00106180868262,0.00070158631848,0.032661278785,-0.999465729434
2126896000000,,45763,,2126,888353214,"""map""",,,0.018096620217,-0.394159406424,-0.0382644869387,,0.00100467004781,0.000758074311321,0.0326572748344,-0.999465855875
2126928000000,,45764,,2126,920352256,"""map""",,,0.0177655518055,-0.393749475479,-0.0380658581853,,0.00100088047402,0.00079059173682,0.032647665353,-0.999466108756
2126960000000,,45765,,2126,952352256,"""map""",,,0.0178376585245,-0.393406540155,-0.037957161665,,0.000994489597968,0.000783367369801,0.0326642712113,-0.999465602993
2126996000000,,45766,,2126,992352256,"""map""",,,0.0184464864433,-0.393084079027,-0.0378628633916,,0.000962627624904,0.00082936450682,0.032693015362,-0.999464675763
2127028000000,,45767,,2127,24351295,"""map""",,,0.0193585846573,-0.39287468791,-0.0377102605999,,0.000961860461712,0.000842078819841,0.0326772102938,-0.999465139378
2127060000000,,45768,,2127,56351295,"""map""",,,0.0199617128819,-0.392666369677,-0.0374894142151,,0.00094796000199,0.000834487350272,0.0326776317623,-0.999465223672
2127096000000,,45769,,2127,88351295,"""map""",,,0.0190781783313,-0.392428338528,-0.0370649211109,,0.000880811690018,0.000868458848476,0.032646274507,-0.999466235196
2127128000000,,45770,,2127,120362333,"""map""",,,0.0186701696366,-0.392226159573,-0.0368576310575,,0.000901029257226,0.00088249893121,0.0326659149384,-0.999465560847
2127160000000,,45771,,2127,152362333,"""map""",,,0.0187017861754,-0.392033696175,-0.0367883406579,,0.000904051189351,0.000866438147099,0.0326010509385,-0.999467710336
2127196000000,,45772,,2127,192362333,"""map""",,,0.0193337444216,-0.391825556755,-0.0368643850088,,0.000867458783044,0.000920543556779,0.0325848665487,-0.999468216098
2127228000000,,45773,,2127,224373371,"""map""",,,0.0202607866377,-0.391702085733,-0.0369030982256,,0.000850725838503,0.000932099682943,0.0325290219744,-0.999470028413
2127260000000,,45774,,2127,255373371,"""map""",,,0.0208964217454,-0.391580462456,-0.0367769636214,,0.000829202944758,0.000910950374295,0.0325517391258,-0.999469311916
2127296000000,,45775,,2127,288373371,"""map""",,,0.0201062802225,-0.391405820847,-0.036424510181,,0.000799613858318,0.000979253810634,0.0325521184474,-0.999469269769
2127328000000,,45776,,2127,320372408,"""map""",,,0.0198269598186,-0.39123621583,-0.0361732542515,,0.000730400871688,0.000987001051703,0.0325559959575,-0.999469185476
2127360000000,,45777,,2127,351372408,"""map""",,,0.0200015679002,-0.391085803509,-0.0360362306237,,0.000712102379064,0.000985677552168,0.032624273852,-0.999466993839
2127396000000,,45778,,2127,391372408,"""map""",,,0.0208170600235,-0.390939950943,-0.0360383689404,,0.000690523398421,0.00102861527147,0.0326396995986,-0.999466488077
2127428000000,,45779,,2127,424371448,"""map""",,,0.0218895021826,-0.390835851431,-0.0358451381326,,0.000652974785488,0.00104388203098,0.0325725175221,-0.999468679713
2127460000000,,45780,,2127,456371448,"""map""",,,0.0226633176208,-0.39072483778,-0.0355305150151,,0.000648949205809,0.00102509908626,0.0325673756065,-0.999468848301
2127496000000,,45781,,2127,487371448,"""map""",,,0.0219292771071,-0.390601366758,-0.0350180901587,,0.000648102554236,0.000975718218938,0.0326077944343,-0.999467541748
2127528000000,,45782,,2127,520370484,"""map""",,,0.0217074118555,-0.390511363745,-0.0345257930458,,0.00065860666841,0.000967411832423,0.0325940124148,-0.999468005364
2127560000000,,45783,,2127,552370484,"""map""",,,0.0219378806651,-0.390417039394,-0.0342924594879,,0.000762373073784,0.000899610188991,0.032595909023,-0.999467963217
2127596000000,,45784,,2127,592370484,"""map""",,,0.0227789916098,-0.390315383673,-0.0338139422238,,0.000857142871114,0.000900333625858,0.0325874796533,-0.999468131804
2127628000000,,45785,,2127,623369520,"""map""",,,0.0238639023155,-0.39022025466,-0.0335252843797,,0.000850905297026,0.000902682165354,0.0325853723109,-0.999468216098
2127660000000,,45786,,2127,656369520,"""map""",,,0.0245565287769,-0.390062123537,-0.0332996211946,,0.000872658210592,0.000890287992428,0.0326442936051,-0.999466277343
2127696000000,,45787,,2127,688369520,"""map""",,,0.0235894527286,-0.389744222164,-0.0330591574311,,0.000927950996599,0.000860531257534,0.0326592135895,-0.999465771581
2127728000000,,45788,,2127,719368556,"""map""",,,0.0231299102306,-0.389452397823,-0.0328817926347,,0.000903866394302,0.000883300746449,0.0326899807889,-0.999464760056
2127760000000,,45789,,2127,752368556,"""map""",,,0.0231374707073,-0.389160782099,-0.0326999910176,,0.000809110337657,0.000897123987968,0.0326560525758,-0.999465982315
2127796000000,,45790,,2127,792368556,"""map""",,,0.0237313248217,-0.388817727566,-0.0325839333236,,0.000818333922326,0.000927049721846,0.032607878728,-0.999467457455
2127828000000,,45791,,2127,824367591,"""map""",,,0.0246651414782,-0.388527214527,-0.032707568258,,0.000826767335903,0.000955970434487,0.0326052656234,-0.999467541748
2127860000000,,45792,,2127,856367591,"""map""",,,0.0259877741337,-0.38822337985,-0.0327164977789,,0.000814449574718,0.00094247489732,0.0325923686877,-0.999467963217
2127896000000,,45793,,2127,888367591,"""map""",,,0.0249003935605,-0.387815207243,-0.0325333699584,,0.000849511346091,0.000926269066209,0.0325589883837,-0.999469059035
2127928000000,,45794,,2127,920366629,"""map""",,,0.0243291985244,-0.387455523014,-0.0324203558266,,0.000836269958227,0.0008973049951,0.0325310028763,-0.999469986266
2127960000000,,45795,,2127,952366629,"""map""",,,0.02422009781,-0.387123882771,-0.0322192572057,,0.000797278258192,0.000947556983041,0.0324660545827,-0.999472135755
2127996000000,,45796,,2127,992366629,"""map""",,,0.024674711749,-0.386701762676,-0.0322115346789,,0.000759989785775,0.000921314678956,0.0324407664736,-0.999472978692
2128028000000,,45797,,2128,24365663,"""map""",,,0.025500478223,-0.386365294456,-0.0323631241918,,0.00078409984622,0.000916794177354,0.0324300190273,-0.999473358014
2128060000000,,45798,,2128,56365663,"""map""",,,0.0266663581133,-0.386041402817,-0.0325747467577,,0.000755078278516,0.000906118682116,0.0324397128024,-0.999473020839
2128096000000,,45799,,2128,88365663,"""map""",,,0.0254507139325,-0.385538130999,-0.0323354937136,,0.000740716086487,0.000918541789842,0.0324335593625,-0.999473189426
2128128000000,,45800,,2128,120364697,"""map""",,,0.0247575379908,-0.385030269623,-0.0319772586226,,0.000733263214813,0.000945648263813,0.0324035929532,-0.999474158804
2128160000000,,45801,,2128,152364697,"""map""",,,0.0245570465922,-0.384534358978,-0.0316331461072,,0.000666596264148,0.000995340406603,0.0323667566076,-0.999475338915
2128196000000,,45802,,2128,192364697,"""map""",,,0.0249370951205,-0.383954614401,-0.0311249680817,,0.00063070465724,0.00079337034704,0.0323588330001,-0.999475844678
2128228000000,,45803,,2128,224363731,"""map""",,,0.0257012993097,-0.383464485407,-0.0308392737061,,0.000648499908673,0.000793910950342,0.0323565992171,-0.999475886824
2128260000000,,45804,,2128,255363731,"""map""",,,0.0268231052905,-0.382972717285,-0.0306242909282,,0.000611343659645,0.000832675365058,0.0323433651067,-0.999476308293
2128296000000,,45805,,2128,288363731,"""map""",,,0.0256821587682,-0.382498383522,-0.0300611872226,,0.000649265713618,0.000817554097586,0.0323739215719,-0.999475338915
2128328000000,,45806,,2128,320374764,"""map""",,,0.0250741373748,-0.382029294968,-0.0295601822436,,0.000647853336299,0.000825450174858,0.0323768718513,-0.999475170328
2128360000000,,45807,,2128,351374764,"""map""",,,0.0249415896833,-0.381562739611,-0.0292670149356,,0.000631796004401,0.000827656175483,0.0323820980605,-0.999475086034
2128396000000,,45808,,2128,391374764,"""map""",,,0.0253865197301,-0.380959808826,-0.0289768222719,,0.000684829715213,0.000862008851339,0.0323092683063,-0.999477361964
2128428000000,,45809,,2128,424373799,"""map""",,,0.0261747054756,-0.380462557077,-0.028793990612,,0.000615775942008,0.000835521975143,0.0323023140763,-0.999477656992
2128460000000,,45810,,2128,456373799,"""map""",,,0.0273308716714,-0.379925072193,-0.0287874191999,,0.00061400791464,0.000861183643622,0.0322774052888,-0.999478457782
2128496000000,,45811,,2128,487373799,"""map""",,,0.0260094515979,-0.379328429699,-0.0284942127764,,0.000602583875526,0.000899353809383,0.032200571584,-0.999480860153
2128528000000,,45812,,2128,520384835,"""map""",,,0.0252049881965,-0.37873712182,-0.0282238461077,,0.000610071289917,0.000875306140885,0.0321754520622,-0.99948170309
2128560000000,,45813,,2128,552384835,"""map""",,,0.0248935110867,-0.378131598234,-0.0278824791312,,0.000590946437123,0.00096328988916,0.032152987792,-0.999482335292
2128596000000,,45814,,2128,592384835,"""map""",,,0.0251352209598,-0.377371251583,-0.0273312274367,,0.000576160836988,0.000959553760371,0.0321260559558,-0.999483220376
2128628000000,,45815,,2128,623383866,"""map""",,,0.0257767979056,-0.376761138439,-0.0268731247634,,0.000596334751184,0.000981472035491,0.0321236957323,-0.99948330467
