rosbagTimestamp,header,seq,stamp,secs,nsecs,frame_id,pose,position,x,y,z,orientation,x,y,z,w
1161804000000,,17954,,1161,800170718,"""map""",,,-0.0200970172882,-0.292251735926,0.0157897416502,,0.0030842182937,-0.000988923281384,0.0328553228756,-0.999454855547
1161836000000,,17955,,1161,832170201,"""map""",,,-0.0204017851502,-0.292253702879,0.0159949120134,,0.00308602229406,-0.00100648937991,0.0329359497968,-0.999452200296
1161872000000,,17956,,1161,864170201,"""map""",,,-0.020697331056,-0.292380273342,0.0161824524403,,0.0030638551097,-0.00102549818481,0.0329547051444,-0.999451652387
1161904000000,,17957,,1161,896170201,"""map""",,,-0.0210080649704,-0.292617410421,0.0164419170469,,0.00308975673533,-0.00105665384317,0.0329953768532,-0.999450177247
1161936000000,,17958,,1161,928175684,"""map""",,,-0.021331332624,-0.29298466444,0.0168220270425,,0.0030352043077,-0.00105235214812,0.0329852616095,-0.999450683009
1161972000000,,17959,,1161,968175684,"""map""",,,-0.021578297019,-0.293132156134,0.0171587672085,,0.00302360914991,-0.00107905991455,0.0329749356317,-0.999451062331
1162004000000,,17960,,1162,175684,"""map""",,,-0.0216507073492,-0.292865693569,0.0171360820532,,0.00304243109281,-0.00110774734809,0.0329526820956,-0.99945173668
1162036000000,,17961,,1162,32175168,"""map""",,,-0.0217696037143,-0.292765915394,0.0170667041093,,0.00300584993321,-0.00114816090746,0.0330258911715,-0.99944933431
1162072000000,,17962,,1162,64175168,"""map""",,,-0.0219206940383,-0.292819082737,0.0171219725162,,0.00299468883857,-0.00121377408401,0.0330006452092,-0.9994501351
1162104000000,,17963,,1162,96175168,"""map""",,,-0.0221106726676,-0.292984873056,0.0171328857541,,0.00300906379504,-0.00100619007143,0.0330209599902,-0.999449629338
1162136000000,,17964,,1162,128174651,"""map""",,,-0.0222997628152,-0.293281286955,0.0172320455313,,0.00303714001696,-0.000987716745527,0.0329920472521,-0.999450556569
1162172000000,,17965,,1162,168174651,"""map""",,,-0.0225354898721,-0.293289661407,0.0167875606567,,0.0029452863113,-0.00105546838073,0.0329818477148,-0.999451062331
1162204000000,,17966,,1162,200174651,"""map""",,,-0.0227208379656,-0.292842149734,0.0160978101194,,0.00295310002421,-0.00110120915358,0.0329644832132,-0.999451568093
1162236000000,,17967,,1162,232174134,"""map""",,,-0.0229158848524,-0.292553454638,0.0154845789075,,0.00302227444483,-0.00116760962009,0.0329807940436,-0.999450767303
1162272000000,,17968,,1162,264174134,"""map""",,,-0.0231171548367,-0.292392909527,0.0149848675355,,0.00301344657338,-0.00122160113244,0.0329636402762,-0.999451315212
1162304000000,,17969,,1162,296174134,"""map""",,,-0.0233785267919,-0.292372971773,0.0145453680307,,0.00301594204547,-0.00125955181767,0.0329627973393,-0.999451230918
1162336000000,,17970,,1162,328173617,"""map""",,,-0.0236426517367,-0.292441785336,0.0141262272373,,0.00297090632684,-0.00129874953923,0.0329772958552,-0.999450893743
1162372000000,,17971,,1162,368173617,"""map""",,,-0.0241267029196,-0.292427390814,0.0137030426413,,0.00297401836123,-0.00134351467839,0.0330048598941,-0.999449882219
1162404000000,,17972,,1162,400173617,"""map""",,,-0.0246720165014,-0.29224255681,0.0135386520997,,0.00299193472312,-0.00136919297512,0.0329849665816,-0.999450472275
1162436000000,,17973,,1162,432173101,"""map""",,,-0.0252339318395,-0.29218018055,0.0133306570351,,0.00299199028781,-0.00145985948966,0.0330020782021,-0.999449797925
1162472000000,,17974,,1162,472173101,"""map""",,,-0.0259243622422,-0.292312353849,0.0131113827229,,0.00303342533203,-0.00151313434095,0.0330059557122,-0.99944946075
1162504000000,,17975,,1162,496173101,"""map""",,,-0.0263278223574,-0.292493671179,0.0129913827404,,0.00306274850797,-0.0015366198491,0.0330003501813,-0.999449502897
1162536000000,,17976,,1162,528172584,"""map""",,,-0.026853358373,-0.292844831944,0.0128172133118,,0.00306453225809,-0.00160103891983,0.0330367229116,-0.999448196345
1162572000000,,17977,,1162,568172584,"""map""",,,-0.0273877978325,-0.293042123318,0.0127017283812,,0.00301230264041,-0.00163441473751,0.0330914716678,-0.999446468324
1162604000000,,17978,,1162,600172584,"""map""",,,-0.027701549232,-0.292881548405,0.0126664433628,,0.00297677218857,-0.00163443877439,0.0330787854664,-0.999447016233
1162636000000,,17979,,1162,632184067,"""map""",,,-0.0280474480242,-0.292872309685,0.0126848304644,,0.00297767674061,-0.00165338440018,0.0331462625708,-0.999444698157
1162672000000,,17980,,1162,664184067,"""map""",,,-0.0284143090248,-0.292997807264,0.0127559192479,,0.00297622901283,-0.00169976890028,0.03322718452,-0.999442000758
1162704000000,,17981,,1162,696184067,"""map""",,,-0.0287818908691,-0.293255627155,0.012920900248,,0.00296957886575,-0.00167835517315,0.033232747904,-0.999441832171
1162736000000,,17982,,1162,728183550,"""map""",,,-0.0291563477367,-0.293604522943,0.0131779424846,,0.00292780800499,-0.00171014743825,0.0332715651515,-0.999440609912
1162772000000,,17983,,1162,768183550,"""map""",,,-0.029480503872,-0.29389950633,0.0135185262188,,0.00290944626123,-0.00172617991009,0.0333047768681,-0.999439514094
1162804000000,,17984,,1162,800183550,"""map""",,,-0.0295888669789,-0.293928354979,0.0138019872829,,0.00286922935971,-0.00170074848524,0.0333138384405,-0.999439471947
1162836000000,,17985,,1162,832183033,"""map""",,,-0.0297070965171,-0.294121086597,0.0141641395167,,0.00294089188496,-0.00168229997823,0.0333432147939,-0.999438249689
1162872000000,,17986,,1162,864183033,"""map""",,,-0.0298685096204,-0.294437050819,0.0145404012874,,0.00287261802396,-0.0017122972568,0.0333057883925,-0.999439598388
1162904000000,,17987,,1162,896183033,"""map""",,,-0.030031889677,-0.294896751642,0.0149205420166,,0.00284944100275,-0.00172787105239,0.0333309079142,-0.999438839745
1162936000000,,17988,,1162,928182516,"""map""",,,-0.0302045196295,-0.295451194048,0.0152736753225,,0.00284884962978,-0.00177897213058,0.0333832121532,-0.99943702743
1162972000000,,17989,,1162,968182516,"""map""",,,-0.0303707849234,-0.295816749334,0.0156158003956,,0.00290710237785,-0.00173139340117,0.0333556481142,-0.999437870367
1163004000000,,17990,,1163,182516,"""map""",,,-0.0304934792221,-0.295744389296,0.0159088373184,,0.00291098042298,-0.00172075078685,0.0333183903002,-0.999439050479
1163036000000,,17991,,1163,32181999,"""map""",,,-0.0306508652866,-0.295833796263,0.0162253938615,,0.00291808307245,-0.00168974758155,0.0333373142351,-0.99943850257
1163072000000,,17992,,1163,64181999,"""map""",,,-0.0308591071516,-0.296060740948,0.0165764149278,,0.00294456298248,-0.00169608524926,0.0333247123274,-0.999438797598
1163104000000,,17993,,1163,96181999,"""map""",,,-0.0311035327613,-0.296423316002,0.0169286429882,,0.0029674871226,-0.00168690460375,0.0332935658064,-0.999439851269
1163136000000,,17994,,1163,128181482,"""map""",,,-0.0314041189849,-0.296919971704,0.0173513945192,,0.00296621576127,-0.00166194943005,0.0332763698922,-0.999440441325
1163172000000,,17995,,1163,168181482,"""map""",,,-0.0317130722106,-0.297139823437,0.0178826432675,,0.00298636471251,-0.00169898519116,0.0333044818402,-0.999439387654
1163204000000,,17996,,1163,200181482,"""map""",,,-0.0318762473762,-0.296859562397,0.0184022132307,,0.00297830820248,-0.00168329162278,0.0333365555919,-0.999438333982
1163236000000,,17997,,1163,232180964,"""map""",,,-0.0320460163057,-0.296752601862,0.0188666507602,,0.00298482808122,-0.00169131701659,0.0333610429109,-0.999437533192
1163272000000,,17998,,1163,264180964,"""map""",,,-0.0322212949395,-0.296810388565,0.0193863902241,,0.003007239174,-0.00168116571763,0.0333669856165,-0.999437238164
1163304000000,,17999,,1163,296180964,"""map""",,,-0.0324079208076,-0.297017484903,0.0199847891927,,0.00305159181735,-0.00171431520181,0.0333839707964,-0.999436521668
1163336000000,,18000,,1163,328180447,"""map""",,,-0.0326390266418,-0.297381162643,0.0205103699118,,0.00303412766974,-0.00172191797467,0.0334307959451,-0.999434962235
1163372000000,,18001,,1163,368180447,"""map""",,,-0.0328591130674,-0.29729244113,0.0209559239447,,0.00305447517216,-0.00173510849769,0.0334361064481,-0.999434709354
1163404000000,,18002,,1163,400180447,"""map""",,,-0.0329753831029,-0.296567499638,0.0210502874106,,0.00303571620257,-0.00172977823844,0.0334495934396,-0.999434372179
1163436000000,,18003,,1163,432179929,"""map""",,,-0.0331305265427,-0.296075880527,0.0211538821459,,0.0030447583891,-0.00175013973493,0.0334309645325,-0.999434877941
1163472000000,,18004,,1163,464179929,"""map""",,,-0.0333072468638,-0.295759290457,0.021277802065,,0.00306206773758,-0.00178757354503,0.0333887755372,-0.999436184493
1163504000000,,18005,,1163,496179929,"""map""",,,-0.0334984026849,-0.295597404242,0.0213760361075,,0.00307577110214,-0.00178758404058,0.0334047070459,-0.999435594437
1163536000000,,18006,,1163,528179412,"""map""",,,-0.0337095148861,-0.295587688684,0.0214027855545,,0.00309322479534,-0.0017737032806,0.0334468117476,-0.999434203591
1163572000000,,18007,,1163,568179412,"""map""",,,-0.0338785201311,-0.295461177826,0.0213296283036,,0.00309818182449,-0.00171863661203,0.0334834795058,-0.99943302348
1163604000000,,18008,,1163,600179412,"""map""",,,-0.033894661814,-0.295134156942,0.0211970452219,,0.00314434225483,-0.0017062483197,0.0335335499618,-0.999431253312
1163636000000,,18009,,1163,632178894,"""map""",,,-0.0339540280402,-0.294966191053,0.0210817754269,,0.00310546561486,-0.00173159055293,0.0335281130184,-0.999431464046
1163672000000,,18010,,1163,664178894,"""map""",,,-0.0340821482241,-0.294933289289,0.0210598036647,,0.00308068483198,-0.00176168941198,0.0335973602905,-0.999429230263
1163704000000,,18011,,1163,696178894,"""map""",,,-0.0342781767249,-0.295058488846,0.0211555678397,,0.00309845997723,-0.0017481786717,0.0335925134029,-0.999429356704
1163736000000,,18012,,1163,728178377,"""map""",,,-0.0344762355089,-0.295321851969,0.021178515628,,0.00312216473954,-0.00176496023792,0.0336335644333,-0.999427839417
1163772000000,,18013,,1163,768178377,"""map""",,,-0.0346652567387,-0.295374631882,0.0210746228695,,0.00306511095407,-0.0018119824149,0.0336268209376,-0.999428176592
1163804000000,,18014,,1163,800178377,"""map""",,,-0.0347684025764,-0.295043408871,0.0209426283836,,0.00310259534863,-0.00176650263148,0.0336778186243,-0.999426406424
1163836000000,,18015,,1163,832177859,"""map""",,,-0.0349056459963,-0.294851928949,0.0208427831531,,0.00309824101118,-0.00177436832824,0.0337000721603,-0.999425647781
1163872000000,,18016,,1163,864177859,"""map""",,,-0.0350778885186,-0.294832259417,0.0207727327943,,0.00312340589015,-0.00182989161511,0.0337589091608,-0.999423456145
1163904000000,,18017,,1163,896177859,"""map""",,,-0.0352612510324,-0.294989556074,0.020761936903,,0.00316219025156,-0.00185060181091,0.0337804883472,-0.999422613208
1163936000000,,18018,,1163,928177341,"""map""",,,-0.0354665927589,-0.295291334391,0.0207703243941,,0.00316770395661,-0.00185583225951,0.0337671277963,-0.99942299253
1163972000000,,18019,,1163,968177341,"""map""",,,-0.0356637686491,-0.295447051525,0.0210321862251,,0.003135239688,-0.00185460967163,0.0337574340211,-0.999423413998
1164004000000,,18020,,1164,177341,"""map""",,,-0.0357245206833,-0.295244783163,0.0213038753718,,0.00310492881877,-0.00183843059132,0.0337323144994,-0.999424425522
1164036000000,,18021,,1164,32176823,"""map""",,,-0.0358238965273,-0.295209795237,0.0214486327022,,0.00312084900878,-0.00183541787367,0.0337389737015,-0.999424088348
1164072000000,,18022,,1164,64176823,"""map""",,,-0.035921562463,-0.295362263918,0.0216136649251,,0.00315598054728,-0.00183391622756,0.0337640089295,-0.999423161117
1164104000000,,18023,,1164,96176823,"""map""",,,-0.0360489040613,-0.295652270317,0.0218620654196,,0.00311340535672,-0.00182811144583,0.0337522921056,-0.999423751173
1164136000000,,18024,,1164,128176306,"""map""",,,-0.0361973978579,-0.296074539423,0.0222867019475,,0.00306922661029,-0.001810741964,0.0337199654728,-0.999424973431
1164172000000,,18025,,1164,168176306,"""map""",,,-0.0363602600992,-0.29626429081,0.0228996984661,,0.0030629097279,-0.00181462684153,0.0337079957678,-0.9994253949
1164204000000,,18026,,1164,200176306,"""map""",,,-0.0364491455257,-0.296039938927,0.0233000274748,,0.00306973010873,-0.00178894377036,0.0337305864786,-0.99942472055
1164236000000,,18027,,1164,232175788,"""map""",,,-0.0365579985082,-0.29600456357,0.0237321965396,,0.00309553723323,-0.00179248204768,0.0337619858807,-0.999423498292
1164276000000,,18028,,1164,264175788,"""map""",,,-0.0367111675441,-0.296141892672,0.024110365659,,0.00310529715095,-0.00181050151294,0.0337468130153,-0.999424004054
1164304000000,,18029,,1164,296175788,"""map""",,,-0.0368672274053,-0.296411633492,0.0245030652732,,0.0030993886073,-0.00179860202527,0.0337364870374,-0.999424383376
1164336000000,,18030,,1164,328175270,"""map""",,,-0.0370288342237,-0.296821147203,0.024958524853,,0.00314170902345,-0.00182411301053,0.0337465601342,-0.999423835467
1164372000000,,18031,,1164,368175270,"""map""",,,-0.0371446497738,-0.296953767538,0.0255583431572,,0.00313254866935,-0.00185162140245,0.0337205133818,-0.999424678404
1164404000000,,18032,,1164,400175270,"""map""",,,-0.0371144115925,-0.296644419432,0.0258265770972,,0.00316646766277,-0.0018554528144,0.033726034619,-0.999424383376
1164436000000,,18033,,1164,432174752,"""map""",,,-0.0370926819742,-0.296525448561,0.0261044446379,,0.00314607463847,-0.00188521659777,0.0336877652805,-0.999425732075
1164472000000,,18034,,1164,464174752,"""map""",,,-0.0371427312493,-0.296584516764,0.0263929478824,,0.00318657240922,-0.00185263156856,0.0336816539875,-0.999425858515
1164504000000,,18035,,1164,496174752,"""map""",,,-0.0372151397169,-0.296783208847,0.0266364272684,,0.00316816802469,-0.00182274685995,0.0337197968854,-0.999424636257
1164536000000,,18036,,1164,528174234,"""map""",,,-0.0373153835535,-0.297112256289,0.0267871897668,,0.00315788337048,-0.00181006971354,0.0337388472609,-0.999424130495
1164572000000,,18037,,1164,568174234,"""map""",,,-0.0374944731593,-0.297675460577,0.0267854724079,,0.00319539204886,-0.00158641750307,0.0336613813533,-0.99942699648
1164604000000,,18038,,1164,600174234,"""map""",,,-0.0376354753971,-0.298260658979,0.0268935337663,,0.00320714179997,-0.00162850541185,0.0336505917601,-0.999427249361
1164636000000,,18039,,1164,632173716,"""map""",,,-0.0377730540931,-0.298940181732,0.0270023606718,,0.00320636018996,-0.00172068180431,0.0336497066763,-0.999427122921
1164672000000,,18040,,1164,664173716,"""map""",,,-0.0378613360226,-0.299466639757,0.0270252879709,,0.00315606352389,-0.00174013356272,0.0336770178341,-0.999426279984
1164704000000,,18041,,1164,696173716,"""map""",,,-0.0377579554915,-0.299336582422,0.0268802624196,,0.00312101916021,-0.00173262574374,0.0336703164852,-0.999426659305
1164736000000,,18042,,1164,728173198,"""map""",,,-0.0376698337495,-0.299386531115,0.0267816856503,,0.00320631261012,-0.00179837145237,0.0336900833572,-0.999425605634
1164772000000,,18043,,1164,768173198,"""map""",,,-0.0375813916326,-0.299654722214,0.026656921953,,0.00322846798184,-0.00186680315826,0.0336743204358,-0.999425942809
1164804000000,,18044,,1164,800173198,"""map""",,,-0.0375408306718,-0.299978882074,0.0265585090965,,0.00323286261398,-0.00185659555375,0.0336811903721,-0.999425732075
1164836000000,,18045,,1164,832172680,"""map""",,,-0.0375134646893,-0.300406813622,0.0265105422586,,0.00328142767842,-0.00190593663058,0.0336790408829,-0.999425521341
1164872000000,,18046,,1164,872172680,"""map""",,,-0.0373361557722,-0.300568014383,0.0263986103237,,0.00329013240205,-0.00190095861033,0.0337074478588,-0.99942459411
1164904000000,,18047,,1164,896172680,"""map""",,,-0.0371153615415,-0.300309687853,0.0263033825904,,0.00329464972926,-0.00193589040405,0.0336934129582,-0.999424973431
1164936000000,,18048,,1164,928172162,"""map""",,,-0.0368282794952,-0.300113976002,0.0262193232775,,0.00325752222467,-0.00201601395029,0.0336540478017,-0.999426237837
1164972000000,,18049,,1164,968172162,"""map""",,,-0.0364817269146,-0.300120204687,0.0258695203811,,0.00329147167578,-0.00203983860887,0.0336548485918,-0.999426027103
1165004000000,,18050,,1165,172162,"""map""",,,-0.0362516455352,-0.300306975842,0.02551770024,,0.00334099854448,-0.00205717903242,0.0336562815847,-0.999425774222
1165032000000,,18051,,1165,32171644,"""map""",,,-0.0360273607075,-0.300609618425,0.0252217240632,,0.00334961024869,-0.0020795791769,0.033617253603,-0.999427038627
1165072000000,,18052,,1165,64171644,"""map""",,,-0.0357955396175,-0.300732821226,0.0251088831574,,0.0033594455286,-0.00211295429489,0.0336190237706,-0.99942687004
1165104000000,,18053,,1165,96171644,"""map""",,,-0.0355122052133,-0.300212413073,0.025090271607,,0.00336260077997,-0.00210406773066,0.0336184758616,-0.999426912187
1165136000000,,18054,,1165,128171126,"""map""",,,-0.0352094061673,-0.299867540598,0.025105368346,,0.00339306784773,-0.00209535930272,0.0336691785203,-0.999425099872
1165172000000,,18055,,1165,168171126,"""map""",,,-0.0348510928452,-0.29966160655,0.02491123043,,0.00332273397719,-0.00188619042046,0.0337113675157,-0.999424383376
1165204000000,,18056,,1165,200171126,"""map""",,,-0.0345843881369,-0.299646049738,0.024816468358,,0.00332728764782,-0.00189043852645,0.0337141492077,-0.999424214788
1165236000000,,18057,,1165,232170608,"""map""",,,-0.0343455784023,-0.299746125937,0.0248406026512,,0.00337737613151,-0.00197036582643,0.0337058041317,-0.999424214788
1165272000000,,18058,,1165,264170608,"""map""",,,-0.0340512208641,-0.299738377333,0.0248963311315,,0.00334798673068,-0.00202023431509,0.0336775657432,-0.999425142019
1165304000000,,18059,,1165,296170608,"""map""",,,-0.0336155444384,-0.299157977104,0.025006391108,,0.00339648795747,-0.00204881243024,0.033678450827,-0.999424846991
1165336000000,,18060,,1165,328170090,"""map""",,,-0.0332057960331,-0.298756480217,0.0251456517726,,0.00342586929113,-0.00205157432475,0.0336675769401,-0.999425184166
1165372000000,,18061,,1165,368170090,"""map""",,,-0.0327101498842,-0.298433542252,0.0253856536001,,0.00345975115911,-0.00203697661559,0.0336326793495,-0.99942619569
1165404000000,,18062,,1165,400170090,"""map""",,,-0.032313477248,-0.298328071833,0.0256046205759,,0.00350143422765,-0.00204770677517,0.0336382848804,-0.999425900662
1165436000000,,18063,,1165,432169572,"""map""",,,-0.0319422036409,-0.298351287842,0.0258513074368,,0.00352271081288,-0.00206381312748,0.0336374840902,-0.999425774222
1165472000000,,18064,,1165,464169572,"""map""",,,-0.0316106155515,-0.298170238733,0.0261455010623,,0.00348874843784,-0.00213634974708,0.0336744468764,-0.999424467669
1165504000000,,18065,,1165,496169572,"""map""",,,-0.0313430055976,-0.297229766846,0.0270091500133,,0.00356969837512,-0.00218457660776,0.0337048347542,-0.999423076823
1165536000000,,18066,,1165,528169054,"""map""",,,-0.0311058424413,-0.296489745378,0.0278939194977,,0.0035938297508,-0.00223799609189,0.0337098080823,-0.999422739649
1165572000000,,18067,,1165,568169054,"""map""",,,-0.0308291669935,-0.295836478472,0.0289432499558,,0.00354753110844,-0.00229844488009,0.0336244185672,-0.999425605634
1165604000000,,18068,,1165,600169054,"""map""",,,-0.0306052733213,-0.29549998045,0.02969362773,,0.0035298141209,-0.00229286322148,0.0336271159655,-0.999425605634
1165636000000,,18069,,1165,632168536,"""map""",,,-0.0303533673286,-0.295305162668,0.0305269416422,,0.00352820480276,-0.00226716335742,0.0337261610595,-0.999422402474
1165672000000,,18070,,1165,664168536,"""map""",,,-0.0300119668245,-0.295023441315,0.0312611088157,,0.00351443760055,-0.00231596381036,0.0337536829516,-0.999421348803
1165704000000,,18071,,1165,696168536,"""map""",,,-0.0294341761619,-0.294290691614,0.031661041081,,0.00353057972005,-0.0023084558679,0.0337662848593,-0.999420885187
1165736000000,,18072,,1165,728168019,"""map""",,,-0.0288658570498,-0.293752938509,0.0319948717952,,0.00352176180909,-0.00236705776804,0.0338480075986,-0.999417977055
1165772000000,,18073,,1165,768168019,"""map""",,,-0.0281926319003,-0.293282568455,0.0323552601039,,0.00351313742789,-0.00239018988474,0.0338394939352,-0.999418314229
1165804000000,,18074,,1165,800168019,"""map""",,,-0.0276576913893,-0.293041199446,0.0325282402337,,0.00352496653362,-0.00240068412075,0.0338477125706,-0.999417934908
1165836000000,,18075,,1165,832167501,"""map""",,,-0.0271199475974,-0.29295399785,0.0325859747827,,0.00349031248104,-0.00237152850322,0.033811171253,-0.999419410047
1165872000000,,18076,,1165,864167501,"""map""",,,-0.0266911517829,-0.292771160603,0.0325322411954,,0.00347987874881,-0.00243841793903,0.0338416855713,-0.999418229936
1165904000000,,18077,,1165,896167501,"""map""",,,-0.0265315193683,-0.29214438796,0.032375305891,,0.00349568233528,-0.00239413493678,0.0338540767447,-0.999417892761
1165936000000,,18078,,1165,928166983,"""map""",,,-0.0263190455735,-0.291661292315,0.0322732031345,,0.00346831384291,-0.00241291864294,0.0338461109904,-0.999418187789
1165972000000,,18079,,1165,968166983,"""map""",,,-0.026010684669,-0.291254788637,0.0323091857135,,0.00346980083641,-0.00237167334186,0.0338759088123,-0.999417218411
1166004000000,,18080,,1166,166983,"""map""",,,-0.025758722797,-0.291079074144,0.0323993898928,,0.00346805985053,-0.00240723585658,0.0339202472969,-0.999415616831
1166036000000,,18081,,1166,32166465,"""map""",,,-0.0254936087877,-0.29102241993,0.0324703492224,,0.00348038294695,-0.00239262036673,0.0339466733709,-0.999414731747
1166072000000,,18082,,1166,64166465,"""map""",,,-0.0252071414143,-0.29087433219,0.0325239375234,,0.00340879701866,-0.00233374401817,0.0339180978076,-0.999416080446
1166104000000,,18083,,1166,96166465,"""map""",,,-0.0248442385346,-0.290304005146,0.0324725173414,,0.00345724914273,-0.00233268865944,0.0338887214542,-0.99941696553
1166136000000,,18084,,1166,128165948,"""map""",,,-0.024472810328,-0.2898850739,0.0325295254588,,0.00355130370413,-0.00230808156767,0.0338752344627,-0.999417134118
1166172000000,,18085,,1166,168165948,"""map""",,,-0.0240121427923,-0.289564043283,0.0325611457229,,0.00355390697173,-0.00233221125583,0.0338547510943,-0.999417724174
1166204000000,,18086,,1166,200165948,"""map""",,,-0.0236502867192,-0.28946647048,0.0326051004231,,0.00354544780288,-0.00235554628656,0.0338761616934,-0.99941696553
1166236000000,,18087,,1166,232165430,"""map""",,,-0.0232587922364,-0.289516746998,0.0326721183956,,0.00354243249222,-0.00234925307061,0.0338944112788,-0.999416417621
1166272000000,,18088,,1166,264165430,"""map""",,,-0.0229067020118,-0.28946518898,0.0327199138701,,0.00355711445391,-0.00231249933118,0.0339006911592,-0.999416206887
1166304000000,,18089,,1166,296165430,"""map""",,,-0.0227149371058,-0.288890600204,0.0326424129307,,0.00357074998838,-0.00232113972324,0.0339054116062,-0.999415954006
1166336000000,,18090,,1166,328164913,"""map""",,,-0.0224980972707,-0.288469135761,0.0325203426182,,0.00367991283672,-0.00236986884759,0.0339050744314,-0.999415532537
1166372000000,,18091,,1166,368164913,"""map""",,,-0.0222044866532,-0.288145184517,0.0323018021882,,0.00368894407495,-0.00239457352742,0.0339201630032,-0.999414942482
1166404000000,,18092,,1166,400164913,"""map""",,,-0.0219263378531,-0.288026481867,0.0320237576962,,0.00371387838102,-0.00241260200651,0.0338803763782,-0.999416122593
1166436000000,,18093,,1166,432164395,"""map""",,,-0.0216445866972,-0.28801509738,0.0318074971437,,0.00375668525576,-0.0023947256512,0.0338413483965,-0.999417302705
1166472000000,,18094,,1166,472164395,"""map""",,,-0.0214033331722,-0.287779301405,0.0315333753824,,0.00377565039093,-0.00242653956595,0.0338708511904,-0.999416206887
1166504000000,,18095,,1166,496164395,"""map""",,,-0.0213356129825,-0.287414520979,0.031394738704,,0.00375511759056,-0.00245805557163,0.0338701768409,-0.999416206887
1166536000000,,18096,,1166,528163878,"""map""",,,-0.021229473874,-0.28706073761,0.0312303397804,,0.00378348912853,-0.00249226815243,0.0338785640637,-0.999415743272
1166572000000,,18097,,1166,568163878,"""map""",,,-0.0210371781141,-0.286820203066,0.0310603827238,,0.00380401443796,-0.00252981988316,0.0339398034346,-0.999413425195
1166604000000,,18098,,1166,600163878,"""map""",,,-0.0208440776914,-0.286756068468,0.0309079736471,,0.00375294365282,-0.00252930424281,0.0339724250954,-0.999412497964
1166636000000,,18099,,1166,632163361,"""map""",,,-0.0206066016108,-0.28677457571,0.0307949148118,,0.00371260915996,-0.00253182379294,0.0339545126847,-0.999413298754
1166672000000,,18100,,1166,664163361,"""map""",,,-0.0203560888767,-0.286634802818,0.0306333787739,,0.00366209603854,-0.00255954995729,0.0339615512084,-0.999413172314
1166704000000,,18101,,1166,696163361,"""map""",,,-0.0202015247196,-0.285906463861,0.0304683577269,,0.00365489950531,-0.00255678007793,0.0339308683027,-0.999414268132
1166736000000,,18102,,1166,728162844,"""map""",,,-0.0200026445091,-0.285329163074,0.0304042845964,,0.00362889292415,-0.00257643499731,0.0339418264833,-0.999413930957
1166772000000,,18103,,1166,768162844,"""map""",,,-0.0196907408535,-0.284773230553,0.0304663013667,,0.00362296363635,-0.00260078904335,0.0339439759726,-0.999413804517
1166804000000,,18104,,1166,800162844,"""map""",,,-0.0194001793861,-0.284449696541,0.0305485036224,,0.00363011320712,-0.0026070316337,0.0339532904261,-0.999413425195
1166836000000,,18105,,1166,832162326,"""map""",,,-0.0190641563386,-0.284251183271,0.0306807812303,,0.00360554056546,-0.00260424438523,0.0339167912553,-0.999414773894
1166872000000,,18106,,1166,864162326,"""map""",,,-0.0187711585313,-0.283981561661,0.0307902079076,,0.00361566790986,-0.00267089542793,0.0339462097556,-0.999413593782
1166904000000,,18107,,1166,896162326,"""map""",,,-0.018719015643,-0.283358693123,0.0308561418205,,0.00357974418348,-0.00264117082795,0.0339435123573,-0.999413930957
1166936000000,,18108,,1166,928161809,"""map""",,,-0.018595777452,-0.282851397991,0.03093726933,,0.00360455501245,-0.00263539127671,0.0339812337867,-0.999412540111
1166972000000,,18109,,1166,968161809,"""map""",,,-0.0183126963675,-0.282392680645,0.0311267562211,,0.00360774224439,-0.00262887971209,0.0339688847601,-0.999412919433
1167004000000,,18110,,1167,161809,"""map""",,,-0.0180346425623,-0.282162308693,0.0312802121043,,0.00358757353681,-0.00258910638146,0.0339926977295,-0.99941228723
1167036000000,,18111,,1167,32161292,"""map""",,,-0.0176961887628,-0.2820340693,0.0314393863082,,0.00362415720712,-0.00260358493522,0.034007870595,-0.999411612881
1167072000000,,18112,,1167,64161292,"""map""",,,-0.0173734873533,-0.281811773777,0.0315393991768,,0.00361605805632,-0.00262440321464,0.0340019700362,-0.999411865762
1167104000000,,18113,,1167,96161292,"""map""",,,-0.0172410346568,-0.281200885773,0.0317487083375,,0.00362115947136,-0.00264142823653,0.0340088399725,-0.99941148644
1167136000000,,18114,,1167,128160776,"""map""",,,-0.0170455668122,-0.280742585659,0.0319279432297,,0.00354778324866,-0.00269960788616,0.0340670869171,-0.999409631979
1167172000000,,18115,,1167,168160776,"""map""",,,-0.0166990160942,-0.280332952738,0.0321568064392,,0.00353436042407,-0.00276464874638,0.034039565025,-0.999410432769
1167204000000,,18116,,1167,200160776,"""map""",,,-0.016373347491,-0.280129849911,0.0322940163314,,0.00352878777929,-0.00252839001839,0.0340681405883,-0.999410095594
1167236000000,,18117,,1167,232160259,"""map""",,,-0.0159540697932,-0.280022531748,0.0325572006404,,0.00356295047534,-0.0026163241083,0.0340796888248,-0.999409336951
1167276000000,,18118,,1167,264160259,"""map""",,,-0.0155880320817,-0.279865086079,0.0327414162457,,0.00360307917305,-0.00261755859114,0.0340649374278,-0.999409674125
1167304000000,,18119,,1167,296160259,"""map""",,,-0.0155178038403,-0.279380232096,0.0326246321201,,0.0036185024089,-0.00261905072952,0.0340793937969,-0.99940921051
1167336000000,,18120,,1167,328159742,"""map""",,,-0.0153840519488,-0.278989344835,0.0325731039047,,0.00364395379589,-0.00260943733795,0.0341048926402,-0.999408241133
1167372000000,,18121,,1167,368159742,"""map""",,,-0.0151335541159,-0.278632134199,0.0324870534241,,0.00368146798958,-0.00256586914459,0.0341834543659,-0.999405543734
1167404000000,,18122,,1167,400159742,"""map""",,,-0.0148658128455,-0.27842232585,0.032477915287,,0.00371885627779,-0.00255456514579,0.0341743084997,-0.999405754469
1167436000000,,18123,,1167,432159226,"""map""",,,-0.0145145468414,-0.278289198875,0.0326001830399,,0.00373436216098,-0.00251185017917,0.0342174668726,-0.999404321476
1167472000000,,18124,,1167,464159226,"""map""",,,-0.014188404195,-0.278144448996,0.0327138341963,,0.00367625017681,-0.00249580280776,0.0342525751974,-0.999403352098
1167504000000,,18125,,1167,496159226,"""map""",,,-0.0140873035416,-0.27780777216,0.0326677784324,,0.00366338316378,-0.00249600535135,0.0342625640005,-0.99940305707
1167536000000,,18126,,1167,528158709,"""map""",,,-0.0138903763145,-0.277550727129,0.0326898060739,,0.00372536492012,-0.00258123200015,0.0342867562916,-0.999401792665
1167572000000,,18127,,1167,568158709,"""map""",,,-0.0135239157826,-0.27733412385,0.032906357199,,0.00372756906859,-0.00257390174123,0.0342993581993,-0.999401413343
1167604000000,,18128,,1167,600158709,"""map""",,,-0.0131480712444,-0.277265459299,0.0331324823201,,0.0037346073865,-0.00262271655868,0.0342709512234,-0.999402171986
1167636000000,,18129,,1167,632158193,"""map""",,,-0.0127266161144,-0.277286440134,0.0333749502897,,0.00366269136277,-0.00261944392175,0.034255736211,-0.999402972777
1167672000000,,18130,,1167,664158193,"""map""",,,-0.012341665104,-0.277255564928,0.0336900912225,,0.00364611583867,-0.00259511066102,0.0342611731545,-0.99940293063
1167704000000,,18131,,1167,696158193,"""map""",,,-0.0122256530449,-0.276953458786,0.0338706709445,,0.00362348808474,-0.00259372327237,0.0342732271532,-0.999402593455
1167736000000,,18132,,1167,728157677,"""map""",,,-0.0120275579393,-0.27676025033,0.0341303348541,,0.00364430940992,-0.00253776069515,0.0342679166503,-0.999402846336
1167772000000,,18133,,1167,768157677,"""map""",,,-0.0116878524423,-0.27662602067,0.0346578285098,,0.00368167460792,-0.00259660621559,0.0343430644812,-0.999399938203
1167804000000,,18134,,1167,800157677,"""map""",,,-0.0113704316318,-0.276595979929,0.0352415628731,,0.00370953276929,-0.00260366013277,0.0343389762369,-0.99939998035
1167836000000,,18135,,1167,832169161,"""map""",,,-0.01099951379,-0.276586145163,0.0359769612551,,0.00365460962225,-0.00260241140891,0.0343394398522,-0.999400191085
1167872000000,,18136,,1167,872169161,"""map""",,,-0.0107282726094,-0.276345402002,0.0366765372455,,0.00361186547387,-0.00261342424872,0.0343026878003,-0.999401539784
1167904000000,,18137,,1167,896169161,"""map""",,,-0.0107766492292,-0.275982439518,0.0368484668434,,0.00362681105916,-0.00261981484694,0.0343429380406,-0.999400148938
1167936000000,,18138,,1167,928168645,"""map""",,,-0.010754339397,-0.275564789772,0.0371330417693,,0.00371386739156,-0.00262268474275,0.0343259107138,-0.999400401819
1167972000000,,18139,,1167,968168645,"""map""",,,-0.0106043023989,-0.275191068649,0.0375765226781,,0.00371034092687,-0.00268283154713,0.0343678046812,-0.999398800239
1168004000000,,18140,,1168,168645,"""map""",,,-0.0103948637843,-0.274960249662,0.0379470139742,,0.0037047592271,-0.00269425782942,0.0343901425109,-0.999398041595
1168036000000,,18141,,1168,32168129,"""map""",,,-0.0101259462535,-0.274762392044,0.0383308753371,,0.00363539502219,-0.00271834183105,0.0343506930607,-0.999399558882
1168072000000,,18142,,1168,64168129,"""map""",,,-0.00989119149745,-0.274529159069,0.0386002548039,,0.0035980335285,-0.00270402997137,0.0344045145863,-0.999397915155
1168104000000,,18143,,1168,96168129,"""map""",,,-0.0099172256887,-0.274075359106,0.0383496508002,,0.00355320607457,-0.00269202569281,0.0343822610503,-0.999398842385
1168136000000,,18144,,1168,128167613,"""map""",,,-0.00985166523606,-0.273682326078,0.0380241312087,,0.00354376225822,-0.00267414913171,0.0343797322394,-0.999399010973
1168176000000,,18145,,1168,168167613,"""map""",,,-0.00963346101344,-0.273295104504,0.0377049334347,,0.00353993290422,-0.00264440786232,0.0344330480027,-0.999397282952
1168204000000,,18146,,1168,200167613,"""map""",,,-0.00937140639871,-0.273069739342,0.0375723950565,,0.00355903703344,-0.00263655364893,0.0343954530139,-0.999398547357
1168236000000,,18147,,1168,232167097,"""map""",,,-0.00905648618937,-0.272892206907,0.0373580753803,,0.00363650964993,-0.00243339781309,0.034340872845,-0.999400612553
1168272000000,,18148,,1168,264167097,"""map""",,,-0.00875087268651,-0.272691309452,0.03685458377,,0.00361410901154,-0.00244554886476,0.0342898751583,-0.999402382721
1168304000000,,18149,,1168,296167097,"""map""",,,-0.0086620375514,-0.272277474403,0.0363320410252,,0.00362470207038,-0.00243226301743,0.0342940476963,-0.99940225628
1168336000000,,18150,,1168,328166581,"""map""",,,-0.00847168825567,-0.271944105625,0.035934664309,,0.00361087642234,-0.0024664324224,0.0343224125254,-0.999401286903
1168372000000,,18151,,1168,368166581,"""map""",,,-0.00810578465462,-0.271599620581,0.0355537235737,,0.00358860922153,-0.00249343785095,0.0343526318158,-0.999400233231
1168404000000,,18152,,1168,400166581,"""map""",,,-0.00771234743297,-0.271382123232,0.0352827422321,,0.00360526175418,-0.00249448567758,0.0343863071477,-0.999399010973
1168436000000,,18153,,1168,432178066,"""map""",,,-0.00722683314234,-0.271188020706,0.0350479148328,,0.00362021561244,-0.00257436288702,0.0343327385033,-0.9994006547
1168472000000,,18154,,1168,472178066,"""map""",,,-0.0068872817792,-0.270899176598,0.0348648428917,,0.00360820606552,-0.00255033358574,0.0343087147996,-0.999401581931
1168504000000,,18155,,1168,496178066,"""map""",,,-0.00691842939705,-0.270634442568,0.0347639210522,,0.00360701039565,-0.00256658160743,0.034343401656,-0.999400275378
1168536000000,,18156,,1168,528177550,"""map""",,,-0.00687650963664,-0.270360440016,0.0346682183444,,0.00361657184452,-0.00256892466763,0.034378720715,-0.999399095267
1168572000000,,18157,,1168,568177550,"""map""",,,-0.00666380720213,-0.270084559917,0.0345790460706,,0.0036686832123,-0.00261679813687,0.0343759811698,-0.999398884532
1168604000000,,18158,,1168,600177550,"""map""",,,-0.00638137990609,-0.269882082939,0.0343872010708,,0.00369159854438,-0.00261142050357,0.0343842419522,-0.999398463064
1168636000000,,18159,,1168,632177034,"""map""",,,-0.00599633343518,-0.269705533981,0.0341465063393,,0.00372732841173,-0.0026692533472,0.0343624098846,-0.999398968826
1168672000000,,18160,,1168,664177034,"""map""",,,-0.00563135417178,-0.269532650709,0.0340190529823,,0.00373193019728,-0.00269164069122,0.0343785942745,-0.999398294476
1168704000000,,18161,,1168,696177034,"""map""",,,-0.00541116297245,-0.269387274981,0.0341270416975,,0.00373338195864,-0.00268437398185,0.0343610611855,-0.999398968826
1168736000000,,18162,,1168,728176518,"""map""",,,-0.00508838333189,-0.269260555506,0.0343513004482,,0.00376873069336,-0.00271387805174,0.034375391114,-0.999398210183
1168772000000,,18163,,1168,768176518,"""map""",,,-0.00457062292844,-0.26915627718,0.0347251445055,,0.00378592998259,-0.00273025465424,0.0344303927513,-0.999396229281
1168804000000,,18164,,1168,800176518,"""map""",,,-0.00408606883138,-0.269118070602,0.0350701101124,,0.00380554020327,-0.00274428552121,0.0344415616661,-0.999395765665
1168832000000,,18165,,1168,832176002,"""map""",,,-0.00352809997275,-0.269084781408,0.0354577749968,,0.00382013149161,-0.00275558754438,0.0344152198858,-0.999396566456
1168872000000,,18166,,1168,864176002,"""map""",,,-0.00306804291904,-0.269069224596,0.0358195751905,,0.00373423094599,-0.00280875579377,0.0344030394466,-0.999397114365
1168904000000,,18167,,1168,896176002,"""map""",,,-0.00291378144175,-0.268983662128,0.0360295623541,,0.00375052399566,-0.00278722599817,0.0343919548254,-0.999397493686
1168936000000,,18168,,1168,928175486,"""map""",,,-0.00267374678515,-0.268916755915,0.0361095964909,,0.00371140307685,-0.00255293767652,0.0343950315454,-0.999398210183
1168972000000,,18169,,1168,968175486,"""map""",,,-0.00222831964493,-0.268865078688,0.0364568084478,,0.00371897267554,-0.00261044149484,0.0343928399093,-0.999398125889
1169004000000,,18170,,1169,175486,"""map""",,,-0.00181988067925,-0.268860310316,0.0368178375065,,0.00372704202719,-0.00259835765587,0.0344133654245,-0.999397409393
1169036000000,,18171,,1169,32174970,"""map""",,,-0.00137269753031,-0.26888448,0.0372334569693,,0.00369424523476,-0.00253845377209,0.034346731257,-0.99939998035
1169068000000,,18172,,1169,64174970,"""map""",,,-0.00102004560176,-0.268856972456,0.0374646857381,,0.00367745638339,-0.00261120771138,0.0343480799561,-0.999399811763
1169104000000,,18173,,1169,96174970,"""map""",,,-0.00105454958975,-0.268682837486,0.0376045741141,,0.00367605640009,-0.00264610258545,0.0343864757351,-0.999398420917
1169136000000,,18174,,1169,132174454,"""map""",,,-0.00095604400849,-0.268485635519,0.0377810262144,,0.00369797160886,-0.00266206224696,0.0343762761978,-0.999398589504
1169172000000,,18175,,1169,164174454,"""map""",,,-0.000701777171344,-0.268298566341,0.0380016677082,,0.00370789266419,-0.00272907828796,0.03435284255,-0.99939917956
1169204000000,,18176,,1169,196174454,"""map""",,,-0.000354202347808,-0.268138080835,0.0382498428226,,0.00366963324507,-0.00273556622729,0.0343649386955,-0.999398884532
1169236000000,,18177,,1169,228173938,"""map""",,,6.54826144455e-05,-0.267990112305,0.038419470191,,0.00372852712737,-0.00271083565843,0.0343722722472,-0.999398463064
1169272000000,,18178,,1169,268173938,"""map""",,,0.000552345241886,-0.267767727375,0.0386715084314,,0.0037252169534,-0.0027527859314,0.0343649386955,-0.999398631651
1169304000000,,18179,,1169,300173938,"""map""",,,0.000501213013195,-0.267430782318,0.0387797020376,,0.00371623658774,-0.00275608108233,0.0343418000757,-0.999399432441
1169336000000,,18180,,1169,332173422,"""map""",,,0.000552653684281,-0.267097949982,0.0387534834445,,0.00376947427242,-0.0027561308436,0.0343532640185,-0.999398926679
1169372000000,,18181,,1169,364173422,"""map""",,,0.000666339008603,-0.266800403595,0.0384894870222,,0.00380006601089,-0.00279036227523,0.0343418000757,-0.999399095267
1169404000000,,18182,,1169,396173422,"""map""",,,0.000830253236927,-0.266552686691,0.0381249152124,,0.00381153822665,-0.00275305601697,0.0343334549997,-0.999399432441
1169436000000,,18183,,1169,428172905,"""map""",,,0.00102936127223,-0.266329228878,0.0377572290599,,0.00379767644098,-0.00275015389364,0.0343420108099,-0.999399137413
1169472000000,,18184,,1169,468172905,"""map""",,,0.00110395206138,-0.265898823738,0.0373482815921,,0.00379644981951,-0.00274198242643,0.0343710499886,-0.999398168036
1169504000000,,18185,,1169,500172905,"""map""",,,0.000954177463427,-0.26537963748,0.0366328209639,,0.00375271011648,-0.0026819974182,0.0343676782407,-0.999398673798
1169536000000,,18186,,1169,532172389,"""map""",,,0.000897118297871,-0.264943897724,0.0359132885933,,0.00366340864122,-0.00264210168061,0.0343854220639,-0.999398463064
1169572000000,,18187,,1169,564172389,"""map""",,,0.000955046853051,-0.264555186033,0.0352122746408,,0.00366828940268,-0.00264124791881,0.0343572258223,-0.999399432441
1169604000000,,18188,,1169,596172389,"""map""",,,0.00108719791751,-0.264185875654,0.0346243232489,,0.00364743099321,-0.00264849092059,0.034364264346,-0.999399221707
1169636000000,,18189,,1169,628171873,"""map""",,,0.00131119892467,-0.263838678598,0.0342238806188,,0.00368342794151,-0.00274441558375,0.0343777091906,-0.999398420917
1169672000000,,18190,,1169,668171873,"""map""",,,0.00164578401018,-0.263463586569,0.0337941609323,,0.00348937212064,-0.00255577867869,0.0343380068593,-0.999400949728
1169704000000,,18191,,1169,700171873,"""map""",,,0.00202709366567,-0.26319411397,0.0336698852479,,0.00348765615945,-0.00255868199563,0.0343348458457,-0.999401076168
1169736000000,,18192,,1169,732171357,"""map""",,,0.00233484921046,-0.26292437315,0.0341508947313,,0.00258999711179,-0.00250987033971,0.0341012680113,-0.999411865762
1169772000000,,18193,,1169,764171357,"""map""",,,0.00227503082715,-0.262610644102,0.0356113687158,,-0.000923954819903,-0.001686020055,0.0331625312544,-0.999448154198
1169804000000,,18194,,1169,796171357,"""map""",,,0.00153207418043,-0.262173354626,0.0381472110748,,-0.00282038116229,-0.000800948501661,0.0327465418596,-0.999459449554
1169836000000,,18195,,1169,828170841,"""map""",,,0.000677053118125,-0.261834800243,0.0419065654278,,-0.00848418431285,0.00294974597471,0.0314469859326,-0.999465097231
1169872000000,,18196,,1169,868170841,"""map""",,,-0.000529416196514,-0.261605381966,0.0480785779655,,-0.0159419190087,0.00958054764898,0.0299572212783,-0.999378148283
1169904000000,,18197,,1169,900170841,"""map""",,,-0.00158065650612,-0.261611372232,0.0539171472192,,-0.0188452784254,0.012523477688,0.02944538995,-0.999310291857
1169936000000,,18198,,1169,932170325,"""map""",,,-0.00275117880665,-0.261797428131,0.0603708997369,,-0.0273425921401,0.0219638205527,0.0280352828393,-0.998991535241
1169972000000,,18199,,1169,964170325,"""map""",,,-0.00415746774524,-0.26212644577,0.0671085417271,,-0.0358195166582,0.0320515344007,0.0267566317492,-0.998485773059
1170004000000,,18200,,1169,996170325,"""map""",,,-0.00598711287603,-0.262622177601,0.0736023113132,,-0.0393855029003,0.0364903884609,0.0262377197503,-0.998212830068
1170036000000,,18201,,1170,28169809,"""map""",,,-0.00799670629203,-0.26337647438,0.0809369459748,,-0.0491672938484,0.0484729297875,0.0249668658272,-0.997301151588
1170072000000,,18202,,1170,68169809,"""map""",,,-0.011053936556,-0.265076935291,0.0911106020212,,-0.0599350121942,0.0617116770318,0.0234999869116,-0.996015672709
1170104000000,,18203,,1170,100169809,"""map""",,,-0.0145921884105,-0.267715632915,0.0998116359115,,-0.0652544742754,0.0685335629683,0.0226247654554,-0.995255343561
1170136000000,,18204,,1170,132169293,"""map""",,,-0.0194076839834,-0.271715193987,0.109295591712,,-0.073871157414,0.0797139921452,0.0206433999601,-0.993862516659
1170172000000,,18205,,1170,164169293,"""map""",,,-0.0258066430688,-0.277141034603,0.119835294783,,-0.079249229627,0.0870736563929,0.0186812534277,-0.992868988999
1170204000000,,18206,,1170,196169293,"""map""",,,-0.0341663993895,-0.284004598856,0.131288841367,,-0.0811456767959,0.0896461344021,0.0177940622665,-0.99250307006
1170236000000,,18207,,1170,228168776,"""map""",,,-0.0441581904888,-0.292464315891,0.144166827202,,-0.084291895244,0.0932313261069,0.0161696805781,-0.991938175849
1170272000000,,18208,,1170,268168776,"""map""",,,-0.0589151978493,-0.305237978697,0.162288874388,,-0.0860134939069,0.0954170353289,0.0148909030474,-0.991602560495
1170304000000,,18209,,1170,300168776,"""map""",,,-0.0724505260587,-0.317148417234,0.178398951888,,-0.0862359196194,0.0959227385713,0.0142564665367,-0.991543765641
1170336000000,,18210,,1170,332168260,"""map""",,,-0.0873442441225,-0.330484688282,0.19572339952,,-0.0859930355632,0.0952170656548,0.0134908690335,-0.991643611525
1170372000000,,18211,,1170,364168260,"""map""",,,-0.10323035717,-0.344640552998,0.21388079226,,-0.085705513714,0.0936416125062,0.0130153682886,-0.991824842974
1170404000000,,18212,,1170,396168260,"""map""",,,-0.119463250041,-0.358621805906,0.232427820563,,-0.0856361966361,0.0933794235471,0.0131102829915,-0.991854261474
1170436000000,,18213,,1170,428167744,"""map""",,,-0.136995449662,-0.374089360237,0.252678841352,,-0.0856280728311,0.0932058312148,0.0138985554992,-0.991860625648
1170472000000,,18214,,1170,468167744,"""map""",,,-0.16059371829,-0.39529940486,0.280101209879,,-0.0848325332847,0.0923558102813,0.0150502602816,-0.991991618053
1170504000000,,18215,,1170,500167744,"""map""",,,-0.180754929781,-0.413639426231,0.303643256426,,-0.0842660556039,0.0917277409082,0.0156027211719,-0.992089651623
1170536000000,,18216,,1170,532167228,"""map""",,,-0.201995581388,-0.433125883341,0.32857015729,,-0.0837340013615,0.0910511183657,0.0165141467709,-0.992182248249
1170572000000,,18217,,1170,564167228,"""map""",,,-0.224193692207,-0.453128665686,0.354455053806,,-0.0840649097694,0.091391999113,0.017434760383,-0.992107184712
1170604000000,,18218,,1170,596167228,"""map""",,,-0.247164323926,-0.47264033556,0.380766570568,,-0.0844670516195,0.0916812236291,0.0179938804753,-0.992036378006
1170636000000,,18219,,1170,636166713,"""map""",,,-0.277225375175,-0.498768746853,0.415762037039,,-0.0851922668442,0.0913918700383,0.0193376484464,-0.991975728691
1170672000000,,18220,,1170,668166713,"""map""",,,-0.302266597748,-0.520949840546,0.445534735918,,-0.0853538991851,0.0904784011403,0.0207620433386,-0.992016864016
1170704000000,,18221,,1170,700166713,"""map""",,,-0.328125804663,-0.544180452824,0.476938158274,,-0.0850867398613,0.0900558905085,0.0216128617695,-0.992060064535
1170736000000,,18222,,1170,732166197,"""map""",,,-0.354767292738,-0.56839454174,0.509943246841,,-0.084458109079,0.0892908409143,0.0227201859205,-0.992158140252
1170772000000,,18223,,1170,764166197,"""map""",,,-0.382389545441,-0.593082427979,0.543961167336,,-0.0838512909372,0.0886478890939,0.0239573223648,-0.992238177117
1170804000000,,18224,,1170,796166197,"""map""",,,-0.411334723234,-0.617400050163,0.578366100788,,-0.0835109279705,0.0884973044957,0.0244903957048,-0.992267342736
1170836000000,,18225,,1170,828165681,"""map""",,,-0.440793454647,-0.642671048641,0.614348113537,,-0.0828575988058,0.0879497645793,0.0253378002409,-0.992349529091
1170872000000,,18226,,1170,868165681,"""map""",,,-0.478256583214,-0.675473093987,0.661434710026,,-0.0821029031776,0.0873142885561,0.0262104085925,-0.992445623905
1170904000000,,18227,,1170,900165681,"""map""",,,-0.508744120598,-0.702620327473,0.700838088989,,-0.0817700324718,0.0871937223922,0.0265756110348,-0.992473988735
1170936000000,,18228,,1170,932165165,"""map""",,,-0.539633870125,-0.730526149273,0.741842210293,,-0.081048120671,0.0868320387178,0.0272750379859,-0.992546017699
1170972000000,,18229,,1170,964165165,"""map""",,,-0.57122284174,-0.758634209633,0.78416633606,,-0.0803859624,0.0863835537736,0.0279233408097,-0.992620954795
1171004000000,,18230,,1170,996165165,"""map""",,,-0.604131877422,-0.786101818085,0.827471673489,,-0.0800681751623,0.0862536045029,0.0281168369912,-0.992652438491
1171036000000,,18231,,1171,28164649,"""map""",,,-0.637235939503,-0.814271330833,0.872428059578,,-0.0793429559863,0.0861059097626,0.0285697048784,-0.992710558995
1171072000000,,18232,,1171,68164649,"""map""",,,-0.678865075111,-0.850405991077,0.930848300457,,-0.0787589303992,0.0858864899766,0.0290498417767,-0.992762146738
1171104000000,,18233,,1171,100164649,"""map""",,,-0.712372660637,-0.879990160465,0.979270458221,,-0.0784703871474,0.085750646074,0.0292543382857,-0.992790722301
1171136000000,,18234,,1171,132164134,"""map""",,,-0.746051549911,-0.910094320774,1.02927029133,,-0.0777341847661,0.0855250362988,0.0295722941108,-0.992858747315
1171172000000,,18235,,1171,164164134,"""map""",,,-0.780591070652,-0.940305650234,1.08071267605,,-0.0771205707743,0.0852747347266,0.0298456164234,-0.992919902392
1171204000000,,18236,,1171,196164134,"""map""",,,-0.817259073257,-0.969861388206,1.13327419758,,-0.0767837384294,0.0850981236263,0.0299746700736,-0.9929572445
1171236000000,,18237,,1171,228163618,"""map""",,,-0.853819906712,-0.999938964844,1.1873446703,,-0.0762797118413,0.0848917229358,0.0301797144916,-0.993007609984
1171272000000,,18238,,1171,268163618,"""map""",,,-0.899396598339,-1.0381963253,1.25697994232,,-0.0757266908589,0.0847926057312,0.0304375689107,-0.993050515475
1171304000000,,18239,,1171,300163618,"""map""",,,-0.935810625553,-1.06931245327,1.31425535679,,-0.0755670399138,0.0847234730459,0.030514571203,-0.993066151956
1171336000000,,18240,,1171,332163103,"""map""",,,-0.972165763378,-1.1008452177,1.37294864655,,-0.0748940917204,0.0840971287301,0.030646153664,-0.993166377162
1171372000000,,18241,,1171,364163103,"""map""",,,-1.00917553902,-1.13224625587,1.43292343616,,-0.0733558074823,0.082541412819,0.0307773146566,-0.993407625723
1171404000000,,18242,,1171,396163103,"""map""",,,-1.04808974266,-1.16263818741,1.49393057823,,-0.0717830276952,0.0809222958646,0.0308835668617,-0.993652372472
1171436000000,,18243,,1171,428162587,"""map""",,,-1.08662605286,-1.19341468811,1.55644416809,,-0.0688046824496,0.0777983885751,0.0310422075995,-0.994107558436
1171472000000,,18244,,1171,468162587,"""map""",,,-1.13420629501,-1.23228251934,1.63649868965,,-0.0646373242288,0.0731274789062,0.0312464090805,-0.994735167157
1171504000000,,18245,,1171,500162587,"""map""",,,-1.17174720764,-1.26357018948,1.70224618912,,-0.0630534986746,0.0712777482262,0.0313297334,-0.994968449964
1171536000000,,18246,,1171,532162072,"""map""",,,-1.2087572813,-1.29493165016,1.76952362061,,-0.0586404055585,0.0659739064915,0.0315073823665,-0.995598334615
1171572000000,,18247,,1171,564162072,"""map""",,,-1.24602794647,-1.32586860657,1.83793103695,,-0.0552230267994,0.0617964652958,0.0317446691236,-0.996054194928
1171604000000,,18248,,1171,596162072,"""map""",,,-1.2850176096,-1.35552561283,1.90644776821,,-0.0536177992072,0.0598684066734,0.0318652512572,-0.996255783305
1171636000000,,18249,,1171,628161557,"""map""",,,-1.32295084,-1.38509130478,1.97410881519,,-0.0513454887483,0.0575180297143,0.0344676927122,-0.996427278831
1171672000000,,18250,,1171,668161557,"""map""",,,-1.36888575554,-1.42187404633,2.05570626259,,-0.0508230779024,0.0569454654358,0.0347775984893,-0.996476211322
1171704000000,,18251,,1171,700161557,"""map""",,,-1.40451192856,-1.45110738277,2.11797118187,,-0.0509865191004,0.057068686028,0.0349524657638,-0.996454674283
1171736000000,,18252,,1171,732161042,"""map""",,,-1.43921732903,-1.48016309738,2.17745685577,,-0.0513954130074,0.0575696056031,0.035270126561,-0.996393687793
1171772000000,,18253,,1171,764161042,"""map""",,,-1.47423219681,-1.50875473022,2.23435878754,,-0.0509071075231,0.0574504696332,0.0356501225472,-0.996412063819
1171804000000,,18254,,1171,796161042,"""map""",,,-1.51172792912,-1.53632581234,2.289083004,,-0.0502413354891,0.0569032553671,0.0358540290003,-0.996469973589
1171836000000,,18255,,1171,828160527,"""map""",,,-1.54809474945,-1.5638628006,2.34202551842,,-0.0478496473745,0.0547415876294,0.0362964866159,-0.996692677536
1171872000000,,18256,,1171,868160527,"""map""",,,-1.5920330286,-1.59817540646,2.40607428551,,-0.045337869059,0.0520852561602,0.0366064345399,-0.996941175355
1171904000000,,18257,,1171,900160527,"""map""",,,-1.62602055073,-1.62551629543,2.45575332642,,-0.0438888538217,0.0503912333901,0.0367479636572,-0.997087846388
1171936000000,,18258,,1171,932160012,"""map""",,,-1.65900921822,-1.65270960331,2.50398349762,,-0.0409938994086,0.0468427249192,0.0370091055306,-0.997374360664
1171972000000,,18259,,1171,964160012,"""map""",,,-1.6920286417,-1.67944431305,2.55133152008,,-0.0381764874589,0.0432775182293,0.0372340854079,-0.997638874285
1172004000000,,18260,,1171,996160012,"""map""",,,-1.72690939903,-1.70513606071,2.59845113754,,-0.0368518944929,0.0416678686754,0.0373091067983,-0.99775435665
1172036000000,,18261,,1172,28159497,"""map""",,,-1.76048338413,-1.73064863682,2.64409828186,,-0.0343948790923,0.0388286742136,0.037387373496,-0.997953669097
1172072000000,,18262,,1172,68159497,"""map""",,,-1.80064570904,-1.76230096817,2.69890809059,,-0.0322224686828,0.0362875180629,0.0374799701221,-0.998118336834
1172104000000,,18263,,1172,100159497,"""map""",,,-1.83139109612,-1.78738296032,2.74108672142,,-0.031231261569,0.0350714104265,0.0374837211916,-0.99819314749
1172136000000,,18264,,1172,132158982,"""map""",,,-1.86099720001,-1.81222236156,2.78179693222,,-0.029498780952,0.0330402564968,0.0375524205547,-0.998312591659
1172172000000,,18265,,1172,164158982,"""map""",,,-1.89057457447,-1.83653724194,2.82129645348,,-0.0277764718842,0.031367873993,0.037479169332,-0.998418717423
1172204000000,,18266,,1172,196158982,"""map""",,,-1.92209792137,-1.85986328125,2.85997819901,,-0.0269701210127,0.030596183636,0.0374143896258,-0.998467144152
1172236000000,,18267,,1172,228158467,"""map""",,,-1.95221817493,-1.8829729557,2.89723539352,,-0.0255268382408,0.0293249090676,0.0373112562875,-0.998547096724
1172272000000,,18268,,1172,268158467,"""map""",,,-1.98800349236,-1.91156578064,2.94176650047,,-0.0241870585799,0.0280212015114,0.0372227057588,-0.99862123303
1172304000000,,18269,,1172,300158467,"""map""",,,-2.01525330544,-1.93415880203,2.97589802742,,-0.023540898166,0.0273405844025,0.0371272010001,-0.9986590809
1172336000000,,18270,,1172,332157953,"""map""",,,-2.04132127762,-1.95648431778,3.00877690315,,-0.022187769314,0.0261264696863,0.0368983436127,-0.998731067718
1172372000000,,18271,,1172,364157953,"""map""",,,-2.06742072105,-1.97821629047,3.04096031189,,-0.020956291578,0.0249488757083,0.0366709192181,-0.998796142452
1172404000000,,18272,,1172,396157953,"""map""",,,-2.09564781189,-1.99880492687,3.0728700161,,-0.0204880580364,0.0245510125865,0.0365791655289,-0.99881902819
1172436000000,,18273,,1172,428157438,"""map""",,,-2.1224591732,-2.01915025711,3.10358023643,,-0.0194064194262,0.0236352619964,0.0363494230577,-0.998871163842
1172472000000,,18274,,1172,468157438,"""map""",,,-2.15415024757,-2.04427146912,3.14030909538,,-0.0184839581029,0.0227858856133,0.0361363285916,-0.998916092383
1172504000000,,18275,,1172,500157438,"""map""",,,-2.17813038826,-2.0641374588,3.16844415665,,-0.0180636856992,0.0222371387494,0.0360370306165,-0.998939778911
1172536000000,,18276,,1172,532156924,"""map""",,,-2.2009704113,-2.08379650116,3.19550132751,,-0.0174481956787,0.0214001904183,0.0358725736136,-0.998974845089
1172572000000,,18277,,1172,564156924,"""map""",,,-2.22387647629,-2.10284686089,3.22168755531,,-0.0165849801475,0.0203899258497,0.0357933796853,-0.999013578043
1172604000000,,18278,,1172,596156924,"""map""",,,-2.24897623062,-2.12065720558,3.24716663361,,-0.0161040187515,0.0199547043211,0.0357137642884,-0.999033092034
1172636000000,,18279,,1172,628156410,"""map""",,,-2.27273488045,-2.13830089569,3.27162909508,,-0.015254944805,0.0191406425519,0.0356491953165,-0.999064617877
1172672000000,,18280,,1172,668156410,"""map""",,,-2.30067062378,-2.16013884544,3.30093884468,,-0.014452075823,0.0182498272557,0.0355732888423,-0.999095932985
1172704000000,,18281,,1172,700156410,"""map""",,,-2.32167720795,-2.17743468285,3.32337188721,,-0.014062628406,0.0177775428422,0.0355248621134,-0.999111738053
1172736000000,,18282,,1172,732155896,"""map""",,,-2.34153199196,-2.19455647469,3.34501719475,,-0.0134703507623,0.0167483864426,0.0354794278107,-0.999139302092
1172772000000,,18283,,1172,764155896,"""map""",,,-2.36139321327,-2.21116161346,3.36610078812,,-0.0128245976582,0.0158347614695,0.0354397254794,-0.999164084439
1172804000000,,18284,,1172,804155896,"""map""",,,-2.38855075836,-2.23057079315,3.39175200462,,-0.0124689869166,0.0154948780879,0.0353821950312,-0.999175927704
1172836000000,,18285,,1172,828155382,"""map""",,,-2.4038772583,-2.24211668968,3.40650701523,,-0.011697980952,0.0149182412055,0.0353068364661,-0.999196748247
1172872000000,,18286,,1172,868155382,"""map""",,,-2.42791056633,-2.26121139526,3.43008732796,,-0.0111347630665,0.0144782982421,0.0353300172327,-0.999208802245
1172904000000,,18287,,1172,900155382,"""map""",,,-2.44589471817,-2.2763338089,3.4480214119,,-0.0108968635337,0.0142329262048,0.0352925486844,-0.999216262238
1172936000000,,18288,,1172,932154868,"""map""",,,-2.46281838417,-2.29132866859,3.46526694298,,-0.0104635514549,0.0135533586512,0.0352785559307,-0.999230845047
1172972000000,,18289,,1172,964154868,"""map""",,,-2.47980070114,-2.3057706356,3.48189544678,,-0.00989112333048,0.0129003618868,0.0352841193147,-0.999245174976
1173004000000,,18290,,1172,996154868,"""map""",,,-2.49881720543,-2.31891822815,3.49806118011,,-0.00959454418932,0.0126359980844,0.0353230630027,-0.99925006401
1173036000000,,18291,,1173,28154355,"""map""",,,-2.51658678055,-2.33197498322,3.51346898079,,-0.00891337324449,0.0121743480122,0.0352254509016,-0.999265489757
1173072000000,,18292,,1173,68154355,"""map""",,,-2.53718471527,-2.34815120697,3.53193330765,,-0.00845387513114,0.0117481999098,0.0351279230941,-0.999278049518
1173108000000,,18293,,1173,100154355,"""map""",,,-2.55246353149,-2.36101412773,3.5460588932,,-0.0082927824675,0.0115778062928,0.0350594344653,-0.999283823636
1173136000000,,18294,,1173,132153841,"""map""",,,-2.56673002243,-2.37380194664,3.55957078934,,-0.00820199782654,0.0111616736646,0.035025295518,-0.999290482838
1173172000000,,18295,,1173,164153841,"""map""",,,-2.58116221428,-2.38611102104,3.57242369652,,-0.00791754940448,0.010699190369,0.0350093640093,-0.999298406445
1173204000000,,18296,,1173,196153841,"""map""",,,-2.59782624245,-2.39725708961,3.58451509476,,-0.0077158928687,0.0105148476269,0.0349318559549,-0.999304602032
1173236000000,,18297,,1173,228153328,"""map""",,,-2.61330723763,-2.4084379673,3.59616494179,,-0.00729385605968,0.0101479928964,0.0349087594819,-0.999312357052
1173272000000,,18298,,1173,268153328,"""map""",,,-2.63110923767,-2.4223818779,3.61014056206,,-0.00686952158887,0.00979342331364,0.0348769386113,-0.999320069926
1173304000000,,18299,,1173,300153328,"""map""",,,-2.64421582222,-2.43345189095,3.6208999157,,-0.00665627088312,0.00955968034916,0.0348231170857,-0.999325675456
1173336000000,,18300,,1173,332152815,"""map""",,,-2.65639901161,-2.44443273544,3.6314406395,,-0.0062316351282,0.00903884111979,0.034738739095,-0.999336127875
1173372000000,,18301,,1173,372152815,"""map""",,,-2.67255520821,-2.45726156235,3.6441411972,,-0.00608157448448,0.00855458642506,0.0346941477293,-0.999342871371
1173404000000,,18302,,1173,396152815,"""map""",,,-2.68338871002,-2.46422839165,3.65150117874,,-0.00598734014043,0.0082923796029,0.0346727792771,-0.999346369559
1173436000000,,18303,,1173,428152302,"""map""",,,-2.69686198235,-2.47355127335,3.66103315353,,-0.00582275793176,0.00797440278663,0.0345645461701,-0.999353703111
1173472000000,,18304,,1173,468152302,"""map""",,,-2.71226525307,-2.48524475098,3.67260193825,,-0.00555989709259,0.00756395718413,0.0344871645562,-0.999361120956
1173504000000,,18305,,1173,500152302,"""map""",,,-2.72354888916,-2.49462938309,3.6814968586,,-0.00550435174447,0.00727668006646,0.0344472936375,-0.999364914172
1173536000000,,18306,,1173,532151789,"""map""",,,-2.73396110535,-2.50401830673,3.69017148018,,-0.00540729389084,0.00669369588519,0.0344488109241,-0.999369466032
1173572000000,,18307,,1173,564151789,"""map""",,,-2.74474811554,-2.51303100586,3.69841051102,,-0.00510453192224,0.00602525221848,0.0343838204837,-0.999377558227
1173604000000,,18308,,1173,596151789,"""map""",,,-2.75809431076,-2.52106285095,3.70613217354,,-0.00496214146989,0.00578887355308,0.03432502563,-0.999381730765
1173636000000,,18309,,1173,628151277,"""map""",,,-2.77029442787,-2.52915096283,3.71355509758,,-0.00463681344475,0.00545562611864,0.0342272870883,-0.999388432114
1173672000000,,18310,,1173,668151277,"""map""",,,-2.78408360481,-2.53930306435,3.72251486778,,-0.00436932906748,0.00498289066387,0.034149188978,-0.999394796288
1173704000000,,18311,,1173,700151277,"""map""",,,-2.79403281212,-2.54744577408,3.72944450378,,-0.00432686488284,0.00488100320946,0.034113869919,-0.999396735043
1173736000000,,18312,,1173,732150764,"""map""",,,-2.80314183235,-2.55558633804,3.73531937599,,-0.00223713726753,0.00367064641579,0.0340222005234,-0.999411865762
1173772000000,,18313,,1173,764150764,"""map""",,,-2.81259393692,-2.56331539154,3.73802900314,,0.0119233105165,-0.00206627954129,0.0337139384734,-0.99935825497
1173804000000,,18314,,1173,796150764,"""map""",,,-2.82432317734,-2.56978988647,3.73721647263,,0.0218751626812,-0.00599978827799,0.0335393662269,-0.999180058095
1173836000000,,18315,,1173,828150252,"""map""",,,-2.83480072021,-2.5759370327,3.73432374001,,0.0385870190015,-0.0130510837915,0.0331734051413,-0.998619209982
1173872000000,,18316,,1173,868150252,"""map""",,,-2.84602761269,-2.58263349533,3.72980904579,,0.0468661167494,-0.0173143665931,0.0329002514161,-0.998209078999
1173904000000,,18317,,1173,900150252,"""map""",,,-2.85353517532,-2.58698701859,3.72684407234,,0.0483217516761,-0.0181792423151,0.032765887263,-0.998128747106
