rosbagTimestamp,header,seq,stamp,secs,nsecs,frame_id,pose,position,x,y,z,orientation,x,y,z,w
620944000000,,12461,,620,936098303,"""map""",,,-0.0322614423931,-0.206666231155,0.0365431793034,,-0.00321090110129,0.00480955592537,0.0229317631,-0.999720296399
620976000000,,12462,,620,968098303,"""map""",,,-0.0327605716884,-0.207452893257,0.036064222455,,-0.00325684956261,0.00482033317088,0.0229473152871,-0.99971974849
621008000000,,12463,,621,98018,"""map""",,,-0.0338461622596,-0.208131998777,0.0357056669891,,-0.00327569529543,0.00474527407885,0.0229377900993,-0.999720254252
621044000000,,12464,,621,40098018,"""map""",,,-0.0352717861533,-0.209026068449,0.0355101339519,,-0.00326129543774,0.00462238782151,0.022891428566,-0.99972202442
621076000000,,12465,,621,72098018,"""map""",,,-0.0362591668963,-0.209846004844,0.0354256294668,,-0.00321999510704,0.00463827623674,0.0228744855329,-0.999722445888
621108000000,,12466,,621,104097734,"""map""",,,-0.0371000170708,-0.210748046637,0.0352928861976,,-0.00323146547064,0.00466917662678,0.0228800910637,-0.99972215086
621144000000,,12467,,621,136097734,"""map""",,,-0.0377830639482,-0.211732432246,0.0351125299931,,-0.00328850900752,0.00467683311218,0.0228553508636,-0.999722445888
621176000000,,12468,,621,168097734,"""map""",,,-0.0383240319788,-0.212803259492,0.0348812267184,,-0.00331898838182,0.00468145876996,0.0228561095069,-0.999722361595
621208000000,,12469,,621,200097449,"""map""",,,-0.0391214117408,-0.213331997395,0.0347743071616,,-0.00330222303226,0.00469420304676,0.022808230687,-0.999723373119
621244000000,,12470,,621,240097449,"""map""",,,-0.0400892794132,-0.213922053576,0.0344796851277,,-0.00331993269348,0.00471712953294,0.0227668424818,-0.999724216056
621276000000,,12471,,621,272097449,"""map""",,,-0.0407092608511,-0.214531257749,0.033988956362,,-0.00330389565299,0.00472568550783,0.0227485507495,-0.999724637524
621308000000,,12472,,621,304097164,"""map""",,,-0.0412109792233,-0.215232253075,0.0334243923426,,-0.00331228979056,0.00472001511034,0.0227209024169,-0.999725311874
621344000000,,12473,,621,336097164,"""map""",,,-0.0415940880775,-0.216050997376,0.0328243970871,,-0.00327464969139,0.00475058112441,0.022626282742,-0.99972737707
621376000000,,12474,,621,368097164,"""map""",,,-0.0418907254934,-0.216990992427,0.0322502627969,,-0.00325241582939,0.00473512319149,0.022627125679,-0.999727545657
621408000000,,12475,,621,400096880,"""map""",,,-0.042555924505,-0.217487290502,0.0322115458548,,-0.00329335811768,0.00473491188102,0.0226497585366,-0.999726829161
621444000000,,12476,,621,440096880,"""map""",,,-0.0433934852481,-0.218078255653,0.0320452339947,,-0.0033387752159,0.00474431993018,0.0226593258712,-0.999726449839
621476000000,,12477,,621,472096880,"""map""",,,-0.0439103841782,-0.218709021807,0.0318089909852,,-0.00335859905195,0.00471043419325,0.0226714220167,-0.999726239105
621508000000,,12478,,621,504096595,"""map""",,,-0.0443168096244,-0.21947722137,0.0315434448421,,-0.0033277195707,0.00476075588401,0.0226670387445,-0.999726239105
621544000000,,12479,,621,536096595,"""map""",,,-0.0446180105209,-0.220371544361,0.031275767833,,-0.00336607213271,0.00479552481144,0.0226571763819,-0.999726154811
621576000000,,12480,,621,576096595,"""map""",,,-0.0448044724762,-0.22162348032,0.0309390667826,,-0.00321182438069,0.00467830405366,0.0226704526392,-0.999726955601
621608000000,,12481,,621,600096311,"""map""",,,-0.0451329052448,-0.221900239587,0.0310719553381,,-0.00318366279494,0.00466050450111,0.0226803571486,-0.999726913454
621644000000,,12482,,621,640096311,"""map""",,,-0.0455031134188,-0.22255627811,0.0313166864216,,-0.0031592945902,0.0045732131918,0.0226722649537,-0.99972750351
621676000000,,12483,,621,672096311,"""map""",,,-0.0456757508218,-0.223252430558,0.0314263440669,,-0.00309377789041,0.00458658897162,0.0226726442753,-0.999727629951
621708000000,,12484,,621,704096026,"""map""",,,-0.0457829236984,-0.2240909338,0.0312905758619,,-0.00310373483642,0.00462954673538,0.0226412870201,-0.999728135713
621744000000,,12485,,621,736096026,"""map""",,,-0.045809186995,-0.225067839026,0.0309775155038,,-0.00312459159953,0.00464801232338,0.0225720818948,-0.999729568706
621776000000,,12486,,621,768096026,"""map""",,,-0.0457645356655,-0.226178750396,0.0306426100433,,-0.00308052410596,0.00464349437878,0.0225988451436,-0.99972910509
621808000000,,12487,,621,800095741,"""map""",,,-0.0460101217031,-0.226548418403,0.0303394086659,,-0.00305524101826,0.00464644951494,0.0226098876179,-0.999728936503
621844000000,,12488,,621,840095741,"""map""",,,-0.0463365763426,-0.226961508393,0.029911948368,,-0.00306716157935,0.00458881081847,0.0226258191266,-0.999728767916
621876000000,,12489,,621,872095741,"""map""",,,-0.0464580990374,-0.227495774627,0.029518397525,,-0.00308841618567,0.0045868449808,0.0225979600598,-0.999729400118
621908000000,,12490,,621,904095457,"""map""",,,-0.0464798547328,-0.228214502335,0.0291092488915,,-0.00308915935314,0.00460030003291,0.0225966535075,-0.999729357971
621944000000,,12491,,621,936095457,"""map""",,,-0.0464294031262,-0.229115009308,0.0286980886012,,-0.00309233172667,0.0046680219513,0.0225499969462,-0.999730074468
621976000000,,12492,,621,968095457,"""map""",,,-0.0463124103844,-0.230161294341,0.0283563695848,,-0.0030779449164,0.00468507784247,0.02253697357,-0.999730369496
622008000000,,12493,,622,95172,"""map""",,,-0.0465996973217,-0.230536028743,0.0281371586025,,-0.00308501151056,0.00469885484053,0.0225687101469,-0.999729484412
622044000000,,12494,,622,40095172,"""map""",,,-0.0470038577914,-0.230955228209,0.0279232282192,,-0.00305324118322,0.00471124486154,0.0226017532761,-0.999728810062
622076000000,,12495,,622,72095172,"""map""",,,-0.0472213588655,-0.231510847807,0.0277688242495,,-0.00309087486159,0.00475881828143,0.0225389544719,-0.99972990588
622108000000,,12496,,622,104094887,"""map""",,,-0.0473284721375,-0.232254698873,0.0275991726667,,-0.0030777508104,0.00476726798369,0.0224840792751,-0.999731085992
622144000000,,12497,,622,136094887,"""map""",,,-0.0473536886275,-0.233166009188,0.027366572991,,-0.00304688845131,0.00480568845811,0.0224069505423,-0.999732771866
622176000000,,12498,,622,168094887,"""map""",,,-0.0473259016871,-0.234221965075,0.0270817950368,,-0.00316993658713,0.00484863766078,0.022458791166,-0.999731001699
622208000000,,12499,,622,200094603,"""map""",,,-0.0476201064885,-0.234572723508,0.0270714573562,,-0.00329081646515,0.00483602381696,0.0224559251803,-0.999730748817
622244000000,,12500,,622,240094603,"""map""",,,-0.047965541482,-0.234903976321,0.0271280631423,,-0.00330463865583,0.00484415618309,0.0224396986436,-0.999731043845
622272000000,,12501,,622,272094603,"""map""",,,-0.0481220073998,-0.235390558839,0.0272009298205,,-0.00335253286922,0.00484187605505,0.0224446298249,-0.999730748817
622308000000,,12502,,622,304094318,"""map""",,,-0.0481896735728,-0.236014395952,0.0272637717426,,-0.00335224747249,0.00487960102414,0.0224109544929,-0.999731296726
622344000000,,12503,,622,336094318,"""map""",,,-0.0481897592545,-0.236855119467,0.0273825153708,,-0.00311595182486,0.00492965699219,0.0224394457625,-0.999731212433
622376000000,,12504,,622,368094318,"""map""",,,-0.0481427721679,-0.237848415971,0.0275599323213,,-0.00314186588052,0.00494098626264,0.0224295412531,-0.999731338873
622408000000,,12505,,622,400094033,"""map""",,,-0.0484713427722,-0.238180235028,0.0276693999767,,-0.00314900878353,0.00495458487745,0.022419847478,-0.999731423167
622444000000,,12506,,622,440094033,"""map""",,,-0.0489424094558,-0.238583147526,0.027819884941,,-0.00317259603681,0.00491489489387,0.0223608418901,-0.99973285616
622476000000,,12507,,622,472094033,"""map""",,,-0.0492539145052,-0.23912781477,0.0280111171305,,-0.00317199305699,0.00490176853778,0.0223076104204,-0.999734078418
622508000000,,12508,,622,504093748,"""map""",,,-0.0494675524533,-0.239849671721,0.0281814839691,,-0.00319507792313,0.00490403434248,0.0222961464776,-0.999734247006
622544000000,,12509,,622,536093748,"""map""",,,-0.049568220973,-0.240740820765,0.0284037906677,,-0.00323628758049,0.00489332319837,0.0223100127908,-0.999733951978
622576000000,,12510,,622,576093748,"""map""",,,-0.0495933778584,-0.24206507206,0.0285261906683,,-0.00328396883704,0.0048919652796,0.0223323927673,-0.999733319775
622608000000,,12511,,622,608093464,"""map""",,,-0.050131868571,-0.242035195231,0.0283903069794,,-0.00327660367526,0.00487778286507,0.0222990546101,-0.999734120565
622644000000,,12512,,622,640093464,"""map""",,,-0.0505646578968,-0.242241218686,0.0283392388374,,-0.00328106276245,0.00481788750121,0.0222631876421,-0.999735174237
622676000000,,12513,,622,672093464,"""map""",,,-0.0509208254516,-0.242634430528,0.0282731801271,,-0.0033342668202,0.00480378518216,0.0222617546492,-0.999735089943
622708000000,,12514,,622,704093179,"""map""",,,-0.0511739999056,-0.243241041899,0.0280539542437,,-0.0033331198003,0.0048614228085,0.0222374780645,-0.999735427118
622744000000,,12515,,622,736093179,"""map""",,,-0.0513480231166,-0.244007706642,0.0276858974248,,-0.0032551752132,0.00489368877289,0.0221749321413,-0.99973686011
622776000000,,12516,,622,768093179,"""map""",,,-0.0514390580356,-0.244959101081,0.0271081291139,,-0.0033161676299,0.00485730945718,0.0221970170899,-0.999736354348
622808000000,,12517,,622,800092895,"""map""",,,-0.0518754832447,-0.244994878769,0.026425268501,,-0.00330886651157,0.00490024376029,0.0221780510081,-0.999736607229
622844000000,,12518,,622,840092895,"""map""",,,-0.0524406582117,-0.244932979345,0.0253292769194,,-0.00331523521319,0.00484356423389,0.0221807062595,-0.999736817964
622876000000,,12519,,622,872092895,"""map""",,,-0.0527878478169,-0.245160534978,0.0243915729225,,-0.00330762976499,0.00484621611031,0.0221845837696,-0.99973673367
622908000000,,12520,,622,904092610,"""map""",,,-0.0530478022993,-0.245592355728,0.0234773438424,,-0.00331307131826,0.00482535473739,0.0221498969133,-0.999737618754
622944000000,,12521,,622,936092610,"""map""",,,-0.0532104857266,-0.246239736676,0.0227058660239,,-0.00327842809051,0.004877803033,0.0220921557308,-0.999738714572
622976000000,,12522,,622,968092610,"""map""",,,-0.0532804504037,-0.247082486749,0.0219085179269,,-0.00327577596714,0.00485641103784,0.0220725574462,-0.999739262481
623008000000,,12523,,623,92325,"""map""",,,-0.0535467714071,-0.247101917863,0.0210074111819,,-0.00328859560612,0.00489836583831,0.0220797224105,-0.999738841012
623044000000,,12524,,623,40092325,"""map""",,,-0.0538764558733,-0.247033342719,0.0200901329517,,-0.00327126913548,0.0048824344942,0.0220586911331,-0.999739388921
623076000000,,12525,,623,72092325,"""map""",,,-0.0540494397283,-0.247243344784,0.0193138234317,,-0.0032566631122,0.00484101813619,0.0220622736152,-0.999739599656
623108000000,,12526,,623,104092041,"""map""",,,-0.0541319176555,-0.247675463557,0.0184149425477,,-0.00326228922257,0.00480875455902,0.0220599133917,-0.999739768243
623144000000,,12527,,623,136092041,"""map""",,,-0.0541361421347,-0.24830044806,0.0175175145268,,-0.00324436668683,0.00487293457809,0.0220374491214,-0.999740063271
623176000000,,12528,,623,168092041,"""map""",,,-0.0540707856417,-0.249121263623,0.0166411902755,,-0.00322060458998,0.00483717083686,0.0219931949305,-0.999741243383
623208000000,,12529,,623,208091756,"""map""",,,-0.0543371774256,-0.248787254095,0.0156621932983,,-0.00322314805351,0.00483049368945,0.0219901182106,-0.999741369823
623244000000,,12530,,623,240091756,"""map""",,,-0.0545061454177,-0.248522683978,0.0149324797094,,-0.00303401102505,0.00485604101814,0.0219821103093,-0.999741959879
623276000000,,12531,,623,272091756,"""map""",,,-0.0545922964811,-0.248556897044,0.01425277628,,-0.00298807540535,0.0048655597851,0.0219802979949,-0.999742170613
623308000000,,12532,,623,304091472,"""map""",,,-0.0546048395336,-0.248861342669,0.0134408744052,,-0.00297894641442,0.00488823569509,0.0220028887057,-0.999741496264
623344000000,,12533,,623,336091472,"""map""",,,-0.0545731596649,-0.249418973923,0.0127981463447,,-0.00298505885991,0.00492763394346,0.0220251422417,-0.999740821914
623376000000,,12534,,623,368091472,"""map""",,,-0.0544589422643,-0.250203996897,0.0120357424021,,-0.0029757134548,0.0049271742794,0.0220080306212,-0.999741243383
623408000000,,12535,,623,400091187,"""map""",,,-0.054663836956,-0.250041544437,0.0117823509499,,-0.00297334705742,0.00489349721876,0.0220061761598,-0.999741496264
623444000000,,12536,,623,440091187,"""map""",,,-0.0549351871014,-0.249771118164,0.0114841554314,,-0.00296460282113,0.00487812621372,0.0220017507407,-0.999741706998
623476000000,,12537,,623,472091187,"""map""",,,-0.0550761893392,-0.249853760004,0.0110507095233,,-0.00299309376145,0.00483501360968,0.0219658837727,-0.999742592082
623508000000,,12538,,623,504090903,"""map""",,,-0.0551557540894,-0.25019261241,0.0106057012454,,-0.00296728169787,0.00482494948556,0.0219569486408,-0.999742929257
623544000000,,12539,,623,536090903,"""map""",,,-0.0551547110081,-0.250751286745,0.0101466886699,,-0.00300191694077,0.00483796849889,0.0219479292152,-0.999742929257
623576000000,,12540,,623,568090903,"""map""",,,-0.0550812333822,-0.251476943493,0.00969387684017,,-0.00297263451227,0.00485573759376,0.0219466226629,-0.999742971404
623608000000,,12541,,623,600090618,"""map""",,,-0.0551482364535,-0.251337110996,0.00921924598515,,-0.00287653796898,0.00488989144062,0.0219000925421,-0.999744067222
623644000000,,12542,,623,640090618,"""map""",,,-0.055206861347,-0.251140534878,0.00877120997757,,-0.00287921042491,0.00489305698175,0.0218459759887,-0.999745247333
623676000000,,12543,,623,672090618,"""map""",,,-0.0552041530609,-0.251322120428,0.00855154544115,,-0.00282507008151,0.00484729809894,0.0218146608802,-0.999746301005
623708000000,,12544,,623,704090334,"""map""",,,-0.0551320575178,-0.251765191555,0.00836145598441,,-0.00283908242691,0.00487444017547,0.0217870968413,-0.999746722473
623744000000,,12545,,623,736090334,"""map""",,,-0.0549959428608,-0.252432823181,0.00806380715221,,-0.00288083974634,0.00489276384713,0.0217700273676,-0.999746933207
623776000000,,12546,,623,768090334,"""map""",,,-0.0548473857343,-0.253315031528,0.00769805721939,,-0.00289732747824,0.0048981160853,0.0217211370234,-0.999747860438
623808000000,,12547,,623,800090050,"""map""",,,-0.0550206974149,-0.253482431173,0.00719068199396,,-0.00287145433465,0.00489212489432,0.0216924771664,-0.999748619081
623844000000,,12548,,623,840090050,"""map""",,,-0.055272847414,-0.253695815802,0.00637004943565,,-0.00284062185702,0.00492496000581,0.0216694649871,-0.99974904055
623876000000,,12549,,623,872090050,"""map""",,,-0.0553921498358,-0.254144906998,0.00563794281334,,-0.00278161133002,0.00490173281174,0.0216200267338,-0.999750431396
623908000000,,12550,,623,904089765,"""map""",,,-0.0554586239159,-0.254857838154,0.00502661149949,,-0.00279941524543,0.00487526376769,0.0216059918332,-0.999750810717
623944000000,,12551,,623,936089765,"""map""",,,-0.0554862730205,-0.255796581507,0.00442158197984,,-0.00279903575915,0.00493753787664,0.0215871521919,-0.999750937158
623976000000,,12552,,623,968089765,"""map""",,,-0.0554873161018,-0.256944894791,0.00386498309672,,-0.00284199698027,0.00493293094621,0.0215691554876,-0.999751232186
624008000000,,12553,,624,89481,"""map""",,,-0.0559021942317,-0.257081121206,0.00357074593194,,-0.00286957040345,0.00496276218925,0.0215777534447,-0.999750726424
624044000000,,12554,,624,40089481,"""map""",,,-0.0564968623221,-0.257167190313,0.00310527416877,,-0.00285480056723,0.00502844015012,0.0216082677631,-0.999749799193
624076000000,,12555,,624,72089481,"""map""",,,-0.0568675547838,-0.257516205311,0.00275055831298,,-0.00259806213402,0.00500975222102,0.0216666832951,-0.999749377724
624108000000,,12556,,624,104089197,"""map""",,,-0.0571607574821,-0.258125036955,0.00221948884428,,-0.00282473430612,0.00503531444928,0.0216911284672,-0.999748029025
624144000000,,12557,,624,136089197,"""map""",,,-0.0573999136686,-0.258963316679,0.00172943680082,,-0.00283455839078,0.00501631420545,0.0216414794797,-0.999749209137
624176000000,,12558,,624,168089197,"""map""",,,-0.0575736947358,-0.2600299716,0.0015176362358,,-0.00281349410383,0.00500740022931,0.0216461577799,-0.999749251284
624208000000,,12559,,624,200088913,"""map""",,,-0.0579681843519,-0.260033279657,0.00156969286036,,-0.00284626706517,0.00500132334523,0.0216278660476,-0.999749588459
624244000000,,12560,,624,240088913,"""map""",,,-0.0584668330848,-0.259933918715,0.0016896558227,,-0.00287199401188,0.00502365500108,0.0215876158073,-0.999750220661
624276000000,,12561,,624,272088913,"""map""",,,-0.0587748512626,-0.260187894106,0.00183913938235,,-0.00283049673521,0.00504766528689,0.0215742552563,-0.999750515689
624308000000,,12562,,624,304088629,"""map""",,,-0.0590072385967,-0.260712832212,0.00206836522557,,-0.0028834617413,0.0050313502583,0.0215403270433,-0.999751232186
624344000000,,12563,,624,336088629,"""map""",,,-0.0591609738767,-0.261474281549,0.00220828782767,,-0.00288631447379,0.00501705070517,0.0215228361011,-0.999751611507
624376000000,,12564,,624,368088629,"""map""",,,-0.0592419244349,-0.262467265129,0.0023111756891,,-0.00293122967878,0.00498436664733,0.0215692819282,-0.999750684277
624408000000,,12565,,624,400088345,"""map""",,,-0.0595111064613,-0.262427717447,0.00247397460043,,-0.00294202100068,0.00498862043326,0.0215610632927,-0.999750810717
624444000000,,12566,,624,440088345,"""map""",,,-0.0598265603185,-0.262341797352,0.00274801533669,,-0.0029105270974,0.00496010710243,0.021519801528,-0.999751948682
624476000000,,12567,,624,472088345,"""map""",,,-0.0599905736744,-0.262593984604,0.00283998367377,,-0.00298051276253,0.00492289390473,0.0215580287196,-0.999751063598
624508000000,,12568,,624,504088061,"""map""",,,-0.0600974075496,-0.263113230467,0.00287417438813,,-0.00299167789076,0.00491537579599,0.0215753510744,-0.999750684277
624544000000,,12569,,624,536088061,"""map""",,,-0.0601528100669,-0.263906747103,0.00283352518454,,-0.00300908824351,0.00488481562651,0.0215636763973,-0.999751063598
624576000000,,12570,,624,568088061,"""map""",,,-0.0601772814989,-0.264915376902,0.00265873339958,,-0.00298465377272,0.00485384477221,0.0215236368912,-0.999752159416
624608000000,,12571,,624,600087777,"""map""",,,-0.0604101009667,-0.264841079712,0.00261617871001,,-0.00301257112077,0.00484092577532,0.0215428558542,-0.999751737948
624644000000,,12572,,624,640087777,"""map""",,,-0.0606937520206,-0.264675974846,0.00278478721157,,-0.00305540087994,0.00489224351465,0.0215232154228,-0.999751737948
624676000000,,12573,,624,672087777,"""map""",,,-0.0608700439334,-0.264931261539,0.00302529800683,,-0.00308724685757,0.00487246734076,0.0214783290291,-0.999752707326
624708000000,,12574,,624,704087493,"""map""",,,-0.0610111057758,-0.265467107296,0.00316490698606,,-0.00308579534316,0.00488334196854,0.0214555697309,-0.999753128794
624744000000,,12575,,624,736087493,"""map""",,,-0.0610987953842,-0.266228914261,0.00323948566802,,-0.00301913392838,0.00484716836567,0.0214019167927,-0.999754688227
624776000000,,12576,,624,768087493,"""map""",,,-0.0611374787986,-0.267206609249,0.00331025524065,,-0.00301440673127,0.00479190742646,0.0213853952281,-0.999755362577
624808000000,,12577,,624,800087209,"""map""",,,-0.0614551343024,-0.267160534859,0.00330524961464,,-0.00296876284679,0.00478827505959,0.0213678621391,-0.999755868339
624844000000,,12578,,624,840087209,"""map""",,,-0.0619051083922,-0.267056763172,0.00326593848877,,-0.00292212530096,0.00482049377342,0.0212910284343,-0.999757427773
624876000000,,12579,,624,872087209,"""map""",,,-0.0621754638851,-0.267291903496,0.00321911368519,,-0.00294104232122,0.00480403378271,0.0212590811231,-0.999758186416
624908000000,,12580,,624,904086925,"""map""",,,-0.0624222420156,-0.267798066139,0.00319917290471,,-0.0029193943992,0.00477558227274,0.0212734110516,-0.999758102122
624944000000,,12581,,624,936086925,"""map""",,,-0.0626383125782,-0.268577873707,0.00320129981264,,-0.00289263584253,0.00479260227323,0.0212694913947,-0.999758144269
624976000000,,12582,,624,968086925,"""map""",,,-0.0627984330058,-0.269603550434,0.00332893268205,,-0.00281228666247,0.00483186354435,0.0211852398445,-0.999759956583
625008000000,,12583,,625,86642,"""map""",,,-0.0629473105073,-0.270856171846,0.00339654483832,,-0.0027895543646,0.00483267684682,0.0211852398445,-0.999760040877
625044000000,,12584,,625,40086642,"""map""",,,-0.0630837380886,-0.272755324841,0.00359403155744,,-0.00283714655301,0.00479620879223,0.0212050067165,-0.999759661556
625076000000,,12585,,625,72086642,"""map""",,,-0.0631653666496,-0.274500966072,0.00373566290364,,-0.00281671463342,0.00480649056532,0.0211550205542,-0.999760757374
625108000000,,12586,,625,104086358,"""map""",,,-0.0634154900908,-0.274770766497,0.00357427098788,,-0.00276866837857,0.00481822994435,0.0211445681357,-0.999761010255
625144000000,,12587,,625,136086358,"""map""",,,-0.0636641830206,-0.274787008762,0.00336633692496,,-0.00269048943195,0.00483254126896,0.021135042948,-0.999761347429
625176000000,,12588,,625,168086358,"""map""",,,-0.0638433769345,-0.275096267462,0.00314046815038,,-0.0026580104284,0.00482613321931,0.0210815164504,-0.999762611835
625208000000,,12589,,625,200086074,"""map""",,,-0.0639681518078,-0.27567049861,0.00295723299496,,-0.00267074659687,0.00481338124578,0.0210639412145,-0.999762991157
625244000000,,12590,,625,240086074,"""map""",,,-0.0640558302402,-0.276734113693,0.00272800587118,,-0.00249600765626,0.00479594109389,0.0210772174718,-0.999763201891
625276000000,,12591,,625,272086074,"""map""",,,-0.0640378668904,-0.27787977457,0.00256610731594,,-0.00241178088382,0.00481171743308,0.0210598108234,-0.9997637498
625308000000,,12592,,625,304085791,"""map""",,,-0.0641382113099,-0.277723431587,0.00222581811249,,-0.00242545300867,0.00480910622179,0.0210681137525,-0.999763539066
625344000000,,12593,,625,336085791,"""map""",,,-0.0642218738794,-0.277386754751,0.0018779609818,,-0.00242668810889,0.00481820895325,0.0210426149092,-0.999764086975
625376000000,,12594,,625,368085791,"""map""",,,-0.0642784014344,-0.277398377657,0.00166448112577,,-0.00233396874648,0.00480149138932,0.0210155566324,-0.999764929912
625408000000,,12595,,625,400085508,"""map""",,,-0.0642784237862,-0.277699321508,0.00149018666707,,-0.00231786165332,0.00483167816407,0.0209943989145,-0.999765267086
625444000000,,12596,,625,440085508,"""map""",,,-0.0642223954201,-0.278451889753,0.00125320535153,,-0.0022938408308,0.00480942964946,0.0210347755954,-0.999764592737
625476000000,,12597,,625,472085508,"""map""",,,-0.0641493871808,-0.279320240021,0.00096699007554,,-0.00228036791566,0.00471282619154,0.0209787624337,-0.999766236464
625508000000,,12598,,625,504085224,"""map""",,,-0.0641654878855,-0.278766155243,0.00100087316241,,-0.00226438240628,0.00472315941341,0.0209665398476,-0.999766489345
625544000000,,12599,,625,536085224,"""map""",,,-0.0641808882356,-0.277994543314,0.000944541068748,,-0.0022391901154,0.00477430428481,0.0209404930952,-0.99976682652
625576000000,,12600,,625,568085224,"""map""",,,-0.0641419813037,-0.277576237917,0.000839816522785,,-0.00224122057275,0.00480731827345,0.020972271819,-0.999765983583
625608000000,,12601,,625,600084941,"""map""",,,-0.0640499144793,-0.27748426795,0.00074655393837,,-0.00220631730224,0.00482493936044,0.0209924180126,-0.999765646408
625644000000,,12602,,625,640084941,"""map""",,,-0.0639052093029,-0.277824223042,0.000548567040823,,-0.00238221709218,0.00488820186237,0.0209529685624,-0.999765730702
625676000000,,12603,,625,672084941,"""map""",,,-0.0637743473053,-0.278386503458,0.00050942186499,,-0.00238960834878,0.00485636214091,0.0209254888172,-0.999766405051
625708000000,,12604,,625,704084658,"""map""",,,-0.0638344287872,-0.277742832899,0.000806504976936,,-0.0023953937446,0.00488716350232,0.0209052583299,-0.999766657932
625744000000,,12605,,625,736084658,"""map""",,,-0.0639358088374,-0.277007967234,0.00119146052748,,-0.00238838864204,0.0048667856657,0.0208823304443,-0.999767247988
625776000000,,12606,,625,768084658,"""map""",,,-0.0640303865075,-0.276630073786,0.00146439461969,,-0.0023517995799,0.00480722196131,0.0208688013059,-0.999767880191
625808000000,,12607,,625,800084375,"""map""",,,-0.0641052871943,-0.276601284742,0.00160463433713,,-0.00237562876597,0.00480384124076,0.0208687170122,-0.999767880191
625844000000,,12608,,625,840084375,"""map""",,,-0.0641592741013,-0.276995360851,0.00177015340887,,-0.00241143984008,0.00479433836119,0.0208528697972,-0.999768217366
625876000000,,12609,,625,872084375,"""map""",,,-0.0641472265124,-0.277602255344,0.00195070193149,,-0.00237051722581,0.00476088364164,0.0208102593333,-0.999769355331
625908000000,,12610,,625,904084092,"""map""",,,-0.0641994774342,-0.277014255524,0.00245320005342,,-0.00232838124329,0.00476619710801,0.0208252214646,-0.999769060303
625944000000,,12611,,625,936084092,"""map""",,,-0.064228400588,-0.276294350624,0.00303054531105,,-0.00229224056764,0.00479667825215,0.0207913775452,-0.999769776799
625976000000,,12612,,625,968084092,"""map""",,,-0.0642239227891,-0.275966078043,0.00351224839687,,-0.00227421414651,0.0048077774436,0.0207675645758,-0.999770240414
626008000000,,12613,,626,83809,"""map""",,,-0.0641884878278,-0.275975376368,0.00396219827235,,-0.00223306573379,0.00480986692301,0.0207594723809,-0.999770493296
626044000000,,12614,,626,40083809,"""map""",,,-0.0641150921583,-0.276404798031,0.00448461668566,,-0.00223662788335,0.004820280405,0.0207460275362,-0.99977070403
626076000000,,12615,,626,72083809,"""map""",,,-0.0640034303069,-0.277081519365,0.0047940290533,,-0.00222022938424,0.0048194783801,0.0207630127162,-0.999770409002
626108000000,,12616,,626,104083526,"""map""",,,-0.064098931849,-0.27658072114,0.00542856194079,,-0.00221678050433,0.00477080016948,0.0207767947356,-0.999770366855
626144000000,,12617,,626,136083526,"""map""",,,-0.0642230287194,-0.275947034359,0.00611692387611,,-0.00213349265173,0.00475145649469,0.0207148388683,-0.999771884142
626176000000,,12618,,626,168083526,"""map""",,,-0.064278870821,-0.275667309761,0.00672539277002,,-0.00210267367426,0.00473583030365,0.0206724812856,-0.999772937813
626208000000,,12619,,626,200083526,"""map""",,,-0.0642498210073,-0.275723785162,0.00727338623255,,-0.00208075113917,0.00475592998754,0.0207005089398,-0.99977230561
626244000000,,12620,,626,240071244,"""map""",,,-0.0640753060579,-0.276188671589,0.00785842631012,,-0.00208890770681,0.0047563463523,0.020672902754,-0.999772853519
626276000000,,12621,,626,272071244,"""map""",,,-0.0638712719083,-0.27686882019,0.00839606765658,,-0.00206894796364,0.00479638841025,0.0206629982446,-0.999772895666
626308000000,,12622,,626,304070961,"""map""",,,-0.0637633502483,-0.276360183954,0.00900419987738,,-0.0020789452455,0.00482559296586,0.0206794355156,-0.999772389904
626344000000,,12623,,626,344070961,"""map""",,,-0.0635885000229,-0.275608658791,0.0096117137,,-0.00193133965571,0.00490432797101,0.0206428099042,-0.999773022106
626376000000,,12624,,626,368070961,"""map""",,,-0.0634608641267,-0.275439888239,0.0100644696504,,-0.00189435645468,0.00495192361678,0.0206583199445,-0.999772600638
626408000000,,12625,,626,400070679,"""map""",,,-0.0632779076695,-0.27549636364,0.0106300553307,,-0.00187334394579,0.00499799901255,0.0206305873181,-0.999772937813
626444000000,,12626,,626,440070679,"""map""",,,-0.0630030855536,-0.275989949703,0.0113378725946,,-0.00183343845351,0.00500796377877,0.0206661171114,-0.999772221316
626476000000,,12627,,626,472070679,"""map""",,,-0.0627282336354,-0.276687979698,0.0118564637378,,-0.00173374502245,0.00498365657171,0.0206365300238,-0.999773148547
626508000000,,12628,,626,504070397,"""map""",,,-0.0625071972609,-0.276212185621,0.0123720020056,,-0.00174404778664,0.00497532219706,0.0206558754272,-0.999772769225
626544000000,,12629,,626,536070397,"""map""",,,-0.0622716210783,-0.275625765324,0.0127736246213,,-0.00173128420626,0.00494184014791,0.0206613966644,-0.999772811372
626576000000,,12630,,626,568070397,"""map""",,,-0.0620089732111,-0.275413364172,0.0131113966927,,-0.0017213708065,0.00485296133475,0.0206484154351,-0.999773570016
626608000000,,12631,,626,600070115,"""map""",,,-0.0617040544748,-0.275519877672,0.0134203592315,,-0.00170730429581,0.00483926690171,0.0206417140862,-0.99977378075
626644000000,,12632,,626,640070115,"""map""",,,-0.0612816028297,-0.276052176952,0.0137266488746,,-0.0016971590884,0.00485225241159,0.0206503120432,-0.999773612162
626676000000,,12633,,626,672070115,"""map""",,,-0.0609354190528,-0.276750594378,0.0138315819204,,-0.00169981862039,0.0048539089803,0.0206720598171,-0.9997731064
626708000000,,12634,,626,704069834,"""map""",,,-0.0606446713209,-0.276343524456,0.0138842761517,,-0.00168603758875,0.00484821948502,0.0206807842147,-0.99977297996
626744000000,,12635,,626,736069834,"""map""",,,-0.0603454969823,-0.275835394859,0.0139477364719,,-0.00168152408932,0.00488001384923,0.0206813321238,-0.999772853519
626776000000,,12636,,626,768069834,"""map""",,,-0.0600034557283,-0.275646060705,0.0139619493857,,-0.00167212781165,0.00486383950221,0.0206984858911,-0.999772558491
626808000000,,12637,,626,800069552,"""map""",,,-0.0596062913537,-0.275769501925,0.0140011468902,,-0.00169667094228,0.0048788393351,0.0206791404876,-0.999772853519
626844000000,,12638,,626,840069552,"""map""",,,-0.059041980654,-0.276295125484,0.0140782492235,,-0.00164529870839,0.00484059814943,0.020672354845,-0.999773232841
626876000000,,12639,,626,872069552,"""map""",,,-0.0585577711463,-0.277010798454,0.0140776960179,,-0.00160582587986,0.00485568046502,0.0206360664084,-0.999774033631
626908000000,,12640,,626,904069271,"""map""",,,-0.0584321282804,-0.276579320431,0.0141960885376,,-0.00162309703276,0.00489013930031,0.0206336640381,-0.999773822897
626944000000,,12641,,626,936069271,"""map""",,,-0.058344297111,-0.276002496481,0.0143718579784,,-0.00160722298203,0.00492049474477,0.0206562547489,-0.999773232841
626976000000,,12642,,626,968069271,"""map""",,,-0.0582249909639,-0.275770932436,0.0145742790774,,-0.00159979410607,0.00490204808992,0.020626456927,-0.999773949337
627008000000,,12643,,627,68990,"""map""",,,-0.0580326467752,-0.275813609362,0.0148905469105,,-0.00158999035398,0.00492270794823,0.0206428941979,-0.999773527869
627044000000,,12644,,627,40068990,"""map""",,,-0.0577121861279,-0.276248067617,0.0151546206325,,-0.00136642881686,0.00494716316317,0.0206679715728,-0.999773232841
627076000000,,12645,,627,72068990,"""map""",,,-0.0574053823948,-0.276853561401,0.0153387570754,,-0.00132247459295,0.00492026260783,0.0206586149724,-0.999773654309
627108000000,,12646,,627,104068709,"""map""",,,-0.0573575533926,-0.276254177094,0.0157474447042,,-0.00132177423087,0.00489975651967,0.0206748415091,-0.999773443575
627144000000,,12647,,627,136068709,"""map""",,,-0.0573296397924,-0.275495678186,0.0161619223654,,-0.00132575908369,0.00494111245623,0.0206143607815,-0.999774412952
627176000000,,12648,,627,168068709,"""map""",,,-0.0572242029011,-0.275044232607,0.0165201444179,,-0.00130224278858,0.004880552374,0.0206145293689,-0.999774750127
627208000000,,12649,,627,200068429,"""map""",,,-0.0570409074426,-0.274890214205,0.0166703071445,,-0.00123714961523,0.00486522870184,0.0205875975327,-0.999775466624
627244000000,,12650,,627,240068429,"""map""",,,-0.0567498058081,-0.275010406971,0.0168981514871,,-0.00144427157652,0.00484379785256,0.0205846051064,-0.999775340183
627276000000,,12651,,627,272068429,"""map""",,,-0.0564332008362,-0.275346279144,0.0169959869236,,-0.00143774293091,0.00482155600571,0.0206573505669,-0.999773991484
627308000000,,12652,,627,304068149,"""map""",,,-0.0563830770552,-0.274543493986,0.0174870193005,,-0.00143128343246,0.00481223150938,0.0206813742706,-0.999773570016
627344000000,,12653,,627,336068149,"""map""",,,-0.0563477128744,-0.27362459898,0.0180714447051,,-0.00136422055249,0.00485015379488,0.0206807842147,-0.999773485722
627376000000,,12654,,627,368068149,"""map""",,,-0.056222114712,-0.273019552231,0.0185631513596,,-0.00138461863936,0.00480742182957,0.0206330739822,-0.99977458154
627408000000,,12655,,627,400067868,"""map""",,,-0.056008245796,-0.272718071938,0.018998073414,,-0.00139387514096,0.00480633654822,0.0206212728646,-0.999774918715
627444000000,,12656,,627,440067868,"""map""",,,-0.0556135736406,-0.272699862719,0.0195938013494,,-0.0014458063145,0.00480407477711,0.0205657233183,-0.999775930239
627476000000,,12657,,627,472067868,"""map""",,,-0.0552401132882,-0.272943556309,0.0201104059815,,-0.00147257878293,0.00479540438012,0.0205236186166,-0.999776815323
627508000000,,12658,,627,504067589,"""map""",,,-0.0551564320922,-0.272113233805,0.0206231847405,,-0.0014196997992,0.0047612817318,0.0205180973795,-0.999777194645
627544000000,,12659,,627,536067589,"""map""",,,-0.05511553213,-0.271149158478,0.0210654009134,,-0.00140435093772,0.00476402868558,0.020503472423,-0.999777489672
627576000000,,12660,,627,568067589,"""map""",,,-0.0549703463912,-0.270466476679,0.0214221458882,,-0.00140435785244,0.00470653281095,0.0205168751209,-0.999777489672
627608000000,,12661,,627,600067309,"""map""",,,-0.05472304672,-0.270067721605,0.0217538345605,,-0.00137629628314,0.00472558812556,0.0205250094626,-0.999777278938
627644000000,,12662,,627,640067309,"""map""",,,-0.0542542040348,-0.269956290722,0.0220090318471,,-0.00134740939293,0.00474654153008,0.0205802218342,-0.999776098826
627676000000,,12663,,627,672067309,"""map""",,,-0.0537860356271,-0.270113408566,0.0222131367773,,-0.00133444973092,0.00478971850683,0.0205508454808,-0.999776478148
627708000000,,12664,,627,704067030,"""map""",,,-0.0536145977676,-0.269258499146,0.0227012839168,,-0.00133860613458,0.00478651040726,0.0205472208518,-0.999776562442
627744000000,,12665,,627,736067030,"""map""",,,-0.0534555651248,-0.268298119307,0.0233315955848,,-0.00130517890927,0.0048071954549,0.0205330595107,-0.999776815323
627776000000,,12666,,627,768067030,"""map""",,,-0.0531843043864,-0.267634689808,0.023826578632,,-0.00136372433921,0.00478872048263,0.0206067322019,-0.999775298036
627808000000,,12667,,627,800066751,"""map""",,,-0.0528139956295,-0.267235249281,0.0241820309311,,-0.00134646191202,0.00476759503336,0.0205996093845,-0.999775593064
627844000000,,12668,,627,840066751,"""map""",,,-0.0522739477456,-0.267111003399,0.0244688559324,,-0.0013900076737,0.00475193863159,0.0206205563682,-0.999775129449
627876000000,,12669,,627,872066751,"""map""",,,-0.0517322160304,-0.267240822315,0.0245623365045,,-0.00135731373769,0.00479092891164,0.0205170015614,-0.999777110351
627908000000,,12670,,627,904066472,"""map""",,,-0.0515018813312,-0.266411930323,0.0247296839952,,-0.00137121116708,0.00476423727955,0.0204669311054,-0.999778290463
627944000000,,12671,,627,936066472,"""map""",,,-0.0512892976403,-0.265496015549,0.0248565021902,,-0.00131876995082,0.00475342858854,0.0204457312406,-0.999778838372
627976000000,,12672,,627,968066472,"""map""",,,-0.0509851947427,-0.264854222536,0.0248805899173,,-0.00134177192267,0.00479893039205,0.0204288303543,-0.999778880518
628008000000,,12673,,628,66193,"""map""",,,-0.0506013333797,-0.26446840167,0.024828242138,,-0.00129977719794,0.00479549871662,0.0204457733874,-0.999778627637
628044000000,,12674,,628,40066193,"""map""",,,-0.0500495284796,-0.264315932989,0.024685813114,,-0.0013375307314,0.00476193286768,0.0204376390457,-0.999778922665
628076000000,,12675,,628,72066193,"""map""",,,-0.049541067332,-0.26442143321,0.0244360845536,,-0.00134710514537,0.00475346744267,0.0204527697643,-0.999778627637
628108000000,,12676,,628,104065915,"""map""",,,-0.0494321770966,-0.263594537973,0.0244464036077,,-0.00135174590851,0.00475200152259,0.0204618734836,-0.99977845905
628144000000,,12677,,628,136065915,"""map""",,,-0.0493408739567,-0.262679427862,0.024459592998,,-0.00128350588024,0.00457527418916,0.0204161441529,-0.999780271364
628176000000,,12678,,628,168065915,"""map""",,,-0.0491684153676,-0.262019276619,0.0243771169335,,-0.0011982546595,0.00456935848384,0.0204145425727,-0.999780439952
628208000000,,12679,,628,200065636,"""map""",,,-0.0488996915519,-0.261618047953,0.0241857338697,,-0.00122944876039,0.00456706987704,0.0204175349989,-0.999780397805
628244000000,,12680,,628,240065636,"""map""",,,-0.0484602712095,-0.261403083801,0.0238587781787,,-0.00118161883741,0.0045607812709,0.0203692768574,-0.999781451476
628276000000,,12681,,628,272065636,"""map""",,,-0.0480160191655,-0.261454463005,0.0236698128283,,-0.00114888473019,0.00455652295747,0.0203541461388,-0.999781830798
628308000000,,12682,,628,304065359,"""map""",,,-0.0479898191988,-0.260698080063,0.0238779596984,,-0.00113197511822,0.00455267327092,0.0203319347496,-0.999782294413
628340000000,,12683,,628,336065359,"""map""",,,-0.0480131432414,-0.259863972664,0.0241712462157,,-0.00108946689341,0.00447944954244,0.0203286051486,-0.999782758029
628376000000,,12684,,628,368065359,"""map""",,,-0.0479278415442,-0.259287565947,0.0244001112878,,-0.00110883057149,0.00449225444649,0.0204003390847,-0.999781240742
628408000000,,12685,,628,400065081,"""map""",,,-0.0477208644152,-0.258933097124,0.0245814397931,,-0.00105863038219,0.00451274176613,0.0203852926598,-0.999781451476
628444000000,,12686,,628,440065081,"""map""",,,-0.0472966618836,-0.258810162544,0.0245339311659,,-0.00104943265568,0.00452336721713,0.0204449725973,-0.999780271364
628476000000,,12687,,628,472065081,"""map""",,,-0.0468415208161,-0.258910357952,0.024413254112,,-0.00100137421776,0.00453891199561,0.0204850963971,-0.999779428427
628508000000,,12688,,628,504064803,"""map""",,,-0.0468085557222,-0.258362859488,0.0244187731296,,-0.00100505004857,0.00451020949786,0.0205035567167,-0.999779175546
628544000000,,12689,,628,536064803,"""map""",,,-0.0468283221126,-0.257797777653,0.0243490654975,,-0.000945563558525,0.00455765976993,0.0204451833315,-0.999780144924
628576000000,,12690,,628,568064803,"""map""",,,-0.046751383692,-0.257473945618,0.0243721455336,,-0.000854186062867,0.00454573896188,0.0204854335719,-0.999779512721
628608000000,,12691,,628,600064526,"""map""",,,-0.0465476065874,-0.257381737232,0.0244333166629,,-0.000851575592437,0.00459003562894,0.0204611569871,-0.999779765602
628644000000,,12692,,628,640064526,"""map""",,,-0.0461326166987,-0.257550597191,0.0244590397924,,-0.000865517308944,0.00455743043181,0.0204122666429,-0.999780945714
628676000000,,12693,,628,672064526,"""map""",,,-0.0456759631634,-0.257858783007,0.024354018271,,-0.000645917246314,0.0045848411945,0.0203947335539,-0.999781282889
628708000000,,12694,,628,704064249,"""map""",,,-0.0456013455987,-0.257417082787,0.0243562571704,,-0.00060220750705,0.00457136918486,0.0203884115266,-0.99978153577
628744000000,,12695,,628,736064249,"""map""",,,-0.0455802157521,-0.256891518831,0.0244069322944,,-0.00059171425886,0.00452576431914,0.0203914039528,-0.99978166221
628776000000,,12696,,628,768064249,"""map""",,,-0.0454233922064,-0.256596624851,0.024446118623,,-0.000544343506039,0.00452403860326,0.0203624490679,-0.999782294413
628808000000,,12697,,628,800075973,"""map""",,,-0.04516627267,-0.256532937288,0.0244787931442,,-0.00051605737306,0.00450114265707,0.0203671273681,-0.99978233656
628844000000,,12698,,628,840075973,"""map""",,,-0.0447463728487,-0.256702393293,0.0244167316705,,-0.000490215592658,0.00444761895828,0.0203616904246,-0.999782715882
628872000000,,12699,,628,872075973,"""map""",,,-0.0443262010813,-0.257026165724,0.0242218431085,,-0.00051655770225,0.00450315467518,0.0203292373513,-0.999783053056
628908000000,,12700,,628,904075696,"""map""",,,-0.0441652648151,-0.256576508284,0.0241112913936,,-0.000544273700321,0.00451911236106,0.0203059722909,-0.999783474525
628944000000,,12701,,628,936075696,"""map""",,,-0.0440193191171,-0.256061822176,0.0238731727004,,-0.000568327038475,0.0045490497944,0.0203026848367,-0.999783390231
628976000000,,12702,,628,968075696,"""map""",,,-0.0437794737518,-0.255769819021,0.0235508084297,,-0.000574787854007,0.00454741512229,0.0202779867835,-0.999783895993
629008000000,,12703,,629,75420,"""map""",,,-0.0434384718537,-0.25570115447,0.0230958927423,,-0.000588629307112,0.00456726085495,0.0202776917556,-0.999783769553
629044000000,,12704,,629,40075420,"""map""",,,-0.0428506918252,-0.255855202675,0.0224032625556,,-0.000791751927607,0.00459582835107,0.0202906308381,-0.999783305938
629076000000,,12705,,629,72075420,"""map""",,,-0.0422725379467,-0.256118178368,0.0219908840954,,-0.00075541838074,0.00458445265324,0.0202399281793,-0.999784359609
629108000000,,12706,,629,104075143,"""map""",,,-0.0421675518155,-0.255340307951,0.0217455159873,,-0.000785621701418,0.00461002443039,0.020245027948,-0.999784148875
629144000000,,12707,,629,136075143,"""map""",,,-0.0421408191323,-0.254412591457,0.0214476175606,,-0.000762433032203,0.00462725788162,0.0202242074048,-0.999784486049
629176000000,,12708,,629,168075143,"""map""",,,-0.0419780686498,-0.253699421883,0.0211211200804,,-0.000812324199492,0.00470200087228,0.0202117740845,-0.999784359609
629208000000,,12709,,629,200074867,"""map""",,,-0.0416647084057,-0.253186821938,0.0207144562155,,-0.000854822381498,0.00469678026069,0.0201763707317,-0.999785033958
629244000000,,12710,,629,240074867,"""map""",,,-0.0411130301654,-0.252819418907,0.0202975738794,,-0.000882793236294,0.00471132503933,0.0202215521533,-0.999784022434
629276000000,,12711,,629,272074867,"""map""",,,-0.0405791662633,-0.252753645182,0.019874677062,,-0.000864000022397,0.00469639353043,0.0202712011409,-0.999783179497
629308000000,,12712,,629,304074591,"""map""",,,-0.0405288413167,-0.251948177814,0.0194014757872,,-0.000843118728502,0.00472002622328,0.0202901250759,-0.999782631588
629344000000,,12713,,629,336074591,"""map""",,,-0.0405234470963,-0.251051574945,0.0188542939723,,-0.000811946030308,0.00471076297159,0.0202835080207,-0.999782842322
629376000000,,12714,,629,368074591,"""map""",,,-0.0404204130173,-0.250368624926,0.0182702038437,,-0.000803304773911,0.00468359126056,0.0202487368706,-0.999783727406
629408000000,,12715,,629,400074316,"""map""",,,-0.0401839800179,-0.249895080924,0.0176316630095,,-0.000788815971554,0.00464530792804,0.0202223950903,-0.999784443902
629444000000,,12716,,629,440074316,"""map""",,,-0.0397444888949,-0.249567583203,0.0169671848416,,-0.000764363884701,0.00463012386732,0.0202255982508,-0.999784443902
629476000000,,12717,,629,472074316,"""map""",,,-0.0392650514841,-0.249484345317,0.016480807215,,-0.000524039920314,0.00462742811538,0.0202002679948,-0.999785160399
629508000000,,12718,,629,504074040,"""map""",,,-0.0392820239067,-0.248692929745,0.0162226539105,,-0.000493785891708,0.00465371573041,0.0201537800209,-0.999785961189
629544000000,,12719,,629,536074040,"""map""",,,-0.0393587462604,-0.247819274664,0.0161432847381,,-0.000490801861907,0.00471218839118,0.0201387757429,-0.999785961189
629576000000,,12720,,629,568074040,"""map""",,,-0.0393092595041,-0.24715231359,0.015922576189,,-0.000516837748302,0.00473763520951,0.0201332123589,-0.999785961189
629608000000,,12721,,629,600073765,"""map""",,,-0.0391139872372,-0.24667198956,0.0155824879184,,-0.000500241274248,0.00473640850573,0.0201397451204,-0.999785834748
629644000000,,12722,,629,640073765,"""map""",,,-0.0386693403125,-0.246273428202,0.0152774974704,,-0.000495393563489,0.0047021531607,0.0201178287592,-0.999786509098
629676000000,,12723,,629,672073765,"""map""",,,-0.0381537750363,-0.246085077524,0.0148734916002,,-0.000500003210408,0.00472462286395,0.0200211438887,-0.999788279266
629708000000,,12724,,629,704073489,"""map""",,,-0.0380923189223,-0.245318070054,0.0142868133262,,-0.000466575820455,0.00471527745883,0.0200248949582,-0.999788321413
629744000000,,12725,,629,736073489,"""map""",,,-0.0380850732327,-0.244511976838,0.0136117367074,,-0.000445962883447,0.00471308829225,0.0199968251571,-0.999788827175
629776000000,,12726,,629,768073489,"""map""",,,-0.0379170738161,-0.24389654398,0.0128089645877,,-0.000422805659732,0.00471799625983,0.0199745716211,-0.999789332937
629808000000,,12727,,629,808073214,"""map""",,,-0.0374945662916,-0.24342250824,0.0117342071608,,-0.000443346650753,0.00474750530996,0.0199903345424,-0.999788827175
629844000000,,12728,,629,840073214,"""map""",,,-0.0370125435293,-0.243234544992,0.0108841918409,,-0.000441152709725,0.00483777068858,0.0199369344854,-0.999789459377
629876000000,,12729,,629,872073214,"""map""",,,-0.0364258103073,-0.243194237351,0.0100594023243,,-0.00043140312292,0.00483885778093,0.0199467968479,-0.99978929079
629908000000,,12730,,629,904072939,"""map""",,,-0.0362161099911,-0.242531001568,0.00945073179901,,-0.000445781948344,0.00483438939181,0.0199510958265,-0.999789206496
629944000000,,12731,,629,936072939,"""map""",,,-0.0360594056547,-0.241800859571,0.00893492624164,,-0.000424183828751,0.00481000562895,0.0200106914702,-0.999788110678
629976000000,,12732,,629,968072939,"""map""",,,-0.0357875414193,-0.241223499179,0.00835368502885,,-0.000407473920406,0.00483275340261,0.0199538775185,-0.999789122203
630008000000,,12733,,630,72664,"""map""",,,-0.0353711545467,-0.240806281567,0.00771598657593,,-0.00037923651972,0.00482423908067,0.0199727171597,-0.999788827175
630044000000,,12734,,630,40072664,"""map""",,,-0.0346499793231,-0.240510612726,0.00670972466469,,-0.000437691235155,0.00483476854881,0.0199948864021,-0.999788321413
630076000000,,12735,,630,72072664,"""map""",,,-0.0339558534324,-0.240432456136,0.00589191261679,,-0.000714705842168,0.00494494090472,0.0199840125151,-0.99978781565
630108000000,,12736,,630,104072390,"""map""",,,-0.03384462744,-0.239727675915,0.00513612991199,,-0.000757719005979,0.00494875749942,0.0199911353325,-0.999787604916
630144000000,,12737,,630,136072390,"""map""",,,-0.033789537847,-0.238916173577,0.00434873253107,,-0.000783922162679,0.00493710685926,0.0199657629297,-0.999788194972
630176000000,,12738,,630,168072390,"""map""",,,-0.0336013920605,-0.23827265203,0.00391146307811,,-0.00116634373291,0.0050524079598,0.0198347283777,-0.999789838699
630208000000,,12739,,630,200072115,"""map""",,,-0.0333965830505,-0.237878486514,0.00431957840919,,-0.00184623298549,0.00556698805289,0.0197151156216,-0.99978849
630244000000,,12740,,630,240072115,"""map""",,,-0.0331792905927,-0.237752318382,0.00684808893129,,-0.00468193238694,0.00816277409246,0.019400362957,-0.999767585163
630276000000,,12741,,630,272072115,"""map""",,,-0.0330532379448,-0.237922936678,0.0103774517775,,-0.00938611370009,0.0128054190311,0.0191775747157,-0.999690034962
630308000000,,12742,,630,304071841,"""map""",,,-0.0329107008874,-0.238284692168,0.0146400593221,,-0.012222813266,0.0155854719156,0.0189820133386,-0.999623611529
630344000000,,12743,,630,336071841,"""map""",,,-0.0328188203275,-0.238793164492,0.0195253100246,,-0.0183212785116,0.0222056348033,0.0185623993149,-0.999413214461
630376000000,,12744,,630,368071841,"""map""",,,-0.0328286699951,-0.239550113678,0.0250506103039,,-0.0249529036958,0.0306884700878,0.0181626786036,-0.999052437438
630408000000,,12745,,630,400071567,"""map""",,,-0.0336677730083,-0.239824742079,0.0307126194239,,-0.02882935449,0.0353805736946,0.0179462966833,-0.998796858948
630444000000,,12746,,630,440071567,"""map""",,,-0.0350206084549,-0.240396663547,0.0384896919131,,-0.0388627084523,0.0464529653522,0.0172854340987,-0.99801461344
630476000000,,12747,,630,472071567,"""map""",,,-0.0361592955887,-0.241287380457,0.0452573038638,,-0.0497045854952,0.0570029952255,0.0165832676025,-0.996998115747
630508000000,,12748,,630,504071293,"""map""",,,-0.03754080832,-0.242703229189,0.0524525381625,,-0.0543457022813,0.0614560198464,0.0163216199669,-0.996495556726
630544000000,,12749,,630,536071293,"""map""",,,-0.0398179627955,-0.245188012719,0.060073338449,,-0.0672482335784,0.0741401132472,0.0158318314404,-0.994851871781
630576000000,,12750,,630,568071293,"""map""",,,-0.0433053597808,-0.249064579606,0.0684714540839,,-0.075679403412,0.0831650827855,0.0157313533535,-0.993533518359
630608000000,,12751,,630,600071019,"""map""",,,-0.0488224215806,-0.253475189209,0.0776278302073,,-0.0790234795819,0.0869311167391,0.0157300046544,-0.992950627444
630644000000,,12752,,630,640071019,"""map""",,,-0.0580925866961,-0.261002242565,0.090969748795,,-0.083631478494,0.092024742835,0.01582942907,-0.992112284481
630676000000,,12753,,630,672071019,"""map""",,,-0.0672268420458,-0.268994927406,0.103367298841,,-0.0863203200006,0.0946509561004,0.0159275469334,-0.991633159107
630708000000,,12754,,630,704070746,"""map""",,,-0.077845454216,-0.278665482998,0.117289833724,,-0.0871341410718,0.0952637004842,0.0159413710997,-0.991503093932
630744000000,,12755,,630,736070746,"""map""",,,-0.0898479670286,-0.28991279006,0.132598951459,,-0.0881543437356,0.0958702818792,0.0159417504213,-0.991354441998
630776000000,,12756,,630,768070746,"""map""",,,-0.103198558092,-0.302656531334,0.149294480681,,-0.0888364832347,0.0960906960675,0.015964088251,-0.991271834174
630808000000,,12757,,630,800070472,"""map""",,,-0.117336280644,-0.314799338579,0.1665584445,,-0.0890985967905,0.0961064145371,0.0160324504393,-0.991245703128
630844000000,,12758,,630,840070472,"""map""",,,-0.136583536863,-0.331387102604,0.189797595143,,-0.0892813020617,0.0959871191995,0.0162549436526,-0.991237147318
630876000000,,12759,,630,872070472,"""map""",,,-0.153352200985,-0.346363663673,0.209940955043,,-0.0894458980175,0.0956686029529,0.0164929469061,-0.991249243464
630908000000,,12760,,630,904070199,"""map""",,,-0.171301051974,-0.362790316343,0.231650337577,,-0.0895530330015,0.0955437662925,0.0166625458245,-0.991248737701
630944000000,,12761,,630,936070199,"""map""",,,-0.190337583423,-0.380610764027,0.254803597927,,-0.0896810379195,0.0953812431056,0.01692031595,-0.99124848482
630976000000,,12762,,630,968070199,"""map""",,,-0.210433378816,-0.399767071009,0.279298335314,,-0.0898495301539,0.095488117306,0.0173735210121,-0.99121506237
631008000000,,12763,,631,69926,"""map""",,,-0.231424659491,-0.418300062418,0.304389178753,,-0.0898688893868,0.0955254245109,0.0175897343449,-0.991205874357
631048000000,,12764,,631,40069926,"""map""",,,-0.258931696415,-0.442648887634,0.337364256382,,-0.0895956882464,0.0947951724085,0.0181326700474,-0.991290926697
631076000000,,12765,,631,72069926,"""map""",,,-0.281958788633,-0.46357896924,0.365463674068,,-0.08894635727,0.0937818102112,0.0186093087573,-0.991436965527
631108000000,,12766,,631,104069653,"""map""",,,-0.305834203959,-0.485712617636,0.395237028599,,-0.0885642172275,0.0936949822703,0.0188725579731,-0.991474391928
631144000000,,12767,,631,136069653,"""map""",,,-0.330490082502,-0.508980870247,0.426508098841,,-0.0878851218504,0.0934133823825,0.0193859065879,-0.991551520661
631176000000,,12768,,631,168069653,"""map""",,,-0.35584706068,-0.533290803432,0.459188073874,,-0.0870510075656,0.0921957880818,0.0198252031899,-0.991730349739
631208000000,,12769,,631,200069381,"""map""",,,-0.382650524378,-0.556696295738,0.492758601904,,-0.0865177106497,0.0917242409088,0.0200582331154,-0.991816034282
631244000000,,12770,,631,240069381,"""map""",,,-0.417228490114,-0.586636245251,0.536625564098,,-0.0854446629173,0.0914106573253,0.0203869363869,-0.991931305913
631276000000,,12771,,631,272069381,"""map""",,,-0.445451080799,-0.6116746068,0.573492407799,,-0.0845502073516,0.0909248562857,0.0206441586034,-0.992047251893
631308000000,,12772,,631,304069108,"""map""",,,-0.474156558514,-0.637571513653,0.611724793911,,-0.0841319209536,0.0905706963177,0.0207575757727,-0.992112874536
631344000000,,12773,,631,336069108,"""map""",,,-0.503320813179,-0.664275884628,0.651368975639,,-0.0832574133597,0.0900394906099,0.0209831878528,-0.99223025351
631376000000,,12774,,631,368069108,"""map""",,,-0.53291529417,-0.691729784012,0.692591547966,,-0.0825049011358,0.0896533108908,0.0211123679435,-0.992325294653
631408000000,,12775,,631,400068836,"""map""",,,-0.564420223236,-0.718274712563,0.734659969807,,-0.0821702255242,0.089335500604,0.0211940485359,-0.992380001262
631444000000,,12776,,631,440068836,"""map""",,,-0.604707062244,-0.751889646053,0.78910189867,,-0.0815713326362,0.0887717726757,0.0212482915299,-0.992478835622
631476000000,,12777,,631,472068836,"""map""",,,-0.637116491795,-0.779605090618,0.834359705448,,-0.0808786639982,0.08850710726,0.0213549652035,-0.992556849439
631508000000,,12778,,631,504068564,"""map""",,,-0.669646084309,-0.807993292809,0.881178975105,,-0.0805075649484,0.0882443809285,0.0214208828746,-0.992609027237
631544000000,,12779,,631,536068564,"""map""",,,-0.702305793762,-0.837000668049,0.929482042789,,-0.0800206229804,0.0876840263945,0.0215208551992,-0.992695849745
631576000000,,12780,,631,568068564,"""map""",,,-0.735070765018,-0.866549015045,0.979371488094,,-0.0794814791772,0.0873788739917,0.0216479700943,-0.992763368996
631608000000,,12781,,631,600068292,"""map""",,,-0.769403219223,-0.895443916321,1.03026521206,,-0.079173495033,0.0872701311712,0.0216878831599,-0.99279662286
631644000000,,12782,,631,640068292,"""map""",,,-0.812892854214,-0.931874215603,1.09567940235,,-0.0785419116664,0.0869323791689,0.0217395551962,-0.992875268879
631676000000,,12783,,631,672068292,"""map""",,,-0.847646057606,-0.961613178253,1.14948821068,,-0.0779785607549,0.0866073271974,0.0218014267698,-0.992946749934
631708000000,,12784,,631,704068021,"""map""",,,-0.882378995419,-0.991832137108,1.20496332645,,-0.07773847683,0.0864876772335,0.0218598423018,-0.992974735442
631744000000,,12785,,631,736068021,"""map""",,,-0.91707354784,-1.02248930931,1.26189804077,,-0.0773030771651,0.0861442979684,0.0218879963966,-0.993037955714
631776000000,,12786,,631,768068021,"""map""",,,-0.95172560215,-1.05351769924,1.32028663158,,-0.0766903927088,0.0853383616506,0.0219092805551,-0.993154576044
631808000000,,12787,,631,800067749,"""map""",,,-0.988456130028,-1.08373916149,1.37952673435,,-0.0759619236157,0.0845898471212,0.0218928011373,-0.993274905297
631844000000,,12788,,631,840067749,"""map""",,,-1.03482353687,-1.12166929245,1.45528590679,,-0.07362381567,0.0822994303103,0.0219200280015,-0.993642762991
631876000000,,12789,,631,872067749,"""map""",,,-1.07154154778,-1.15240228176,1.51741266251,,-0.0704839854329,0.0787557186777,0.0219473391593,-0.994156870249
631908000000,,12790,,631,904067478,"""map""",,,-1.10787272453,-1.18340158463,1.58093225956,,-0.0682831797366,0.076268751685,0.0220480279804,-0.994502095085
631944000000,,12791,,631,936067478,"""map""",,,-1.14377176762,-1.21458864212,1.64588928223,,-0.0646998336028,0.0721213648143,0.0221765758684,-0.99504806536
631976000000,,12792,,631,968067478,"""map""",,,-1.17916023731,-1.24585092068,1.71234309673,,-0.0607107124287,0.0674953435146,0.022371715777,-0.995619492333
632008000000,,12793,,632,67207,"""map""",,,-1.21641373634,-1.27607667446,1.77961683273,,-0.058757042352,0.0652537795109,0.022512486251,-0.995882910136
632044000000,,12794,,632,40067207,"""map""",,,-1.26275968552,-1.31340038776,1.86536717415,,-0.0551143913217,0.0610776843802,0.0228056175824,-0.996349265015
632076000000,,12795,,632,72067207,"""map""",,,-1.29874300957,-1.34315109253,1.93429148197,,-0.0525563792305,0.0580619864901,0.0211365180877,-0.996704562948
632108000000,,12796,,632,104066936,"""map""",,,-1.33376765251,-1.37267637253,2.00197458267,,-0.0518888498705,0.0572094054648,0.0212111180095,-0.996787170771
632144000000,,12797,,632,136066936,"""map""",,,-1.36782181263,-1.40192902088,2.06731081009,,-0.0518495732883,0.0568190686835,0.0213485588825,-0.99680870781
632176000000,,12798,,632,168066936,"""map""",,,-1.40096378326,-1.43090808392,2.12989258766,,-0.052601796905,0.0577080538845,0.0214870955736,-0.996715183953
632208000000,,12799,,632,200066665,"""map""",,,-1.43571913242,-1.45883345604,2.18924546242,,-0.0528694122708,0.0580615566252,0.021576278305,-0.996678600489
632244000000,,12800,,632,240066665,"""map""",,,-1.47878718376,-1.49321210384,2.26006007195,,-0.0528534916281,0.0583294627384,0.0218908202355,-0.996656894862
632276000000,,12801,,632,272066665,"""map""",,,-1.51215052605,-1.52056479454,2.3145339489,,-0.0516719348585,0.0573718983587,0.0221991244323,-0.996767698927
632308000000,,12802,,632,304066395,"""map""",,,-1.54460608959,-1.54774284363,2.36746454239,,-0.0507330123921,0.0564163515947,0.0222941655757,-0.996868303454
632344000000,,12803,,632,336066395,"""map""",,,-1.57620584965,-1.57475423813,2.41889834404,,-0.0483576064611,0.0536920520761,0.0226593258712,-0.997128518097
632376000000,,12804,,632,368066395,"""map""",,,-1.60693097115,-1.60152196884,2.46899580956,,-0.0457996757001,0.050549294938,0.0230061101408,-0.997405591479
632408000000,,12805,,632,400066125,"""map""",,,-1.63920760155,-1.62743544579,2.5188574791,,-0.0445588160098,0.0488616546165,0.0231570801521,-0.997542400149
632444000000,,12806,,632,440066125,"""map""",,,-1.6790099144,-1.65927290916,2.57950425148,,-0.0421197887524,0.0456555593261,0.0234327626882,-0.9977938061
632480000000,,12807,,632,472066125,"""map""",,,-1.70960307121,-1.68453538418,2.62624597549,,-0.0399321019213,0.0428039002631,0.0237061271477,-0.998003697406
632508000000,,12808,,632,504065855,"""map""",,,-1.73915016651,-1.70956969261,2.67146015167,,-0.0388345945287,0.0413090129557,0.0238939756515,-0.998105482045
632544000000,,12809,,632,536065855,"""map""",,,-1.76769459248,-1.73433697224,2.71507716179,,-0.0371621085511,0.0393214297301,0.0241252354093,-0.998243850149
632576000000,,12810,,632,576065855,"""map""",,,-1.80200850964,-1.76486885548,2.76732325554,,-0.0353535660435,0.0373648783564,0.0243612577609,-0.998378972945
632608000000,,12811,,632,600065585,"""map""",,,-1.82448613644,-1.78250086308,2.79835772514,,-0.0344881259489,0.036449903861,0.0244646439803,-0.998440549491
632644000000,,12812,,632,640065585,"""map""",,,-1.86043679714,-1.81159424782,2.84803247452,,-0.0328563106923,0.0349212849984,0.0246949765074,-0.998544525766
632676000000,,12813,,632,672065585,"""map""",,,-1.88787996769,-1.83457040787,2.88617229462,,-0.0312488838908,0.033381922723,0.0248518892244,-0.998644877412
632708000000,,12814,,632,704065316,"""map""",,,-1.91422152519,-1.8572729826,2.92299151421,,-0.030652218365,0.0328637883006,0.0248839629762,-0.99867981715
632744000000,,12815,,632,736065316,"""map""",,,-1.93952274323,-1.87966191769,2.95853233337,,-0.029241417807,0.0316899017635,0.0249956099779,-0.998757156617
632776000000,,12816,,632,768065316,"""map""",,,-1.96384251118,-1.90172660351,2.99291658401,,-0.0279023610634,0.0304893474666,0.0250999234279,-0.998830281399
632808000000,,12817,,632,800065046,"""map""",,,-1.98973095417,-1.92276299,3.02615404129,,-0.0272558941794,0.0299109426392,0.0251443883531,-0.998864462493
632844000000,,12818,,632,840065046,"""map""",,,-2.021494627,-1.94841909409,3.06599187851,,-0.0260557115485,0.0289190149955,0.0251582546663,-0.998925364689
632876000000,,12819,,632,872065046,"""map""",,,-2.04561948776,-1.96861481667,3.09647226334,,-0.0250497558366,0.0280281359851,0.0252240880436,-0.998974845089
632908000000,,12820,,632,904064777,"""map""",,,-2.06865596771,-1.9885571003,3.12568163872,,-0.0245161237216,0.027534296422,0.025234287581,-0.999001566191
632944000000,,12821,,632,936064777,"""map""",,,-2.09067416191,-2.00822234154,3.1539721489,,-0.0236383192892,0.0266787484891,0.0253537738965,-0.99904291225
632976000000,,12822,,632,968064777,"""map""",,,-2.11172604561,-2.02760243416,3.18134307861,,-0.0227676994128,0.0258635471086,0.0253720656288,-0.999084131868
633008000000,,12823,,633,64508,"""map""",,,-2.13415694237,-2.04578995705,3.2079885006,,-0.022325150918,0.0254720200081,0.0253532259875,-0.999104573089
633044000000,,12824,,633,40064508,"""map""",,,-2.16163611412,-2.06785917282,3.24006819725,,-0.0215777188711,0.0248566969286,0.0252626102632,-0.999138880624
633076000000,,12825,,633,72064508,"""map""",,,-2.18244242668,-2.08526229858,3.26483654976,,-0.0207709129454,0.0242477427977,0.0251837113628,-0.999172850984
633108000000,,12826,,633,104064240,"""map""",,,-2.20230054855,-2.1024749279,3.28862476349,,-0.0204314923559,0.023880113125,0.025200612249,-0.999188318877
633144000000,,12827,,633,136064240,"""map""",,,-2.22125816345,-2.11944556236,3.31146144867,,-0.0197601083702,0.0230087301601,0.0252446135589,-0.999221109125
