rosbagTimestamp,header,seq,stamp,secs,nsecs,frame_id,pose,position,x,y,z,orientation,x,y,z,w
115116000000,,406,,115,52000000,"""map""",,,-0.0120539376512,0.0152695700526,0.020977942273,,0.00907925583161,-0.00860248376653,0.029378039286,-0.999490174606
115116000000,,407,,115,112000000,"""map""",,,-0.011914675124,0.0151326255873,0.0205213483423,,0.00907371232742,-0.00859817017653,0.0293210567468,-0.999491944774
115144000000,,408,,115,144000000,"""map""",,,-0.0118229938671,0.0150328753516,0.0201111789793,,0.00911887312834,-0.0085641374607,0.0293107729158,-0.999492113361
115172000000,,409,,115,172000000,"""map""",,,-0.0117821581662,0.0149897066876,0.0197352878749,,0.00914618206359,-0.00857230168392,0.0292870863869,-0.999492450536
115212000000,,410,,115,212000000,"""map""",,,-0.0117879649624,0.0150438593701,0.019154323265,,0.0093104046658,-0.00854376559214,0.0292508822441,-0.999492239802
115244000000,,411,,115,244000000,"""map""",,,-0.0117693403736,0.0150620266795,0.0188902392983,,0.00931380415486,-0.00854288832853,0.0292036777737,-0.999493588501
115276000000,,412,,115,276000000,"""map""",,,-0.0117529565468,0.0150436302647,0.0186759848148,,0.00927612071523,-0.00842090896929,0.0292025819557,-0.999495021494
115312000000,,413,,115,312000000,"""map""",,,-0.0117708407342,0.0151023184881,0.0184217132628,,0.00925498452345,-0.00846270897064,0.0292107162974,-0.999494642172
115344000000,,414,,115,344000000,"""map""",,,-0.0118277696893,0.0152378613129,0.018200090155,,0.00923161158525,-0.00848664957421,0.0291584542053,-0.999496159459
115376000000,,415,,115,376000000,"""map""",,,-0.0119191361591,0.0154270576313,0.0179348252714,,0.0092079442365,-0.00853753061621,0.0291680636868,-0.999495653696
115412000000,,416,,115,412000000,"""map""",,,-0.0120969349518,0.0157420616597,0.017568141222,,0.00913895521674,-0.00853712353281,0.0291694123859,-0.999496328046
115444000000,,417,,115,444000000,"""map""",,,-0.0121948840097,0.0157288275659,0.016984462738,,0.00915818953198,-0.00853013946251,0.0291748914762,-0.999495990871
115476000000,,418,,115,476000000,"""map""",,,-0.0122747048736,0.015448121354,0.0161572154611,,0.00921108257151,-0.00859607287691,0.0292180077022,-0.999493672795
115512000000,,419,,115,512000000,"""map""",,,-0.0123963207006,0.0152373956516,0.0154008632526,,0.00917946547925,-0.00851849011885,0.0292398819166,-0.999494052116
115544000000,,420,,115,544000000,"""map""",,,-0.0125500159338,0.0151340542361,0.0146768307313,,0.00919259481937,-0.00854412797683,0.0291999688511,-0.999494852906
115576000000,,421,,115,576000000,"""map""",,,-0.0127438819036,0.0151287699118,0.0139815751463,,0.00914459933418,-0.00850379157007,0.0292208315411,-0.999494979347
115612000000,,422,,115,608000000,"""map""",,,-0.0130222737789,0.0152110960335,0.0131886666641,,0.00908175159181,-0.00854834362892,0.0291904858102,-0.999496075165
115644000000,,423,,115,644000000,"""map""",,,-0.0131786968559,0.0150905642658,0.0127966906875,,0.00908297012553,-0.00851113563785,0.0291587070864,-0.99949733957
115676000000,,424,,115,676000000,"""map""",,,-0.0132790561765,0.0148516492918,0.0125864334404,,0.00910974989969,-0.00851300386688,0.0291823514684,-0.999496370193
115712000000,,425,,115,712000000,"""map""",,,-0.0134370140731,0.014717541635,0.0124169271439,,0.00903850201053,-0.00848719283227,0.0291767037907,-0.999497381717
115744000000,,426,,115,744000000,"""map""",,,-0.0136096961796,0.014665927738,0.0122641641647,,0.00903274781325,-0.00852052555645,0.0291799912449,-0.999497044542
115776000000,,427,,115,776000000,"""map""",,,-0.0138171194121,0.0146935964003,0.0121926479042,,0.00903763380191,-0.0085275934677,0.0292046471513,-0.999496243752
115812000000,,428,,115,812000000,"""map""",,,-0.0141405826434,0.0148472692817,0.0120487511158,,0.00906498980251,-0.00850989304668,0.0292299352604,-0.999495400815
115844000000,,429,,115,844000000,"""map""",,,-0.0144507167861,0.014809301123,0.0123129719868,,0.00901422452028,-0.00845867744348,0.0292098312136,-0.999496875955
115876000000,,430,,115,876000000,"""map""",,,-0.0147845568135,0.0146145541221,0.0127158770338,,0.0092409106453,-0.00847628762333,0.0291893478453,-0.999495274375
115912000000,,431,,115,912000000,"""map""",,,-0.0151288406923,0.014471238479,0.0131339002401,,0.00920733409501,-0.00846829421009,0.0292067966405,-0.999495105787
115944000000,,432,,115,940000000,"""map""",,,-0.0154973771423,0.0143817150965,0.0134703312069,,0.00918387081274,-0.0084768730694,0.0292000109979,-0.999495485109
115976000000,,433,,115,976000000,"""map""",,,-0.0158722195774,0.0143402293324,0.0137610863894,,0.00918588676153,-0.00850582583464,0.0291842902234,-0.999495695843
116012000000,,434,,116,12000000,"""map""",,,-0.0163904167712,0.0144039439037,0.0140584232286,,0.00914607276578,-0.00858149757885,0.0291802862728,-0.999495485109
116044000000,,435,,116,44000000,"""map""",,,-0.0165920574218,0.0143459411338,0.0143432877958,,0.00912806064741,-0.00859914881483,0.0291903593696,-0.999495274375
116076000000,,436,,116,76000000,"""map""",,,-0.0166007522494,0.0141739444807,0.0146130705252,,0.00907418839336,-0.00857154594236,0.0292410620284,-0.999494473585
116112000000,,437,,116,112000000,"""map""",,,-0.0166559815407,0.014098258689,0.0147251402959,,0.00911000232803,-0.0086360467755,0.0292375216931,-0.999493714941
116144000000,,438,,116,144000000,"""map""",,,-0.016767879948,0.0141153400764,0.0147370640188,,0.00906581788107,-0.00862056050459,0.0292190192266,-0.999494768613
116176000000,,439,,116,176000000,"""map""",,,-0.0169342737645,0.0142190158367,0.0146726090461,,0.00906376134947,-0.00864778924146,0.0292013596971,-0.999495063641
116212000000,,440,,116,212000000,"""map""",,,-0.0172282718122,0.0144425965846,0.0143736395985,,0.00907845343628,-0.00843958385097,0.0292030877179,-0.999496707368
116244000000,,441,,116,244000000,"""map""",,,-0.0175514090806,0.0143497046083,0.0142326047644,,0.009124265867,-0.00845554684637,0.0292308203442,-0.999495274375
116276000000,,442,,116,276000000,"""map""",,,-0.0179590005428,0.0139910187572,0.0139912758023,,0.00914214660574,-0.00855476980913,0.0292417363779,-0.999493967823
116312000000,,443,,116,312000000,"""map""",,,-0.0183921586722,0.0137400906533,0.0137141812593,,0.00911047407227,-0.00862591023206,0.0291833208459,-0.999495400815
116344000000,,444,,116,344000000,"""map""",,,-0.0188269093633,0.0135730486363,0.0133217535913,,0.00906911937048,-0.00865005716585,0.0291945740545,-0.999495190081
116376000000,,445,,116,376000000,"""map""",,,-0.0192657988518,0.0134675726295,0.0129592362791,,0.00908999008651,-0.00869460889542,0.0292076817244,-0.999494220704
116412000000,,446,,116,412000000,"""map""",,,-0.0198493413627,0.0134554067627,0.0123621979728,,0.00907033341786,-0.00874635775503,0.0292007274943,-0.999494178557
116444000000,,447,,116,444000000,"""map""",,,-0.020177943632,0.0133247347549,0.011844271794,,0.00909261440695,-0.00873494670159,0.0292156053319,-0.999493630648
116476000000,,448,,116,476000000,"""map""",,,-0.0203855074942,0.0130763109773,0.0114162582904,,0.0090784975279,-0.00881000397233,0.0292509665378,-0.999492071214
116512000000,,449,,116,508000000,"""map""",,,-0.0206307284534,0.0129159968346,0.0110253579915,,0.00907352318109,-0.0088676105133,0.0292741473045,-0.999490891103
116544000000,,450,,116,544000000,"""map""",,,-0.0209016241133,0.0128256063908,0.0105901118368,,0.00903098154029,-0.00890296743352,0.0293098035383,-0.999489963872
116576000000,,451,,116,576000000,"""map""",,,-0.0211839452386,0.0128080351278,0.0101102320477,,0.00902458576889,-0.00894712282992,0.0293261986624,-0.999489163082
116612000000,,452,,116,612000000,"""map""",,,-0.0216261763126,0.0128569463268,0.0095548229292,,0.00903053727742,-0.00899921543433,0.0293684298046,-0.999487392914
116644000000,,453,,116,644000000,"""map""",,,-0.0217618662864,0.0128472717479,0.00918007735163,,0.00899753404543,-0.00898852292111,0.0294027373393,-0.999486802858
116676000000,,454,,116,676000000,"""map""",,,-0.0217622574419,0.0127872759476,0.00891072768718,,0.00898142410329,-0.00902988672805,0.0294043810664,-0.99948650783
116712000000,,455,,116,712000000,"""map""",,,-0.0218312647194,0.0127789974213,0.00865177810192,,0.00893436190172,-0.00901792885372,0.0293981433328,-0.99948718218
116744000000,,456,,116,744000000,"""map""",,,-0.0219416823238,0.0128185739741,0.00837015546858,,0.00896379957438,-0.00900747965341,0.0293775335239,-0.999487645795
116776000000,,457,,116,776000000,"""map""",,,-0.0220910385251,0.0129134962335,0.00815521553159,,0.00891553788544,-0.00896097415347,0.0293846984881,-0.999488235851
116812000000,,458,,116,812000000,"""map""",,,-0.0223273560405,0.0131425019354,0.00783308316022,,0.00891042545779,-0.00896928974161,0.0293390113043,-0.99948958455
116844000000,,459,,116,844000000,"""map""",,,-0.0224221609533,0.0131918396801,0.00768400728703,,0.00891618954095,-0.00896398137125,0.0293456283595,-0.999489373816
116876000000,,460,,116,876000000,"""map""",,,-0.0224186200649,0.0131125450134,0.00766556710005,,0.00885961841716,-0.00903592819221,0.0293097613914,-0.999490343194
116912000000,,461,,116,912000000,"""map""",,,-0.0224864780903,0.0130581688136,0.00764813879505,,0.0089054052058,-0.008988579336,0.0293185700828,-0.999490048166
116944000000,,462,,116,944000000,"""map""",,,-0.0225911159068,0.0130397882313,0.00762622058392,,0.00891855729657,-0.00903565904302,0.0293212674811,-0.99948945811
116976000000,,463,,116,976000000,"""map""",,,-0.0227566491812,0.0130843659863,0.0076259416528,,0.00894674973101,-0.00903907674495,0.0293379997799,-0.99948865732
117012000000,,464,,117,12000000,"""map""",,,-0.0230771433562,0.0132167711854,0.00755792483687,,0.00897262650174,-0.00904351014376,0.0293090027482,-0.999489247375
117044000000,,465,,117,44000000,"""map""",,,-0.0231716353446,0.0131158381701,0.00752084888518,,0.00895126509288,-0.00904861603998,0.0293289803544,-0.999488825907
117076000000,,466,,117,76000000,"""map""",,,-0.0231285281479,0.0128454510123,0.00750066805631,,0.00897719789648,-0.00908176653254,0.0293286010327,-0.999488277998
117112000000,,467,,117,112000000,"""map""",,,-0.0231652539223,0.0126337800175,0.00751298759133,,0.0090019576844,-0.00903906272387,0.0293044508885,-0.999489163082
117144000000,,468,,117,144000000,"""map""",,,-0.0232780706137,0.0125027829781,0.00748997507617,,0.00899853915285,-0.00909125306169,0.0292248776385,-0.999491017543
117176000000,,469,,117,176000000,"""map""",,,-0.0234514027834,0.0124130677432,0.00745895551518,,0.00900848428878,-0.0089866447869,0.0292028769836,-0.99949253483
117212000000,,470,,117,212000000,"""map""",,,-0.0237564407289,0.0123167131096,0.00738962832838,,0.00897027274533,-0.00900912238497,0.0292175440869,-0.999492281949
117244000000,,471,,117,244000000,"""map""",,,-0.0238725729287,0.0121922232211,0.00756444828585,,0.0089598442866,-0.00898127360272,0.0292016968719,-0.999493124886
117276000000,,472,,117,276000000,"""map""",,,-0.0238572210073,0.0120059587061,0.00801438000053,,0.00893736221507,-0.00896959565354,0.0291514999753,-0.999494852906
117312000000,,473,,117,312000000,"""map""",,,-0.0239535290748,0.0118765290827,0.00839731097221,,0.00896677612352,-0.0090214540399,0.0291573162404,-0.999493925676
117344000000,,474,,117,344000000,"""map""",,,-0.024129929021,0.011791145429,0.00851261802018,,0.00912755602739,-0.00900717263019,0.0291795697764,-0.999491986921
117376000000,,475,,117,376000000,"""map""",,,-0.0243222825229,0.0117469774559,0.00869732163846,,0.00911340352005,-0.00897947858531,0.0291751443573,-0.999492450536
117412000000,,476,,117,412000000,"""map""",,,-0.0246037989855,0.0117098307237,0.00888032000512,,0.0090569381904,-0.00894618824979,0.0291620366874,-0.999493672795
117444000000,,477,,117,444000000,"""map""",,,-0.0248881112784,0.0117015019059,0.0090167298913,,0.0091047868819,-0.00898938201944,0.0291773359934,-0.999492450536
117476000000,,478,,117,476000000,"""map""",,,-0.0252308789641,0.0117194708437,0.00910710543394,,0.00906739563023,-0.00898771367924,0.0291699602949,-0.999492914151
117512000000,,479,,117,512000000,"""map""",,,-0.0255987420678,0.0117840142921,0.00906165409833,,0.0090803364697,-0.00903083209956,0.0291138206927,-0.999494094263
117544000000,,480,,117,544000000,"""map""",,,-0.0257496386766,0.0117304902524,0.00911820493639,,0.00908293611531,-0.00900881461059,0.0290886168773,-0.999495021494
117576000000,,481,,117,576000000,"""map""",,,-0.0257255341858,0.0115855848417,0.00924759171903,,0.00904118542826,-0.00902454752121,0.0290353011139,-0.999496749515
117612000000,,482,,117,612000000,"""map""",,,-0.0257929582149,0.011499335058,0.00917488895357,,0.00900595932238,-0.00902285167071,0.0289888974337,-0.999498477535
117644000000,,483,,117,644000000,"""map""",,,-0.0259180255234,0.0114843798801,0.0091244187206,,0.00899534655222,-0.00906127740962,0.0289930278249,-0.999498140361
117676000000,,484,,117,676000000,"""map""",,,-0.0261097177863,0.0115102315322,0.00910887308419,,0.00900315109181,-0.00902811758939,0.0289720386943,-0.999498899004
117712000000,,485,,117,712000000,"""map""",,,-0.0263654515147,0.011575373821,0.00914481468499,,0.00906715717281,-0.00908682732618,0.0289922691816,-0.99949721313
117744000000,,486,,117,744000000,"""map""",,,-0.0264675244689,0.0115454560146,0.00921313092113,,0.00901110071055,-0.0090250662247,0.0289726287502,-0.999498899004
117776000000,,487,,117,776000000,"""map""",,,-0.0264090839773,0.0114103909582,0.00929433479905,,0.00900290026288,-0.0090219186334,0.0289412293481,-0.999499868381
117812000000,,488,,117,812000000,"""map""",,,-0.0264817811549,0.0113028651103,0.00936527457088,,0.00893808669634,-0.00901204930147,0.0288540275185,-0.999503029395
117844000000,,489,,117,844000000,"""map""",,,-0.0266289785504,0.0112569443882,0.00939464755356,,0.00898897110631,-0.00898478293174,0.0288399504711,-0.999503282276
117876000000,,490,,117,876000000,"""map""",,,-0.0268081724644,0.0112274130806,0.00936869438738,,0.00900693387179,-0.00896107238979,0.0288064437265,-0.999504251654
117912000000,,491,,117,912000000,"""map""",,,-0.0270525608212,0.0112266810611,0.0092453751713,,0.0090531377712,-0.00888155799208,0.0287914394485,-0.999505010297
117944000000,,492,,117,944000000,"""map""",,,-0.0272180102766,0.0111180441454,0.00931163039058,,0.00909476694199,-0.00887383991218,0.028795190518,-0.999504630975
117976000000,,493,,117,976000000,"""map""",,,-0.0272970125079,0.010903691873,0.00971171725541,,0.00919266256714,-0.00891385009246,0.0288147466557,-0.999502776514
118012000000,,494,,118,12000000,"""map""",,,-0.0275273397565,0.0106811439618,0.0101694278419,,0.00920827704843,-0.00894485265979,0.02879101798,-0.999503071542
118044000000,,495,,118,40000000,"""map""",,,-0.0278162024915,0.0105398083106,0.0104177882895,,0.0091542444285,-0.00892876082634,0.0288349349961,-0.999502397192
118076000000,,496,,118,76000000,"""map""",,,-0.0281554553658,0.0104244444519,0.0105938930064,,0.00914216089307,-0.00898565568135,0.0288651964334,-0.999501132787
118112000000,,497,,118,112000000,"""map""",,,-0.028550054878,0.0103230020031,0.0106630781665,,0.0091572667362,-0.00896237071544,0.0288200571586,-0.999502523633
118144000000,,498,,118,144000000,"""map""",,,-0.0285544022918,0.0101256053895,0.010950804688,,0.00918339168045,-0.00893948449308,0.0288330383879,-0.999502102164
118176000000,,499,,118,176000000,"""map""",,,-0.0282358713448,0.00985945388675,0.0114753097296,,0.00919033369651,-0.00894644830284,0.0288423106946,-0.999501680696
118212000000,,500,,118,212000000,"""map""",,,-0.0280008204281,0.00959571450949,0.0120674064383,,0.00921940197457,-0.00897140174786,0.0288417627856,-0.99950121708
118244000000,,501,,118,244000000,"""map""",,,-0.0279453657568,0.00937572307885,0.0124581325799,,0.0092428090439,-0.00900275133729,0.0288242296966,-0.999501301374
118276000000,,502,,118,276000000,"""map""",,,-0.0279749128968,0.00918611045927,0.0127734299749,,0.00921551646937,-0.00898533269099,0.0288176126414,-0.999501849283
118312000000,,503,,118,312000000,"""map""",,,-0.028098879382,0.00902182236314,0.0129210269079,,0.00920221109207,-0.00902596766537,0.0287974243009,-0.999502144311
118344000000,,504,,118,344000000,"""map""",,,-0.0281492266804,0.00880256295204,0.0130352899432,,0.00920577131745,-0.0090392055933,0.0288496863931,-0.999500542731
118376000000,,505,,118,376000000,"""map""",,,-0.0281549077481,0.0085478015244,0.0130272181705,,0.00918547543875,-0.0090101593662,0.0288147888025,-0.999501975724
118412000000,,506,,118,412000000,"""map""",,,-0.0282443612814,0.00831662025303,0.0128535134718,,0.00912585250137,-0.00897048696266,0.0288987031779,-0.99950041629
118444000000,,507,,118,444000000,"""map""",,,-0.0283652488142,0.00815889704973,0.0126917548478,,0.00912105126945,-0.00905123286433,0.0288594223151,-0.999500922053
118476000000,,508,,118,476000000,"""map""",,,-0.0285261236131,0.00801564846188,0.0125347487628,,0.00906249233935,-0.00898025477263,0.0288268428012,-0.999502987248
118512000000,,509,,118,512000000,"""map""",,,-0.0287602730095,0.00785563420504,0.012392369099,,0.00904725381172,-0.00904367109936,0.0288250726336,-0.999502650073
118544000000,,510,,118,544000000,"""map""",,,-0.0286871679127,0.00761122396216,0.0123933348805,,0.00902609953698,-0.00901897092002,0.0288218694731,-0.999503155835
118576000000,,511,,118,576000000,"""map""",,,-0.0283471047878,0.00732853030786,0.0124537311494,,0.00910472514335,-0.00899850796459,0.0287923245323,-0.999503450863
118612000000,,512,,118,612000000,"""map""",,,-0.0281192399561,0.00699261622503,0.0124581549317,,0.0090568939483,-0.00904180442216,0.0288420578135,-0.999502102164
118644000000,,513,,118,644000000,"""map""",,,-0.0280629210174,0.00672134617344,0.012373836711,,0.00903655238951,-0.00901462672634,0.0288439965686,-0.999502439339
118676000000,,514,,118,676000000,"""map""",,,-0.0280922148377,0.00647457037121,0.0121354293078,,0.00895712671523,-0.0089936190948,0.0288082981879,-0.999504420241
118712000000,,515,,118,712000000,"""map""",,,-0.0281365327537,0.00622794497758,0.0118428077549,,0.00916772047172,-0.00903996701481,0.0288198885712,-0.999501680696
118744000000,,516,,118,744000000,"""map""",,,-0.0280184242874,0.00597375258803,0.0113929715008,,0.00919608173537,-0.0090946508478,0.0288053057616,-0.999501427815
118776000000,,517,,118,776000000,"""map""",,,-0.0277674999088,0.00566498422995,0.0109505103901,,0.00916264578948,-0.00906492447284,0.0288167275576,-0.999501638549
118812000000,,518,,118,812000000,"""map""",,,-0.0276309307665,0.00530561059713,0.0102169206366,,0.00916984877309,-0.00914274221938,0.0288271378291,-0.999500584878
118844000000,,519,,118,844000000,"""map""",,,-0.0276353172958,0.00503018172458,0.00947154127061,,0.00913229796459,-0.00909842277466,0.0288344292339,-0.999501132787
118876000000,,520,,118,876000000,"""map""",,,-0.02772301808,0.00475998409092,0.00867186952382,,0.0091041529968,-0.0091699803135,0.0288211529767,-0.99950109064
118912000000,,521,,118,912000000,"""map""",,,-0.0278973728418,0.00450500613078,0.00780088733882,,0.00910427162227,-0.00919471515776,0.028845260974,-0.999500163409
118944000000,,522,,118,944000000,"""map""",,,-0.0279589742422,0.00428613461554,0.00703523540869,,0.00911565019094,-0.00922109753117,0.0288922968569,-0.999498477535
118976000000,,523,,118,976000000,"""map""",,,-0.0279527716339,0.00412427634001,0.00636893138289,,0.00907050333778,-0.00923697076387,0.0289410186138,-0.999497297424
119012000000,,524,,119,12000000,"""map""",,,-0.0280932933092,0.00393415847793,0.0053238789551,,0.00906622209878,-0.00922536132389,0.0289633564435,-0.999496875955
119044000000,,525,,119,44000000,"""map""",,,-0.0282963719219,0.00377680663951,0.00442859949544,,0.00908867832759,-0.00918013394309,0.0290021315442,-0.999495948724
119076000000,,526,,119,76000000,"""map""",,,-0.0285755544901,0.00362519547343,0.00362869072706,,0.00913795409146,-0.00915734615641,0.0289955144889,-0.999495822284
119112000000,,527,,119,112000000,"""map""",,,-0.0289125666022,0.00345416809432,0.00289323879406,,0.00910142405524,-0.00916215673786,0.028953494081,-0.999497381717
119144000000,,528,,119,144000000,"""map""",,,-0.0290366020054,0.00312186055817,0.00225131609477,,0.00917467954241,-0.00916099475216,0.0289856942732,-0.999495780137
119176000000,,529,,119,176000000,"""map""",,,-0.0289805848151,0.00265413639136,0.00168353680056,,0.00916296370055,-0.00914883967269,0.0289541262837,-0.999496918102
119212000000,,530,,119,212000000,"""map""",,,-0.029044020921,0.00211434881203,0.000964931794442,,0.00911364281094,-0.00919778519193,0.0289602797236,-0.999496749515
119244000000,,531,,119,244000000,"""map""",,,-0.0292204525322,0.00170604500454,0.000382160476875,,0.0091385848935,-0.00921908742181,0.0289507545358,-0.999496580927
119276000000,,532,,119,276000000,"""map""",,,-0.0294664669782,0.00130905921105,-0.000256316066952,,0.00909946604807,-0.00918664486974,0.0289507966827,-0.99949721313
119312000000,,533,,119,312000000,"""map""",,,-0.0297737699002,0.000935374933761,-0.00103505782317,,0.00912563802037,-0.0091070451815,0.0289602797236,-0.999497423864
119344000000,,534,,119,344000000,"""map""",,,-0.0298373550177,0.000675697985571,-0.00171082525048,,0.00931265574585,-0.00908909427047,0.0290140591023,-0.999494304997
119376000000,,535,,119,376000000,"""map""",,,-0.0296797845513,0.000477970519569,-0.00212629162706,,0.00931107660757,-0.00914416302787,0.0290136797807,-0.999493841382
119412000000,,536,,119,412000000,"""map""",,,-0.0295802056789,0.000207475852221,-0.0029997501988,,0.00924242967596,-0.0091347460935,0.0290642559989,-0.999493082739
119444000000,,537,,119,444000000,"""map""",,,-0.0296029560268,-2.75148631772e-05,-0.00371385645121,,0.00926608011864,-0.0091633551088,0.0290716316974,-0.999492366242
119476000000,,538,,119,476000000,"""map""",,,-0.0296909026802,-0.000254923186731,-0.00446864124388,,0.0092215692767,-0.00918677408723,0.0290514012101,-0.999493209179
119512000000,,539,,119,512000000,"""map""",,,-0.0298229660839,-0.000472903775517,-0.00529957516119,,0.00921875604531,-0.00930172296036,0.0290297798768,-0.999492745564
119544000000,,540,,119,544000000,"""map""",,,-0.0298460908234,-0.000668529362883,-0.00610470678657,,0.00920697243575,-0.00930957505921,0.029010813795,-0.999493419913
119576000000,,541,,119,576000000,"""map""",,,-0.0297624506056,-0.000829963362776,-0.00671160174534,,0.00925277882123,-0.00931394976523,0.0290117831725,-0.999492872004
119612000000,,542,,119,612000000,"""map""",,,-0.029817411676,-0.00102891074494,-0.00758743239567,,0.0093315277883,-0.00930678063492,0.029046975791,-0.999491228277
119644000000,,543,,119,644000000,"""map""",,,-0.0299752987921,-0.00118085625581,-0.00835109781474,,0.00923826284748,-0.00927854938236,0.0290481559027,-0.999492324095
119676000000,,544,,119,676000000,"""map""",,,-0.0302205719054,-0.0013282900909,-0.00903925299644,,0.00922763904928,-0.00933891831561,0.0290331937715,-0.999492281949
119712000000,,545,,119,712000000,"""map""",,,-0.0305614732206,-0.00149517843965,-0.00980045460165,,0.00914726796233,-0.00932192096288,0.0290735283055,-0.999491986921
119744000000,,546,,119,744000000,"""map""",,,-0.0307188779116,-0.00163984054234,-0.010274251923,,0.00915206011868,-0.00932099446278,0.029088701171,-0.999491481158
119776000000,,547,,119,776000000,"""map""",,,-0.0306884516031,-0.00174886034802,-0.0104733631015,,0.00914481537794,-0.00938350689281,0.0290790916895,-0.999491228277
119812000000,,548,,119,812000000,"""map""",,,-0.030788788572,-0.00191333168186,-0.011141192168,,0.0090890403933,-0.0093647412246,0.0291569369187,-0.999489668844
119844000000,,549,,119,844000000,"""map""",,,-0.0309533402324,-0.00208418490365,-0.0119915530086,,0.00911924824147,-0.00935565553298,0.0291975243339,-0.999488277998
119876000000,,550,,119,876000000,"""map""",,,-0.03116684407,-0.00226331944577,-0.0129217002541,,0.00910947674777,-0.00937926568097,0.029171604022,-0.999488910201
119912000000,,551,,119,912000000,"""map""",,,-0.031469270587,-0.002458430361,-0.0137610025704,,0.00911370620871,-0.00937083734024,0.0292287972955,-0.999487350767
119944000000,,552,,119,944000000,"""map""",,,-0.0315910987556,-0.00271526747383,-0.0146058853716,,0.00907873355436,-0.0093612739466,0.0292277857711,-0.999487687942
119976000000,,553,,119,976000000,"""map""",,,-0.0315486751497,-0.00298945698887,-0.0154028888792,,0.00912208931566,-0.00930988525939,0.0292193564014,-0.999488025117
120012000000,,554,,120,12000000,"""map""",,,-0.0316909700632,-0.00331200123765,-0.0164787154645,,0.00910113593173,-0.00941430257428,0.0292566985092,-0.999486170656
120044000000,,555,,120,44000000,"""map""",,,-0.0319083370268,-0.00358194485307,-0.0174194518477,,0.00909255751488,-0.0092227545835,0.0292148466886,-0.999489247375
120076000000,,556,,120,76000000,"""map""",,,-0.0322282016277,-0.00387835339643,-0.018115201965,,0.0091130774119,-0.00928971178766,0.0292170383247,-0.999488404439
120112000000,,557,,120,112000000,"""map""",,,-0.0326046273112,-0.00413335394114,-0.0189645197242,,0.00913730456464,-0.00931058307991,0.0291842902234,-0.999488952348
120144000000,,558,,120,144000000,"""map""",,,-0.0327789224684,-0.00429747113958,-0.0195631254464,,0.0091194723524,-0.0093457363298,0.0291727419869,-0.999489120935
120176000000,,559,,120,176000000,"""map""",,,-0.0328131578863,-0.00440947944298,-0.019883627072,,0.0091064301974,-0.00937412520601,0.0292349085885,-0.999487140033
120212000000,,560,,120,212000000,"""map""",,,-0.032967813313,-0.00459291087463,-0.0204443018883,,0.00916716483508,-0.00944571718468,0.0292094940388,-0.999486676418
120244000000,,561,,120,244000000,"""map""",,,-0.0331833288074,-0.00474401796237,-0.0209702868015,,0.0091655358635,-0.0094616339379,0.0292086932487,-0.999486549977
120276000000,,562,,120,276000000,"""map""",,,-0.0334566868842,-0.00492994720116,-0.0216224510223,,0.00914812314411,-0.00945263111999,0.0292365944624,-0.999485959921
120312000000,,563,,120,312000000,"""map""",,,-0.033812135458,-0.00517182424664,-0.0224305596203,,0.00915424749485,-0.00943121536578,0.0292804271849,-0.999484864103
120344000000,,564,,120,344000000,"""map""",,,-0.0338379777968,-0.00538384309039,-0.0229671187699,,0.00914796623559,-0.00943302247365,0.0292666030186,-0.999485285572
120376000000,,565,,120,376000000,"""map""",,,-0.0336127206683,-0.00557467760518,-0.0232318583876,,0.0091136634239,-0.00946150375188,0.0292477212304,-0.999485875628
120412000000,,566,,120,412000000,"""map""",,,-0.033470030874,-0.00580536574125,-0.0236356984824,,0.00914632151039,-0.00950100502131,0.0292288394423,-0.999485791334
120444000000,,567,,120,444000000,"""map""",,,-0.0335130766034,-0.00602870667353,-0.024087080732,,0.00919249394887,-0.0095219013897,0.0292075552838,-0.999485749187
120476000000,,568,,120,476000000,"""map""",,,-0.0336485616863,-0.00623048981652,-0.0246027372777,,0.00918439489069,-0.0095346392354,0.0291779260493,-0.999486549977
120512000000,,569,,120,512000000,"""map""",,,-0.0338861308992,-0.006404846441,-0.025190025568,,0.0091497201557,-0.00952895046041,0.0292315789875,-0.999485412012
120544000000,,570,,120,544000000,"""map""",,,-0.0338654369116,-0.00645448546857,-0.0253558680415,,0.00920561692992,-0.00950363254187,0.0292320004559,-0.999485074837
120576000000,,571,,120,576000000,"""map""",,,-0.033592261374,-0.00638854410499,-0.0252337493002,,0.00919875786989,-0.00955288211188,0.0292154788913,-0.999485159131
120612000000,,572,,120,612000000,"""map""",,,-0.0333737693727,-0.00632552150637,-0.0253117419779,,0.00915554482753,-0.00949524037993,0.0291769145249,-0.999487224327
120644000000,,573,,120,644000000,"""map""",,,-0.0333293527365,-0.00631358567625,-0.0255020391196,,0.00914415129754,-0.00954085451673,0.0291804127134,-0.999486845005
120676000000,,574,,120,676000000,"""map""",,,-0.0333795137703,-0.00635263649747,-0.0257410947233,,0.00913454908065,-0.00950141097284,0.0292223909745,-0.999486086362
120712000000,,575,,120,712000000,"""map""",,,-0.0335194543004,-0.00646756822243,-0.0259829964489,,0.00912106776908,-0.00951711684777,0.0292795421011,-0.999484400488
120744000000,,576,,120,744000000,"""map""",,,-0.0334529653192,-0.00654782960191,-0.0259007643908,,0.0091330499864,-0.00953001444196,0.0292934084142,-0.999483683991
120776000000,,577,,120,776000000,"""map""",,,-0.0332170911133,-0.00657843193039,-0.0257535260171,,0.00914408196516,-0.00952691133908,0.0292744844792,-0.999484231901
120812000000,,578,,120,812000000,"""map""",,,-0.0330525003374,-0.00662453705445,-0.0256322100759,,0.00919985928557,-0.00957871384948,0.0292827031147,-0.999483009642
120844000000,,579,,120,844000000,"""map""",,,-0.0330708324909,-0.0066431928426,-0.0256112553179,,0.00917789948099,-0.00956059990366,0.0292905424285,-0.999483093936
120876000000,,580,,120,876000000,"""map""",,,-0.0331721119583,-0.00669105118141,-0.0255164913833,,0.00937758010543,-0.00957436277389,0.0293098456851,-0.999480565125
120912000000,,581,,120,912000000,"""map""",,,-0.0333468653262,-0.00674064597115,-0.0254923757166,,0.00937064129977,-0.00959908228126,0.0293057574408,-0.999480522978
120944000000,,582,,120,944000000,"""map""",,,-0.0333050861955,-0.00661815237254,-0.0252872910351,,0.00933074669406,-0.00962821231845,0.0293278845363,-0.999479975069
120976000000,,583,,120,976000000,"""map""",,,-0.0330394916236,-0.00636083586141,-0.0249690581113,,0.0093124824972,-0.00963921540356,0.0293499694849,-0.999479385013
121012000000,,584,,121,12000000,"""map""",,,-0.0328672789037,-0.00608762539923,-0.0247934535146,,0.0093345869552,-0.00969234570433,0.0293398542413,-0.999478963544
121044000000,,585,,121,44000000,"""map""",,,-0.0328749418259,-0.0059203975834,-0.0247957147658,,0.00932283841828,-0.00972678241664,0.0293123323492,-0.999479511453
121076000000,,586,,121,76000000,"""map""",,,-0.0330201759934,-0.00576984416693,-0.0248194672167,,0.00929220515035,-0.00969712725195,0.0293447432757,-0.999479132132
121112000000,,587,,121,112000000,"""map""",,,-0.0332517623901,-0.00565516017377,-0.0250115320086,,0.00934384759328,-0.00970103172118,0.0294126418487,-0.999476645468
121144000000,,588,,121,144000000,"""map""",,,-0.0332812145352,-0.00561902392656,-0.0250447858125,,0.00930800196616,-0.00966383159148,0.0294276882736,-0.999476856202
121176000000,,589,,121,176000000,"""map""",,,-0.0331730172038,-0.00564753310755,-0.024801556021,,0.00933064309677,-0.00971708112996,0.0294720267582,-0.999474833153
121212000000,,590,,121,212000000,"""map""",,,-0.0332265682518,-0.00570663809776,-0.0246131662279,,0.0093200358998,-0.00965121287031,0.0294980735106,-0.999474833153
121244000000,,591,,121,244000000,"""map""",,,-0.0333785526454,-0.00575371040031,-0.0245944000781,,0.00931028548982,-0.0096608539619,0.0294927630077,-0.999475001741
121276000000,,592,,121,276000000,"""map""",,,-0.0336345992982,-0.00582426413894,-0.0246609523892,,0.0093262382572,-0.00967166180915,0.02955278012,-0.999472978692
121312000000,,593,,121,312000000,"""map""",,,-0.0339622199535,-0.00591478962451,-0.0248573608696,,0.00934231535572,-0.00967180729604,0.0295475960576,-0.999472936545
121344000000,,594,,121,344000000,"""map""",,,-0.0339598059654,-0.00598361156881,-0.024818604812,,0.00935658178612,-0.00966187672268,0.0295240781161,-0.999473610895
121376000000,,595,,121,376000000,"""map""",,,-0.0336624607444,-0.0060167228803,-0.0245904717594,,0.0093813244866,-0.00965810207933,0.0295041005099,-0.999474032363
121412000000,,596,,121,412000000,"""map""",,,-0.0334393046796,-0.0060739708133,-0.0244128927588,,0.0093468707859,-0.00970426601847,0.0295289671506,-0.999473189426
121444000000,,597,,121,444000000,"""map""",,,-0.0333832614124,-0.00609865644947,-0.0243690125644,,0.00942032328657,-0.00968406210963,0.0295562361615,-0.999471882874
121476000000,,598,,121,476000000,"""map""",,,-0.0334357433021,-0.0061059826985,-0.0244020726532,,0.0094561218895,-0.00969857630711,0.02957752032,-0.999470744909
121512000000,,599,,121,512000000,"""map""",,,-0.0335708931088,-0.00608676066622,-0.0245429724455,,0.00963656060486,-0.00977223303889,0.0296119964421,-0.999467288867
121544000000,,600,,121,544000000,"""map""",,,-0.0334500260651,-0.00594082381576,-0.024750219658,,0.00962825182597,-0.00979088096655,0.0296396026279,-0.999466403784
121576000000,,601,,121,576000000,"""map""",,,-0.0331092476845,-0.00569119676948,-0.0252947285771,,0.00955638949935,-0.00984707388515,0.0296445338092,-0.999466361637
121612000000,,602,,121,612000000,"""map""",,,-0.0328616537154,-0.00539386225864,-0.026113294065,,0.00953233395919,-0.0098037418829,0.0296031034571,-0.999468173951
121644000000,,603,,121,644000000,"""map""",,,-0.0327959135175,-0.00515151955187,-0.0266689974815,,0.00951605596343,-0.00977136792749,0.0296250198183,-0.999468089658
121676000000,,604,,121,676000000,"""map""",,,-0.0328443683684,-0.00491501716897,-0.0272012930363,,0.00953335375652,-0.00979140697383,0.0296304146149,-0.999467583895
121712000000,,605,,121,712000000,"""map""",,,-0.0330103747547,-0.0046598543413,-0.0278809722513,,0.00953667765703,-0.00982592567493,0.029651825214,-0.999466488077
121744000000,,606,,121,744000000,"""map""",,,-0.0329514108598,-0.00437805708498,-0.0281897895038,,0.00954836233571,-0.00989453337684,0.0297162255985,-0.999463790679
121776000000,,607,,121,776000000,"""map""",,,-0.0326873883605,-0.00399413984269,-0.0281938798726,,0.00951670869423,-0.0099837938577,0.0297330843379,-0.999462694861
121812000000,,608,,121,812000000,"""map""",,,-0.0326407290995,-0.00366410682909,-0.0283082332462,,0.00952427170747,-0.00993000233709,0.0298056190642,-0.999461051134
121844000000,,609,,121,844000000,"""map""",,,-0.0326996818185,-0.00335180503316,-0.0284778382629,,0.00954684739523,-0.00993579674674,0.0298411067106,-0.999459702435
121876000000,,610,,121,876000000,"""map""",,,-0.0328479409218,-0.00304055772722,-0.0286989472806,,0.0095512668051,-0.00989655482037,0.029775905536,-0.999462020511
121912000000,,611,,121,912000000,"""map""",,,-0.033081907779,-0.00273524201475,-0.028847547248,,0.00952718202145,-0.0099078124741,0.0297853885769,-0.999461809777
121944000000,,612,,121,944000000,"""map""",,,-0.0332064889371,-0.00246115913615,-0.0288323946297,,0.00950243342493,-0.00986419361397,0.0297203138428,-0.999464422882
121976000000,,613,,121,976000000,"""map""",,,-0.03323180601,-0.00217747455463,-0.0288612283766,,0.0095360689664,-0.00986801344994,0.0297144975777,-0.999464254294
122012000000,,614,,122,12000000,"""map""",,,-0.0333898551762,-0.00186450558249,-0.0292718913406,,0.00951239118897,-0.00966930469829,0.0297204824302,-0.999466277343
122044000000,,615,,122,44000000,"""map""",,,-0.0335874855518,-0.00162843882572,-0.0295324958861,,0.0095049475112,-0.00971372169892,0.0297446747212,-0.999465181525
122076000000,,616,,122,76000000,"""map""",,,-0.0338639952242,-0.00142872694414,-0.0297411158681,,0.00955275385005,-0.00980820575482,0.029755590755,-0.999463453504
122112000000,,617,,122,112000000,"""map""",,,-0.0342067778111,-0.00124883966055,-0.0299726426601,,0.0096189730419,-0.00986900926185,0.0298108874202,-0.999460587518
122144000000,,618,,122,144000000,"""map""",,,-0.0342756733298,-0.00110225379467,-0.0299808830023,,0.00960492561871,-0.00988863060575,0.0298058297984,-0.999460671812
122176000000,,619,,122,176000000,"""map""",,,-0.0341188274324,-0.000979823293164,-0.0298544801772,,0.00963545579355,-0.00985531742182,0.0298132476438,-0.999460503225
122212000000,,620,,122,212000000,"""map""",,,-0.0340733155608,-0.000787287659477,-0.029893361032,,0.00969073453404,-0.00990194449268,0.0298400530394,-0.999458648763
122244000000,,621,,122,244000000,"""map""",,,-0.0341353602707,-0.000647659064271,-0.030060114339,,0.00967425233803,-0.00988560614749,0.0298617165195,-0.999458395882
122276000000,,622,,122,276000000,"""map""",,,-0.0343031585217,-0.000501738744788,-0.0303628239781,,0.00968136053369,-0.0099436490771,0.0298790388743,-0.999457173624
122312000000,,623,,122,312000000,"""map""",,,-0.0345409214497,-0.000336350989528,-0.0307684578001,,0.00970982269355,-0.00992179080156,0.0299152430172,-0.999456035659
122344000000,,624,,122,344000000,"""map""",,,-0.0348160974681,-0.000182544361451,-0.0311810653657,,0.00964586950191,-0.00990866530981,0.0298839700556,-0.999457805826
122376000000,,625,,122,376000000,"""map""",,,-0.0351683869958,-2.72199486062e-05,-0.031700052321,,0.0096490180032,-0.00999016611958,0.0298792496085,-0.999457047183
122412000000,,626,,122,412000000,"""map""",,,-0.0357050485909,0.000151949003339,-0.0324398986995,,0.00963526807749,-0.00996828615323,0.029865214708,-0.999457847973
122444000000,,627,,122,444000000,"""map""",,,-0.0359071865678,0.00029696081765,-0.0332115627825,,0.00968097958627,-0.00998410245783,0.0298751613642,-0.999456920743
122476000000,,628,,122,476000000,"""map""",,,-0.035923294723,0.000446784048108,-0.0340625979006,,0.00968347025304,-0.0100042736247,0.0298274932786,-0.999458143001
122512000000,,629,,122,512000000,"""map""",,,-0.03605992347,0.000624406093266,-0.0350283756852,,0.00961241472062,-0.00997099331651,0.0298006878829,-0.999459913169
122544000000,,630,,122,544000000,"""map""",,,-0.0362971201539,0.000819062755909,-0.0359988436103,,0.00963385734139,-0.0100034894422,0.0298123204131,-0.999459070232
122576000000,,631,,122,576000000,"""map""",,,-0.0366344712675,0.00105703505687,-0.0369891449809,,0.00964298388335,-0.0099612973805,0.0297883810031,-0.999460081756
122612000000,,632,,122,612000000,"""map""",,,-0.0371300131083,0.00139788235538,-0.0382372699678,,0.00964647585676,-0.0100018896935,0.0297652002365,-0.999460334637
122644000000,,633,,122,644000000,"""map""",,,-0.0372294634581,0.00165759562515,-0.0388356782496,,0.00969126299542,-0.00996457966923,0.0297288275062,-0.999461388309
122676000000,,634,,122,676000000,"""map""",,,-0.037050973624,0.00188379886094,-0.0391835346818,,0.00969960014831,-0.0100237104012,0.0297387741624,-0.999460461078
122712000000,,635,,122,712000000,"""map""",,,-0.0370118580759,0.00210259808227,-0.0397365950048,,0.00964834633411,-0.0097659079607,0.0297419773229,-0.999463411357
122744000000,,636,,122,744000000,"""map""",,,-0.0370762012899,0.00234608608298,-0.0402117706835,,0.00966611097866,-0.0097825035344,0.0297142446966,-0.999463832826
122776000000,,637,,122,776000000,"""map""",,,-0.0372440740466,0.00262675574049,-0.0408356226981,,0.00968536775644,-0.00979356482868,0.0297002097961,-0.999463959266
122812000000,,638,,122,812000000,"""map""",,,-0.0375554487109,0.00300378818065,-0.0416058860719,,0.00966862811069,-0.00985201404938,0.0296158739522,-0.999466024462
122844000000,,639,,122,844000000,"""map""",,,-0.0376535654068,0.003229705384,-0.0418691039085,,0.00968556260329,-0.00989512037666,0.0296240504408,-0.999465181525
122876000000,,640,,122,876000000,"""map""",,,-0.0375976152718,0.00340609089471,-0.0417805314064,,0.00971496671847,-0.00993120192736,0.0295221393611,-0.999467626042
122912000000,,641,,122,912000000,"""map""",,,-0.0376459956169,0.00363300833851,-0.0417997054756,,0.0096771103183,-0.00994049198386,0.0295346991219,-0.999467541748
122944000000,,642,,122,944000000,"""map""",,,-0.0377843566239,0.00387299479917,-0.0418644435704,,0.0096457781906,-0.00994072105445,0.0295373965203,-0.999467710336
122976000000,,643,,122,976000000,"""map""",,,-0.0380402579904,0.0041481629014,-0.0419722124934,,0.00962576831572,-0.00997580237894,0.0294550415783,-0.999469986266
123012000000,,644,,123,12000000,"""map""",,,-0.0384684279561,0.00449765380472,-0.0422036610544,,0.00957399126218,-0.00998269435591,0.0294230521202,-0.999471377112
123044000000,,645,,123,44000000,"""map""",,,-0.0383854433894,0.00472905673087,-0.0421662479639,,0.0096171205562,-0.00997948471287,0.0294564745711,-0.999469986266
123076000000,,646,,123,76000000,"""map""",,,-0.0379546061158,0.0049104206264,-0.0419673919678,,0.00963826524732,-0.00993024519595,0.0294604363749,-0.999470154853
123112000000,,647,,123,112000000,"""map""",,,-0.0376490801573,0.00514711532742,-0.0418480634689,,0.00964999042649,-0.00997710808748,0.0295676158106,-0.999466403784
123144000000,,648,,123,144000000,"""map""",,,-0.0374986976385,0.0054111527279,-0.0418004840612,,0.00962331706901,-0.00997337776212,0.0295778996417,-0.999466403784
123176000000,,649,,123,176000000,"""map""",,,-0.0374719500542,0.00573782576248,-0.0418078191578,,0.00963533353064,-0.00998629642973,0.0296475262354,-0.999464127854
123212000000,,650,,123,212000000,"""map""",,,-0.037588339299,0.00613959180191,-0.0418784581125,,0.00958416643337,-0.0100639949681,0.0296678410164,-0.999463200623
123244000000,,651,,123,244000000,"""map""",,,-0.0374847017229,0.00639741867781,-0.0417053438723,,0.00961362339675,-0.0100166572043,0.0296842361405,-0.999462905595
123276000000,,652,,123,276000000,"""map""",,,-0.0372421331704,0.00655829207972,-0.0412690751255,,0.00955592792139,-0.0100577349675,0.0297135282002,-0.999462189099
123312000000,,653,,123,312000000,"""map""",,,-0.0371161103249,0.00675292965025,-0.040996324271,,0.00956660899882,-0.0101027588529,0.0297432417284,-0.999460798253
123344000000,,654,,123,344000000,"""map""",,,-0.037119500339,0.00695151556283,-0.0409122444689,,0.00953021348703,-0.0101176713258,0.0297815110668,-0.999459786728
123376000000,,655,,123,376000000,"""map""",,,-0.0372452810407,0.00716302264482,-0.0409866645932,,0.00956274684108,-0.0100984300341,0.0298053240362,-0.999458985938
123412000000,,656,,123,412000000,"""map""",,,-0.0375741906464,0.00746366614476,-0.0412497334182,,0.00954873394003,-0.0100972266057,0.0297970632539,-0.999459407407
123444000000,,657,,123,444000000,"""map""",,,-0.0377795025706,0.00762114720419,-0.0411072596908,,0.00951881560448,-0.0101348670342,0.0297614913138,-0.999460334637
123476000000,,658,,123,476000000,"""map""",,,-0.0379218421876,0.00771372579038,-0.0406853891909,,0.00953667780108,-0.0101282435582,0.0297823961506,-0.999459575994
123512000000,,659,,123,512000000,"""map""",,,-0.0381148569286,0.00789929181337,-0.0403581000865,,0.00952709264461,-0.010171199799,0.0297390691904,-0.999460587518
123544000000,,660,,123,544000000,"""map""",,,-0.0384135730565,0.00815391167998,-0.0401808843017,,0.00957360327656,-0.0101504395744,0.0297344751839,-0.999460461078
123576000000,,661,,123,576000000,"""map""",,,-0.0387838818133,0.00847783219069,-0.0400791577995,,0.00956511111876,-0.010060119763,0.0296641742406,-0.999463579945
123612000000,,662,,123,612000000,"""map""",,,-0.0393282957375,0.00895137619227,-0.0400026291609,,0.0094803581281,-0.00996992250256,0.0296452924524,-0.999465855875
123644000000,,663,,123,644000000,"""map""",,,-0.0395939648151,0.00932367425412,-0.0397496856749,,0.0095164326406,-0.0100105407664,0.0296457560678,-0.999465055084
123676000000,,664,,123,676000000,"""map""",,,-0.0397499799728,0.00970495212823,-0.039350502193,,0.00957186583036,-0.0101068217433,0.0296248512309,-0.999464212147
123712000000,,665,,123,712000000,"""map""",,,-0.0400115847588,0.0101472176611,-0.0391333959997,,0.00950433363453,-0.0100583644949,0.0296443230749,-0.99946471791
123744000000,,666,,123,744000000,"""map""",,,-0.0403600409627,0.0106238210574,-0.0389902591705,,0.00958424969809,-0.0100652459146,0.0296542275843,-0.999463579945
123776000000,,667,,123,776000000,"""map""",,,-0.0407578833401,0.0111244702712,-0.038988981396,,0.00955201904815,-0.0100397775289,0.0295993102407,-0.999465813728
123812000000,,668,,123,812000000,"""map""",,,-0.0413197912276,0.0118532506749,-0.0390163473785,,0.00958989760217,-0.0100231264986,0.0296691897155,-0.999463537798
123844000000,,669,,123,844000000,"""map""",,,-0.0413495078683,0.0123000955209,-0.0388094224036,,0.00961769437484,-0.0100142879052,0.029679642134,-0.999463032036
123876000000,,670,,123,876000000,"""map""",,,-0.041001945734,0.0125899882987,-0.0383091494441,,0.00973731452925,-0.0100212544932,0.0297183750878,-0.999460713959
123912000000,,671,,123,912000000,"""map""",,,-0.0407769419253,0.0128984730691,-0.0378617756069,,0.00965248912956,-0.0100668978118,0.0297953352331,-0.999458775204
123944000000,,672,,123,944000000,"""map""",,,-0.04066394642,0.0132425660267,-0.0375760197639,,0.00969569020493,-0.0101188458811,0.0298401373331,-0.999456457127
123976000000,,673,,123,976000000,"""map""",,,-0.0406765043736,0.0136499665678,-0.0373999960721,,0.00963649277477,-0.0101654756478,0.0298557316671,-0.999456119953
124012000000,,674,,124,12000000,"""map""",,,-0.0408057235181,0.0142264729366,-0.0373306497931,,0.00964231504909,-0.0102267998887,0.02992363024,-0.999453380407
124044000000,,675,,124,44000000,"""map""",,,-0.0406786613166,0.0144791305065,-0.0371288396418,,0.00966927172476,-0.0102440908185,0.0299463895382,-0.999452284589
124076000000,,676,,124,76000000,"""map""",,,-0.0403754040599,0.0145504409447,-0.0367412045598,,0.00966771449337,-0.0102436355378,0.0299690645427,-0.99945161024
124112000000,,677,,124,112000000,"""map""",,,-0.0401747561991,0.0147169046104,-0.0364698022604,,0.00967031623809,-0.0103289376311,0.0299779575277,-0.999450472275
124144000000,,678,,124,144000000,"""map""",,,-0.0400854349136,0.0149626415223,-0.0364239774644,,0.00960730077266,-0.0103257812273,0.0299511942789,-0.999451863121
124176000000,,679,,124,176000000,"""map""",,,-0.040106985718,0.0153009556234,-0.0365250967443,,0.00961089836015,-0.0103451655261,0.029961183082,-0.999451315212
124212000000,,680,,124,212000000,"""map""",,,-0.0402802824974,0.015844963491,-0.0367641374469,,0.00959810596845,-0.0103169358633,0.0300276065153,-0.999449797925
124244000000,,681,,124,244000000,"""map""",,,-0.040139708668,0.0161250475794,-0.0367662273347,,0.00964966623737,-0.0103193604389,0.0300489328206,-0.999448617814
124276000000,,682,,124,276000000,"""map""",,,-0.0397408865392,0.0162688586861,-0.0365503057837,,0.00960630171949,-0.0103091352389,0.0300733779928,-0.999448364932
124312000000,,683,,124,312000000,"""map""",,,-0.039461825043,0.0165030062199,-0.0365365631878,,0.00964435894486,-0.010330639413,0.0301443532857,-0.999445667534
124344000000,,684,,124,344000000,"""map""",,,-0.0393196307123,0.0168126448989,-0.0367149189115,,0.00959698611351,-0.0103054682985,0.0301391692233,-0.999446552618
124376000000,,685,,124,376000000,"""map""",,,-0.0392934121192,0.017179781571,-0.0370646379888,,0.00964254796805,-0.0103309739331,0.0301260194066,-0.999446215443
124412000000,,686,,124,412000000,"""map""",,,-0.0394584387541,0.0177313163877,-0.0374755971134,,0.00966412526117,-0.0103036370097,0.0301452383695,-0.999445793975
124444000000,,687,,124,440000000,"""map""",,,-0.0393539331853,0.01802110672,-0.0373938530684,,0.00968010231237,-0.0103272582397,0.0301560701095,-0.999444993185
124476000000,,688,,124,476000000,"""map""",,,-0.0390222705901,0.0181449688971,-0.0371722914279,,0.00981048173609,-0.0102853384656,0.0301341537483,-0.999444824597
124512000000,,689,,124,512000000,"""map""",,,-0.0387966781855,0.0183370541781,-0.0370013080537,,0.0098091423183,-0.0103415478118,0.0301180115053,-0.99944478245
124544000000,,690,,124,544000000,"""map""",,,-0.0387037582695,0.0186280049384,-0.0368302613497,,0.0097949024046,-0.0103890165643,0.0301004784164,-0.999444951038
124576000000,,691,,124,576000000,"""map""",,,-0.0387233756483,0.0190268866718,-0.0367435291409,,0.00979566306467,-0.0104079477021,0.0301059996535,-0.999444571716
124612000000,,692,,124,612000000,"""map""",,,-0.0388756468892,0.0196676719934,-0.0367035754025,,0.00980576172122,-0.0104833136347,0.0300878343618,-0.999444192394
124644000000,,693,,124,644000000,"""map""",,,-0.0385601781309,0.0200834348798,-0.0365745462477,,0.00974271221728,-0.0105148860283,0.0301224369244,-0.999443475898
124676000000,,694,,124,676000000,"""map""",,,-0.0378516130149,0.020393775776,-0.0363746620715,,0.00975000395134,-0.0105807822966,0.0301073904995,-0.999443096576
124712000000,,695,,124,712000000,"""map""",,,-0.0372704900801,0.0207852236927,-0.0361625179648,,0.00964051100757,-0.0105382107281,0.0301755841004,-0.999442590814
124744000000,,696,,124,744000000,"""map""",,,-0.0368104018271,0.0212774667889,-0.0360140576959,,0.00963232756308,-0.0105473200861,0.0301827069178,-0.99944238008
124776000000,,697,,124,776000000,"""map""",,,-0.0364694520831,0.021820243448,-0.0357882864773,,0.00963907233477,-0.0105030553996,0.0302391836948,-0.999441031381
124812000000,,698,,124,812000000,"""map""",,,-0.0361998453736,0.0225763227791,-0.0352312475443,,0.00963623166188,-0.0105416682102,0.0302291527449,-0.999440947087
124844000000,,699,,124,844000000,"""map""",,,-0.0357950031757,0.0229235123843,-0.0346597731113,,0.00962250002107,-0.0105488117718,0.0302146963758,-0.999441494996
124876000000,,700,,124,876000000,"""map""",,,-0.0351879000664,0.0230719037354,-0.0339103415608,,0.00964628113339,-0.010514962831,0.0302471073023,-0.999440609912
124912000000,,701,,124,912000000,"""map""",,,-0.0347369946539,0.023347645998,-0.0332405939698,,0.00965269058245,-0.010537347582,0.0302866831931,-0.999439134773
124944000000,,702,,124,944000000,"""map""",,,-0.0344043672085,0.0237196162343,-0.0326726138592,,0.00969543366069,-0.0105487974484,0.0303110862184,-0.99943782822
124976000000,,703,,124,976000000,"""map""",,,-0.0342099480331,0.0241940692067,-0.0321331620216,,0.00967387225495,-0.0105338149023,0.0303076301768,-0.999438333982
125012000000,,704,,125,12000000,"""map""",,,-0.0341142490506,0.0249125026166,-0.0316333286464,,0.00967934550068,-0.0105644483349,0.0302771580053,-0.999438881892
125044000000,,705,,125,44000000,"""map""",,,-0.0337512381375,0.0253268238157,-0.031041406095,,0.0097452839159,-0.0105396268046,0.030247486624,-0.999439387654
125076000000,,706,,125,76000000,"""map""",,,-0.0330910161138,0.0255889780819,-0.0302297305316,,0.00974560219869,-0.0105685057511,0.0302751771034,-0.999438249689
125112000000,,707,,125,112000000,"""map""",,,-0.0325473546982,0.0259131640196,-0.029542837292,,0.00972597872481,-0.0104929234454,0.0302885798013,-0.999438839745
125144000000,,708,,125,144000000,"""map""",,,-0.0321327410638,0.0263357814401,-0.0290351118892,,0.00996843629108,-0.0105108938903,0.0302583605109,-0.999437111724
125176000000,,709,,125,176000000,"""map""",,,-0.0318462513387,0.0268564969301,-0.0285888854414,,0.00991624577449,-0.0105377765414,0.0303252054126,-0.999435341556
125212000000,,710,,125,212000000,"""map""",,,-0.0316473916173,0.0276264026761,-0.0278564747423,,0.00985716465975,-0.0105473114016,0.0303485969135,-0.999435130822
125244000000,,711,,125,244000000,"""map""",,,-0.0313252285123,0.0279780849814,-0.0269824080169,,0.00986771409002,-0.0105488699706,0.0303835787978,-0.99943395071
125276000000,,712,,125,276000000,"""map""",,,-0.0308643821627,0.0281041655689,-0.0258449316025,,0.00985343952042,-0.0105329094448,0.0303386081104,-0.999435678731
125312000000,,713,,125,312000000,"""map""",,,-0.0305132120848,0.0283517558128,-0.0248494464904,,0.00981766001528,-0.0105684123612,0.03032845072,-0.999435973759
125344000000,,714,,125,344000000,"""map""",,,-0.0303014311939,0.0287086740136,-0.0240065343678,,0.00981926587606,-0.0105420794713,0.0303414740961,-0.999435763025
125376000000,,715,,125,376000000,"""map""",,,-0.0301765408367,0.0291873384267,-0.0232726931572,,0.00982113885896,-0.0105294458711,0.0304011961805,-0.999434119298
125412000000,,716,,125,412000000,"""map""",,,-0.0301595963538,0.0299246776849,-0.0223990026861,,0.00980801721558,-0.0104846695984,0.0304381589666,-0.999433571389
125444000000,,717,,125,444000000,"""map""",,,-0.0299028456211,0.0302593242377,-0.0212844982743,,0.00978960916791,-0.0104745705714,0.0304677882011,-0.999432939186
125476000000,,718,,125,476000000,"""map""",,,-0.0294364579022,0.0303427949548,-0.0198103357106,,0.00977761429418,-0.0104308341405,0.0304669031173,-0.999433571389
125512000000,,719,,125,512000000,"""map""",,,-0.0290992353112,0.0305473189801,-0.0184739157557,,0.00975195130861,-0.0104298287077,0.0305214411393,-0.999432138396
125544000000,,720,,125,544000000,"""map""",,,-0.0288812890649,0.0308580882847,-0.0172604694963,,0.00980380434173,-0.0104247468226,0.030541545186,-0.999431084725
125576000000,,721,,125,576000000,"""map""",,,-0.0287759937346,0.0312746614218,-0.016149925068,,0.00970628351073,-0.010460750377,0.0306097809338,-0.999429609585
125612000000,,722,,125,612000000,"""map""",,,-0.028752816841,0.0319544486701,-0.0149066494778,,0.00971762233007,-0.0104899449721,0.0306072942697,-0.999429230263
125644000000,,723,,125,644000000,"""map""",,,-0.0285202600062,0.0322379358113,-0.0137016046792,,0.00970645300362,-0.0104405255696,0.0305962096485,-0.999430199641
125676000000,,724,,125,676000000,"""map""",,,-0.0281108748168,0.0322796963155,-0.0124211292714,,0.00969792353516,-0.01053602506,0.0306041754029,-0.999429061676
125712000000,,725,,125,712000000,"""map""",,,-0.0278897918761,0.0324588865042,-0.0112783499062,,0.00968098821937,-0.0103315432242,0.0306184631846,-0.99943087399
125744000000,,726,,125,744000000,"""map""",,,-0.0277140345424,0.0327618643641,-0.0100967241451,,0.00970110319384,-0.0103423745733,0.0306503683489,-0.999429567438
125776000000,,727,,125,776000000,"""map""",,,-0.0276537723839,0.0331375189126,-0.00913791731,,0.00970447201943,-0.0103329379186,0.030702082532,-0.999428092298
125812000000,,728,,125,812000000,"""map""",,,-0.0277085900307,0.0337548144162,-0.00814932584763,,0.00965656566413,-0.0104388475571,0.0307183933624,-0.999426954333
125844000000,,729,,125,844000000,"""map""",,,-0.0276389550418,0.03392836079,-0.00735391397029,,0.00964403002246,-0.0104639258374,0.0307160752857,-0.999426827893
125876000000,,730,,125,876000000,"""map""",,,-0.0274737495929,0.0338240601122,-0.00646088924259,,0.00963322692908,-0.0104536778971,0.0307630690218,-0.999425689928
125912000000,,731,,125,912000000,"""map""",,,-0.0274351965636,0.0338839106262,-0.00548683386296,,0.00965109669894,-0.0104095927874,0.0307603716235,-0.999426027103
125944000000,,732,,125,944000000,"""map""",,,-0.0274950191379,0.0340623296797,-0.00462990440428,,0.00968522967817,-0.0104306010569,0.0307324704098,-0.999426279984
125976000000,,733,,125,976000000,"""map""",,,-0.0276630148292,0.0343512520194,-0.00383937940933,,0.00958422002243,-0.0104153170209,0.0307921503473,-0.999425605634
126012000000,,734,,126,12000000,"""map""",,,-0.0279900189489,0.0348589010537,-0.00298507721163,,0.00962908633049,-0.0104479890603,0.0308388490554,-0.999423413998
126044000000,,735,,126,44000000,"""map""",,,-0.0279531348497,0.0349416621029,-0.00224992074072,,0.00966008262107,-0.0104701228236,0.0308126758625,-0.999423709026
126076000000,,736,,126,76000000,"""map""",,,-0.0275957584381,0.0347402133048,-0.00128472130746,,0.00962674113002,-0.0104549888534,0.0308332856714,-0.999423498292
126112000000,,737,,126,112000000,"""map""",,,-0.0273881480098,0.0346751622856,-0.000345389067661,,0.00966499499267,-0.0104682621472,0.0308415464537,-0.999422739649
126144000000,,738,,126,144000000,"""map""",,,-0.0273051932454,0.0347217991948,0.000532723031938,,0.00960484300224,-0.0104836370624,0.0308505237325,-0.999422950383
126176000000,,739,,126,176000000,"""map""",,,-0.0273178201169,0.0348647944629,0.00123207445722,,0.00968953330769,-0.0104824620543,0.030863715696,-0.99942164383
126212000000,,740,,126,212000000,"""map""",,,-0.0274676196277,0.0351483747363,0.00202019419521,,0.00967983171232,-0.0104469150566,0.0308766547785,-0.999421770271
126244000000,,741,,126,244000000,"""map""",,,-0.0274353455752,0.034999512136,0.00233839452267,,0.00969453692887,-0.0104539721018,0.0308762754569,-0.999421559537
126276000000,,742,,126,276000000,"""map""",,,-0.0272537618876,0.0345298573375,0.00244151800871,,0.00962300528934,-0.0104575906804,0.0309547950357,-0.999419831516
126312000000,,743,,126,312000000,"""map""",,,-0.0271797571331,0.0342227630317,0.00246527488343,,0.00960492034006,-0.0104254260496,0.0309671862091,-0.99941991581
126344000000,,744,,126,344000000,"""map""",,,-0.0272107366472,0.0340562947094,0.00252163363621,,0.00961031336683,-0.0104389503723,0.0309777650681,-0.999419367901
126376000000,,745,,126,376000000,"""map""",,,-0.0273523312062,0.0340477600694,0.00263824965805,,0.00959711802821,-0.010394337357,0.0309824433683,-0.999419831516
126412000000,,746,,126,412000000,"""map""",,,-0.027650328353,0.0342235155404,0.00270278425887,,0.00954925077399,-0.0104191094553,0.0309794930889,-0.999420084397
126444000000,,747,,126,444000000,"""map""",,,-0.0276837609708,0.0341226905584,0.00290009169839,,0.00953104802756,-0.0104200372622,0.0310013673033,-0.999419620782
126476000000,,748,,126,476000000,"""map""",,,-0.0275397226214,0.0337895527482,0.00306485430337,,0.00950627868689,-0.0103788230773,0.0309911677659,-0.999420632306
126512000000,,749,,126,512000000,"""map""",,,-0.0275351814926,0.03358694911,0.00315537909046,,0.00950486829035,-0.0103758594212,0.031001999506,-0.999420337278
126544000000,,750,,126,544000000,"""map""",,,-0.0276677105576,0.0334916897118,0.00322852516547,,0.00947580882032,-0.0103745033546,0.0309920107029,-0.999420885187
126576000000,,751,,126,576000000,"""map""",,,-0.0279254112393,0.0335355252028,0.00337061588652,,0.0095048466407,-0.0103166199677,0.0309593468953,-0.999422191739
126612000000,,752,,126,612000000,"""map""",,,-0.0283828545362,0.0337319746614,0.0034137382172,,0.0094745666819,-0.0103759773007,0.0309808417881,-0.999421180215
126644000000,,753,,126,644000000,"""map""",,,-0.0284437127411,0.0336746759713,0.00357131217606,,0.00949887302463,-0.0103757842237,0.0309817268719,-0.999420969481
126676000000,,754,,126,676000000,"""map""",,,-0.0281775481999,0.0334368348122,0.00373490154743,,0.00955538470449,-0.0102754292847,0.030971105866,-0.999421812418
126712000000,,755,,126,712000000,"""map""",,,-0.0280196294188,0.0333088412881,0.00405073119327,,0.0096751686204,-0.0103585653222,0.0309426988902,-0.9994207166
126744000000,,756,,126,744000000,"""map""",,,-0.0280008260161,0.0332941934466,0.00450085476041,,0.00966648346789,-0.0103727822486,0.0309546264483,-0.999420252984
126776000000,,757,,126,776000000,"""map""",,,-0.0280847866088,0.0333728604019,0.00485834013671,,0.00961947462644,-0.0103875171408,0.0310419968652,-0.999417850614
126812000000,,758,,126,812000000,"""map""",,,-0.0283182058483,0.0336426235735,0.0052454196848,,0.00958977072945,-0.0104006033256,0.03106319673,-0.999417302705
126844000000,,759,,126,844000000,"""map""",,,-0.0282613169402,0.0334163755178,0.0057945526205,,0.00952707881518,-0.0104261164512,0.0310511427314,-0.999418061348
126876000000,,760,,126,876000000,"""map""",,,-0.0279772169888,0.0327526368201,0.00633584987372,,0.00950775831292,-0.0104449759723,0.0310549359477,-0.999417892761
126912000000,,761,,126,912000000,"""map""",,,-0.0278382431716,0.0322388708591,0.00671126134694,,0.00950462084225,-0.0104361305671,0.0310619744714,-0.99941776632
126944000000,,762,,126,944000000,"""map""",,,-0.0278523359448,0.031861204654,0.00709396926686,,0.00946281944149,-0.0104539833382,0.031123593164,-0.999416080446
126976000000,,763,,126,976000000,"""map""",,,-0.0279996898025,0.0316092409194,0.00733599625528,,0.00943381685325,-0.0104674666666,0.0311618625024,-0.999415068922
127012000000,,764,,127,12000000,"""map""",,,-0.028315294534,0.0314730368555,0.00774336699396,,0.00940977829119,-0.0105723376158,0.0312268529428,-0.999412118643
127044000000,,765,,127,44000000,"""map""",,,-0.0284288041294,0.0310937315226,0.00794973224401,,0.00934348953029,-0.0105218414107,0.0312558921214,-0.999412413671
127076000000,,766,,127,76000000,"""map""",,,-0.0284195225686,0.0304708089679,0.00800653919578,,0.00931484811255,-0.010556912857,0.031259348163,-0.99941216079
127112000000,,767,,127,112000000,"""map""",,,-0.0284929536283,0.0299836341292,0.00812617875636,,0.00931041079849,-0.0104930551543,0.0312342286413,-0.999413678076
127144000000,,768,,127,144000000,"""map""",,,-0.0286441259086,0.0296413432807,0.00810633227229,,0.00930663532167,-0.0105357150502,0.0312409721371,-0.999413003727
127176000000,,769,,127,176000000,"""map""",,,-0.028923548758,0.0294010303915,0.0080748880282,,0.00927937112629,-0.0105231531079,0.0312343972287,-0.999413678076
127212000000,,770,,127,212000000,"""map""",,,-0.0294173173606,0.0292947180569,0.00814690999687,,0.00929658387452,-0.0104960924851,0.0312687890571,-0.999412666552
127244000000,,771,,127,244000000,"""map""",,,-0.0294554308057,0.0288301184773,0.00843111611903,,0.0093305322555,-0.0104944246388,0.0313004834872,-0.999411402146
