rosbagTimestamp,header,seq,stamp,secs,nsecs,frame_id,pose,position,x,y,z,orientation,x,y,z,w
97808000000,,48,,97,808000000,"""map""",,,0.0312521085143,0.008200394921,0.032900121063,,0.0107974848869,-0.0188998720943,0.0528620525421,-0.998364643017
97840000000,,49,,97,840000000,"""map""",,,0.0325340405107,0.00842128973454,0.0329014658928,,0.0107548401787,-0.018901020596,0.0528429600197,-0.998366033863
97872000000,,50,,97,872000000,"""map""",,,0.0340460985899,0.00868575274944,0.0328970998526,,0.0106959004453,-0.0188182152095,0.0529154525991,-0.998364432282
97908000000,,51,,97,908000000,"""map""",,,0.0357399508357,0.00899939239025,0.0330514721572,,0.0106373884365,-0.0187651882179,0.0528911338675,-0.998367340415
97940000000,,52,,97,940000000,"""map""",,,0.036810759455,0.00931515451521,0.0330200865865,,0.0105975616403,-0.0187504480162,0.0528910917207,-0.998368056911
97972000000,,53,,97,972000000,"""map""",,,0.0372803770006,0.00964109785855,0.0328615941107,,0.0106084559421,-0.0186771553052,0.0529556606926,-0.998365865275
98008000000,,54,,98,8000000,"""map""",,,0.0381873361766,0.0101234707981,0.0328214913607,,0.0106122323655,-0.0185895540684,0.0529797265431,-0.998366160303
98040000000,,55,,98,40000000,"""map""",,,0.0391828157008,0.0105522433296,0.0328008681536,,0.0106240015437,-0.0185686706342,0.0530038345405,-0.998365148779
98072000000,,56,,98,72000000,"""map""",,,0.0403891280293,0.0110156098381,0.0328100584447,,0.0106484098374,-0.0182583618279,0.0529554499584,-0.99837315668
98108000000,,57,,98,108000000,"""map""",,,0.0418561883271,0.0115204406902,0.0330288372934,,0.0105938283514,-0.0182166772776,0.0529729830473,-0.998373578149
98140000000,,58,,98,140000000,"""map""",,,0.0428426750004,0.0117831602693,0.0329056419432,,0.0106341753978,-0.0182153634813,0.0529645958245,-0.998373620295
98172000000,,59,,98,172000000,"""map""",,,0.0433611050248,0.0118191018701,0.0325753875077,,0.0106838382148,-0.0181446509477,0.0529138510189,-0.998377076337
98208000000,,60,,98,208000000,"""map""",,,0.044295296073,0.0119421100244,0.0322831310332,,0.0106240176781,-0.0179952545284,0.0528393775376,-0.998384367742
98240000000,,61,,98,240000000,"""map""",,,0.0453095063567,0.0121162226424,0.0319532677531,,0.0105832639804,-0.0179767681963,0.0527835329633,-0.998388118811
98272000000,,62,,98,272000000,"""map""",,,0.0465631000698,0.0123057449237,0.0315438173711,,0.010604793776,-0.0178705785529,0.0528152695402,-0.998388076664
98308000000,,63,,98,308000000,"""map""",,,0.0480330847204,0.0125419320539,0.0312220547348,,0.0105988701682,-0.0178369868561,0.0527371292831,-0.998392881405
98340000000,,64,,98,340000000,"""map""",,,0.0488124340773,0.0125739136711,0.0309809111059,,0.0105076999494,-0.017809761309,0.052714327838,-0.998395536657
98372000000,,65,,98,372000000,"""map""",,,0.0489679165184,0.0124288154766,0.0308126602322,,0.0103794872606,-0.0176695038412,0.0526857101279,-0.998400889306
98408000000,,66,,98,408000000,"""map""",,,0.049524769187,0.0123205929995,0.0308408048004,,0.0102598046988,-0.0174970244491,0.0527128948452,-0.998403713145
98440000000,,67,,98,440000000,"""map""",,,0.0502490028739,0.0122871883214,0.0309075247496,,0.0102673071671,-0.0174885078222,0.0527077950765,-0.998404092467
98472000000,,68,,98,472000000,"""map""",,,0.0511955618858,0.0123301614076,0.0311156194657,,0.0102652699597,-0.0173932780059,0.0526739090103,-0.998407548508
98508000000,,69,,98,508000000,"""map""",,,0.0523613244295,0.0124224778265,0.0315051153302,,0.0102548251145,-0.0173497090305,0.0526583568232,-0.998409192236
98540000000,,70,,98,540000000,"""map""",,,0.0527607239783,0.0125631941482,0.0317495055497,,0.0102565603793,-0.0173444940165,0.0526335323294,-0.998410583082
98572000000,,71,,98,572000000,"""map""",,,0.0524470880628,0.0127376886085,0.031895365566,,0.010192200166,-0.0172348351607,0.0525597753445,-0.998417073696
98608000000,,72,,98,608000000,"""map""",,,0.0524164438248,0.0130112534389,0.032116189599,,0.0102244866276,-0.016990992593,0.052423598877,-0.998428074024
98640000000,,73,,98,640000000,"""map""",,,0.052659522742,0.0132891563699,0.0323590189219,,0.0102039354291,-0.0169422069573,0.052369060855,-0.998431951534
98672000000,,74,,98,672000000,"""map""",,,0.0531466007233,0.0136199304834,0.032676897943,,0.0102030727358,-0.0168286672987,0.0522298076675,-0.998441139547
98708000000,,75,,98,708000000,"""map""",,,0.0538705922663,0.0140066398308,0.0331382788718,,0.010228080305,-0.0167065191462,0.052151498823,-0.998447124399
98740000000,,76,,98,740000000,"""map""",,,0.0538413412869,0.0141794905066,0.0336446240544,,0.0102156492896,-0.0166389844191,0.0521191721902,-0.998450032532
98772000000,,77,,98,772000000,"""map""",,,0.0529345236719,0.0141421006992,0.03428356722,,0.0101914839988,-0.0163970371425,0.0520755080552,-0.998456523146
98808000000,,78,,98,808000000,"""map""",,,0.0524891279638,0.0141873266548,0.0347490534186,,0.0102074573252,-0.0162748669289,0.0520581857004,-0.998459262692
98840000000,,79,,98,840000000,"""map""",,,0.0522915385664,0.0142721310258,0.0352353341877,,0.0101531484767,-0.0161752265106,0.0520481547505,-0.99846196009
98872000000,,80,,98,872000000,"""map""",,,0.0523388013244,0.0143857747316,0.0359066054225,,0.0101471474898,-0.016081450102,0.0519920994419,-0.99846651195
98908000000,,81,,98,908000000,"""map""",,,0.0525918640196,0.0145386755466,0.0366032682359,,0.0100116391157,-0.0158650217543,0.0519559374459,-0.998473171152
98940000000,,82,,98,940000000,"""map""",,,0.0521230399609,0.0146816717461,0.036847949028,,0.0100261889981,-0.0158299226491,0.0519183846039,-0.998475573522
98972000000,,83,,98,972000000,"""map""",,,0.0510100834072,0.0148014714941,0.0366994515061,,0.00996250510997,-0.0156667985403,0.0518670075956,-0.998481431934
99008000000,,84,,99,8000000,"""map""",,,0.0500205270946,0.015071189031,0.0366886630654,,0.00994340995342,-0.0155555598362,0.0517390919103,-0.998489987744
99040000000,,85,,99,40000000,"""map""",,,0.0494815185666,0.0153594948351,0.0368178635836,,0.00987761345454,-0.0154615354855,0.0517180606329,-0.998493233051
99072000000,,86,,99,72000000,"""map""",,,0.0491786189377,0.0157172996551,0.0370710343122,,0.00992487159625,-0.0153463102823,0.0516692545824,-0.998497026268
99108000000,,87,,99,108000000,"""map""",,,0.049091335386,0.0161500554532,0.0373365543783,,0.0100900750593,-0.015191343235,0.0515596306294,-0.998503390442
99140000000,,88,,99,140000000,"""map""",,,0.0483234301209,0.0164124667645,0.0375720337033,,0.0100786911297,-0.0151825546293,0.0515194646827,-0.998505708519
99172000000,,89,,99,172000000,"""map""",,,0.0469307303429,0.016550719738,0.0375476367772,,0.0100611712116,-0.015043512176,0.0514173850157,-0.998513294951
99208000000,,90,,99,208000000,"""map""",,,0.0455328449607,0.0167515557259,0.0376271940768,,0.0100003139612,-0.0148579499741,0.0513088568807,-0.99852227223
99240000000,,91,,99,240000000,"""map""",,,0.0446778386831,0.0169762838632,0.037919845432,,0.00999712446548,-0.0148182945641,0.0512538552434,-0.998525686125
99272000000,,92,,99,272000000,"""map""",,,0.0440513454378,0.0172258913517,0.0384272634983,,0.00990612876101,-0.0147127041962,0.051165515449,-0.998532682502
99308000000,,93,,99,308000000,"""map""",,,0.0436590313911,0.0175177361816,0.039142973721,,0.00990087127093,-0.0145804101779,0.0511077742665,-0.99853765583
99340000000,,94,,99,340000000,"""map""",,,0.0426814630628,0.0174825415015,0.039228592068,,0.00988074335195,-0.0145090978748,0.0510311512959,-0.998542797745
99372000000,,95,,99,372000000,"""map""",,,0.0411992780864,0.0171402879059,0.0387883670628,,0.0098533765471,-0.0144276309801,0.0509136880291,-0.998550257737
99408000000,,96,,99,408000000,"""map""",,,0.0397309474647,0.0168569460511,0.0384180322289,,0.00973832256538,-0.0142581937344,0.0508491190572,-0.998557085527
99440000000,,97,,99,440000000,"""map""",,,0.0388278178871,0.0167253315449,0.0383382700384,,0.0096542414136,-0.0141849248956,0.0507885961827,-0.998562058855
99472000000,,98,,99,472000000,"""map""",,,0.0381695926189,0.0166629962623,0.0384086817503,,0.00956828275143,-0.0140809514191,0.0506410822129,-0.998571836924
99508000000,,99,,99,508000000,"""map""",,,0.0377173274755,0.0166482310742,0.0384451448917,,0.00952328769792,-0.0140214960453,0.0504866140131,-0.998580898496
99540000000,,100,,99,540000000,"""map""",,,0.0367831476033,0.0164642538875,0.0383017398417,,0.00950387676928,-0.0139628641814,0.0504748971893,-0.998582500077
99572000000,,101,,99,572000000,"""map""",,,0.0354138091207,0.0161076765507,0.0378434360027,,0.00943261566807,-0.0138292125735,0.0503883697093,-0.998589454307
99608000000,,102,,99,608000000,"""map""",,,0.0340711809695,0.0157093964517,0.0374435074627,,0.00939358801562,-0.0136821908657,0.0503039917185,-0.998596029215
99640000000,,103,,99,640000000,"""map""",,,0.033275898546,0.0154276248068,0.0372757688165,,0.00932322401666,-0.0136208485973,0.0502819067699,-0.998598726613
99672000000,,104,,99,672000000,"""map""",,,0.0327084250748,0.0152081632987,0.0372431017458,,0.00927714993798,-0.0135344287893,0.0501856433679,-0.998605132934
99708000000,,105,,99,708000000,"""map""",,,0.0323372110724,0.015007625334,0.0372998975217,,0.00918739262645,-0.0134559200765,0.0501066601738,-0.998610949199
99740000000,,106,,99,740000000,"""map""",,,0.0314790904522,0.0145340487361,0.0372178405523,,0.00920367003569,-0.0134883459849,0.0500452100687,-0.99861347801
99772000000,,107,,99,772000000,"""map""",,,0.0301764179021,0.0137849804014,0.0370285362005,,0.00912020692793,-0.0133937913413,0.0499500424847,-0.9986203058
99808000000,,108,,99,808000000,"""map""",,,0.0289014093578,0.0129496306181,0.0368358567357,,0.00911913136011,-0.013284131333,0.0498394070074,-0.99862726003
99840000000,,109,,99,840000000,"""map""",,,0.0281446427107,0.012362417765,0.0367379002273,,0.00906063202828,-0.0132428084883,0.0497844053701,-0.998631095393
99872000000,,110,,99,872000000,"""map""",,,0.0276510864496,0.0118000907823,0.0368499346077,,0.00922616344654,-0.0131933731984,0.049632255247,-0.998637838889
99908000000,,111,,99,908000000,"""map""",,,0.0273680202663,0.0112525811419,0.0371386781335,,0.00917621432733,-0.0131350417955,0.049471169992,-0.998647026902
99940000000,,112,,99,940000000,"""map""",,,0.0266261845827,0.0106195975095,0.0372791849077,,0.00914115358236,-0.0131334058063,0.0494238390811,-0.998649766447
99972000000,,113,,99,972000000,"""map""",,,0.0254670102149,0.00990634318441,0.0372932106256,,0.00910668141155,-0.0130650212275,0.0492847123342,-0.998657816495
100008000000,,114,,100,8000000,"""map""",,,0.0243633743376,0.00911338441074,0.0374099351466,,0.00902419690093,-0.0130016196903,0.0491680920043,-0.998665192193
100040000000,,115,,100,40000000,"""map""",,,0.0237517766654,0.00853115133941,0.0375080890954,,0.00902496887973,-0.0129896735283,0.0491235427854,-0.99866751027
100072000000,,116,,100,72000000,"""map""",,,0.023362852633,0.00798156764358,0.037699315697,,0.00890547268603,-0.0129171658023,0.0490457818499,-0.998673284388
100108000000,,117,,100,108000000,"""map""",,,0.0231554899365,0.00748822186142,0.0379522703588,,0.00891312727812,-0.0128186505074,0.0488888691329,-0.998682177373
100140000000,,118,,100,140000000,"""map""",,,0.0226433333009,0.0069742561318,0.0380627550185,,0.00888829899772,-0.012796799836,0.0488183574554,-0.998686181324
100172000000,,119,,100,172000000,"""map""",,,0.0218489933759,0.00642158370465,0.0380780808628,,0.00888725240586,-0.012748015682,0.0487031279716,-0.998692419058
100208000000,,120,,100,208000000,"""map""",,,0.0211437270045,0.00576182221994,0.0380424559116,,0.00887586946404,-0.0126215441849,0.0485307473611,-0.998702534301
100240000000,,121,,100,240000000,"""map""",,,0.0208040755242,0.00523474533111,0.0381473004818,,0.00890125042792,-0.012646158603,0.0484736383814,-0.998704768084
100272000000,,122,,100,272000000,"""map""",,,0.0206487588584,0.00474101584405,0.0383317358792,,0.00886795030169,-0.0126382272576,0.0482997826313,-0.998713576775
100308000000,,123,,100,308000000,"""map""",,,0.0206508226693,0.00431632157415,0.0385303646326,,0.00889089234599,-0.0125877554186,0.0480815041029,-0.998724577103
100340000000,,124,,100,340000000,"""map""",,,0.0202461723238,0.00377568532713,0.0387639515102,,0.00884432337111,-0.0125560405737,0.0480668791464,-0.998726052243
100372000000,,125,,100,372000000,"""map""",,,0.0194931123406,0.00313060008921,0.0390422493219,,0.00877002753217,-0.0125368520684,0.0479350016574,-0.998733259354
100408000000,,126,,100,408000000,"""map""",,,0.0188105721027,0.00234018056653,0.0394444838166,,0.008754964479,-0.0124467692713,0.0478259677603,-0.998739792115
100440000000,,127,,100,440000000,"""map""",,,0.0184506587684,0.00171939912252,0.0398586019874,,0.00876860277113,-0.012462749677,0.047736742882,-0.998743711772
100472000000,,128,,100,472000000,"""map""",,,0.0182460043579,0.00111328077037,0.0402517654002,,0.00877296678094,-0.0122642125019,0.047634663215,-0.998751045324
100508000000,,129,,100,508000000,"""map""",,,0.0182241611183,0.000559025618713,0.0408261567354,,0.00876347386186,-0.0121799444881,0.0475814738921,-0.998754669953
100540000000,,130,,100,540000000,"""map""",,,0.0178540274501,0.000246854033321,0.0409625098109,,0.00876756885625,-0.0121549973404,0.0475383155193,-0.998757030176
100572000000,,131,,100,572000000,"""map""",,,0.017171099782,0.000179537921213,0.0407475940883,,0.00874411446432,-0.0121571596713,0.0473732684605,-0.998765038078
100608000000,,132,,100,608000000,"""map""",,,0.0166127998382,9.33802657528e-05,0.0406551286578,,0.00872983162176,-0.0121151856907,0.047200634969,-0.998773888916
100640000000,,133,,100,640000000,"""map""",,,0.0163677167147,3.17064623232e-05,0.040700994432,,0.00870497370686,-0.0120911572126,0.0471434838424,-0.998777092076
100672000000,,134,,100,672000000,"""map""",,,0.0162676088512,-5.34451828571e-05,0.0407558865845,,0.00867788102116,-0.0121176572083,0.0470170432969,-0.998782908341
100708000000,,135,,100,708000000,"""map""",,,0.0163222849369,-0.000170460843947,0.0408608242869,,0.00866524717405,-0.0120844063082,0.0468874838846,-0.99878948325
100740000000,,136,,100,740000000,"""map""",,,0.0157875102013,-0.000328404625179,0.0409075580537,,0.00870287821823,-0.0120717038078,0.0468504368047,-0.998791126977
100772000000,,137,,100,772000000,"""map""",,,0.014465065673,-0.000553909281734,0.0408304221928,,0.00873587508471,-0.011950309195,0.046723490497,-0.998798207647
100808000000,,138,,100,808000000,"""map""",,,0.0136459954083,-0.000730424071662,0.0408180691302,,0.00874624732535,-0.0118669346614,0.0466167746766,-0.998804108206
100840000000,,139,,100,840000000,"""map""",,,0.0130086923018,-0.000887546746526,0.0408690534532,,0.00870791707153,-0.0118159570604,0.0465331131823,-0.998808955094
100872000000,,140,,100,872000000,"""map""",,,0.0125630516559,-0.0010478051845,0.0410596840084,,0.00869329343219,-0.0118401085216,0.0463747674724,-0.998816162205
100908000000,,141,,100,908000000,"""map""",,,0.0122454809025,-0.00121090875473,0.0412906371057,,0.0086949559278,-0.011762157596,0.0462173489932,-0.99882438084
100940000000,,142,,100,940000000,"""map""",,,0.0117053510621,-0.00130789040122,0.0418752506375,,0.00873194933626,-0.0117658622382,0.0462082031271,-0.998824422987
100972000000,,143,,100,972000000,"""map""",,,0.010980501771,-0.00138709926978,0.0427374988794,,0.00867726577595,-0.0116690647566,0.0461038053833,-0.998830871455
101008000000,,144,,101,8000000,"""map""",,,0.0102916778997,-0.00149966124445,0.0437384881079,,0.00862255307505,-0.0116315693726,0.0459313826261,-0.998839680146
101040000000,,145,,101,40000000,"""map""",,,0.00990094151348,-0.00158468517475,0.0444963164628,,0.00863278208226,-0.0116311698007,0.0459397277021,-0.998839258678
101072000000,,146,,101,72000000,"""map""",,,0.00964027270675,-0.0017106012674,0.0451663956046,,0.00861435172638,-0.0115911977954,0.045815394499,-0.998845580705
101108000000,,147,,101,108000000,"""map""",,,0.00950508099049,-0.00187667773571,0.0458214990795,,0.008633214746,-0.0115776874256,0.0456630336416,-0.998852534935
101140000000,,148,,101,140000000,"""map""",,,0.0094601707533,-0.00202233227901,0.0462584197521,,0.00860213128059,-0.0115832575596,0.0456104765215,-0.998855105893
101172000000,,149,,101,172000000,"""map""",,,0.00950101017952,-0.00213472964242,0.0462529994547,,0.00862505274537,-0.0116315748056,0.0454485061827,-0.998861722948
101208000000,,150,,101,208000000,"""map""",,,0.0096996370703,-0.00226167100482,0.0465247109532,,0.00863944243678,-0.0115888242364,0.0452568644625,-0.99887078452
101240000000,,151,,101,240000000,"""map""",,,0.00996501091868,-0.00236433604732,0.0468863025308,,0.00865209241823,-0.0116158278539,0.0451832339182,-0.998873776947
101272000000,,152,,101,272000000,"""map""",,,0.010341159068,-0.00248156161979,0.0472285598516,,0.0086905555334,-0.011594887291,0.0450610502043,-0.998879129596
101308000000,,153,,101,308000000,"""map""",,,0.0107985930517,-0.00260272435844,0.0475506670773,,0.00873095608651,-0.0115792993779,0.044890608349,-0.998886631735
101340000000,,154,,101,340000000,"""map""",,,0.0110092181712,-0.00275108986534,0.0474297143519,,0.00869656178858,-0.0115580348111,0.0448425609417,-0.998889413427
101372000000,,155,,101,372000000,"""map""",,,0.0110486093909,-0.00295240036212,0.0472717173398,,0.00888737448354,-0.0115553893555,0.0446738471071,-0.998895271839
101408000000,,156,,101,408000000,"""map""",,,0.0112934652716,-0.00321424612775,0.0472254753113,,0.00887871997394,-0.0114493557048,0.0444749561289,-0.99890542923
101440000000,,157,,101,440000000,"""map""",,,0.0115886386484,-0.00344027439132,0.0473332740366,,0.00889499318496,-0.0114664693833,0.044415950541,-0.99890770516
101472000000,,158,,101,472000000,"""map""",,,0.0119913257658,-0.0036780310329,0.0476385056973,,0.00894532672952,-0.0115305316052,0.0442997516797,-0.99891170911
101508000000,,159,,101,508000000,"""map""",,,0.0124645233154,-0.00392316514626,0.0479222200811,,0.00890448791504,-0.0114961896616,0.044153881437,-0.998918916221
101540000000,,160,,101,540000000,"""map""",,,0.0125308455899,-0.00399831822142,0.0479637868702,,0.00891021527662,-0.0114725525235,0.0441383292499,-0.998919801305
101572000000,,161,,101,572000000,"""map""",,,0.012264196761,-0.00392482243478,0.0476373098791,,0.00880484222845,-0.0114630148234,0.0440195172839,-0.998926165479
101608000000,,162,,101,608000000,"""map""",,,0.0121333794668,-0.00387412402779,0.0470964759588,,0.00885986074096,-0.0114859521756,0.0438659763148,-0.998932108185
101640000000,,163,,101,640000000,"""map""",,,0.0121651515365,-0.00385041162372,0.0467105396092,,0.00886402949233,-0.0114548107583,0.0438142199848,-0.99893472129
101672000000,,164,,101,672000000,"""map""",,,0.0123161179945,-0.00387452496216,0.0464391186833,,0.00883376369224,-0.0114887973348,0.043664219351,-0.998941169757
101708000000,,165,,101,708000000,"""map""",,,0.0125683909282,-0.00392718566582,0.0462574101985,,0.00878434173791,-0.0114946407649,0.043533184799,-0.99894728105
101740000000,,166,,101,740000000,"""map""",,,0.0129437455907,-0.00399167789146,0.0461282767355,,0.00879573019504,-0.0114879872428,0.0434277755308,-0.998951790763
101772000000,,167,,101,772000000,"""map""",,,0.0134274270386,-0.00403066724539,0.0459731407464,,0.00883608794276,-0.0114628458244,0.0433016721601,-0.998957269854
101808000000,,168,,101,808000000,"""map""",,,0.0141669586301,-0.0040815807879,0.0459865741432,,0.00879843121534,-0.0113757781733,0.0430867232327,-0.998967890859
101840000000,,169,,101,840000000,"""map""",,,0.0141435442492,-0.00401067221537,0.0459031313658,,0.00874039311163,-0.0113359644657,0.0430354726649,-0.998971009726
101872000000,,170,,101,872000000,"""map""",,,0.0135536370799,-0.00386866461486,0.0456663556397,,0.00875977769849,-0.011256658914,0.0429297683688,-0.998976320229
101908000000,,171,,101,908000000,"""map""",,,0.0131244035438,-0.00375149515457,0.0454849116504,,0.00873607717556,-0.0111857740064,0.0427879442236,-0.998983358753
101940000000,,172,,101,940000000,"""map""",,,0.0128172459081,-0.00367087405175,0.0453079380095,,0.00870319489582,-0.0112163658683,0.0427346284602,-0.998985592536
101972000000,,173,,101,972000000,"""map""",,,0.0126024372876,-0.00360752060078,0.0449368953705,,0.00870706046977,-0.0110045082312,0.042555799382,-0.998995581339
102008000000,,174,,102,8000000,"""map""",,,0.0125033855438,-0.00352993025444,0.044647552073,,0.00874353099389,-0.0110200640402,0.0424309182699,-0.999000428226
102040000000,,175,,102,40000000,"""map""",,,0.0120544116944,-0.00329625979066,0.044247418642,,0.00876683770721,-0.0110359328226,0.0423371836788,-0.999003968562
102072000000,,176,,102,72000000,"""map""",,,0.0112766278908,-0.00290432316251,0.0437654070556,,0.00875846661869,-0.0111014879649,0.0421202538495,-0.999012524372
102108000000,,177,,102,108000000,"""map""",,,0.0106061520055,-0.00254104356281,0.0433234423399,,0.00875652728744,-0.0110409827889,0.0419661228245,-0.999019647189
102140000000,,178,,102,136000000,"""map""",,,0.0100391525775,-0.00220004911534,0.0429393127561,,0.00875955618058,-0.0110493203739,0.0418987721606,-0.999022428881
102172000000,,179,,102,172000000,"""map""",,,0.00958405993879,-0.0018839193508,0.0426329746842,,0.00885223463092,-0.011070473976,0.0418068077371,-0.999025210573
102208000000,,180,,102,208000000,"""map""",,,0.00925543252379,-0.00154692644719,0.0422552525997,,0.00885425372838,-0.0110996316926,0.0416292430643,-0.999032249097
102240000000,,181,,102,240000000,"""map""",,,0.00876560807228,-0.00128758139908,0.0419589839876,,0.00886215231121,-0.0111039003781,0.0415900886421,-0.99903380853
102272000000,,182,,102,272000000,"""map""",,,0.00805263221264,-0.00101217045449,0.0415678694844,,0.0088557422036,-0.0110039634502,0.0414274861005,-0.999041732138
102308000000,,183,,102,308000000,"""map""",,,0.00746059278026,-0.000756779918447,0.0412843599916,,0.00883578410679,-0.0109647592255,0.0412418292328,-0.999049950773
102340000000,,184,,102,340000000,"""map""",,,0.00699000945315,-0.000504661700688,0.0411654748023,,0.00884427719067,-0.0109631110532,0.0411880077073,-0.999052184556
102372000000,,185,,102,372000000,"""map""",,,0.00662363646552,-0.000262024695985,0.0410243794322,,0.00885074327456,-0.0109007002963,0.0411086873384,-0.999056062066
102408000000,,186,,102,408000000,"""map""",,,0.00627957470715,5.38503009011e-05,0.04079817608,,0.00885323915825,-0.0108246384056,0.0410624100987,-0.999058759465
102440000000,,187,,102,440000000,"""map""",,,0.00572512531653,0.000421392847784,0.0402623862028,,0.00889886937793,-0.0108154230631,0.0410265431306,-0.99905989743
102472000000,,188,,102,472000000,"""map""",,,0.00498227542266,0.000856015481986,0.0393731184304,,0.00881952670084,-0.010819910303,0.0409243791698,-0.999064786464
102508000000,,189,,102,508000000,"""map""",,,0.00435548322275,0.00127750320826,0.0385048426688,,0.00883956209431,-0.0107895989811,0.0408726649867,-0.999067020247
102540000000,,190,,102,540000000,"""map""",,,0.00383988115937,0.0016902659554,0.0378598161042,,0.00886206118511,-0.0107973903034,0.0408576607086,-0.999067357422
102572000000,,191,,102,572000000,"""map""",,,0.00344297918491,0.00206267437898,0.0372956506908,,0.00889424433753,-0.0107758084005,0.0407666235159,-0.999071066345
102608000000,,192,,102,608000000,"""map""",,,0.00307863298804,0.00254531600513,0.0365615561604,,0.00892316728305,-0.010818320412,0.040665302492,-0.999074438092
102640000000,,193,,102,640000000,"""map""",,,0.00264960108325,0.00289655430242,0.0362840741873,,0.00893646362594,-0.0108298103673,0.0406023772472,-0.999076756169
102672000000,,194,,102,672000000,"""map""",,,0.00209129112773,0.00320673827082,0.036322593689,,0.00889646289166,-0.0107997340633,0.0405265972136,-0.999080549385
102708000000,,195,,102,708000000,"""map""",,,0.00149899139069,0.00355140329339,0.0363301187754,,0.00886974063725,-0.0107428633121,0.0404625761507,-0.99908396328
102740000000,,196,,102,740000000,"""map""",,,0.00121901277453,0.00374474213459,0.0363103598356,,0.00885144445983,-0.0107410962725,0.0404284372034,-0.999085480567
102772000000,,197,,102,772000000,"""map""",,,0.000876499805599,0.00397516461089,0.0363243743777,,0.00889647984918,-0.0107021155414,0.0403168323486,-0.999090032426
102808000000,,198,,102,808000000,"""map""",,,0.000538230116945,0.00427061133087,0.0363788977265,,0.00891675544677,-0.0106839327983,0.0402499874468,-0.999092729825
102840000000,,199,,102,840000000,"""map""",,,0.000156534821144,0.0045241820626,0.0363134406507,,0.008959444689,-0.010642485571,0.0402145419472,-0.999094204964
102872000000,,200,,102,872000000,"""map""",,,-0.000303074659314,0.00480147590861,0.0361300818622,,0.00892353672652,-0.0105530606598,0.0401046229663,-0.999099936936
102908000000,,201,,102,908000000,"""map""",,,-0.000689968699589,0.0050723538734,0.0360860303044,,0.00891719066237,-0.0104820527689,0.040057418496,-0.999102634334
102940000000,,202,,102,940000000,"""map""",,,-0.00103239738382,0.00535082584247,0.0361019335687,,0.00914466720543,-0.0105025393065,0.0400446901477,-0.999100864166
102972000000,,203,,102,972000000,"""map""",,,-0.00131624611095,0.00554709136486,0.0362518616021,,0.00911920573448,-0.0104769490901,0.03993860653,-0.99910562676
103008000000,,204,,103,8000000,"""map""",,,-0.00158585770987,0.00575600983575,0.036393776536,,0.00908777287005,-0.0104740652003,0.0398839420675,-0.999108113424
103040000000,,205,,103,40000000,"""map""",,,-0.00184774119407,0.00572287198156,0.0362356901169,,0.00905125106177,-0.0104783947188,0.0398415844847,-0.999110094326
103072000000,,206,,103,72000000,"""map""",,,-0.00214200746268,0.00546670146286,0.035830155015,,0.00899169130865,-0.0104357839257,0.039743298034,-0.999114983361
103108000000,,207,,103,108000000,"""map""",,,-0.00232618395239,0.00523304799572,0.0354383811355,,0.00895915517637,-0.0104029779548,0.0396647784552,-0.99911873443
103140000000,,208,,103,140000000,"""map""",,,-0.00246866885573,0.00502077070996,0.035117354244,,0.00894011262106,-0.0104245242963,0.0396849667957,-0.99911793364
103172000000,,209,,103,172000000,"""map""",,,-0.00257126823999,0.00485751219094,0.0348541736603,,0.0088799875898,-0.0104011274447,0.0396490576807,-0.999120125276
103208000000,,210,,103,208000000,"""map""",,,-0.0026520146057,0.00471097975969,0.034553643316,,0.00886859435822,-0.0103951588089,0.0395597063619,-0.999123834199
103240000000,,211,,103,240000000,"""map""",,,-0.00286163878627,0.00455485563725,0.0342304557562,,0.00883498405753,-0.0104294579472,0.0395127547727,-0.999125604367
103272000000,,212,,103,272000000,"""map""",,,-0.00321347918361,0.00436240620911,0.0337829291821,,0.0088360498295,-0.0104472357677,0.0393894752408,-0.999130282667
103308000000,,213,,103,308000000,"""map""",,,-0.00350534170866,0.00419286778197,0.0334096364677,,0.00878290380598,-0.0104914585132,0.0392665328837,-0.999135129554
103340000000,,214,,103,340000000,"""map""",,,-0.00374106410891,0.00404833909124,0.0330256298184,,0.00879292545398,-0.0104836219159,0.0392332368733,-0.99913639396
103372000000,,215,,103,372000000,"""map""",,,-0.00392086990178,0.00394040811807,0.0326889231801,,0.00878453090482,-0.0105259894591,0.0391302299756,-0.999140102882
103408000000,,216,,103,408000000,"""map""",,,-0.00405861577019,0.00388135528192,0.0322359725833,,0.00875837689201,-0.0105018254031,0.039009099933,-0.999145329092
103440000000,,217,,103,440000000,"""map""",,,-0.0041630663909,0.00374778895639,0.0317475050688,,0.00878354934423,-0.0105075518592,0.0389585658616,-0.999146972819
103472000000,,218,,103,472000000,"""map""",,,-0.00424531567842,0.00351913180202,0.031028361991,,0.00876022954234,-0.0105509822933,0.0389477762684,-0.999147141406
103508000000,,219,,103,508000000,"""map""",,,-0.00430169189349,0.00329603115097,0.0301853250712,,0.00874680964004,-0.0103278411545,0.0387832349718,-0.999155992244
103540000000,,220,,103,540000000,"""map""",,,-0.00426765531301,0.00304864579812,0.029522376135,,0.00875949864026,-0.0103865173056,0.0387275589849,-0.999157467384
103572000000,,221,,103,572000000,"""map""",,,-0.00419637467712,0.00279138819315,0.0288928244263,,0.00879213347189,-0.0104880451124,0.0386563308109,-0.999158900377
103608000000,,222,,103,608000000,"""map""",,,-0.00404730113223,0.00248886039481,0.0282881446183,,0.00884288165254,-0.0104571941955,0.0386200002275,-0.999160164782
103640000000,,223,,103,640000000,"""map""",,,-0.00415497180074,0.00220161932521,0.0278248209506,,0.00884767931392,-0.0104673191526,0.0385490670815,-0.99916273574
103672000000,,224,,103,672000000,"""map""",,,-0.00442321412265,0.00185760168824,0.0274889413267,,0.00889366432446,-0.0104892182271,0.0384459337432,-0.999166065341
103708000000,,225,,103,708000000,"""map""",,,-0.00459241960198,0.00152067595627,0.0271371547133,,0.00885174401526,-0.0104937358424,0.0382860707468,-0.999172513809
103740000000,,226,,103,740000000,"""map""",,,-0.00470841024071,0.00119697069749,0.0266606342047,,0.00884597919895,-0.0105020439576,0.0381806614786,-0.99917651776
103772000000,,227,,103,772000000,"""map""",,,-0.00480629270896,0.000835606304463,0.0261066555977,,0.00885898240722,-0.0104807430885,0.0381066516126,-0.999179468039
103808000000,,228,,103,808000000,"""map""",,,-0.00490079214796,0.00035797333112,0.0255469717085,,0.00884655139181,-0.0105587282584,0.037977176494,-0.999183682724
103840000000,,229,,103,840000000,"""map""",,,-0.00526861427352,4.32236774941e-05,0.0250206068158,,0.00888462382545,-0.0105492695837,0.0379618350412,-0.999184019899
103872000000,,230,,103,872000000,"""map""",,,-0.00587525544688,-0.000214714338654,0.0245383158326,,0.00884379867577,-0.0105313064651,0.0378861393012,-0.99918747594
103908000000,,231,,103,908000000,"""map""",,,-0.00642936537042,-0.000467338308226,0.0240134447813,,0.00878436898519,-0.0104782699246,0.0378080833378,-0.999191522038
103940000000,,232,,103,940000000,"""map""",,,-0.00693594664335,-0.000733009539545,0.0234383624047,,0.00875424320813,-0.0104783608038,0.037772975013,-0.999193081471
103972000000,,233,,103,972000000,"""map""",,,-0.00737706292421,-0.00100367935374,0.0228736884892,,0.00877238619164,-0.0105056916356,0.0377406062333,-0.999193840114
104008000000,,234,,104,8000000,"""map""",,,-0.00790186226368,-0.00134202069603,0.0221054982394,,0.00871040488805,-0.0104328148778,0.0376868690015,-0.999197169715
104040000000,,235,,104,40000000,"""map""",,,-0.00830843858421,-0.00155590928625,0.0217742323875,,0.00868502524126,-0.0104373199808,0.0376246602531,-0.999199698526
104072000000,,236,,104,72000000,"""map""",,,-0.00867207720876,-0.00171853043139,0.0217434819788,,0.00868507611382,-0.0104046013493,0.0375404508497,-0.999203238861
104108000000,,237,,104,108000000,"""map""",,,-0.00898121576756,-0.00186930131167,0.0217406749725,,0.00873269974773,-0.010427755445,0.037497545358,-0.999204166092
104140000000,,238,,104,140000000,"""map""",,,-0.00923278275877,-0.00202987994999,0.0217391159385,,0.00873063142407,-0.010364770108,0.0374771041364,-0.999205641232
104172000000,,239,,104,172000000,"""map""",,,-0.00943477172405,-0.0021738873329,0.0217468496412,,0.00876414500103,-0.0103750392041,0.0374405628188,-0.999206610609
104208000000,,240,,104,208000000,"""map""",,,-0.00963762775064,-0.00237001990899,0.0217420849949,,0.00868778610679,-0.0103297780986,0.0374003968721,-0.999209265861
104240000000,,241,,104,240000000,"""map""",,,-0.00983259174973,-0.0024760547094,0.0216556545347,,0.00867800219335,-0.0104066400385,0.0373848025382,-0.999209097273
104272000000,,242,,104,272000000,"""map""",,,-0.0100680934265,-0.00255598756485,0.0214777681977,,0.00865337690929,-0.0103088260935,0.0373274406774,-0.999212426874
104308000000,,243,,104,308000000,"""map""",,,-0.0102814165875,-0.0026905471459,0.0213610604405,,0.0087150565995,-0.0103015000328,0.0372641782578,-0.999214407776
104336000000,,244,,104,336000000,"""map""",,,-0.0104631632566,-0.00286545883864,0.021286284551,,0.00871035055813,-0.0102767691346,0.0372546109231,-0.999215039979
104372000000,,245,,104,372000000,"""map""",,,-0.0106131685898,-0.00304598035291,0.0212919879705,,0.00874261932134,-0.0102947380978,0.0371970383281,-0.999216725853
104408000000,,246,,104,408000000,"""map""",,,-0.0107591431588,-0.00324980658479,0.0212580263615,,0.00893356310781,-0.0102812351777,0.0370406313733,-0.999220982685
104440000000,,247,,104,440000000,"""map""",,,-0.0107425246388,-0.0033439071849,0.0212964955717,,0.00896088303252,-0.010297238262,0.0370335507027,-0.999220814097
104472000000,,248,,104,472000000,"""map""",,,-0.0105802668259,-0.0033702084329,0.0212396681309,,0.00900363442489,-0.0102671638514,0.0370132780686,-0.999221530594
104508000000,,249,,104,508000000,"""map""",,,-0.0103936232626,-0.00345336366445,0.021310986951,,0.00897574778148,-0.0103042371907,0.0368820327823,-0.999226251041
104540000000,,250,,104,536000000,"""map""",,,-0.0102020297199,-0.003565243911,0.021386122331,,0.00899652362593,-0.0103000039843,0.0368494954153,-0.999227262565
104572000000,,251,,104,572000000,"""map""",,,-0.00991954933852,-0.0037401386071,0.0214350093156,,0.0090023734768,-0.0103028271646,0.0367961796519,-0.999229159173
104608000000,,252,,104,608000000,"""map""",,,-0.00966783706099,-0.00387083459646,0.0214941818267,,0.00900243414521,-0.0103756397143,0.0367536956286,-0.999229917817
104640000000,,253,,104,640000000,"""map""",,,-0.00928938481957,-0.00403738813475,0.0214696750045,,0.00899617039912,-0.0103842768548,0.0367172807515,-0.999231266516
104672000000,,254,,104,672000000,"""map""",,,-0.00878748390824,-0.00422529270872,0.0212792605162,,0.00892210949594,-0.0104011260453,0.0366698655469,-0.999233500299
104708000000,,255,,104,708000000,"""map""",,,-0.00828114990145,-0.00439946074039,0.021120576188,,0.00884846051234,-0.0103852735619,0.0366224081955,-0.99923602911
104740000000,,256,,104,740000000,"""map""",,,-0.00777506968006,-0.00456851487979,0.0210025589913,,0.00885717387936,-0.0104161400369,0.0365667743554,-0.999237714984
104772000000,,257,,104,772000000,"""map""",,,-0.00725467130542,-0.00475492794067,0.0209360718727,,0.00879207691939,-0.0104154088879,0.0364377207053,-0.999242941193
104808000000,,258,,104,808000000,"""map""",,,-0.00664908532053,-0.00497905863449,0.0208764392883,,0.00882586124046,-0.0104373479689,0.036427521168,-0.999242856899
104840000000,,259,,104,840000000,"""map""",,,-0.00623160041869,-0.00507528148592,0.0209682825953,,0.00883404233888,-0.0104413328217,0.0364212834344,-0.999242941193
104872000000,,260,,104,872000000,"""map""",,,-0.00587001163512,-0.00509272515774,0.0211833696812,,0.00887330007032,-0.0104186690948,0.0363032722586,-0.999247155878
104908000000,,261,,104,908000000,"""map""",,,-0.00551827345043,-0.00510709360242,0.0212098415941,,0.00889874902892,-0.0103886656424,0.0362277029592,-0.999249979716
104940000000,,262,,104,940000000,"""map""",,,-0.00513654807582,-0.00513480883092,0.0212704353034,,0.00888333439531,-0.0104070476776,0.0361931425434,-0.999251159828
104972000000,,263,,104,972000000,"""map""",,,-0.00477586034685,-0.00513405166566,0.0214139241725,,0.0089242703451,-0.0104080412566,0.0361230944812,-0.999253351464
105008000000,,264,,105,8000000,"""map""",,,-0.00431909086183,-0.00514580635354,0.0214245952666,,0.00893079273455,-0.0104239910399,0.036082802094,-0.999254531576
105040000000,,265,,105,40000000,"""map""",,,-0.00402147369459,-0.00509029021487,0.0209226422012,,0.00890780574459,-0.0104203227824,0.0360976799315,-0.999254236548
105072000000,,266,,105,72000000,"""map""",,,-0.00376419909298,-0.00497821625322,0.0199447050691,,0.00889738164357,-0.0103977419497,0.0361184583278,-0.999253857227
105108000000,,267,,105,108000000,"""map""",,,-0.00351397809573,-0.00489389523864,0.0190508887172,,0.00888814144094,-0.010396930129,0.0361254547047,-0.999253688639
105140000000,,268,,105,140000000,"""map""",,,-0.00324005982839,-0.00479599554092,0.0181939452887,,0.00909099784482,-0.0103883983556,0.0361284892778,-0.999251834178
105172000000,,269,,105,172000000,"""map""",,,-0.00290616881102,-0.00470263836905,0.0173889920115,,0.00910014494572,-0.0103752710117,0.0361252018236,-0.999252002765
105208000000,,270,,105,208000000,"""map""",,,-0.00248129176907,-0.00459245825186,0.0164988301694,,0.0090213918306,-0.0103743929249,0.0360903885267,-0.99925394152
105240000000,,271,,105,240000000,"""map""",,,-0.00237772753462,-0.00428226077929,0.015831546858,,0.00903270352613,-0.0103779419448,0.0360784609686,-0.999254320842
105272000000,,272,,105,272000000,"""map""",,,-0.00248901848681,-0.00376379722729,0.0151789207011,,0.00902357490564,-0.0104185028946,0.0360437741123,-0.999255205926
105308000000,,273,,105,308000000,"""map""",,,-0.00255215889774,-0.00328618730418,0.0145258363336,,0.0089919203175,-0.0104062035881,0.0360072327946,-0.999256933946
105336000000,,274,,105,340000000,"""map""",,,-0.00256539601833,-0.00286128395237,0.0138654224575,,0.00900912495741,-0.0104043601574,0.035953706297,-0.999258704114
105372000000,,275,,105,372000000,"""map""",,,-0.00254855002277,-0.00249584927224,0.0132911559194,,0.00902542940813,-0.0103061959902,0.0359318320826,-0.999260347841
105408000000,,276,,105,408000000,"""map""",,,-0.00249901111238,-0.00207458389923,0.0126037169248,,0.00903117780198,-0.0102903060109,0.0358667152017,-0.999262834505
105440000000,,277,,105,440000000,"""map""",,,-0.00248221424408,-0.00176303286571,0.0121645787731,,0.00901534416943,-0.0102638321101,0.0358530596228,-0.999263761736
105472000000,,278,,105,472000000,"""map""",,,-0.00251258537173,-0.00145981635433,0.0117736682296,,0.0089991078369,-0.0102359235701,0.0358255377307,-0.999265152582
105508000000,,279,,105,508000000,"""map""",,,-0.0025256103836,-0.00121153437067,0.0114187374711,,0.00899521913158,-0.0102481942299,0.0357646355346,-0.999267217778
105540000000,,280,,105,540000000,"""map""",,,-0.00248989113607,-0.000969104468822,0.0110461981967,,0.0090302548107,-0.010238255682,0.035716672421,-0.999268735064
105572000000,,281,,105,572000000,"""map""",,,-0.00241598160937,-0.000755936140195,0.0106570115313,,0.00902901518298,-0.010156716265,0.0356289648292,-0.999272739015
105608000000,,282,,105,608000000,"""map""",,,-0.0022402619943,-0.000526447605807,0.0100645720959,,0.00899101757646,-0.0101909759729,0.035605109713,-0.999273581952
105640000000,,283,,105,640000000,"""map""",,,-0.00231045321561,-0.000293786957627,0.00920001696795,,0.00900173633498,-0.0101039635161,0.0356137076701,-0.999274087714
105672000000,,284,,105,672000000,"""map""",,,-0.00253722560592,8.05172021501e-06,0.00813209451735,,0.0090011925007,-0.0100780944472,0.0355606447878,-0.999276237203
105708000000,,285,,105,708000000,"""map""",,,-0.00267256330699,0.000333013362251,0.00723543157801,,0.00896906433674,-0.0100535469537,0.0354908917535,-0.999279229629
105740000000,,286,,105,740000000,"""map""",,,-0.00274170702323,0.000639424019028,0.00634647207335,,0.00897824629934,-0.0100706000872,0.0354806500693,-0.999279271776
105772000000,,287,,105,772000000,"""map""",,,-0.00280759274028,0.000885305344127,0.0055157081224,,0.00895681717873,-0.0100469847635,0.035459028736,-0.999280494035
105808000000,,288,,105,808000000,"""map""",,,-0.00285859499127,0.00116267707199,0.00445886701345,,0.009097735496,-0.0100440170327,0.035384470961,-0.999281969174
105840000000,,289,,105,840000000,"""map""",,,-0.00288146454841,0.00132680416573,0.00376781541854,,0.00912804644755,-0.0100502921798,0.0353857775133,-0.999281505559
105872000000,,290,,105,872000000,"""map""",,,-0.00288627389818,0.00148366368376,0.00314810173586,,0.00912331888,-0.0100150605837,0.0352956675512,-0.999285130188
105908000000,,291,,105,908000000,"""map""",,,-0.00285798008554,0.00164030748419,0.0026943013072,,0.00915365316872,-0.0100623357653,0.0352602641985,-0.999285551657
105940000000,,292,,105,940000000,"""map""",,,-0.0027895802632,0.00174747116398,0.00231505488046,,0.00906774118088,-0.0100416241289,0.035210025155,-0.999288417642
105972000000,,293,,105,972000000,"""map""",,,-0.00269967759959,0.0018478713464,0.00193509634119,,0.00908414408401,-0.0101426713217,0.0351181028784,-0.999290398544
106008000000,,294,,106,8000000,"""map""",,,-0.00256417016499,0.00194566638675,0.0014946059091,,0.00900817583014,-0.0101329418616,0.0350468325576,-0.999293728145
106040000000,,295,,106,40000000,"""map""",,,-0.00249901087955,0.00186051568016,0.00157062709332,,0.00900672995451,-0.010148632055,0.0350376445446,-0.999293896733
106072000000,,296,,106,72000000,"""map""",,,-0.00250147865154,0.00168375170324,0.00193920033053,,0.00903466380734,-0.0101929326321,0.0349568911829,-0.999296004075
106108000000,,297,,106,108000000,"""map""",,,-0.00246629561298,0.00153584533837,0.00223394646309,,0.00900833169939,-0.0101170928768,0.0349307601368,-0.99929794283
106140000000,,298,,106,140000000,"""map""",,,-0.0023863601964,0.0014071110636,0.00244852574542,,0.00902415380742,-0.0101009177889,0.0349043340628,-0.999298912208
106172000000,,299,,106,172000000,"""map""",,,-0.0022811726667,0.00128724053502,0.00256537692621,,0.00900200897241,-0.010110014223,0.03491373281,-0.999298701473
106208000000,,300,,106,208000000,"""map""",,,-0.00212735752575,0.0011671113316,0.00278727267869,,0.00892801935667,-0.010038029546,0.0348526198797,-0.999302241809
106240000000,,301,,106,240000000,"""map""",,,-0.00196552905254,0.00138178607449,0.0031021235045,,0.0089269355982,-0.0100415591388,0.0348375313079,-0.999302663277
106272000000,,302,,106,272000000,"""map""",,,-0.0017525521107,0.0018590601394,0.00353145739064,,0.00887967465768,-0.00997524485927,0.0347843419851,-0.999305613557
106308000000,,303,,106,308000000,"""map""",,,-0.00151726626791,0.00232551223598,0.00388104119338,,0.00887357517729,-0.009912295948,0.0347306890469,-0.999308184514
106340000000,,304,,106,340000000,"""map""",,,-0.00122583075427,0.00277255638503,0.00425560539588,,0.00885437432434,-0.00990560546508,0.0347138724544,-0.999308985304
106372000000,,305,,106,372000000,"""map""",,,-0.000906616915017,0.00317678041756,0.00459396094084,,0.0088836825184,-0.00992752281412,0.0347068339307,-0.99930877457
106408000000,,306,,106,408000000,"""map""",,,-0.000488324207254,0.00362513563596,0.00498170079663,,0.00888734571338,-0.00992308121952,0.0346530966988,-0.999310671178
106440000000,,307,,106,440000000,"""map""",,,-0.000289027899271,0.00387206068262,0.00513157714158,,0.00865951186877,-0.0097456862866,0.0346511579438,-0.999314464395
106472000000,,308,,106,472000000,"""map""",,,-0.000138267496368,0.00406703166664,0.00520798563957,,0.0086406009812,-0.00974458664074,0.0346640127326,-0.999314169367
106508000000,,309,,106,508000000,"""map""",,,4.57726491732e-05,0.00423786789179,0.00523960171267,,0.00867704191198,-0.00971562019013,0.0346614839217,-0.99931425366
106540000000,,310,,106,540000000,"""map""",,,0.000305916852085,0.00449027633294,0.00535926083103,,0.00869321868739,-0.00969957512362,0.0346512000906,-0.999314590835
106572000000,,311,,106,572000000,"""map""",,,0.000363018392818,0.00474917562678,0.00576217425987,,0.00833859625647,-0.00961874948662,0.034222650935,-0.999333219742
106608000000,,312,,106,608000000,"""map""",,,0.000138724120916,0.00536527391523,0.00741760572419,,0.00652896311678,-0.00876097707268,0.0330581335106,-0.999393742617
106640000000,,313,,106,640000000,"""map""",,,-0.000461638177512,0.00602615950629,0.00997835677117,,0.00494549852729,-0.00764863176683,0.0322224879452,-0.999439219066
106672000000,,314,,106,672000000,"""map""",,,-0.00146915460937,0.0067554791458,0.0137431006879,,0.000559128324152,-0.00397767797539,0.0302062248593,-0.999535608909
106708000000,,315,,106,708000000,"""map""",,,-0.00274774059653,0.00746501376852,0.018357295543,,-0.00520138702648,0.00154553711797,0.027838119882,-0.99959777551
106740000000,,316,,106,740000000,"""map""",,,-0.00423491979018,0.00810744054615,0.0237424895167,,-0.00842541184969,0.00494819543168,0.0264932982397,-0.999601231552
106772000000,,317,,106,772000000,"""map""",,,-0.00587836885825,0.00864420086145,0.0296808537096,,-0.0157987927563,0.012968098787,0.0237428791996,-0.999509182835
106808000000,,318,,106,808000000,"""map""",,,-0.00807163398713,0.00920625589788,0.0370648503304,,-0.0233494149081,0.0214789056671,0.0208890317932,-0.999278302399
106840000000,,319,,106,840000000,"""map""",,,-0.00991895981133,0.00947570893914,0.0401424393058,,-0.0256318263285,0.0249452032114,0.0194905150659,-0.999170069292
106872000000,,320,,106,872000000,"""map""",,,-0.0121142826974,0.00927504617721,0.0395282655954,,-0.0247993754037,0.0271163434121,0.016490207361,-0.999188571758
106908000000,,321,,106,908000000,"""map""",,,-0.0146003700793,0.00868463143706,0.0361715853214,,-0.0193164097274,0.0232824215869,0.0143383578634,-0.999439514094
106940000000,,322,,106,940000000,"""map""",,,-0.0171541329473,0.00764978397638,0.0311514828354,,-0.0166043881127,0.0209272487774,0.0136356434582,-0.999550149572
106972000000,,323,,106,972000000,"""map""",,,-0.0203546565026,0.00589701393619,0.0248489826918,,-0.0100923562575,0.0146852991958,0.0123237806514,-0.99976535138
107008000000,,324,,107,8000000,"""map""",,,-0.0219327025115,0.00536544015631,0.0231083445251,,-0.00715633171617,0.0109184180247,0.0108151763558,-0.999856304279
107040000000,,325,,107,40000000,"""map""",,,-0.0227776505053,0.00539281638339,0.0290386602283,,-0.00981902439602,0.0125233123934,0.00961664642473,-0.999827180807
107072000000,,326,,107,72000000,"""map""",,,-0.0247799828649,0.00419952953234,0.0430067107081,,-0.0264029730995,0.0263862918352,0.0063922017794,-0.999282685671
107108000000,,327,,107,108000000,"""map""",,,-0.0275852903724,0.00202947668731,0.0616366043687,,-0.0523748752294,0.0523149145821,0.0031882826493,-0.997251207573
107140000000,,328,,107,140000000,"""map""",,,-0.0315852835774,-0.000980444718152,0.0816727131605,,-0.0599473992518,0.0605492394557,0.00218278528438,-0.996361108279
107172000000,,329,,107,172000000,"""map""",,,-0.0368605367839,-0.00489025237039,0.100907512009,,-0.0729533697811,0.0756513393731,3.92387159637e-05,-0.994462013432
107208000000,,330,,107,204000000,"""map""",,,-0.0452076047659,-0.0116115631536,0.122609525919,,-0.0810900128274,0.0838564624872,-0.00185159534878,-0.993171266196
107240000000,,331,,107,240000000,"""map""",,,-0.0535058043897,-0.0187493581325,0.139348417521,,-0.0839071611124,0.0859558705216,-0.00261609703392,-0.992755993298
107272000000,,332,,107,272000000,"""map""",,,-0.063444249332,-0.0276503637433,0.157223582268,,-0.0874521277456,0.0878912796737,-0.00387165165106,-0.992276362162
107308000000,,333,,107,308000000,"""map""",,,-0.0750846937299,-0.0384155921638,0.177118599415,,-0.0893095025839,0.0880740862578,-0.00517807751435,-0.992088682245
107340000000,,334,,107,340000000,"""map""",,,-0.0876279696822,-0.0502493828535,0.198759794235,,-0.0897216268987,0.0879938683751,-0.00560118972655,-0.992056355613
107372000000,,335,,107,372000000,"""map""",,,-0.101023390889,-0.0631330162287,0.221872001886,,-0.090567896845,0.0879148607325,-0.00651594492663,-0.99198082846
107408000000,,336,,107,408000000,"""map""",,,-0.119812004268,-0.0815362632275,0.252724170685,,-0.0913560471927,0.0880081695746,-0.00721259018567,-0.991895481092
107440000000,,337,,107,440000000,"""map""",,,-0.136341974139,-0.0979682728648,0.27852076292,,-0.091673202557,0.0879546638211,-0.00749830367172,-0.99186888643
107472000000,,338,,107,472000000,"""map""",,,-0.154146954417,-0.115874662995,0.305348157883,,-0.0921751018817,0.087863127287,-0.00793005598787,-0.991827076757
107508000000,,339,,107,508000000,"""map""",,,-0.173174202442,-0.13520167768,0.333284556866,,-0.0920318187311,0.087744910316,-0.00815684817971,-0.991849035265
107540000000,,340,,107,540000000,"""map""",,,-0.192735239863,-0.154768168926,0.361758410931,,-0.0919133821355,0.0876341523494,-0.00824438718406,-0.991869055018
107572000000,,341,,107,572000000,"""map""",,,-0.212811201811,-0.174652844667,0.391010522842,,-0.0916783449664,0.0868117672362,-0.00843337365279,-0.991961525203
107608000000,,342,,107,608000000,"""map""",,,-0.239462301135,-0.201515704393,0.42954364419,,-0.0915542631627,0.0864422883704,-0.00845786097177,-0.992005062898
107640000000,,343,,107,640000000,"""map""",,,-0.261970669031,-0.224531531334,0.462088912725,,-0.0913830786337,0.0867798265104,-0.00846038978268,-0.991991407319
107672000000,,344,,107,672000000,"""map""",,,-0.279466569424,-0.242618322372,0.487418532372,,-0.090849723766,0.0873164477589,-0.0084543206365,-0.991993346074
107708000000,,345,,107,708000000,"""map""",,,-0.309730052948,-0.274200439453,0.531346559525,,-0.0899306811119,0.0864967221777,-0.00848289619979,-0.992148615064
107740000000,,346,,107,740000000,"""map""",,,-0.334886342287,-0.30029079318,0.567388057709,,-0.0894436948569,0.0861422044554,-0.00850321098077,-0.99222329928
107772000000,,347,,107,772000000,"""map""",,,-0.360822945833,-0.327069610357,0.604435741901,,-0.0884416063653,0.0862601258222,-0.00859462749519,-0.992302071739
107808000000,,348,,107,808000000,"""map""",,,-0.387470155954,-0.354844003916,0.643090963364,,-0.0876738225766,0.0859102067985,-0.00866025013832,-0.992399978869
107840000000,,349,,107,840000000,"""map""",,,-0.414792984724,-0.383506119251,0.683323740959,,-0.087223699009,0.0855856186069,-0.00868827779258,-0.992467455973
107872000000,,350,,107,872000000,"""map""",,,-0.442774713039,-0.412985384464,0.725137829781,,-0.0861798059062,0.0853420413915,-0.00868440028252,-0.992579650884
107908000000,,351,,107,908000000,"""map""",,,-0.478536695242,-0.450939774513,0.779555916786,,-0.0851996660612,0.0851599397419,-0.00870968839162,-0.992679707502
107940000000,,352,,107,940000000,"""map""",,,-0.508166372776,-0.482242584229,0.824298918247,,-0.0848376056569,0.0849848912455,-0.00871268081787,-0.992725689714
107972000000,,353,,107,972000000,"""map""",,,-0.538672626019,-0.514346539974,0.870225965977,,-0.0839671270229,0.0846798310544,-0.00866408550154,-0.992826209948
108008000000,,354,,108,8000000,"""map""",,,-0.569605588913,-0.547029316425,0.917792737484,,-0.0829341371534,0.0846991470703,-0.00863003084794,-0.992911683756
108040000000,,355,,108,40000000,"""map""",,,-0.600921213627,-0.580241560936,0.966963350773,,-0.0825369016245,0.0846285209706,-0.00864098902855,-0.992950627444
108072000000,,356,,108,72000000,"""map""",,,-0.632605910301,-0.613907516003,1.01762390137,,-0.0816378528755,0.0845070680766,-0.00865127285959,-0.993035258316
108108000000,,357,,108,108000000,"""map""",,,-0.672636091709,-0.656580150127,1.08303487301,,-0.0807272912869,0.0844140394452,-0.00861966272321,-0.993117866139
108140000000,,358,,108,140000000,"""map""",,,-0.705729484558,-0.691486120224,1.13656318188,,-0.0803698710296,0.0843984390197,-0.00857591429445,-0.993148549045
108172000000,,359,,108,172000000,"""map""",,,-0.739806950092,-0.727050065994,1.19110798836,,-0.0794694403251,0.0843259940201,-0.00845967328626,-0.993228206589
108208000000,,360,,108,208000000,"""map""",,,-0.77403908968,-0.762873053551,1.24728608131,,-0.0786308899198,0.0843381079463,-0.00841217378799,-0.993294334994
108240000000,,361,,108,240000000,"""map""",,,-0.808406949043,-0.798895418644,1.30506801605,,-0.0782958507916,0.0843942403045,-0.0083805636516,-0.993316251355
108272000000,,362,,108,272000000,"""map""",,,-0.842908978462,-0.835114181042,1.364407897,,-0.0774803184925,0.0843434862793,-0.00832661568551,-0.993384950718
108308000000,,363,,108,308000000,"""map""",,,-0.886230409145,-0.880614161491,1.44065880775,,-0.0765814342151,0.0842732564588,-0.00824851757522,-0.993461278661
108340000000,,364,,108,340000000,"""map""",,,-0.922167360783,-0.918096899986,1.5033608675,,-0.0761189357729,0.0841759815324,-0.00825905428735,-0.993504942796
108372000000,,365,,108,372000000,"""map""",,,-0.959208130836,-0.956506490707,1.5671492815,,-0.0742398284102,0.0830122128732,-0.00810011852161,-0.993746317797
108408000000,,366,,108,408000000,"""map""",,,-0.996177554131,-0.994878292084,1.63231265545,,-0.0708583475708,0.0799036480244,-0.00794472309115,-0.994249256141
108440000000,,367,,108,440000000,"""map""",,,-1.03300237656,-1.0331786871,1.69888544083,,-0.0693175154241,0.0784267868912,-0.00789840370464,-0.994475711158
108472000000,,368,,108,472000000,"""map""",,,-1.06958150864,-1.07132458687,1.7670340538,,-0.0649977706627,0.0739938850856,-0.00768063093838,-0.995108630382
108508000000,,369,,108,508000000,"""map""",,,-1.11483383179,-1.11865210533,1.85403931141,,-0.0602753213249,0.0691535938179,-0.00750572151706,-0.995755163038
108540000000,,370,,108,540000000,"""map""",,,-1.15185832977,-1.15680778027,1.92405438423,,-0.058324690431,0.06668620239,-0.0112303649605,-0.996004630234
108572000000,,371,,108,572000000,"""map""",,,-1.18953537941,-1.1951032877,1.99300694466,,-0.0548016129735,0.0634526869526,-0.0109519850261,-0.996418891608
108608000000,,372,,108,608000000,"""map""",,,-1.22648572922,-1.23277270794,2.05982470512,,-0.0524769808241,0.0621708659585,-0.010499074992,-0.996629710145
108640000000,,373,,108,640000000,"""map""",,,-1.26269328594,-1.26985061169,2.12367248535,,-0.0519172729808,0.0620821234641,-0.0102657078918,-0.996667010105
108672000000,,374,,108,672000000,"""map""",,,-1.29820299149,-1.30632245541,2.18465733528,,-0.0506291612402,0.0621157553321,-0.00944342287735,-0.996739249804
108708000000,,375,,108,708000000,"""map""",,,-1.3417031765,-1.35109889507,2.2574057579,,-0.0485033545438,0.0611466557221,-0.00842418563981,-0.996914032785
108740000000,,376,,108,740000000,"""map""",,,-1.37730646133,-1.38723778725,2.31418323517,,-0.0474888733147,0.0603877977634,-0.00802109318065,-0.997012403529
108772000000,,377,,108,772000000,"""map""",,,-1.41366147995,-1.42362141609,2.37004947662,,-0.0444916153294,0.0577141024512,-0.00700649209645,-0.997316661628
108808000000,,378,,108,808000000,"""map""",,,-1.44920504093,-1.45931005478,2.42415857315,,-0.0409790706327,0.0542713950825,-0.00595252585574,-0.997667281261
108840000000,,379,,108,840000000,"""map""",,,-1.48395133018,-1.49427771568,2.47646474838,,-0.0391402839746,0.0522864089095,-0.00540613411164,-0.997850198584
108872000000,,380,,108,872000000,"""map""",,,-1.51786577702,-1.52852463722,2.52706217766,,-0.0355163326449,0.0481275442665,-0.00443962258159,-0.998199680252
108908000000,,381,,108,908000000,"""map""",,,-1.55904591084,-1.57033073902,2.58798742294,,-0.031857642434,0.0436289595609,-0.003489674763,-0.998533694026
108940000000,,382,,108,940000000,"""map""",,,-1.59279978275,-1.60395014286,2.63593935966,,-0.0306059528145,0.0421310203936,-0.00318288785269,-0.998638176063
108972000000,,383,,108,972000000,"""map""",,,-1.62725365162,-1.63770365715,2.68331193924,,-0.0274366000271,0.0386092554153,-0.00244932195436,-0.99887466203
109008000000,,384,,109,8000000,"""map""",,,-1.66060733795,-1.67055881023,2.72907710075,,-0.024954563228,0.0359844481425,-0.0019445712966,-0.999038866152
109040000000,,385,,109,40000000,"""map""",,,-1.69288182259,-1.70253098011,2.77312278748,,-0.0240154484665,0.0349990113603,-0.00174188710211,-0.999097239537
109072000000,,386,,109,72000000,"""map""",,,-1.72410368919,-1.73364925385,2.81548476219,,-0.0218828360419,0.0327244911553,-0.00142136031918,-0.999223806524
109108000000,,387,,109,108000000,"""map""",,,-1.76170516014,-1.77137541771,2.86602926254,,-0.0198442822122,0.0305584859142,-0.00117711933206,-0.999335284938
109140000000,,388,,109,140000000,"""map""",,,-1.79227864742,-1.80150866508,2.90548563004,,-0.0191646715239,0.02983607115,-0.00114222174149,-0.99937043541
109172000000,,389,,109,172000000,"""map""",,,-1.82331109047,-1.83160173893,2.94440245628,,-0.0175441446257,0.0282392077317,-0.00109033897098,-0.999446679058
109208000000,,390,,109,208000000,"""map""",,,-1.85319471359,-1.86079764366,2.98188257217,,-0.0158777342975,0.0268508539925,-0.00109307851613,-0.999512807464
109240000000,,391,,109,240000000,"""map""",,,-1.88198065758,-1.88910210133,3.01789784431,,-0.0152664189553,0.0263839054359,-0.00111141239523,-0.999534681678
109272000000,,392,,109,272000000,"""map""",,,-1.90971422195,-1.91654086113,3.05251908302,,-0.013900105713,0.0250921749933,-0.00116249437563,-0.999587871001
109308000000,,393,,109,308000000,"""map""",,,-1.94297516346,-1.9496563673,3.09382295609,,-0.0124788323217,0.0236249668054,-0.00127456284582,-0.999642282582
109340000000,,394,,109,340000000,"""map""",,,-1.97009503841,-1.97577989101,3.12642669678,,-0.011984403032,0.0231139856581,-0.00134393655847,-0.999660152846
109372000000,,395,,109,372000000,"""map""",,,-1.99768936634,-2.00162172318,3.15857863426,,-0.0108664167162,0.0218458702923,-0.00148917459844,-0.999701203877
109408000000,,396,,109,408000000,"""map""",,,-2.02417993546,-2.02666640282,3.18936181068,,-0.00981305073879,0.0206785504317,-0.00159639618105,-0.999736775817
109440000000,,397,,109,440000000,"""map""",,,-2.04964542389,-2.050958395,3.21873855591,,-0.00934205838959,0.0200980763752,-0.00163095659683,-0.9997530445
109472000000,,398,,109,472000000,"""map""",,,-2.07414674759,-2.07451200485,3.24684214592,,-0.00819988373403,0.0189406531215,-0.00177855486031,-0.99978541328
109508000000,,399,,109,508000000,"""map""",,,-2.10346603394,-2.10293006897,3.28022956848,,-0.00702375649927,0.0176969401225,-0.00185618935527,-0.999817023416
109540000000,,400,,109,540000000,"""map""",,,-2.12742066383,-2.12532973289,3.30631089211,,-0.00644536904098,0.0169902622671,-0.00186318573212,-0.999833207806
109572000000,,401,,109,572000000,"""map""",,,-2.15182733536,-2.1474339962,3.33190202713,,-0.00548149860368,0.0157336576008,-0.00195047185539,-0.999859296705
109608000000,,402,,109,608000000,"""map""",,,-2.17520809174,-2.1687977314,3.35603165627,,-0.00456801735795,0.014038712539,-0.00205377378109,-0.99988892594
109640000000,,403,,109,640000000,"""map""",,,-2.197732687,-2.18958854675,3.37535047531,,-0.00404072175823,0.0100324560369,-0.00201428218403,-0.999939544305
109672000000,,404,,109,672000000,"""map""",,,-2.21954464912,-2.20995235443,3.38877606392,,-0.00244353400668,-0.0107195642544,-0.00164524437847,-0.9999382799
109708000000,,405,,109,708000000,"""map""",,,-2.24540758133,-2.2347509861,3.39888072014,,0.016952348872,-0.0530297008516,-0.00296444073686,-0.998444679882
109740000000,,406,,109,740000000,"""map""",,,-2.26607656479,-2.2540678978,3.40379214287,,0.0311965216999,-0.0687113920467,-0.00423310302389,-0.997139771305
109772000000,,407,,109,772000000,"""map""",,,-2.28603601456,-2.27225899696,3.40748858452,,0.0668134325304,-0.0970720169464,-0.00803116627745,-0.992999812817
109808000000,,408,,109,808000000,"""map""",,,-2.30294108391,-2.28841757774,3.41047716141,,0.0858443513599,-0.104555322267,-0.0115318413679,-0.990740109534
109840000000,,409,,109,840000000,"""map""",,,-2.31623148918,-2.30186462402,3.4151494503,,0.0831231275734,-0.0969409797602,-0.0131740511733,-0.991725502852
109872000000,,410,,109,872000000,"""map""",,,-2.32535600662,-2.31188225746,3.42763018608,,0.0591440548006,-0.0651126939233,-0.0157077089715,-0.995999825494
109908000000,,411,,109,908000000,"""map""",,,-2.33271551132,-2.32080101967,3.45626282692,,0.0334600908037,-0.0294781457891,-0.0172792806588,-0.998855864536
109940000000,,412,,109,940000000,"""map""",,,-2.33912491798,-2.32691025734,3.48540520668,,0.0209894196595,-0.0113889905518,-0.0175859411286,-0.999560138375
109976000000,,413,,109,972000000,"""map""",,,-2.34691047668,-2.33289575577,3.51472568512,,-0.00603020447318,0.0273828134044,-0.0178897777595,-0.999446805499
110008000000,,414,,110,8000000,"""map""",,,-2.35462093353,-2.33893537521,3.5402097702,,-0.0352705638346,0.0663486594756,-0.0178770494112,-0.997012740704
110040000000,,415,,110,40000000,"""map""",,,-2.3627345562,-2.34536719322,3.56121373177,,-0.0440170042781,0.0775949243347,-0.0177512832153,-0.9958546296
110072000000,,416,,110,72000000,"""map""",,,-2.3716776371,-2.35245633125,3.57881951332,,-0.0579601932899,0.095831549584,-0.0172292102028,-0.993559354377
110108000000,,417,,110,108000000,"""map""",,,-2.3843729496,-2.36256289482,3.5977935791,,-0.0588205922262,0.0965306894096,-0.0163926374067,-0.993455293808
110140000000,,418,,110,140000000,"""map""",,,-2.39714765549,-2.37191843987,3.61196875572,,-0.0564090944342,0.0921117951749,-0.0160402054594,-0.994020230166
110172000000,,419,,110,172000000,"""map""",,,-2.41212773323,-2.38224840164,3.62595272064,,-0.0466976096978,0.0763675106414,-0.0150469728274,-0.995871909808
