rosbagTimestamp,header,seq,stamp,secs,nsecs,frame_id,pose,position,x,y,z,orientation,x,y,z,w
113884000000,,231,,113,804000000,"""map""",,,-0.00643507158384,0.0126112429425,-0.0092511922121,,0.0115852368152,-0.00346123946969,0.0199203707739,-0.999728472888
113884000000,,232,,113,804000000,"""map""",,,-0.00676515512168,0.012390631251,-0.00925765000284,,0.0115159134812,-0.00343376202937,0.0198930596161,-0.99972990588
113884000000,,233,,113,872000000,"""map""",,,-0.00710708787665,0.0121950181201,-0.00925298966467,,0.0115518752797,-0.00347040081162,0.0198639361437,-0.999729948027
113912000000,,234,,113,912000000,"""map""",,,-0.00746413413435,0.012073084712,-0.00932745076716,,0.0115821735954,-0.00353940837352,0.0198926381476,-0.999728810062
113944000000,,235,,113,944000000,"""map""",,,-0.00781083898619,0.0120511418208,-0.00949188601226,,0.0115345104488,-0.00355690886455,0.0198781396317,-0.999729568706
113976000000,,236,,113,976000000,"""map""",,,-0.00815712101758,0.0120634585619,-0.00967187993228,,0.0115738907518,-0.00355598756078,0.0198616180671,-0.999729400118
114012000000,,237,,114,12000000,"""map""",,,-0.00856626406312,0.0121490787715,-0.00993198156357,,0.011551783742,-0.00347895332914,0.0198145821841,-0.999730917405
114044000000,,238,,114,44000000,"""map""",,,-0.00874399673194,0.0120545355603,-0.00992078334093,,0.0115361475905,-0.00353929016478,0.0197890411939,-0.999731338873
114076000000,,239,,114,76000000,"""map""",,,-0.00888386275619,0.0119423056021,-0.00982394814491,,0.01151674654,-0.00347063854618,0.0197648910497,-0.999732308251
114112000000,,240,,114,112000000,"""map""",,,-0.00903216656297,0.0119110206142,-0.00991809833795,,0.0115247383069,-0.00346583545182,0.0197120810485,-0.999733277628
114144000000,,241,,114,144000000,"""map""",,,-0.00920700002462,0.0119425151497,-0.0101269884035,,0.0115436740956,-0.00343913542328,0.0196688805288,-0.999733994125
114176000000,,242,,114,176000000,"""map""",,,-0.00942166522145,0.0120340129361,-0.0104597629979,,0.0115573556871,-0.00344401425027,0.0196709878712,-0.999733825537
114212000000,,243,,114,212000000,"""map""",,,-0.00972904916853,0.0121995527297,-0.0107280556113,,0.0115496500578,-0.00343769551572,0.0196472170487,-0.999734415593
114244000000,,244,,114,244000000,"""map""",,,-0.00958968512714,0.01237011794,-0.0105965072289,,0.0116019756995,-0.00354604419725,0.0196758347588,-0.99973285616
114276000000,,245,,114,276000000,"""map""",,,-0.00933473650366,0.0125911245123,-0.0103936912492,,0.0115899427742,-0.00346278309802,0.0196606197465,-0.999733572656
114312000000,,246,,114,312000000,"""map""",,,-0.00909295491874,0.0128445317969,-0.0102874450386,,0.0115744054044,-0.00347842320081,0.0196030050046,-0.999734794915
114344000000,,247,,114,344000000,"""map""",,,-0.00888141803443,0.0131247695535,-0.0101641407236,,0.0115146069289,-0.00345277947767,0.0196104649968,-0.999735427118
114376000000,,248,,114,376000000,"""map""",,,-0.00868900958449,0.0134644322097,-0.0101300580427,,0.0115332904951,-0.00347836327326,0.0196054916687,-0.99973525853
114412000000,,249,,114,412000000,"""map""",,,-0.00850328989327,0.0139251584187,-0.0104630757123,,0.0117476457446,-0.00339138501956,0.0195501528566,-0.999734120565
114444000000,,250,,114,444000000,"""map""",,,-0.00834873318672,0.0143294231966,-0.0106899579987,,0.0117479180528,-0.00352385552788,0.0195497735349,-0.99973365695
114476000000,,251,,114,476000000,"""map""",,,-0.00821385998279,0.0147637613118,-0.0109049919993,,0.0117650744543,-0.00354747883647,0.0195893072788,-0.999732645426
114512000000,,252,,114,512000000,"""map""",,,-0.00812179967761,0.01520660799,-0.0111298086122,,0.0117210296805,-0.00354779362074,0.0195284050827,-0.999734373446
114544000000,,253,,114,544000000,"""map""",,,-0.00806132145226,0.0156836360693,-0.0114273848012,,0.0116966500336,-0.00358843404869,0.019544463032,-0.999734162712
114576000000,,254,,114,576000000,"""map""",,,-0.00804209336638,0.0161619726568,-0.0117616541684,,0.011705948682,-0.00358741462179,0.0195285736701,-0.999734373446
114612000000,,255,,114,612000000,"""map""",,,-0.00804283842444,0.0167736671865,-0.0122176697478,,0.0117213885873,-0.00357060889522,0.0195431143329,-0.999733994125
114644000000,,256,,114,644000000,"""map""",,,-0.00801665056497,0.0170566514134,-0.0123316533864,,0.0116561021311,-0.00351074818726,0.0195001666942,-0.999735722146
114676000000,,257,,114,676000000,"""map""",,,-0.0079878885299,0.0173112433404,-0.0123178390786,,0.0116534765142,-0.00354639322584,0.0194671657118,-0.999736270055
114712000000,,258,,114,712000000,"""map""",,,-0.00795785337687,0.0176045745611,-0.012293478474,,0.011622136381,-0.00353219632334,0.0194535522798,-0.999736986551
114744000000,,259,,114,744000000,"""map""",,,-0.00795208569616,0.0179257895797,-0.0123699055985,,0.0116645008785,-0.00349269781157,0.0193601127166,-0.999738461691
114776000000,,260,,114,776000000,"""map""",,,-0.00799449067563,0.0182804297656,-0.0124039053917,,0.0116739621875,-0.00346032705628,0.019355012948,-0.999738588131
114812000000,,261,,114,812000000,"""map""",,,-0.00806835852563,0.0188020002097,-0.012431755662,,0.0116575591608,-0.00345675379378,0.0193498288856,-0.999738883159
114844000000,,262,,114,844000000,"""map""",,,-0.00798566732556,0.0189310610294,-0.0122859012336,,0.0116098054644,-0.00348543077292,0.0193173758122,-0.999739894684
114876000000,,263,,114,876000000,"""map""",,,-0.00783724430948,0.0189661514014,-0.0121383564547,,0.0116170287098,-0.00349991315447,0.0193265216784,-0.999739599656
114912000000,,264,,114,912000000,"""map""",,,-0.00771365081891,0.0190377961844,-0.0119774295017,,0.0116241288074,-0.00352755391383,0.0192864400254,-0.999740231858
114944000000,,265,,114,944000000,"""map""",,,-0.00762305827811,0.0191496238112,-0.0118358070031,,0.0116456039439,-0.00350616833948,0.0192944900735,-0.99973993683
114976000000,,266,,114,976000000,"""map""",,,-0.00754256360233,0.0192841365933,-0.0117386979982,,0.0116287261067,-0.00353093817406,0.0192335457306,-0.999741201236
115012000000,,267,,115,12000000,"""map""",,,-0.00742340274155,0.0195345953107,-0.0117826769128,,0.0116474402952,-0.00346921971204,0.0191785440932,-0.999742254907
115044000000,,268,,115,44000000,"""map""",,,-0.00741573190317,0.0194432344288,-0.0114154070616,,0.0115728420197,-0.0034997205302,0.0191030169407,-0.999744446543
115076000000,,269,,115,76000000,"""map""",,,-0.00742416270077,0.0193371977657,-0.0110496422276,,0.011563657958,-0.00345895399098,0.0191157874358,-0.99974448869
115112000000,,270,,115,112000000,"""map""",,,-0.00744483759627,0.019281739369,-0.0107467342168,,0.0115564366882,-0.0034518795766,0.019052862191,-0.999745795242
115144000000,,271,,115,144000000,"""map""",,,-0.00748270144686,0.0192631501704,-0.0105105796829,,0.0116096036205,-0.00345497210161,0.0190218421105,-0.999745710949
115176000000,,272,,115,176000000,"""map""",,,-0.00754172168672,0.0193047188222,-0.0102472910658,,0.0116261097093,-0.00342126614733,0.0190095352307,-0.999745879536
115212000000,,273,,115,212000000,"""map""",,,-0.00763440039009,0.0194626897573,-0.010145499371,,0.0117885653955,-0.00338862407171,0.0189678519975,-0.999744910159
115244000000,,274,,115,244000000,"""map""",,,-0.00771907018498,0.0194691363722,-0.00979650486261,,0.011784337869,-0.00335709921684,0.0189372955324,-0.999745626655
115276000000,,275,,115,276000000,"""map""",,,-0.00783052388579,0.0194677300751,-0.00949706975371,,0.0117507020497,-0.00326257964069,0.0189106587241,-0.999746806767
115312000000,,276,,115,312000000,"""map""",,,-0.00794270541519,0.0195538364351,-0.0092164920643,,0.0117282506211,-0.00330223488606,0.0189131453882,-0.999746933207
115344000000,,277,,115,344000000,"""map""",,,-0.0080735348165,0.0197158996016,-0.00897109415382,,0.0116592351566,-0.00334033563711,0.0188577644292,-0.999748619081
115376000000,,278,,115,376000000,"""map""",,,-0.00820452254266,0.0199353564531,-0.00882625579834,,0.0116703003507,-0.00337007122655,0.0188520746047,-0.999748576934
115412000000,,279,,115,412000000,"""map""",,,-0.00835436396301,0.0202051475644,-0.00874027516693,,0.0115978930528,-0.00336184238365,0.0188467219549,-0.999749462018
115444000000,,280,,115,444000000,"""map""",,,-0.00848859921098,0.0202460270375,-0.00854622386396,,0.0116538413478,-0.00337892272329,0.0188695655468,-0.9997483662
115476000000,,281,,115,476000000,"""map""",,,-0.00863406155258,0.0200558938086,-0.00823466479778,,0.0116691544833,-0.00341689900943,0.0188891216845,-0.999747691851
115512000000,,282,,115,512000000,"""map""",,,-0.00883743166924,0.0199188552797,-0.00790983717889,,0.0116365930793,-0.00333797014524,0.018904842459,-0.999748071172
115544000000,,283,,115,544000000,"""map""",,,-0.00902240723372,0.0199291631579,-0.00770756416023,,0.0116049954553,-0.00330533597215,0.018863664988,-0.999749293431
115576000000,,284,,115,576000000,"""map""",,,-0.00921847112477,0.0200289078057,-0.00746586360037,,0.0116021120182,-0.00332291417143,0.0188765619237,-0.99974904055
115612000000,,285,,115,612000000,"""map""",,,-0.00943030137569,0.0201900396496,-0.00721856486052,,0.0115405700461,-0.00336898034758,0.0188411164241,-0.999750262808
115644000000,,286,,115,644000000,"""map""",,,-0.00957057345659,0.0201873723418,-0.00670303963125,,0.0115509246707,-0.00332283778026,0.018797452289,-0.999751105745
115676000000,,287,,115,676000000,"""map""",,,-0.00965439155698,0.0200938750058,-0.00611238600686,,0.0115635051757,-0.00334479398343,0.0188218553143,-0.999750389249
115712000000,,288,,115,712000000,"""map""",,,-0.0098178461194,0.020118759945,-0.00538273900747,,0.0114883336372,-0.00333118581972,0.0187977894638,-0.999751780095
115744000000,,289,,115,744000000,"""map""",,,-0.00994988437742,0.0202220007777,-0.00488136615604,,0.0114966372249,-0.00337180023516,0.0188162497834,-0.999751190039
115776000000,,290,,115,776000000,"""map""",,,-0.0101165063679,0.0204058401287,-0.00435457145795,,0.0115015786136,-0.00335251838124,0.0188309590336,-0.999750895011
115812000000,,291,,115,812000000,"""map""",,,-0.0103118680418,0.0206712372601,-0.00393559876829,,0.0115299335645,-0.00333547590792,0.0188515688425,-0.999750262808
115844000000,,292,,115,844000000,"""map""",,,-0.010603249073,0.0207134969532,-0.00314930267632,,0.0114788743039,-0.0032856580037,0.0188078625606,-0.999751822242
115876000000,,293,,115,876000000,"""map""",,,-0.0109578156844,0.0205531045794,-0.00220807432197,,0.0117067909604,-0.00330096422443,0.0188062188335,-0.99974916699
115912000000,,294,,115,912000000,"""map""",,,-0.0113936467096,0.0204354729503,-0.00106902420521,,0.0116731324214,-0.00329332807159,0.0188195372376,-0.999749335578
115944000000,,295,,115,944000000,"""map""",,,-0.011750087142,0.0204022545367,-0.000247317395406,,0.0116469022643,-0.00332087795181,0.0187994331909,-0.99974996778
115976000000,,296,,115,976000000,"""map""",,,-0.0120947258547,0.0204285550863,0.000501509464812,,0.0116519121417,-0.00333104620828,0.0187925211077,-0.99974996778
116012000000,,297,,116,12000000,"""map""",,,-0.012560967356,0.0205822959542,0.00131744542159,,0.0116125005578,-0.00340698330477,0.0187847239408,-0.999750347102
116044000000,,298,,116,44000000,"""map""",,,-0.012809199281,0.0204950347543,0.00210305326618,,0.0115905055005,-0.00342316209697,0.0187980844917,-0.999750304955
116076000000,,299,,116,76000000,"""map""",,,-0.0131216570735,0.0202963165939,0.00347821856849,,0.0115387827563,-0.00339497705057,0.018837786823,-0.999750220661
116112000000,,300,,116,112000000,"""map""",,,-0.0135240741074,0.0201971009374,0.00506961625069,,0.011573826873,-0.00345555227932,0.0188290624254,-0.999749757046
116144000000,,301,,116,144000000,"""map""",,,-0.0138752497733,0.0202249325812,0.00603720592335,,0.0115243701805,-0.00345407582254,0.0188093377003,-0.999750684277
116176000000,,302,,116,176000000,"""map""",,,-0.0142452027649,0.0203475356102,0.0068303537555,,0.0115257574045,-0.00346263788896,0.0187842181786,-0.999751190039
116212000000,,303,,116,212000000,"""map""",,,-0.0146544603631,0.0205371472985,0.00741480942816,,0.0115368742943,-0.0032508664388,0.0187783176198,-0.999751864389
116244000000,,304,,116,244000000,"""map""",,,-0.0152944568545,0.0202972013503,0.00812481530011,,0.0116019526504,-0.00331898661198,0.0187989274287,-0.999750473543
116276000000,,305,,116,276000000,"""map""",,,-0.0157302971929,0.0199893508106,0.00853734649718,,0.0115992911428,-0.00336034682908,0.0188069774768,-0.999750178515
116312000000,,306,,116,312000000,"""map""",,,-0.0164524205029,0.0196242369711,0.0089724259451,,0.0115670573648,-0.0034289744108,0.0187408069246,-0.999751611507
116344000000,,307,,116,344000000,"""map""",,,-0.0170090422034,0.0194333735853,0.00925888773054,,0.0115342582263,-0.00349348246735,0.0187307338278,-0.999751906535
116376000000,,308,,116,376000000,"""map""",,,-0.0175449382514,0.0193155743182,0.00950043089688,,0.0115450830516,-0.00349422695192,0.018754336063,-0.999751400773
116412000000,,309,,116,412000000,"""map""",,,-0.0180934667587,0.0192900076509,0.0095053743571,,0.0115247646486,-0.00354435503059,0.0187416920084,-0.999751653654
116444000000,,310,,116,444000000,"""map""",,,-0.0185105260462,0.0191026031971,0.00959863979369,,0.0115386902308,-0.00360002970039,0.0187982530791,-0.999750304955
116476000000,,311,,116,476000000,"""map""",,,-0.0188163910061,0.0187701396644,0.00970635283738,,0.0115314047529,-0.00360552788848,0.018784091738,-0.99975064213
116512000000,,312,,116,512000000,"""map""",,,-0.0192206650972,0.0184934213758,0.00978575367481,,0.0115255739998,-0.00366187954203,0.0188024256171,-0.999750094221
116544000000,,313,,116,544000000,"""map""",,,-0.0195485204458,0.0183583907783,0.00978119950742,,0.0114570465169,-0.00368624371319,0.018830832593,-0.999750262808
116576000000,,314,,116,576000000,"""map""",,,-0.0198874864727,0.0183055438101,0.00971167068928,,0.0114754538237,-0.00374049230485,0.018846974836,-0.999749546312
116612000000,,315,,116,612000000,"""map""",,,-0.0202695056796,0.0183099210262,0.00961555913091,,0.0114807182285,-0.0037918917037,0.018884822706,-0.999748619081
116644000000,,316,,116,644000000,"""map""",,,-0.0204857643694,0.0181604884565,0.00964357238263,,0.0114394344026,-0.00379510507163,0.0189093943187,-0.999748576934
116676000000,,317,,116,676000000,"""map""",,,-0.0206154379994,0.0178741123527,0.00982507690787,,0.0114291673644,-0.00382213997004,0.0189168964577,-0.999748492641
116712000000,,318,,116,712000000,"""map""",,,-0.0208366662264,0.0176188740879,0.0100467409939,,0.0113795025718,-0.00380998850678,0.0189066969204,-0.999749251284
116744000000,,319,,116,744000000,"""map""",,,-0.0210390221328,0.0174883492291,0.0102028567344,,0.0114135503107,-0.00379100826625,0.0188841483564,-0.999749377724
116776000000,,320,,116,776000000,"""map""",,,-0.0212527941912,0.017437633127,0.0103172361851,,0.0113565572348,-0.00375245443657,0.0188873515169,-0.999750136368
116812000000,,321,,116,812000000,"""map""",,,-0.0214925147593,0.0174782332033,0.0103837074712,,0.0113494824911,-0.00376051172862,0.0188376182356,-0.999751063598
116844000000,,322,,116,844000000,"""map""",,,-0.0216414351016,0.017370313406,0.0104978047311,,0.0113227416328,-0.00377931580851,0.018821391699,-0.999751695801
116876000000,,323,,116,876000000,"""map""",,,-0.0217001195997,0.0171288028359,0.010694956407,,0.0112963102905,-0.00382706950496,0.0188015405333,-0.999752075123
116908000000,,324,,116,908000000,"""map""",,,-0.0218459777534,0.016879811883,0.0109575828537,,0.0113396253969,-0.00377872575263,0.0188059659524,-0.999751695801
116944000000,,325,,116,944000000,"""map""",,,-0.0219826456159,0.0167498774827,0.011211081408,,0.0113854452774,-0.00383233028776,0.018808874085,-0.999750979305
116976000000,,326,,116,976000000,"""map""",,,-0.0221856720746,0.0166848953813,0.0114106442779,,0.0113789987852,-0.00382818343299,0.0188181042448,-0.999750852864
117012000000,,327,,117,12000000,"""map""",,,-0.0224476028234,0.0166853442788,0.0115441624075,,0.011403771254,-0.00383215248074,0.0187841338849,-0.999751190039
117044000000,,328,,117,44000000,"""map""",,,-0.0225559659302,0.0165267568082,0.0116642070934,,0.0113781871291,-0.00383751665503,0.0187975365827,-0.999751190039
117076000000,,329,,117,76000000,"""map""",,,-0.0225389543921,0.0162448771298,0.0117843477055,,0.0114073082965,-0.00386982320223,0.0187959771493,-0.999750810717
117112000000,,330,,117,112000000,"""map""",,,-0.0226112678647,0.0159747581929,0.0119231594726,,0.0114312342063,-0.00382650579086,0.0187658421526,-0.999751274333
117144000000,,331,,117,144000000,"""map""",,,-0.0227321218699,0.0158541407436,0.0119548039511,,0.0114270182044,-0.00385324664915,0.0186461872497,-0.999753423822
117176000000,,332,,117,176000000,"""map""",,,-0.022910464555,0.0157517790794,0.0119937574491,,0.0114372351932,-0.00377377580283,0.0186546166194,-0.999753508116
117212000000,,333,,117,212000000,"""map""",,,-0.0231346674263,0.0156687591225,0.0119818123057,,0.0113990195261,-0.00379637869671,0.0186619080242,-0.99975371885
117244000000,,334,,117,244000000,"""map""",,,-0.0231711678207,0.0153716374189,0.0120518514886,,0.011349152231,-0.00373812220317,0.0186022702336,-0.999755615458
117276000000,,335,,117,276000000,"""map""",,,-0.0230276547372,0.0148701556027,0.0122286323458,,0.0113641077768,-0.00375782848903,0.0185860436969,-0.999755657605
117312000000,,336,,117,312000000,"""map""",,,-0.0230031870306,0.0143465176225,0.0124485297129,,0.0113913659218,-0.00381028320545,0.0185866758996,-0.999755109696
117344000000,,337,,117,344000000,"""map""",,,-0.0230478718877,0.0140072600916,0.0123471543193,,0.0115365838762,-0.00378185285122,0.0185911434655,-0.999753508116
117376000000,,338,,117,376000000,"""map""",,,-0.0231110267341,0.0137231666595,0.0123213268816,,0.0115333971793,-0.00376823349225,0.0185978869613,-0.999753423822
117412000000,,339,,117,412000000,"""map""",,,-0.0231987908483,0.0134593732655,0.0122412536293,,0.0114739065734,-0.00373665661237,0.0185794266417,-0.999754603934
117444000000,,340,,117,444000000,"""map""",,,-0.0233403891325,0.0132314423099,0.012158870697,,0.0114906227379,-0.00377082881616,0.0185760548938,-0.999754351053
117476000000,,341,,117,476000000,"""map""",,,-0.023538146168,0.0130425076932,0.0120508251712,,0.0114808222785,-0.00377963487332,0.0185799745507,-0.999754308906
117512000000,,342,,117,512000000,"""map""",,,-0.0238169338554,0.0128899561241,0.0117476787418,,0.0114921983056,-0.00382369907417,0.0185189880609,-0.99975519399
117544000000,,343,,117,544000000,"""map""",,,-0.0237767212093,0.0126060917974,0.0116194114089,,0.0114530853717,-0.00379636618436,0.0184778527368,-0.999756458395
117576000000,,344,,117,576000000,"""map""",,,-0.0237082131207,0.0123317064717,0.0114890206605,,0.0114369105307,-0.00381910407986,0.0184374760559,-0.999757301332
117612000000,,345,,117,612000000,"""map""",,,-0.0236925054342,0.0121266013011,0.0112458579242,,0.0114141084271,-0.00381776789305,0.0183792291112,-0.999758650031
117644000000,,346,,117,644000000,"""map""",,,-0.0237350482494,0.0119762681425,0.011031223461,,0.0114230596934,-0.0038735594545,0.0183792291112,-0.999758312856
117676000000,,347,,117,676000000,"""map""",,,-0.0238375458866,0.0118728037924,0.0108211580664,,0.0114010755021,-0.00383344684997,0.0183485883524,-0.999759282234
117712000000,,348,,117,712000000,"""map""",,,-0.0240577459335,0.0118068931624,0.010662695393,,0.0114734824707,-0.00388111756982,0.0183685659586,-0.999757933535
117744000000,,349,,117,744000000,"""map""",,,-0.0239048674703,0.0116120623425,0.0105544338003,,0.0114027600589,-0.00380978402871,0.0182988129243,-0.999760251611
117776000000,,350,,117,776000000,"""map""",,,-0.0237039458007,0.0113939475268,0.0104492241517,,0.0114080448786,-0.00381746463331,0.0183080009373,-0.999760083024
117812000000,,351,,117,812000000,"""map""",,,-0.0236105639488,0.0112185161561,0.010286363773,,0.0113422045865,-0.00380672278457,0.0182025916691,-0.999762738275
117844000000,,352,,117,844000000,"""map""",,,-0.0235902648419,0.0110816508532,0.0100562870502,,0.0114076961793,-0.00379423875633,0.0182103466893,-0.999761895338
117876000000,,353,,117,876000000,"""map""",,,-0.0236002653837,0.0109641961753,0.00979047361761,,0.0114116398731,-0.00375858351031,0.0181585482124,-0.99976294901
117912000000,,354,,117,912000000,"""map""",,,-0.0236991457641,0.0108562046662,0.00941386725754,,0.0114569918577,-0.00367935994745,0.0181380226972,-0.99976307545
117944000000,,355,,117,944000000,"""map""",,,-0.0237219147384,0.010622148402,0.00944136362523,,0.0115767659572,-0.00369886274305,0.0181654181487,-0.999761136695
117976000000,,356,,117,976000000,"""map""",,,-0.0237471647561,0.0103566469625,0.0097030820325,,0.0115967778077,-0.00371067966571,0.0181537856186,-0.999761136695
118012000000,,357,,118,12000000,"""map""",,,-0.0238606426865,0.0101225860417,0.00987512618303,,0.0116129378313,-0.0037415871351,0.0181246199994,-0.999761305283
118044000000,,358,,118,44000000,"""map""",,,-0.024059670046,0.00991913303733,0.00997814815491,,0.0115509338903,-0.00376578535304,0.018178989434,-0.999760968108
118076000000,,359,,118,76000000,"""map""",,,-0.0243012160063,0.00974121503532,0.0100002568215,,0.0115470204896,-0.00378286964394,0.0181897368803,-0.999760757374
118112000000,,360,,118,112000000,"""map""",,,-0.0246703252196,0.00953462067991,0.0099514676258,,0.0115621722816,-0.00375942941073,0.0181391185153,-0.999761558164
118144000000,,361,,118,144000000,"""map""",,,-0.0244424138218,0.00924995262176,0.010270238854,,0.0115992318738,-0.00374374749036,0.0181524369194,-0.999760968108
118176000000,,362,,118,176000000,"""map""",,,-0.0241369809955,0.00895405095071,0.0106694046408,,0.0115951130072,-0.00374247551164,0.0181545864087,-0.999761010255
118212000000,,363,,118,212000000,"""map""",,,-0.0239307451993,0.0087048234418,0.0110602332279,,0.0116246062522,-0.00376646530025,0.0181490651715,-0.999760630933
118244000000,,364,,118,244000000,"""map""",,,-0.0238303225487,0.00843812059611,0.0113307405263,,0.0116094304233,-0.0037622469934,0.0181163592171,-0.99976147387
118276000000,,365,,118,276000000,"""map""",,,-0.0238039977849,0.00819944217801,0.0114673376083,,0.0116211976258,-0.00377961511698,0.0181176236225,-0.999761220989
118312000000,,366,,118,312000000,"""map""",,,-0.0238851252943,0.00793108996004,0.0115042235702,,0.0116085275588,-0.00381990454071,0.0180914504296,-0.999761684604
118344000000,,367,,118,344000000,"""map""",,,-0.0236743260175,0.0076524275355,0.0115485936403,,0.011636240758,-0.00381744652333,0.0181306048519,-0.999760630933
118376000000,,368,,118,376000000,"""map""",,,-0.0234389211982,0.00738259078935,0.0115395095199,,0.0115918123821,-0.0038050135323,0.0180970138136,-0.999761853192
118412000000,,369,,118,412000000,"""map""",,,-0.0232593417168,0.00717467116192,0.0114602278918,,0.0115315703768,-0.00376729045652,0.0181747747491,-0.999761220989
118444000000,,370,,118,444000000,"""map""",,,-0.023129073903,0.00698199635372,0.0113575328141,,0.0114747399614,-0.00383810440601,0.0181132824971,-0.999762780422
118476000000,,371,,118,476000000,"""map""",,,-0.0230413693935,0.00680064037442,0.0112826805562,,0.0114689283062,-0.00378038232134,0.0180969716668,-0.999763328331
118512000000,,372,,118,512000000,"""map""",,,-0.0230417326093,0.00654706638306,0.0111180711538,,0.011454537133,-0.00384575801028,0.0180913661359,-0.999763370478
118544000000,,373,,118,544000000,"""map""",,,-0.0226596295834,0.00624810624868,0.0111885163933,,0.0114773985056,-0.00384502505024,0.0180637599501,-0.999763581212
118576000000,,374,,118,576000000,"""map""",,,-0.0222520697862,0.00595686817542,0.0111843058839,,0.0114941077554,-0.0038122288752,0.0180623269573,-0.999763581212
118612000000,,375,,118,612000000,"""map""",,,-0.0219679325819,0.00566259166226,0.0110685750842,,0.0114645605097,-0.0038464412502,0.0181000905335,-0.99976307545
118644000000,,376,,118,644000000,"""map""",,,-0.0217853225768,0.00536179915071,0.0108698485419,,0.0114331686808,-0.00380257856398,0.0180747602776,-0.999764044828
118676000000,,377,,118,676000000,"""map""",,,-0.0216794572771,0.00508017838001,0.0105048697442,,0.0113646965156,-0.00380022953572,0.0180607675239,-0.999765140646
118712000000,,378,,118,712000000,"""map""",,,-0.0215678866953,0.0047339531593,0.0100567769259,,0.0115758225922,-0.0038446160941,0.0180699976837,-0.999762316807
118744000000,,379,,118,744000000,"""map""",,,-0.0211453847587,0.00432917941362,0.00990875251591,,0.0115608700098,-0.00385744816311,0.0180565106922,-0.999762738275
118776000000,,380,,118,776000000,"""map""",,,-0.0206944271922,0.003881261684,0.00978803541511,,0.0115703293431,-0.00387047285639,0.0180621583699,-0.999762485394
118812000000,,381,,118,812000000,"""map""",,,-0.0203662421554,0.00345461629331,0.00947442930192,,0.0115773728059,-0.00394901778913,0.0180696183621,-0.999761937485
118844000000,,382,,118,844000000,"""map""",,,-0.0201382059604,0.00303854607046,0.00904838368297,,0.0115279138085,-0.00395136056122,0.0180574800697,-0.999762696129
118876000000,,383,,118,876000000,"""map""",,,-0.0199926421046,0.00262936297804,0.00852802488953,,0.0115113570117,-0.00398633421367,0.0180580279787,-0.999762738275
118912000000,,384,,118,912000000,"""map""",,,-0.019927252084,0.00213353708386,0.0077575254254,,0.0115098242494,-0.00400372341068,0.0180795650183,-0.99976227466
118944000000,,385,,118,944000000,"""map""",,,-0.0197114236653,0.00174772844184,0.00729708839208,,0.0114849157912,-0.00402535100014,0.0181370111728,-0.99976147387
118976000000,,386,,118,976000000,"""map""",,,-0.0195223726332,0.00137803214602,0.00687940884382,,0.0114739299517,-0.00404752551081,0.0181733417563,-0.999760883814
119012000000,,387,,119,12000000,"""map""",,,-0.0194365568459,0.00102384656202,0.00621416931972,,0.0114676892547,-0.0040368758583,0.0181953424112,-0.999760546639
119044000000,,388,,119,44000000,"""map""",,,-0.0194225851446,0.000667832035106,0.00552437035367,,0.0114995552356,-0.00400858709114,0.0182013694105,-0.999760251611
119076000000,,389,,119,76000000,"""map""",,,-0.0194812081754,0.000321805302519,0.00490838428959,,0.0115360695529,-0.00396935298499,0.0182270368413,-0.999759450821
119112000000,,390,,119,112000000,"""map""",,,-0.0196342729032,-0.000130764121423,0.00417997362092,,0.011498270086,-0.00397546987565,0.0181838784684,-0.999760630933
119144000000,,391,,119,144000000,"""map""",,,-0.0195513255894,-0.000658905424643,0.00365794124082,,0.0116005199868,-0.00396307573874,0.0181907905515,-0.999759366528
119176000000,,392,,119,176000000,"""map""",,,-0.0194642730057,-0.00121826259419,0.00316702434793,,0.0115579882191,-0.00396173395431,0.0181838363215,-0.999760083024
119212000000,,393,,119,212000000,"""map""",,,-0.0194576457143,-0.00175533001311,0.0026730557438,,0.0115085203313,-0.00401078432489,0.0181890625308,-0.999760335905
119244000000,,394,,119,244000000,"""map""",,,-0.0195475649089,-0.00227413605899,0.00213006720878,,0.0114808581692,-0.00399699242726,0.0181909591389,-0.999760715227
119276000000,,395,,119,276000000,"""map""",,,-0.0196930076927,-0.00278477394022,0.00145968573634,,0.0114936240545,-0.00399910174532,0.0181783993781,-0.999760715227
119312000000,,396,,119,312000000,"""map""",,,-0.0199415050447,-0.00339870713651,0.000451272469945,,0.0115186359042,-0.00391865361896,0.0181870816289,-0.999760630933
119344000000,,397,,119,344000000,"""map""",,,-0.019990298897,-0.0037685954012,-0.000163484713994,,0.0116708166496,-0.00395117221749,0.0182520720693,-0.999757512066
119376000000,,398,,119,376000000,"""map""",,,-0.0200084038079,-0.00413942802697,-0.000644871499389,,0.01170346564,-0.00395124366957,0.0182419146788,-0.999757301332
119412000000,,399,,119,412000000,"""map""",,,-0.0200704187155,-0.00452809967101,-0.00128971587401,,0.0116337600209,-0.00393999836355,0.0182911421978,-0.999757301332
119444000000,,400,,119,444000000,"""map""",,,-0.0201927293092,-0.00493161659688,-0.00206145341508,,0.0116573849758,-0.00399991504779,0.0182829235624,-0.99975692201
119476000000,,401,,119,476000000,"""map""",,,-0.0203540213406,-0.00532725639641,-0.00284092035145,,0.0116125357899,-0.00398879058469,0.018276348654,-0.99975759636
119512000000,,402,,119,512000000,"""map""",,,-0.0205930937082,-0.00581144075841,-0.00388526753522,,0.0116104386549,-0.00410163514958,0.0182534629153,-0.999757638507
119544000000,,403,,119,544000000,"""map""",,,-0.0206759721041,-0.00608046958223,-0.00455240858719,,0.0116130185031,-0.0040877204334,0.0182306193234,-0.999758059975
119576000000,,404,,119,576000000,"""map""",,,-0.0207640565932,-0.00630200374871,-0.00529730180278,,0.0116443234041,-0.00411006978764,0.0182314201135,-0.99975759636
119612000000,,405,,119,612000000,"""map""",,,-0.0209351275116,-0.00654224678874,-0.00609070574865,,0.0117229710697,-0.00409971187035,0.0182640839211,-0.99975612122
119644000000,,406,,119,644000000,"""map""",,,-0.0211807116866,-0.00677939970046,-0.00684979557991,,0.0116102312134,-0.00409250574707,0.018247688797,-0.999757764947
119676000000,,407,,119,676000000,"""map""",,,-0.0214894786477,-0.00701928976923,-0.00756595656276,,0.0116198848174,-0.00413021598123,0.018244359196,-0.999757554213
119712000000,,408,,119,712000000,"""map""",,,-0.0219756234437,-0.00735650537536,-0.00854696892202,,0.0115394459106,-0.00411251595122,0.0182811955416,-0.999757891388
119744000000,,409,,119,744000000,"""map""",,,-0.0222479719669,-0.00771519169211,-0.00868578720838,,0.011513783419,-0.00414216263715,0.0182882762122,-0.999757891388
119776000000,,410,,119,776000000,"""map""",,,-0.0225051660091,-0.00809864141047,-0.00865392293781,,0.011536766293,-0.00417102828929,0.0182815748632,-0.999757680654
119812000000,,411,,119,812000000,"""map""",,,-0.0228197667748,-0.0084984479472,-0.00882201548666,,0.0114789625488,-0.004150168892,0.0183568491347,-0.999757006304
119844000000,,412,,119,844000000,"""map""",,,-0.0231723356992,-0.00892933364958,-0.00914763845503,,0.0115285874995,-0.00416307537654,0.0183890914738,-0.999755784045
119876000000,,413,,119,876000000,"""map""",,,-0.0235428679734,-0.00936400238425,-0.00963015202433,,0.011497156158,-0.00416110270647,0.0183673858468,-0.999756584836
119912000000,,414,,119,912000000,"""map""",,,-0.0240931604058,-0.00993259903044,-0.0102871013805,,0.0114993540502,-0.00415051364005,0.0184202379948,-0.999755573311
119944000000,,415,,119,944000000,"""map""",,,-0.0242280811071,-0.0102346548811,-0.0105300890282,,0.0114612849093,-0.00410303916647,0.0184250427356,-0.999756163367
119976000000,,416,,119,976000000,"""map""",,,-0.0243252832443,-0.0104846972972,-0.0107193002477,,0.0115063428538,-0.00408677015368,0.0184034635491,-0.999756163367
120012000000,,417,,120,12000000,"""map""",,,-0.0245408304036,-0.010739912279,-0.0110295992345,,0.0114869144738,-0.00418975466092,0.0184356637414,-0.99975532043
120044000000,,418,,120,44000000,"""map""",,,-0.0248208194971,-0.0110254772007,-0.0114421742037,,0.0114884255041,-0.00405976554831,0.0183796927266,-0.999756837717
120076000000,,419,,120,76000000,"""map""",,,-0.0251830592752,-0.0113528212532,-0.0118627212942,,0.0114988848373,-0.00406333189609,0.0183876584809,-0.999756626982
120112000000,,420,,120,112000000,"""map""",,,-0.0256846863776,-0.0117272306234,-0.0125604672357,,0.0115245081455,-0.0040831573785,0.0183499370515,-0.99975692201
120144000000,,421,,120,144000000,"""map""",,,-0.0258569028229,-0.0118121691048,-0.0127542354167,,0.0115212621797,-0.00414642309084,0.0183796505797,-0.99975612122
120176000000,,422,,120,176000000,"""map""",,,-0.0260201264173,-0.011890466325,-0.0129351764917,,0.0114961614265,-0.00414558509296,0.0183927161028,-0.999756205514
120212000000,,423,,120,212000000,"""map""",,,-0.0262313168496,-0.0120102558285,-0.0133155155927,,0.011559411663,-0.00421567958257,0.0183637612178,-0.999755657605
120244000000,,424,,120,244000000,"""map""",,,-0.0265045650303,-0.0121506256983,-0.0137162106112,,0.0115400195029,-0.00421178824307,0.0184012297662,-0.999755278283
120276000000,,425,,120,276000000,"""map""",,,-0.0268151983619,-0.0123417824507,-0.0142459664494,,0.0115424939839,-0.00422172732606,0.0183853825511,-0.999755446871
120312000000,,426,,120,312000000,"""map""",,,-0.0272824391723,-0.0126749482006,-0.0151603585109,,0.0115494337259,-0.00419963315781,0.018425759232,-0.999754772521
120344000000,,427,,120,344000000,"""map""",,,-0.0272392015904,-0.0128150135279,-0.0156343858689,,0.0115371406756,-0.00423469340888,0.0183771217688,-0.999755615458
120376000000,,428,,120,376000000,"""map""",,,-0.027126731351,-0.0129369860515,-0.0159650407732,,0.0115114182564,-0.00422944974823,0.0183883328305,-0.999755699752
120412000000,,429,,120,412000000,"""map""",,,-0.0271003972739,-0.0130769470707,-0.0163598917425,,0.0115460382704,-0.00426788207644,0.0183661214413,-0.999755573311
120444000000,,430,,120,444000000,"""map""",,,-0.0271932929754,-0.0132752079517,-0.0167967285961,,0.0115741436329,-0.00425366673469,0.0183443315207,-0.999755699752
120476000000,,431,,120,476000000,"""map""",,,-0.027360342443,-0.0134694054723,-0.0172128807753,,0.0115865884778,-0.00430032230818,0.0183104876013,-0.99975599478
120512000000,,432,,120,512000000,"""map""",,,-0.0276858899742,-0.0136989429593,-0.0177698768675,,0.0115526339229,-0.00429441911521,0.0183598837078,-0.999755489018
120544000000,,433,,120,544000000,"""map""",,,-0.0275959819555,-0.0136299086735,-0.0184694081545,,0.0116284333836,-0.00430388799742,0.0183443736675,-0.999754814668
120576000000,,434,,120,576000000,"""map""",,,-0.0274166371673,-0.0135033698753,-0.0192536953837,,0.0116037560745,-0.00431682082374,0.0183366607942,-0.99975519399
120612000000,,435,,120,612000000,"""map""",,,-0.0273066852242,-0.0134097058326,-0.0201534610242,,0.0115614468948,-0.0042589785547,0.0182929545123,-0.999756753423
120644000000,,436,,120,644000000,"""map""",,,-0.0272946897894,-0.0133737456053,-0.0211014039814,,0.0115385664244,-0.00424321168209,0.0183212771945,-0.999756584836
120676000000,,437,,120,676000000,"""map""",,,-0.0273583754897,-0.0134062711149,-0.0220011584461,,0.0115416191075,-0.00426382050319,0.0183322353751,-0.999756247661
120712000000,,438,,120,712000000,"""map""",,,-0.0275348369032,-0.0135681359097,-0.0230129454285,,0.0115276767324,-0.00427163841432,0.0183716005317,-0.999755657605
120744000000,,439,,120,744000000,"""map""",,,-0.0274167098105,-0.0135607365519,-0.0235626921058,,0.0115513863104,-0.00431827060947,0.0183941490956,-0.999754772521
120776000000,,440,,120,776000000,"""map""",,,-0.0272769089788,-0.0135196885094,-0.0241072159261,,0.0115561149892,-0.004296147136,0.0183670908189,-0.999755362577
120812000000,,441,,120,812000000,"""map""",,,-0.0272059831768,-0.0135077843443,-0.0246978718787,,0.0115957037216,-0.00434875595184,0.0183791448175,-0.999754435346
120844000000,,442,,120,844000000,"""map""",,,-0.0272576715797,-0.0135015612468,-0.0253709740937,,0.0117723237123,-0.00435023668916,0.0184092798142,-0.999751780095
120876000000,,443,,120,876000000,"""map""",,,-0.0273724775761,-0.013536920771,-0.0259623359889,,0.0117518317828,-0.00435991926906,0.0184005554166,-0.999752159416
120912000000,,444,,120,912000000,"""map""",,,-0.0276056434959,-0.0136011745781,-0.0266785118729,,0.0117741844298,-0.00440456694034,0.0183928003965,-0.999751906535
120944000000,,445,,120,944000000,"""map""",,,-0.0274876952171,-0.0136505803093,-0.0269329790026,,0.0117052851984,-0.00441297227317,0.0184018619689,-0.999752454444
120976000000,,446,,120,976000000,"""map""",,,-0.0273196641356,-0.0137074925005,-0.0271881911904,,0.0117000458183,-0.0044356433264,0.0184213759597,-0.999752075123
121012000000,,447,,121,12000000,"""map""",,,-0.0272510759532,-0.0138024836779,-0.0275617968291,,0.0117069295841,-0.00447521197316,0.0184214181066,-0.999751780095
121044000000,,448,,121,44000000,"""map""",,,-0.0272869747132,-0.0139340367168,-0.0280149169266,,0.0117065940556,-0.00450375427996,0.0184278665744,-0.999751569361
121076000000,,449,,121,76000000,"""map""",,,-0.0274492781609,-0.014083663933,-0.0285449586809,,0.0116609180671,-0.00448032655909,0.0184223453373,-0.999752285857
121112000000,,450,,121,112000000,"""map""",,,-0.0277459286153,-0.0143169388175,-0.0294172931463,,0.0117184063685,-0.00448262092815,0.0184896117075,-0.999750347102
121144000000,,451,,121,144000000,"""map""",,,-0.0277254190296,-0.0144610954449,-0.0298153720796,,0.0117074491757,-0.00446511187605,0.0185130453553,-0.999750094221
121176000000,,452,,121,176000000,"""map""",,,-0.0277240760624,-0.0146183269098,-0.0301046222448,,0.0117277972132,-0.00447102922772,0.0185452455475,-0.999749251284
121212000000,,453,,121,212000000,"""map""",,,-0.0278284996748,-0.0148054221645,-0.0304247085005,,0.0117059753531,-0.00440506051945,0.0185685106079,-0.999749419871
121244000000,,454,,121,244000000,"""map""",,,-0.0280058626086,-0.0150023745373,-0.0307870730758,,0.0117016839478,-0.00444545333467,0.0185978448145,-0.999748745522
121276000000,,455,,121,276000000,"""map""",,,-0.0282753203064,-0.0152268260717,-0.0311358273029,,0.011719508772,-0.00442597424666,0.0186201826442,-0.99974823976
121312000000,,456,,121,312000000,"""map""",,,-0.0286871623248,-0.0155438035727,-0.0315749272704,,0.0117219170693,-0.00443846881161,0.0186119640087,-0.999748197613
121344000000,,457,,121,344000000,"""map""",,,-0.0288735087961,-0.0157454498112,-0.031682472676,,0.011737230534,-0.00439998775111,0.0185985613109,-0.999748450494
121376000000,,458,,121,376000000,"""map""",,,-0.0290553811938,-0.0159267466515,-0.031751152128,,0.0117598907212,-0.00442111023693,0.0185632843987,-0.999748745522
121412000000,,459,,121,412000000,"""map""",,,-0.0293635055423,-0.0161691252142,-0.0319786183536,,0.011738314169,-0.00444990311991,0.0185841470887,-0.999748534788
121444000000,,460,,121,444000000,"""map""",,,-0.0295989178121,-0.0163134038448,-0.0321676172316,,0.0118207883075,-0.00440479743092,0.0185839363545,-0.999747733997
121476000000,,461,,121,476000000,"""map""",,,-0.0299777016044,-0.0164800081402,-0.0325057432055,,0.0119038758803,-0.0043933990133,0.0186237651263,-0.99974609027
121512000000,,462,,121,512000000,"""map""",,,-0.0305134057999,-0.016698602587,-0.0328477807343,,0.0120154033561,-0.00449459721857,0.0186643946883,-0.999743561459
121544000000,,463,,121,544000000,"""map""",,,-0.0303345508873,-0.0167439449579,-0.0327222757041,,0.0119408014586,-0.00448571806297,0.0186689886947,-0.999744446543
121576000000,,464,,121,576000000,"""map""",,,-0.0300260204822,-0.0167687386274,-0.0325563251972,,0.0119167477912,-0.00454962289276,0.0186790617915,-0.999744151515
121612000000,,465,,121,612000000,"""map""",,,-0.0298362895846,-0.0168020110577,-0.0324968099594,,0.0118913516808,-0.00450684910987,0.0186313937059,-0.999745626655
121644000000,,466,,121,644000000,"""map""",,,-0.0297540705651,-0.0168339721859,-0.0324880927801,,0.0119153701161,-0.0044857783198,0.0186489267949,-0.999745036599
121676000000,,467,,121,676000000,"""map""",,,-0.0297794304788,-0.0168768297881,-0.0325905047357,,0.0119002881298,-0.00450490113522,0.0186498961724,-0.99974516304
121712000000,,468,,121,712000000,"""map""",,,-0.0299560986459,-0.0169021897018,-0.0329248122871,,0.0119093101895,-0.00454654617281,0.0186660384154,-0.999744530837
121744000000,,469,,121,744000000,"""map""",,,-0.0297975689173,-0.016716953367,-0.0327233374119,,0.0118981801288,-0.0046613548467,0.0187935326321,-0.999741791292
121776000000,,470,,121,776000000,"""map""",,,-0.029638890177,-0.0164856649935,-0.0324953868985,,0.0118909483223,-0.00470585105275,0.0187396689597,-0.999742634229
121812000000,,471,,121,812000000,"""map""",,,-0.0296040438116,-0.0162436403334,-0.0324135273695,,0.0118002170234,-0.00459241379779,0.0188075675327,-0.999742929257
121844000000,,472,,121,844000000,"""map""",,,-0.0296654067934,-0.016037452966,-0.0324347130954,,0.0118395927167,-0.0045816334242,0.0188172613078,-0.999742339201
121876000000,,473,,121,876000000,"""map""",,,-0.0297955293208,-0.0158540289849,-0.0325483046472,,0.0118485242265,-0.00461604599674,0.0187798349063,-0.999742844963
121912000000,,474,,121,912000000,"""map""",,,-0.0300311036408,-0.0157077722251,-0.0327862352133,,0.0117232881589,-0.00444355014104,0.0187795820252,-0.999745036599
121944000000,,475,,121,944000000,"""map""",,,-0.0300561431795,-0.0154127851129,-0.0326914489269,,0.0117476589155,-0.00445719320761,0.0186753528689,-0.999746680326
121976000000,,476,,121,976000000,"""map""",,,-0.0299254041165,-0.0149613134563,-0.0323136262596,,0.0117792078073,-0.00445575823913,0.018701483915,-0.999745837389
122012000000,,477,,122,12000000,"""map""",,,-0.0298633147031,-0.014499024488,-0.0319011136889,,0.0117724728726,-0.0044835982082,0.0187115570117,-0.999745626655
122044000000,,478,,122,44000000,"""map""",,,-0.0299822129309,-0.0141216339543,-0.0314798802137,,0.0115937030634,-0.0045780506128,0.0186136920295,-0.999749082697
122076000000,,479,,122,76000000,"""map""",,,-0.0303305927664,-0.0137695167214,-0.0305118449032,,0.0110387397039,-0.00452337297939,0.018363719071,-0.999760251611
122112000000,,480,,122,112000000,"""map""",,,-0.0309320874512,-0.0134763102978,-0.0285403504968,,0.00845404520026,-0.00344146156712,0.017668717539,-0.999802229873
122144000000,,481,,122,144000000,"""map""",,,-0.0314371995628,-0.0132055049762,-0.0252351742238,,0.00386312876804,-0.000396996312648,0.0166657911319,-0.999853564734
122176000000,,482,,122,176000000,"""map""",,,-0.0318836607039,-0.0129878642038,-0.0207998994738,,0.000430237416823,0.00245064850996,0.0160268870553,-0.999868526865
122212000000,,483,,122,212000000,"""map""",,,-0.0328196585178,-0.012891667895,-0.0144252413884,,-0.00580143417828,0.00799420925357,0.0150278381582,-0.999838265428
122244000000,,484,,122,244000000,"""map""",,,-0.0338253639638,-0.0130172558129,-0.00880795903504,,-0.0133310358363,0.0153179999478,0.0139198396577,-0.999696947045
122276000000,,485,,122,276000000,"""map""",,,-0.0350548550487,-0.0133275659755,-0.00288869393989,,-0.0173697679669,0.0193889905519,0.013406996805,-0.999571265143
122312000000,,486,,122,312000000,"""map""",,,-0.0364837571979,-0.0138644492254,0.00346539379098,,-0.0261989884429,0.0283785040538,0.0124330674296,-0.99917651776
122344000000,,487,,122,344000000,"""map""",,,-0.0381043218076,-0.0146777685732,0.0103690614924,,-0.0360970471526,0.0384619501218,0.0115065954057,-0.998541617634
122376000000,,488,,122,376000000,"""map""",,,-0.040074005723,-0.0158968754113,0.0164151359349,,-0.0404838724923,0.0432430126373,0.011079985005,-0.998182526484
122412000000,,489,,122,412000000,"""map""",,,-0.0433908477426,-0.0183712821454,0.0193435996771,,-0.0393900725406,0.0452878456889,0.00984044619032,-0.998148640418
122444000000,,490,,122,444000000,"""map""",,,-0.0462876930833,-0.0208241920918,0.016907889396,,-0.0270582540242,0.0362759100635,0.00829239244452,-0.998941085464
122476000000,,491,,122,476000000,"""map""",,,-0.0496300347149,-0.0237211883068,0.0119352703914,,-0.0197578265135,0.0297334475252,0.00749206593815,-0.999334526295
122512000000,,492,,122,512000000,"""map""",,,-0.0534285455942,-0.0269609745592,0.00621434068307,,-0.00732764943574,0.0170147739523,0.00622711257379,-0.999809057662
122544000000,,493,,122,544000000,"""map""",,,-0.0574950836599,-0.0303761083633,0.000974668888375,,0.000649276811122,0.00731730139662,0.00533343079796,-0.999958847562
122576000000,,494,,122,576000000,"""map""",,,-0.0616445913911,-0.0337788052857,-0.00140360277146,,-0.00189548799878,0.0083961586441,0.00485291457809,-0.999951218982
122612000000,,495,,122,612000000,"""map""",,,-0.06713552773,-0.038325805217,0.00749100325629,,-0.0258127367778,0.0284105483357,0.00385188477911,-0.999255585247
122644000000,,496,,122,644000000,"""map""",,,-0.0719163566828,-0.0426677726209,0.0294026620686,,-0.0478954141598,0.0490215800923,0.00369438200622,-0.997641908858
122676000000,,497,,122,676000000,"""map""",,,-0.0777686163783,-0.0482947230339,0.0575127415359,,-0.055676441258,0.0561658162598,0.00410350146472,-0.996859452616
122712000000,,498,,122,712000000,"""map""",,,-0.084716103971,-0.0552071519196,0.0855762585998,,-0.0690970589243,0.0662972157896,0.00563183048542,-0.99538869619
122744000000,,499,,122,744000000,"""map""",,,-0.0926963612437,-0.0632258355618,0.111144013703,,-0.0797411027762,0.0745134757145,0.00767628981299,-0.993997091546
122776000000,,500,,122,776000000,"""map""",,,-0.101723432541,-0.0724007561803,0.134027078748,,-0.083475054417,0.0776892891529,0.00878921949476,-0.993438055747
122812000000,,501,,122,812000000,"""map""",,,-0.114684134722,-0.0858724489808,0.161444544792,,-0.0876964271169,0.0810044999999,0.0108315714799,-0.992789162868
122844000000,,502,,122,844000000,"""map""",,,-0.125819042325,-0.0976400598884,0.178312212229,,-0.0892293244608,0.0815667962524,0.0126438016722,-0.992585087827
122876000000,,503,,122,876000000,"""map""",,,-0.138279125094,-0.110919229686,0.195729568601,,-0.0896177534387,0.0817745660569,0.013362194705,-0.992523595575
122912000000,,504,,122,912000000,"""map""",,,-0.152311146259,-0.125936299562,0.215942189097,,-0.0903557533172,0.0826862570493,0.0147276683031,-0.992361835971
122944000000,,505,,122,944000000,"""map""",,,-0.167808294296,-0.142621010542,0.238574534655,,-0.0911804281897,0.0837185196387,0.0158950517132,-0.992181784634
122976000000,,506,,122,976000000,"""map""",,,-0.184695735574,-0.160857319832,0.263040393591,,-0.0915295845365,0.0840646282416,0.0165050430517,-0.992110430019
123012000000,,507,,123,12000000,"""map""",,,-0.207533225417,-0.185672685504,0.295749425888,,-0.0915924511709,0.0840423384856,0.0177236770295,-0.992085479085
123044000000,,508,,123,44000000,"""map""",,,-0.225742354989,-0.205234855413,0.323517650366,,-0.0909454002402,0.0833663998416,0.0188255220901,-0.992181784634
123076000000,,509,,123,72000000,"""map""",,,-0.244734466076,-0.225634455681,0.352717936039,,-0.0906772860268,0.0830630976195,0.0192868193471,-0.992222877811
123112000000,,510,,123,112000000,"""map""",,,-0.264913648367,-0.247405543923,0.383685827255,,-0.0903097648493,0.0830109310163,0.0202942976139,-0.992240663781
123144000000,,511,,123,144000000,"""map""",,,-0.28623098135,-0.270478308201,0.416405379772,,-0.0896668653832,0.0831053524693,0.0211886958861,-0.992272400358
123176000000,,512,,123,176000000,"""map""",,,-0.308566004038,-0.294733196497,0.450892776251,,-0.0892954778908,0.0827972063231,0.0215685232849,-0.992323398045
123212000000,,513,,123,212000000,"""map""",,,-0.337839722633,-0.326619535685,0.496042996645,,-0.0883006690325,0.0819979397442,0.0222497849442,-0.99246374705
123244000000,,514,,123,244000000,"""map""",,,-0.361803978682,-0.352210938931,0.533933520317,,-0.0874412129672,0.0821572418253,0.0227563479165,-0.992515208352
123276000000,,515,,123,276000000,"""map""",,,-0.386500418186,-0.3785122931,0.573477506638,,-0.0870424596578,0.0820473564301,0.0229845309543,-0.992554067747
123312000000,,516,,123,308000000,"""map""",,,-0.412001103163,-0.405793219805,0.614531517029,,-0.0862487586031,0.081572827203,0.0234505486583,-0.992651553407
123344000000,,517,,123,344000000,"""map""",,,-0.43828099966,-0.433991014957,0.657113969326,,-0.0853161054804,0.0814573408868,0.0238915732811,-0.992731126657
123376000000,,518,,123,376000000,"""map""",,,-0.465292185545,-0.463029921055,0.701148509979,,-0.0848477331505,0.0815330415658,0.0240663141151,-0.992760882332
123412000000,,519,,123,412000000,"""map""",,,-0.500003039837,-0.50039345026,0.758182764053,,-0.0840502049644,0.0813325534526,0.0243446519026,-0.99283834824
123444000000,,520,,123,444000000,"""map""",,,-0.528926372528,-0.5307289958,0.805393874645,,-0.0832830760983,0.081119325549,0.0245388645806,-0.99291564556
123476000000,,521,,123,476000000,"""map""",,,-0.558511018753,-0.561597704887,0.854142069817,,-0.0828219344225,0.0811408966683,0.0247002448635,-0.992948477955
123512000000,,522,,123,512000000,"""map""",,,-0.588547348976,-0.593028485775,0.904347062111,,-0.0820420074024,0.0811464280305,0.0248715296559,-0.993008495067
123544000000,,523,,123,544000000,"""map""",,,-0.619051516056,-0.624982476234,0.955812752247,,-0.0813116890648,0.0810088584635,0.0250285266666,-0.993075887878
123576000000,,524,,123,576000000,"""map""",,,-0.649978399277,-0.657415091991,1.00893902779,,-0.0809293170655,0.0809894867029,0.0250763211928,-0.993107413721
123612000000,,525,,123,612000000,"""map""",,,-0.689177811146,-0.698593497276,1.07731461525,,-0.080384173999,0.0809286739916,0.0252074400385,-0.993153311639
123644000000,,526,,123,644000000,"""map""",,,-0.721222400665,-0.732191681862,1.13328337669,,-0.0797003903611,0.0806285289143,0.0253058950766,-0.993230356078
123676000000,,527,,123,676000000,"""map""",,,-0.753697276115,-0.766186714172,1.19057941437,,-0.079425185064,0.0804926759979,0.0253685252935,-0.993261797627
123712000000,,528,,123,712000000,"""map""",,,-0.79469960928,-0.809111833572,1.2641980648,,-0.0788434540106,0.0805914779243,0.025479118624,-0.993297369567
123744000000,,529,,123,744000000,"""map""",,,-0.819493949413,-0.835089623928,1.30943644047,,-0.0781455114189,0.080602037027,0.0255449098545,-0.993349926687
123776000000,,530,,123,776000000,"""map""",,,-0.852742016315,-0.869962692261,1.37097990513,,-0.0778815504811,0.0805873651492,0.0255201696544,-0.993372475251
123812000000,,531,,123,812000000,"""map""",,,-0.894598186016,-0.913841426373,1.4499809742,,-0.0773236341258,0.0806102483361,0.0256283184677,-0.993411418939
123844000000,,532,,123,844000000,"""map""",,,-0.929588258266,-0.949481487274,1.51474237442,,-0.0766331108611,0.0806955744663,0.0256839101609,-0.993456558214
123876000000,,533,,123,872000000,"""map""",,,-0.965072274208,-0.985374629498,1.58094155788,,-0.0761132910587,0.0806193113903,0.0257133286612,-0.993501992517
123912000000,,534,,123,912000000,"""map""",,,-1.00060081482,-1.02141463757,1.64852535725,,-0.0743502529887,0.0795059745634,0.025791005303,-0.993723137031
123944000000,,535,,123,944000000,"""map""",,,-1.03614377975,-1.05753445625,1.71741390228,,-0.0712450850771,0.0770596438828,0.0258812838525,-0.994140896593
123976000000,,536,,123,976000000,"""map""",,,-1.07166802883,-1.09362995625,1.7876188755,,-0.0693763530831,0.075366219071,0.0259214497991,-0.994401827732
124012000000,,537,,124,12000000,"""map""",,,-1.11585187912,-1.13861382008,1.87661981583,,-0.0652893313655,0.0714637155976,0.0260851481587,-0.99496221223
124044000000,,538,,124,44000000,"""map""",,,-1.15234827995,-1.17502331734,1.94772577286,,-0.0606989639947,0.0691638424168,0.0433733218026,-0.994811958715
124076000000,,539,,124,76000000,"""map""",,,-1.18878960609,-1.21127343178,2.0171661377,,-0.0595989272973,0.068002426737,0.0432626863252,-0.994963308048
124112000000,,540,,124,112000000,"""map""",,,-1.22459673882,-1.24709951878,2.08386659622,,-0.0586536587667,0.0667893130085,0.0425254536511,-0.995133497022
124144000000,,541,,124,144000000,"""map""",,,-1.2598118782,-1.28251743317,2.14747333527,,-0.0584121395441,0.0665148810485,0.0411694209471,-0.995223101222
124176000000,,542,,124,176000000,"""map""",,,-1.29448437691,-1.31754672527,2.20830464363,,-0.058013505102,0.0663831606223,0.0404085017441,-0.995286321495
124212000000,,543,,124,212000000,"""map""",,,-1.33714437485,-1.36081564426,2.28096604347,,-0.0561888633213,0.0652432773724,0.0388201556111,-0.995529593105
124244000000,,544,,124,244000000,"""map""",,,-1.37264347076,-1.39608263969,2.33851337433,,-0.0531248608623,0.0627986551209,0.0371463778162,-0.995918819251
124276000000,,545,,124,276000000,"""map""",,,-1.40811264515,-1.43122923374,2.39467453957,,-0.0509580321114,0.060821468749,0.0361532716247,-0.996191298626
124312000000,,546,,124,312000000,"""map""",,,-1.44289422035,-1.46588814259,2.44904637337,,-0.047213833518,0.057430406087,0.0348203353937,-0.996624399642
124344000000,,547,,124,344000000,"""map""",,,-1.47698736191,-1.50002777576,2.50162672997,,-0.0428925945192,0.0533737050755,0.0334068143883,-0.997093494066
124376000000,,548,,124,376000000,"""map""",,,-1.51037991047,-1.53364276886,2.55242466927,,-0.0407642962196,0.0513512763667,0.0328192030264,-0.997308527287
124412000000,,549,,124,412000000,"""map""",,,-1.55114901066,-1.57485735416,2.61298370361,,-0.0367165902676,0.0474740840514,0.0317891761956,-0.997691178524
124444000000,,550,,124,444000000,"""map""",,,-1.5847274065,-1.60781097412,2.66169238091,,-0.0327772616438,0.0436874738746,0.030874589583,-0.998030039186
124476000000,,551,,124,476000000,"""map""",,,-1.61797761917,-1.64034819603,2.70931005478,,-0.0314867699234,0.0424476005193,0.0305513654017,-0.998135026986
124512000000,,552,,124,512000000,"""map""",,,-1.65026974678,-1.67219305038,2.75491046906,,-0.0284708751285,0.0395496128502,0.0299003230328,-0.998364263695
124544000000,,553,,124,544000000,"""map""",,,-1.68165874481,-1.70332992077,2.79869961739,,-0.0257651515041,0.0370707209304,0.0293604219034,-0.998548951185
124576000000,,554,,124,576000000,"""map""",,,-1.71215426922,-1.73375189304,2.84080243111,,-0.0244877325508,0.0360193368427,0.0291727841338,-0.998625068394
124612000000,,555,,124,612000000,"""map""",,,-1.74903678894,-1.77077209949,2.89117145538,,-0.0222544658786,0.034089190305,0.0287963706297,-0.998755934358
124644000000,,556,,124,644000000,"""map""",,,-1.77939891815,-1.80040669441,2.93133926392,,-0.0204646894199,0.0324427183995,0.0285199294504,-0.998857044648
124676000000,,557,,124,676000000,"""map""",,,-1.80935323238,-1.8295596838,2.9704284668,,-0.0195988298324,0.0317486915135,0.0283840058639,-0.998900582342
124712000000,,558,,124,712000000,"""map""",,,-1.83830165863,-1.85797226429,3.00787305832,,-0.0181639041549,0.0305496182831,0.0282169779033,-0.998969829614
124744000000,,559,,124,744000000,"""map""",,,-1.86631202698,-1.8856523037,3.04378604889,,-0.0166350990065,0.0293437251659,0.0280540803338,-0.999037138131
124776000000,,560,,124,776000000,"""map""",,,-1.89342355728,-1.91266047955,3.07820248604,,-0.0158644096372,0.0287136692933,0.0279738327342,-0.999070265554
124812000000,,561,,124,812000000,"""map""",,,-1.92612075806,-1.94548988342,3.11944150925,,-0.0144863696928,0.0274606632434,0.0277824017483,-0.999131799953
124844000000,,562,,124,844000000,"""map""",,,-1.95345246792,-1.97181415558,3.15228438377,,-0.013053133182,0.0263075425903,0.027632780436,-0.99918667515
124876000000,,563,,124,876000000,"""map""",,,-1.98050236702,-1.99766683578,3.18425035477,,-0.0123445359987,0.0257234748564,0.0276157952561,-0.999211331056
124912000000,,564,,124,912000000,"""map""",,,-2.0066010952,-2.02278828621,3.21477246284,,-0.0109571460394,0.0244967855621,0.0276037834043,-0.999258661967
124944000000,,565,,124,944000000,"""map""",,,-2.03178215027,-2.04722094536,3.24392151833,,-0.00970691575462,0.0232747791779,0.0276093046414,-0.999300682375
124976000000,,566,,124,976000000,"""map""",,,-2.0561132431,-2.07097220421,3.27174162865,,-0.00918916608681,0.0225900265741,0.0276149523191,-0.999321165744
125012000000,,567,,125,12000000,"""map""",,,-2.08535885811,-2.09974884987,3.30468225479,,-0.00808959629746,0.0212493386157,0.0276049213692,-0.999360362313
125044000000,,568,,125,44000000,"""map""",,,-2.10969924927,-2.12230753899,3.3311522007,,-0.00701887075757,0.0199291313915,0.02761360362,-0.999395344197
125076000000,,569,,125,76000000,"""map""",,,-2.13369059563,-2.14431619644,3.35673356056,,-0.00656692483263,0.019282609272,0.0276775403892,-0.999409379098
125112000000,,570,,125,112000000,"""map""",,,-2.15673351288,-2.16574692726,3.38118171692,,-0.00573598654335,0.018187844882,0.0277523931921,-0.999432897039
125144000000,,571,,125,144000000,"""map""",,,-2.17890501022,-2.18659448624,3.40457201004,,-0.00484911675191,0.0171348414333,0.0278015364175,-0.999454897694
125180000000,,572,,125,180000000,"""map""",,,-2.2002696991,-2.20686912537,3.42616033554,,-0.00448166208735,0.015927859742,0.027899317106,-0.999473779482
125212000000,,573,,125,212000000,"""map""",,,-2.22607469559,-2.23168230057,3.44650936127,,-0.00367252367923,0.00130033128083,0.0283343568764,-0.999590947721
125244000000,,574,,125,244000000,"""map""",,,-2.24799919128,-2.25128865242,3.45789575577,,0.00717823128451,-0.0318526058856,0.0278927421977,-0.999077514812
125276000000,,575,,125,276000000,"""map""",,,-2.26925492287,-2.27045798302,3.46526741982,,0.0219642150209,-0.0514483563639,0.0267391408071,-0.998075979251
125312000000,,576,,125,312000000,"""map""",,,-2.28851175308,-2.28875517845,3.46951460838,,0.0591311684017,-0.0840948231658,0.0234605796083,-0.994425092793
125344000000,,577,,125,344000000,"""map""",,,-2.3051674366,-2.30548977852,3.47222971916,,0.0853346023493,-0.0987554562478,0.0203023898088,-0.991238243136
125376000000,,578,,125,376000000,"""map""",,,-2.31878662109,-2.32003760338,3.47491407394,,0.0905872195287,-0.0983772906861,0.0189742583185,-0.990835993614
125412000000,,579,,125,412000000,"""map""",,,-2.33073830605,-2.33410692215,3.48357701302,,0.0753489100518,-0.0758683663377,0.0166489323925,-0.994127409602
125444000000,,580,,125,444000000,"""map""",,,-2.3384103775,-2.34204959869,3.50220251083,,0.0460475854387,-0.0406400525785,0.0149041371578,-0.998000957861
125476000000,,581,,125,476000000,"""map""",,,-2.34486055374,-2.34831547737,3.52832341194,,0.0324919070645,-0.02309251579,0.0143356183183,-0.999102381453
125512000000,,582,,125,512000000,"""map""",,,-2.35060238838,-2.35391950607,3.5569691658,,0.00591122984673,0.0131842362227,0.0138629414122,-0.999799532474
125544000000,,583,,125,544000000,"""map""",,,-2.35616731644,-2.35946536064,3.58379817009,,-0.0216779154302,0.049169567144,0.0137477540752,-0.998460569244
125576000000,,584,,125,576000000,"""map""",,,-2.36174750328,-2.36520457268,3.60461521149,,-0.0355269286261,0.0647295606311,0.0136873576413,-0.997176312623
125612000000,,585,,125,612000000,"""map""",,,-2.3690264225,-2.37283945084,3.62019491196,,-0.0630324124087,0.0893255052155,0.0134794893845,-0.993914568017
125644000000,,586,,125,644000000,"""map""",,,-2.37798118591,-2.38000464439,3.62510704994,,-0.0881033628418,0.0956593833298,0.0123875488332,-0.991430095591
125676000000,,587,,125,676000000,"""map""",,,-2.38873910904,-2.38861775398,3.62703490257,,-0.0923549726127,0.0877661383336,0.0113735799518,-0.991785477817
125712000000,,588,,125,708000000,"""map""",,,-2.40048217773,-2.39882850647,3.62800121307,,-0.0687014598785,0.0586682023929,0.0100065469203,-0.995860445866
125744000000,,589,,125,744000000,"""map""",,,-2.41262531281,-2.41019773483,3.62915205956,,-0.0258318170348,0.0274665133413,0.00932309362485,-0.999245427857
125776000000,,590,,125,776000000,"""map""",,,-2.42465186119,-2.42207860947,3.63368272781,,-0.0117596605599,0.0177333711339,0.00897108314609,-0.999733404069
125812000000,,591,,125,812000000,"""map""",,,-2.43891954422,-2.43666124344,3.64761543274,,-0.00265482504862,0.0112419879418,0.00883182995861,-0.999894320737
125844000000,,592,,125,844000000,"""map""",,,-2.45082211494,-2.44686746597,3.66427063942,,0.000184603196478,0.0130614321599,0.00946807878373,-0.999869875564
125876000000,,593,,125,876000000,"""map""",,,-2.46264481544,-2.45649886131,3.68198108673,,0.00144290328567,0.0159889871603,0.0100962775608,-0.99982018443
125912000000,,594,,125,912000000,"""map""",,,-2.47404789925,-2.46595144272,3.69785141945,,0.00302460404602,0.021817454426,0.0116608107244,-0.999689402759
125944000000,,595,,125,944000000,"""map""",,,-2.48516941071,-2.47528457642,3.71076464653,,0.00351314397218,0.0240243108292,0.0134638107568,-0.999614592103
125976000000,,596,,125,976000000,"""map""",,,-2.49622821808,-2.4844827652,3.72111105919,,0.0034268371046,0.0249479702096,0.0143692936502,-0.999579610219
126012000000,,597,,126,12000000,"""map""",,,-2.50994300842,-2.49576020241,3.7320125103,,0.00325018715014,0.0268249820837,0.0160399525783,-0.999506232555
126044000000,,598,,126,44000000,"""map""",,,-2.52202582359,-2.50424456596,3.74117159843,,0.00321625366874,0.0241280816386,0.0175798719824,-0.999549180194
126076000000,,599,,126,76000000,"""map""",,,-2.53435945511,-2.51249480247,3.75044083595,,0.00310704064753,0.0215610962199,0.0183027325812,-0.999595162406
126112000000,,600,,126,112000000,"""map""",,,-2.54657006264,-2.52063393593,3.7598297596,,0.00278823464141,0.0185492290832,0.019658259523,-0.99963081864
126144000000,,601,,126,144000000,"""map""",,,-2.55846476555,-2.52865982056,3.76943588257,,0.00267269959293,0.0164624911983,0.0208089106342,-0.999644347778
