rosbagTimestamp,header,seq,stamp,secs,nsecs,frame_id,pose,position,x,y,z,orientation,x,y,z,w
109380000000,,228,,109,380000000,"""map""",,,0.00672285631299,0.00636666128412,-0.000720452400856,,0.00891729906658,-0.00892713658644,0.0325662797885,-0.9993899494
109416000000,,229,,109,416000000,"""map""",,,0.00681877229363,0.00641710078344,-0.000382534693927,,0.00889485456263,-0.00891298708917,0.0325670805786,-0.999390244428
109448000000,,230,,109,448000000,"""map""",,,0.0069340839982,0.00647493358701,-0.000161355914315,,0.00889636419231,-0.00899751629946,0.0325484938184,-0.999390117988
109480000000,,231,,109,480000000,"""map""",,,0.00705423252657,0.00655946834013,2.95724603347e-05,,0.00891140157767,-0.00897888721235,0.0324762541201,-0.999392478211
109516000000,,232,,109,516000000,"""map""",,,0.00723774312064,0.00671488279477,0.000265840673819,,0.00892943680427,-0.00893865508456,0.0324856528673,-0.999392351771
109548000000,,233,,109,548000000,"""map""",,,0.0074355006218,0.00670978799462,0.000604759086855,,0.00897040875921,-0.00893320106911,0.0324921013351,-0.999391888155
109580000000,,234,,109,580000000,"""map""",,,0.00767831504345,0.00670046405867,0.000931423041038,,0.00899236944743,-0.00890936484614,0.0324861164826,-0.999392056743
109616000000,,235,,109,616000000,"""map""",,,0.00795713905245,0.00676305871457,0.00118377245963,,0.00903888502619,-0.00890938465649,0.0324345708869,-0.999393279001
109648000000,,236,,109,648000000,"""map""",,,0.00827672146261,0.00687725143507,0.0012473820243,,0.00901198362195,-0.00886173882243,0.0324010641423,-0.999395091316
109680000000,,237,,109,680000000,"""map""",,,0.0086257411167,0.00703778117895,0.00125766335987,,0.00903960354455,-0.00886798652678,0.0323869870949,-0.99939517561
109716000000,,238,,109,716000000,"""map""",,,0.00907759461552,0.00728032458574,0.00112751009874,,0.009057030222,-0.00866283515189,0.03239975759,-0.999396482162
109748000000,,239,,109,748000000,"""map""",,,0.00896788667887,0.00738343177363,0.00122558115982,,0.00907515781203,-0.00864286495432,0.0323869870949,-0.999396861484
109780000000,,240,,109,780000000,"""map""",,,0.00872689019889,0.00751950126141,0.00141428457573,,0.00910640632516,-0.00863580478097,0.0323563041892,-0.999397620127
109816000000,,241,,109,816000000,"""map""",,,0.00853914860636,0.00768365245312,0.0015640509082,,0.00907512607842,-0.00866284663526,0.0323250733745,-0.999398673798
109848000000,,242,,109,848000000,"""map""",,,0.00842992402613,0.00787829142064,0.00165777083021,,0.00911834666317,-0.00873123617372,0.0323275178917,-0.99939757798
109880000000,,243,,109,880000000,"""map""",,,0.00837341230363,0.00813021324575,0.00169717683457,,0.00910107600418,-0.00871412027269,0.0322758458554,-0.999399601029
109916000000,,244,,109,916000000,"""map""",,,0.00831884052604,0.00851772259921,0.00162109779194,,0.00906976827349,-0.00876922385062,0.0322355113214,-0.9994006547
109948000000,,245,,109,948000000,"""map""",,,0.00818776339293,0.00888619013131,0.00169274001382,,0.00913573308194,-0.00876578389194,0.0322066407301,-0.999401034022
109980000000,,246,,109,980000000,"""map""",,,0.00801991578192,0.00931288208812,0.00175419042353,,0.00908041011607,-0.00872615527647,0.032120998334,-0.999404658651
110016000000,,247,,110,16000000,"""map""",,,0.00786820054054,0.00974738691002,0.0017680444289,,0.00907423992446,-0.00875144433223,0.0320929285329,-0.999405417294
110048000000,,248,,110,48000000,"""map""",,,0.00770802050829,0.010189124383,0.00180341419764,,0.00903862338851,-0.00877194332046,0.0320992084133,-0.999405375147
110080000000,,249,,110,80000000,"""map""",,,0.00758335459977,0.0106635773554,0.00184769544285,,0.00905869380832,-0.00879875336708,0.0321198603691,-0.999404279329
110116000000,,250,,110,116000000,"""map""",,,0.00748543674126,0.0112743088976,0.00187679100782,,0.00908408183098,-0.0087991855575,0.0320888824354,-0.999405080119
110148000000,,251,,110,148000000,"""map""",,,0.00729608023539,0.0112286536023,0.00201590522192,,0.00906006623565,-0.00877183204702,0.0320729930735,-0.999405965203
110180000000,,252,,110,180000000,"""map""",,,0.00710408436134,0.0110798226669,0.00203435309231,,0.00910993567097,-0.00875863827244,0.032102074399,-0.999404700797
110216000000,,253,,110,216000000,"""map""",,,0.00695799011737,0.0110106514767,0.00213297200389,,0.00908512031451,-0.0087018797207,0.0319885729359,-0.999409126216
110248000000,,254,,110,248000000,"""map""",,,0.00684341834858,0.0109939677641,0.00216541090049,,0.00913995278819,-0.00866782169206,0.0319427171648,-0.999410306328
110280000000,,255,,110,280000000,"""map""",,,0.00673110876232,0.0110016940162,0.00217497651465,,0.00911969686463,-0.00864790376647,0.0319376173961,-0.999410854237
110316000000,,256,,110,316000000,"""map""",,,0.00660748640075,0.0110733117908,0.00223069847561,,0.00910488790674,-0.0085995148421,0.031826644744,-0.999414942482
110348000000,,257,,110,348000000,"""map""",,,0.00656778691337,0.0109840743244,0.00217511015944,,0.00915735418885,-0.0085541819141,0.031766543338,-0.999416796943
110380000000,,258,,110,380000000,"""map""",,,0.0065955389291,0.0109241427854,0.00206256890669,,0.00913550454642,-0.00857373982164,0.0317163042946,-0.999418398523
110416000000,,259,,110,416000000,"""map""",,,0.00663375901058,0.010939585045,0.00182136730291,,0.00912493239636,-0.00841719049773,0.0317127218124,-0.999419957957
110448000000,,260,,110,448000000,"""map""",,,0.00674590468407,0.0110538275912,0.0016858902527,,0.00911870709281,-0.0084318675615,0.0316542641336,-0.999421770271
110480000000,,261,,110,480000000,"""map""",,,0.00686555774882,0.0112255383283,0.00156022852752,,0.00908543007738,-0.00849086205705,0.0316609233356,-0.999421348803
110516000000,,262,,110,516000000,"""map""",,,0.0070438045077,0.0114591773599,0.00139442377258,,0.00909863642605,-0.00847504787214,0.0316445703584,-0.999421854565
110548000000,,263,,110,548000000,"""map""",,,0.00745877623558,0.0114424256608,0.00102377682924,,0.00904826209288,-0.00853525164063,0.031607691866,-0.99942299253
110580000000,,264,,110,580000000,"""map""",,,0.00794821511954,0.0114206355065,0.000488357443828,,0.0090714667318,-0.00855279115041,0.0315913810356,-0.99942311897
110616000000,,265,,110,616000000,"""map""",,,0.00843600090593,0.0114850513637,-2.93095145025e-05,,0.00911766315571,-0.0085438275159,0.0315486441312,-0.999424130495
110648000000,,266,,110,648000000,"""map""",,,0.00894422456622,0.0115850763395,-0.000490298727527,,0.00913452078382,-0.00859320366023,0.0315104169396,-0.999424762697
110680000000,,267,,110,680000000,"""map""",,,0.00941643025726,0.0117194363847,-0.000917777884752,,0.00915559315852,-0.00860617276823,0.0315296780494,-0.999423877613
110716000000,,268,,110,716000000,"""map""",,,0.00995232071728,0.0119390077889,-0.00146428903099,,0.00915517280133,-0.00857960860566,0.0315167389669,-0.999424509816
110748000000,,269,,110,748000000,"""map""",,,0.0101575702429,0.012005507946,-0.00188369990792,,0.00915446762364,-0.00862916461496,0.0314389358845,-0.999426532865
110780000000,,270,,110,780000000,"""map""",,,0.0103243850172,0.0120816938579,-0.00222862837836,,0.0091347096832,-0.00864809015514,0.0314319816545,-0.999426743599
110816000000,,271,,110,816000000,"""map""",,,0.0104924393818,0.0122178969905,-0.00264995452017,,0.00918767143773,-0.00860058378331,0.0314227093478,-0.99942699648
110848000000,,272,,110,848000000,"""map""",,,0.0106904078275,0.0123900668696,-0.0030618919991,,0.00916135741918,-0.00861292612158,0.0314195904811,-0.999427249361
110880000000,,273,,110,880000000,"""map""",,,0.0109294261783,0.0126229189336,-0.00330943521112,,0.00921887578722,-0.00857973833893,0.0314006665461,-0.999427544389
110916000000,,274,,110,916000000,"""map""",,,0.0112221976742,0.012964470312,-0.00362040894106,,0.00912319126642,-0.00860586475462,0.0314243530749,-0.999427460096
110948000000,,275,,110,948000000,"""map""",,,0.0112551851198,0.0128900976852,-0.00369991501793,,0.00918405868314,-0.00861339245341,0.0313812789958,-0.999428218739
110980000000,,276,,110,980000000,"""map""",,,0.0112413093448,0.0127639956772,-0.00370000116527,,0.00911276893524,-0.00856278956415,0.0313909306241,-0.999429019529
111016000000,,277,,111,16000000,"""map""",,,0.011298103258,0.0127315446734,-0.00366593175568,,0.00917473867315,-0.00857813558566,0.031398727791,-0.999428050151
111048000000,,278,,111,48000000,"""map""",,,0.0114060258493,0.0127679537982,-0.00357339926995,,0.0091691100315,-0.00856349554444,0.0313771907515,-0.999428935235
111080000000,,279,,111,80000000,"""map""",,,0.0115468669683,0.0128527022898,-0.00354202929884,,0.00919071644464,-0.0085426569942,0.0313669069204,-0.999429188116
111116000000,,280,,111,116000000,"""map""",,,0.0117220338434,0.0130611071363,-0.00351512152702,,0.00911041350675,-0.00845486249515,0.0313441476222,-0.999431379752
111148000000,,281,,111,148000000,"""map""",,,0.0117256920785,0.0130211468786,-0.00343769206665,,0.00907340503408,-0.00844335072556,0.0313071426892,-0.999432981333
111180000000,,282,,111,180000000,"""map""",,,0.0116886673495,0.0129638165236,-0.00345021579415,,0.0090221337633,-0.00842791012059,0.031332515092,-0.999432812745
111216000000,,283,,111,216000000,"""map""",,,0.0116982394829,0.0129635818303,-0.00343078025617,,0.00899355214963,-0.00837881377537,0.0312943721941,-0.99943462506
111248000000,,284,,111,248000000,"""map""",,,0.0117214806378,0.0129973543808,-0.00345809338614,,0.00899143795423,-0.00839012915464,0.0312756589934,-0.999435130822
111280000000,,285,,111,280000000,"""map""",,,0.0117672709748,0.0130764199421,-0.00354454386979,,0.00895517927564,-0.00835610401207,0.0312483056887,-0.999436605962
111316000000,,286,,111,312000000,"""map""",,,0.0118322242051,0.0132784806192,-0.00352567993104,,0.0089344504348,-0.00835869653716,0.0312505816185,-0.999436774549
111348000000,,287,,111,348000000,"""map""",,,0.0117951333523,0.0132510568947,-0.00353672588244,,0.00910454875632,-0.00831650336416,0.0312364202774,-0.999436015906
111380000000,,288,,111,380000000,"""map""",,,0.0117771076038,0.0131833348423,-0.00344698969275,,0.00913205760098,-0.0082856846748,0.0312062852807,-0.99943690099
111416000000,,289,,111,416000000,"""map""",,,0.0117676770315,0.0131907006726,-0.00333651900291,,0.00912883789457,-0.00832183819206,0.0312139560072,-0.999436395227
111448000000,,290,,111,448000000,"""map""",,,0.0117554012686,0.0132322404534,-0.00318629434332,,0.00902398707218,-0.00833108547404,0.0311872770521,-0.999438123248
111480000000,,291,,111,480000000,"""map""",,,0.0117743881419,0.0133161302656,-0.00309762731194,,0.00907327406605,-0.00837560946243,0.0311468160775,-0.999438544717
111516000000,,292,,111,516000000,"""map""",,,0.011803759262,0.0134912803769,-0.00295770470984,,0.00905518950778,-0.00839372167957,0.0311262484154,-0.999439219066
111548000000,,293,,111,548000000,"""map""",,,0.0115619106218,0.0133208893239,-0.00270953890868,,0.0090352688451,-0.00841778722137,0.0311414634277,-0.999438755451
111580000000,,294,,111,580000000,"""map""",,,0.0112379193306,0.0131034711376,-0.00247285771184,,0.00896278966293,-0.00839461149667,0.0311602609222,-0.999439008332
111616000000,,295,,111,616000000,"""map""",,,0.0109526384622,0.0129509232938,-0.00222455780022,,0.00895146066002,-0.00838530303179,0.0311676366207,-0.999438966185
111648000000,,296,,111,648000000,"""map""",,,0.0106868054718,0.0128798028454,-0.00190524710342,,0.00898085432081,-0.00841634004924,0.031166414362,-0.999438418276
111684000000,,297,,111,680000000,"""map""",,,0.0104137547314,0.0128699559718,-0.00165686639957,,0.00897647771632,-0.00843392705655,0.0311408733719,-0.999439092626
111716000000,,298,,111,716000000,"""map""",,,0.010081268847,0.0129770077765,-0.00133533100598,,0.00896951297019,-0.00845047230819,0.0310928259645,-0.999440525619
111748000000,,299,,111,748000000,"""map""",,,0.00961615238339,0.0129835251719,-0.00119721866213,,0.00895692483018,-0.00851248289643,0.0310972935305,-0.999440019856
111780000000,,300,,111,780000000,"""map""",,,0.0091072358191,0.0129781700671,-0.00105237518437,,0.00895278855328,-0.00853651248582,0.0310751242882,-0.999440525619
111816000000,,301,,111,816000000,"""map""",,,0.00862425472587,0.0130387283862,-0.000812571495771,,0.00894781185012,-0.00847418989154,0.0310248430979,-0.999442675108
111848000000,,302,,111,848000000,"""map""",,,0.00807680655271,0.0131750451401,-0.000506066251546,,0.00889998770998,-0.00844882339506,0.0309925586119,-0.999444276688
111880000000,,303,,111,880000000,"""map""",,,0.00775415776297,0.0132830506191,-0.000336940283887,,0.00891478055411,-0.00845556627343,0.0309615385314,-0.999445119625
111916000000,,304,,111,916000000,"""map""",,,0.00727520463988,0.0134835606441,-0.000183962605661,,0.00897782242305,-0.00839577366309,0.0309482622742,-0.999445414653
111948000000,,305,,111,948000000,"""map""",,,0.00692598940805,0.0136885968968,-8.31911456771e-05,,0.00902211174322,-0.00816524532189,0.0308588688085,-0.999449755778
111980000000,,306,,111,980000000,"""map""",,,0.00659129256383,0.0139353536069,6.24255699222e-05,,0.00904003296187,-0.0081825575515,0.0308789307084,-0.999448744254
112016000000,,307,,112,16000000,"""map""",,,0.00626545678824,0.0142033081502,0.000132040499011,,0.00906238729635,-0.00819910739237,0.0308895517142,-0.999448154198
112048000000,,308,,112,48000000,"""map""",,,0.00600515166298,0.014308351092,0.00031815120019,,0.00912690728902,-0.00815028578369,0.0309233113398,-0.99944693194
112080000000,,309,,112,80000000,"""map""",,,0.00575623568147,0.0143963713199,0.000601247535087,,0.00910009596647,-0.00815628051434,0.0309278631995,-0.99944693194
112116000000,,310,,112,116000000,"""map""",,,0.00540657155216,0.0145787717775,0.000942855258472,,0.00907752155464,-0.00825039788442,0.0309289590175,-0.999446341884
112148000000,,311,,112,148000000,"""map""",,,0.00510079879314,0.0147928353399,0.00124071375467,,0.00905726735976,-0.00832211206426,0.0309749412293,-0.999444529569
112180000000,,312,,112,180000000,"""map""",,,0.00481545878574,0.0150663023815,0.00138659868389,,0.00904393720472,-0.00835708726018,0.0309492316517,-0.999445119625
112216000000,,313,,112,216000000,"""map""",,,0.00453227898106,0.0153648201376,0.00142184062861,,0.00902097050617,-0.00838911684825,0.0308906475322,-0.999446889793
112248000000,,314,,112,248000000,"""map""",,,0.00428854860365,0.0153695028275,0.00165789632592,,0.00903131628155,-0.00841877370047,0.0308892988331,-0.999446636912
112280000000,,315,,112,280000000,"""map""",,,0.00405139336362,0.015308088623,0.00195092207287,,0.00898127157049,-0.0083540683481,0.030897938937,-0.999447269114
112316000000,,316,,112,316000000,"""map""",,,0.0037470983807,0.0152986859903,0.00220632040873,,0.0090075442448,-0.00835237782318,0.0309051039013,-0.999446847646
112348000000,,317,,112,348000000,"""map""",,,0.00348221231252,0.0153403384611,0.00237259059213,,0.00903486314053,-0.00833553900475,0.0308730722964,-0.999447774877
112380000000,,318,,112,380000000,"""map""",,,0.00319953728467,0.0154244191945,0.00236019585282,,0.00904966493674,-0.00837910269119,0.0308576465499,-0.999447690583
112416000000,,319,,112,416000000,"""map""",,,0.00289356545545,0.01554213278,0.00261856336147,,0.00913591206199,-0.00839542782433,0.0308215688475,-0.999447943464
112448000000,,320,,112,448000000,"""map""",,,0.00280376547016,0.0151553563774,0.00324732065201,,0.00909517956129,-0.00838095453893,0.0308195879457,-0.999448491373
112480000000,,321,,112,480000000,"""map""",,,0.00277546420693,0.0147015694529,0.00395052880049,,0.00909359131657,-0.00845364846835,0.0308315155038,-0.999447521995
112516000000,,322,,112,516000000,"""map""",,,0.00269605685025,0.0142643637955,0.00481983134523,,0.00907001844837,-0.00845628752373,0.0307406890452,-0.999450514422
112548000000,,323,,112,548000000,"""map""",,,0.00261285784654,0.0140172820538,0.00525122974068,,0.00910687895432,-0.00849968778823,0.0306882162188,-0.999451399506
112580000000,,324,,112,580000000,"""map""",,,0.00249851960689,0.013836841099,0.00560385687277,,0.00911447590319,-0.00854264466707,0.0306996801616,-0.999450640862
112616000000,,325,,112,616000000,"""map""",,,0.00236411625519,0.0137512292713,0.00585313281044,,0.00914649215574,-0.00853820430724,0.03067843815,-0.999450978037
112648000000,,326,,112,648000000,"""map""",,,0.00243752030656,0.0136229153723,0.00629448797554,,0.0090735881712,-0.00854727557263,0.0306447206712,-0.999452579617
112680000000,,327,,112,680000000,"""map""",,,0.00255633285269,0.0135451499373,0.00680872565135,,0.00912822974929,-0.00854198136869,0.0305941865998,-0.999453717582
112716000000,,328,,112,716000000,"""map""",,,0.00262439344078,0.013541277498,0.00735795497894,,0.00909208250878,-0.00860660802499,0.0305943551872,-0.999453464701
112748000000,,329,,112,748000000,"""map""",,,0.00267070927657,0.0135935284197,0.00769622251391,,0.00911413928405,-0.00863337442246,0.0305855464959,-0.999453338261
112780000000,,330,,112,780000000,"""map""",,,0.00269474601373,0.0136730670929,0.00793679151684,,0.00908392244263,-0.00858648492162,0.0305321885857,-0.99945561419
112816000000,,331,,112,816000000,"""map""",,,0.00269078882411,0.0137894125655,0.00829083379358,,0.00907393917542,-0.00859731902833,0.0305195023843,-0.999455993512
112848000000,,332,,112,848000000,"""map""",,,0.00283731869422,0.0137925166637,0.00827053654939,,0.00929460869375,-0.00860288589027,0.0304552284403,-0.999455951365
112880000000,,333,,112,880000000,"""map""",,,0.00297355651855,0.0137972170487,0.008260297589,,0.00927552753127,-0.00866270198184,0.0304386647288,-0.999456077806
112916000000,,334,,112,916000000,"""map""",,,0.00304621411487,0.0138723412529,0.0082996878773,,0.00922876136346,-0.00862578953319,0.0304474734201,-0.999456541421
112948000000,,335,,112,948000000,"""map""",,,0.0030532439705,0.0139829935506,0.00817655492574,,0.00919818335154,-0.0086679645139,0.0304655122713,-0.999455951365
112980000000,,336,,112,980000000,"""map""",,,0.00303190224804,0.014125100337,0.00795812439173,,0.00920330520203,-0.00866889073617,0.0304795471719,-0.99945548775
113016000000,,337,,113,16000000,"""map""",,,0.00295075331815,0.014287549071,0.00770959910005,,0.00919621440636,-0.00866999404518,0.0304378639387,-0.999456794302
113048000000,,338,,113,48000000,"""map""",,,0.00291199609637,0.0142142130062,0.00789250899106,,0.00920709166832,-0.00870815990982,0.0303786897634,-0.999458143001
113080000000,,339,,113,80000000,"""map""",,,0.00284722098149,0.0141202770174,0.00799605343491,,0.00915636147416,-0.00867072416524,0.0303557618778,-0.999459660288
113116000000,,340,,113,116000000,"""map""",,,0.00269462866709,0.0141272116452,0.00798910483718,,0.0091556875156,-0.00871501616075,0.0303149215816,-0.999460461078
113148000000,,341,,113,148000000,"""map""",,,0.00251553789712,0.0141932815313,0.00790829211473,,0.00911965381228,-0.00870193693175,0.0302876525706,-0.99946176763
113180000000,,342,,113,180000000,"""map""",,,0.00234383880161,0.0143381068483,0.00782590359449,,0.00916077878493,-0.00869747313186,0.0302907292905,-0.999461304015
113216000000,,343,,113,216000000,"""map""",,,0.00215577310883,0.0145117696375,0.00765737937763,,0.00909117052754,-0.00870191050766,0.0302592455947,-0.999462863448
113248000000,,344,,113,248000000,"""map""",,,0.00208510807715,0.014466503635,0.00771456910297,,0.00907984148347,-0.00873680359131,0.030207404971,-0.999464296441
113280000000,,345,,113,280000000,"""map""",,,0.00200001569465,0.0144010242075,0.0076573388651,,0.00908411436719,-0.00871894625148,0.0301909677001,-0.999464886497
113316000000,,346,,113,316000000,"""map""",,,0.00180346425623,0.0143985664472,0.0075983479619,,0.00901011702384,-0.00871480597187,0.0301288853923,-0.999467457455
113348000000,,347,,113,348000000,"""map""",,,0.00155893992633,0.014463446103,0.00754513265565,,0.00898749965228,-0.00866839339101,0.030082481712,-0.999469438357
113380000000,,348,,113,380000000,"""map""",,,0.00129470869433,0.0145738776773,0.00746903335676,,0.00899471305041,-0.00866817110137,0.0300753167478,-0.999469606944
113416000000,,349,,113,416000000,"""map""",,,0.000973700545728,0.0147310076281,0.00739981001243,,0.00902240640073,-0.00867873260153,0.0300790256705,-0.999469185476
113448000000,,350,,113,448000000,"""map""",,,0.00074461416807,0.014618457295,0.00750435236841,,0.00897834988633,-0.00867915263974,0.030082228831,-0.999469438357
113480000000,,351,,113,480000000,"""map""",,,0.000517759064678,0.0144804473966,0.0076101096347,,0.00901905768133,-0.00870267532478,0.030098623955,-0.999468384685
113516000000,,352,,113,516000000,"""map""",,,0.000182988151209,0.0144279999658,0.00779481371865,,0.00898646815549,-0.00864472551748,0.0300020655251,-0.999472051461
113548000000,,353,,113,548000000,"""map""",,,-0.00010260361887,0.014428880997,0.00793436914682,,0.00893763514575,-0.0086067952883,0.0299688538085,-0.999473821629
113580000000,,354,,113,580000000,"""map""",,,-0.000414919952163,0.014496830292,0.00792694557458,,0.00913360034439,-0.00859304145248,0.0299715933536,-0.999472093608
113616000000,,355,,113,616000000,"""map""",,,-0.000725847377907,0.0146171385422,0.00786425638944,,0.00913133540403,-0.00859489414398,0.0299618152848,-0.999472430783
113648000000,,356,,113,648000000,"""map""",,,-0.000916911347304,0.0145211331546,0.00767673319206,,0.00908692534384,-0.00857421103082,0.0299655242074,-0.999472852251
113680000000,,357,,113,680000000,"""map""",,,-0.00109011493623,0.0144320745021,0.00740155111998,,0.00911734067469,-0.00861732746264,0.0299442821958,-0.999472852251
113716000000,,358,,113,716000000,"""map""",,,-0.00136454729363,0.014430067502,0.00695794587955,,0.00910383896882,-0.00865559044202,0.0299836894991,-0.999471461405
113748000000,,359,,113,748000000,"""map""",,,-0.00160067563411,0.0145300524309,0.00659801717848,,0.00911225463256,-0.00868709311217,0.029963964774,-0.999471714286
113780000000,,360,,113,780000000,"""map""",,,-0.00186208693776,0.014653599821,0.00619958713651,,0.00914142356503,-0.00868080201591,0.0299643862425,-0.999471545699
113816000000,,361,,113,816000000,"""map""",,,-0.00211466266774,0.0148375537246,0.00568436970934,,0.00912048691224,-0.00860684108801,0.0299211014291,-0.999473610895
113848000000,,362,,113,848000000,"""map""",,,-0.00220082537271,0.0147968269885,0.00522946054116,,0.00909897804601,-0.00867366967019,0.0298981313967,-0.999473905923
113880000000,,363,,113,880000000,"""map""",,,-0.00225615687668,0.0147258229554,0.0048869214952,,0.00905945440665,-0.00860128157296,0.0298454056892,-0.99947647688
113916000000,,364,,113,916000000,"""map""",,,-0.00236586038955,0.0147528741509,0.00440882379189,,0.00909710864395,-0.00859876463643,0.0298280411876,-0.999476645468
113948000000,,365,,113,948000000,"""map""",,,-0.00250802049413,0.0148535333574,0.00394497765228,,0.00911703148805,-0.00856489777091,0.0297865265418,-0.999478036314
113980000000,,366,,113,980000000,"""map""",,,-0.00270946486853,0.0150115787983,0.00336903519928,,0.00912232379867,-0.00859363377211,0.0298050290083,-0.99947715123
114016000000,,367,,114,16000000,"""map""",,,-0.00295038358308,0.0152074573562,0.00282131158747,,0.00911694789405,-0.00858272518813,0.0297739667809,-0.999478289195
114048000000,,368,,114,48000000,"""map""",,,-0.00299398647621,0.0152814993635,0.00221970467828,,0.00916010797503,-0.00868884529331,0.029810128777,-0.999475844678
114084000000,,369,,114,84000000,"""map""",,,-0.00297816982493,0.0153694562614,0.00160293490626,,0.00915026561577,-0.00860290235389,0.0298041017776,-0.999476898349
114116000000,,370,,114,116000000,"""map""",,,-0.00297582475469,0.0155489034951,0.000774074054789,,0.00911246789809,-0.00864043797086,0.0297380155192,-0.999478837104
114148000000,,371,,114,148000000,"""map""",,,-0.00300100957975,0.0157437361777,5.97527759965e-05,,0.00907084574491,-0.00858346152321,0.0297557593424,-0.999479216426
114180000000,,372,,114,180000000,"""map""",,,-0.00305040390231,0.0160031989217,-0.000777714885771,,0.00909046006091,-0.00861203159176,0.0297560965172,-0.999478794957
114216000000,,373,,114,216000000,"""map""",,,-0.0031400769949,0.0163038056344,-0.00169326900505,,0.00929639890584,-0.00853427580114,0.0297068268513,-0.999479005691
114248000000,,374,,114,248000000,"""map""",,,-0.00313331582583,0.0162891894579,-0.00220388267189,,0.00930917287887,-0.00867307506624,0.0297381419597,-0.999476771908
114280000000,,375,,114,280000000,"""map""",,,-0.0031261278782,0.016227260232,-0.00268557062373,,0.00926987260958,-0.00865920313487,0.0297435789032,-0.999477066936
114316000000,,376,,114,316000000,"""map""",,,-0.00318522495218,0.016223276034,-0.00330193876289,,0.00925702298624,-0.00869327633061,0.0297049723899,-0.999478078461
114348000000,,377,,114,348000000,"""map""",,,-0.00328479334712,0.0162938423455,-0.00389463594183,,0.00922771685014,-0.0087186878345,0.0297317777856,-0.999477319817
114380000000,,378,,114,380000000,"""map""",,,-0.00342131243087,0.016396837309,-0.00450615119189,,0.00921365492868,-0.0087079595065,0.0297003783834,-0.999478457782
114416000000,,379,,114,416000000,"""map""",,,-0.00357864610851,0.0165428891778,-0.00511173903942,,0.00923780622533,-0.0086963442631,0.0297324099883,-0.999477361964
114448000000,,380,,114,448000000,"""map""",,,-0.003630080726,0.0164238475263,-0.00533613888547,,0.00917004100764,-0.00864828994108,0.0296922018948,-0.999479637894
114480000000,,381,,114,480000000,"""map""",,,-0.00366354710422,0.016280490905,-0.00538234133273,,0.00917709957579,-0.00867822972048,0.0296756803302,-0.999479806481
114516000000,,382,,114,516000000,"""map""",,,-0.00372203206643,0.0161941107363,-0.00537414196879,,0.00913803362486,-0.00864504938761,0.0296488749346,-0.999481239474
114548000000,,383,,114,548000000,"""map""",,,-0.00381970521994,0.0161876343191,-0.005363591481,,0.009174405676,-0.00861326080625,0.0295667307268,-0.999483641845
114580000000,,384,,114,580000000,"""map""",,,-0.00396347790956,0.0162439513952,-0.00547398393974,,0.00914490623651,-0.0085567187716,0.0295701867684,-0.999484231901
114616000000,,385,,114,616000000,"""map""",,,-0.00413331575692,0.0163796916604,-0.00553012639284,,0.0091751895086,-0.00857912959685,0.0295773095858,-0.999483599698
114648000000,,386,,114,648000000,"""map""",,,-0.0041900719516,0.0162856485695,-0.00467896880582,,0.00911149761507,-0.00862353403883,0.0295261854585,-0.999485327719
114680000000,,387,,114,680000000,"""map""",,,-0.00419661588967,0.0161265395582,-0.00373407476582,,0.00913170532083,-0.00862691276317,0.0295425805826,-0.999484611222
114716000000,,388,,114,716000000,"""map""",,,-0.00424909312278,0.0159991793334,-0.00246859621257,,0.00912544978597,-0.0086626816287,0.0294972727205,-0.999485664893
114748000000,,389,,114,748000000,"""map""",,,-0.00433585280553,0.0159503687173,-0.00164158572443,,0.0091452908265,-0.00863501839651,0.0295222658016,-0.999485032691
114780000000,,390,,114,780000000,"""map""",,,-0.00442116288468,0.0159417148679,-0.001010084874,,0.00911993486673,-0.00863118898077,0.0294421867895,-0.999487645795
114816000000,,391,,114,816000000,"""map""",,,-0.00450502615422,0.0160042848438,-0.000547394156456,,0.00913648606585,-0.00862485048989,0.0294146227505,-0.999488320145
114848000000,,392,,114,848000000,"""map""",,,-0.00447270739824,0.0158165730536,-0.00040985972737,,0.0090792236864,-0.00861455805661,0.029344111073,-0.99949105969
114880000000,,393,,114,884000000,"""map""",,,-0.00441036745906,0.0156319700181,-0.000516852131113,,0.00907181335259,-0.00858874613709,0.0293558278969,-0.999490975396
114916000000,,394,,114,916000000,"""map""",,,-0.00438245153055,0.0154751241207,-0.000780192378443,,0.00906917542908,-0.00856591287611,0.0292840939607,-0.999493251326
114948000000,,395,,114,948000000,"""map""",,,-0.00440541747957,0.0153987267986,-0.00109648751095,,0.00909524385169,-0.00859879735786,0.0292725035774,-0.999493124886
114980000000,,396,,114,980000000,"""map""",,,-0.00446500908583,0.0153949465603,-0.00133483624086,,0.00910772001856,-0.0085415704575,0.0292707334097,-0.999493546354
115016000000,,397,,115,16000000,"""map""",,,-0.00455545354635,0.0154714407399,-0.00171314517502,,0.00929616508138,-0.00853362059051,0.0292275750368,-0.999493124886
115048000000,,398,,115,48000000,"""map""",,,-0.00458825426176,0.0152406105772,-0.00210764375515,,0.0093007599522,-0.00848517850926,0.0292027083962,-0.999494220704
115080000000,,399,,115,80000000,"""map""",,,-0.00464288098738,0.0149605795741,-0.00252954754978,,0.00924274407437,-0.00840525828863,0.0291775467277,-0.999496201605
115116000000,,400,,115,116000000,"""map""",,,-0.00474134413525,0.0147593384609,-0.0032543707639,,0.00922419579787,-0.0084375754137,0.0291858918037,-0.999495864431
115148000000,,401,,115,148000000,"""map""",,,-0.00486300606281,0.0146946543828,-0.00373549689539,,0.00915667627902,-0.00849051475714,0.0291393195361,-0.99949733957
115180000000,,402,,115,180000000,"""map""",,,-0.00501425703987,0.0147072598338,-0.00427080038935,,0.0091786448299,-0.00852611221589,0.0291431970461,-0.999496749515
115216000000,,403,,115,216000000,"""map""",,,-0.0052071204409,0.0147838350385,-0.0049060578458,,0.00907911494424,-0.00849098423764,0.029152427206,-0.999497718892
115248000000,,404,,115,248000000,"""map""",,,-0.00530404783785,0.0144642097875,-0.00600219937041,,0.00918616061315,-0.00855944463137,0.0291886313488,-0.999495063641
115280000000,,405,,115,280000000,"""map""",,,-0.00542598217726,0.0140598453581,-0.0071884477511,,0.00914873275053,-0.00854941382548,0.0292037620674,-0.999495105787
115316000000,,406,,115,316000000,"""map""",,,-0.00562431197613,0.0136773902923,-0.00858216173947,,0.00915076316672,-0.00850870972451,0.029219735723,-0.999494979347
115348000000,,407,,115,348000000,"""map""",,,-0.00582570210099,0.0135030867532,-0.00964345782995,,0.00909285010415,-0.00846682431817,0.0291963020753,-0.999496496633
115380000000,,408,,115,380000000,"""map""",,,-0.00604778947309,0.0134203555062,-0.0106781860813,,0.00906742800181,-0.00849918879671,0.0292023712214,-0.999496328046
115416000000,,409,,115,416000000,"""map""",,,-0.00630151620135,0.0134026613086,-0.0117408782244,,0.00904020681762,-0.00853635532006,0.0291791483079,-0.999496960249
115448000000,,410,,115,448000000,"""map""",,,-0.00636742124334,0.0132073797286,-0.0124613763765,,0.00905162548548,-0.00847252572899,0.0291469481156,-0.999498308948
115480000000,,411,,115,480000000,"""map""",,,-0.00642000511289,0.0130557287484,-0.0130093405023,,0.0090586743401,-0.00850432968325,0.0291659984912,-0.999497381717
115516000000,,412,,115,516000000,"""map""",,,-0.0065654409118,0.0130003150553,-0.0137352552265,,0.00899479636658,-0.00846887148609,0.029164101883,-0.999498266801
115548000000,,413,,115,548000000,"""map""",,,-0.00670287525281,0.0130439316854,-0.0142317861319,,0.00899016064542,-0.00852912919349,0.0291744700077,-0.999497508158
115580000000,,414,,115,580000000,"""map""",,,-0.0068918117322,0.0131688788533,-0.0146542098373,,0.00902002403365,-0.00848763986051,0.0291840373423,-0.999497381717
115616000000,,415,,115,616000000,"""map""",,,-0.00712067680433,0.0133769372478,-0.015139259398,,0.00901995237578,-0.00848747575946,0.0292164904157,-0.999496454487
115648000000,,416,,115,648000000,"""map""",,,-0.00719780987129,0.0133927036077,-0.0150502361357,,0.00896818655865,-0.00843160379384,0.0291833629928,-0.999498308948
115680000000,,417,,115,680000000,"""map""",,,-0.00724387774244,0.0134118618444,-0.0149140078574,,0.00919122226856,-0.00846201157201,0.0291781367835,-0.999496201605
115716000000,,418,,115,716000000,"""map""",,,-0.00734624173492,0.0134903611615,-0.014544040896,,0.00911960612954,-0.00840613349428,0.0292091990109,-0.99949641234
115748000000,,419,,115,748000000,"""map""",,,-0.0074762487784,0.0135925896466,-0.0142281185836,,0.00914888007928,-0.00848625432403,0.0291931832085,-0.999495906578
115780000000,,420,,115,780000000,"""map""",,,-0.00762725807726,0.0137432282791,-0.0139648914337,,0.00915973198727,-0.00852619331976,0.0291886734957,-0.99949561155
115816000000,,421,,115,816000000,"""map""",,,-0.00783101376146,0.0139717301354,-0.0137826828286,,0.00909882153879,-0.00857472839985,0.0291906122507,-0.999495695843
115848000000,,422,,115,848000000,"""map""",,,-0.00775509234518,0.0139449695125,-0.0133363259956,,0.00909220036767,-0.00859325868985,0.0292080188991,-0.999495063641
115880000000,,423,,115,880000000,"""map""",,,-0.0076256445609,0.0138945626095,-0.0128470435739,,0.00904796776465,-0.00857223084922,0.0292444759231,-0.999494600025
115916000000,,424,,115,916000000,"""map""",,,-0.00754089141265,0.0139575181529,-0.0124394707382,,0.00908377389968,-0.00864484616489,0.0292454031538,-0.999493672795
115948000000,,425,,115,948000000,"""map""",,,-0.00754877040163,0.0141007341444,-0.0122147724032,,0.00903524124797,-0.00864231922672,0.0292352879101,-0.999494347144
115980000000,,426,,115,980000000,"""map""",,,-0.00761716021225,0.0143248112872,-0.0120403189212,,0.00905247688063,-0.00865046126522,0.0292099155073,-0.9994949372
116016000000,,427,,116,16000000,"""map""",,,-0.00774272391573,0.0146070476621,-0.0119349788874,,0.00906242841423,-0.00844201651439,0.0292244561701,-0.999496159459
116048000000,,428,,116,48000000,"""map""",,,-0.00802933331579,0.0146398479119,-0.0117689138278,,0.00911496040673,-0.00852528825323,0.0292542118451,-0.99949413641
116080000000,,429,,116,80000000,"""map""",,,-0.00837713945657,0.0146296890453,-0.011635187082,,0.009126352136,-0.00856255242638,0.0292571199777,-0.999493588501
116116000000,,430,,116,116000000,"""map""",,,-0.00883922725916,0.0147351073101,-0.0115368478,,0.00908381131324,-0.0086294409567,0.0291965128095,-0.999495190081
116148000000,,431,,116,148000000,"""map""",,,-0.00921671930701,0.0148830935359,-0.0116363260895,,0.00905521803099,-0.00868971154687,0.0292040992422,-0.999494684319
116184000000,,432,,116,184000000,"""map""",,,-0.00959738250822,0.0150815639645,-0.0118137616664,,0.00906305063589,-0.00870848940845,0.0292169961779,-0.999494094263
116216000000,,433,,116,216000000,"""map""",,,-0.0100158015266,0.0153461052105,-0.0120885306969,,0.00905462953915,-0.00873833559221,0.0292132451084,-0.999494052116
116248000000,,434,,116,248000000,"""map""",,,-0.0102372700348,0.0154331512749,-0.0125324847177,,0.00906105258098,-0.00882628988091,0.0292801321569,-0.999491228277
116280000000,,435,,116,280000000,"""map""",,,-0.0104379849508,0.0155012831092,-0.0129945455119,,0.00904877552093,-0.00882914448613,0.0292562770407,-0.999491986921
116316000000,,436,,116,316000000,"""map""",,,-0.010732059367,0.0156849846244,-0.0135093955323,,0.00904273474876,-0.00887567257466,0.0293206774252,-0.999489795285
116348000000,,437,,116,348000000,"""map""",,,-0.0109858382493,0.0158873368055,-0.0139288958162,,0.00900850778802,-0.0089067464243,0.0293296968508,-0.999489542403
116380000000,,438,,116,380000000,"""map""",,,-0.011275109835,0.0161464195698,-0.014375240542,,0.00900851440433,-0.00895946419838,0.0293531726454,-0.999488404439
116416000000,,439,,116,412000000,"""map""",,,-0.0116139631718,0.0164453033358,-0.0148716177791,,0.00900813559204,-0.00898487165324,0.0293906411937,-0.999487013593
116448000000,,440,,116,448000000,"""map""",,,-0.0116515709087,0.0165586862713,-0.0151924686506,,0.00901367733797,-0.00900926338938,0.0294189638759,-0.999485917774
116480000000,,441,,116,480000000,"""map""",,,-0.0116817187518,0.0166540406644,-0.0153768509626,,0.00896335843959,-0.00903547297332,0.0294358647622,-0.99948570704
116516000000,,442,,116,516000000,"""map""",,,-0.0117920711637,0.0168415587395,-0.0156201934442,,0.00897098645581,-0.00898836784803,0.0294139062541,-0.999486676418
116548000000,,443,,116,548000000,"""map""",,,-0.0119283525273,0.0170371718705,-0.015848679468,,0.00894273534145,-0.00898600586239,0.0294064462619,-0.999487140033
116576000000,,444,,116,576000000,"""map""",,,-0.0120854321867,0.0172997489572,-0.0161309298128,,0.0089119535846,-0.00895672309176,0.0294035802762,-0.999487730089
116616000000,,445,,116,616000000,"""map""",,,-0.0122881280258,0.0176274366677,-0.0164311788976,,0.00891273907899,-0.00898948122042,0.0293778706986,-0.999488235851
116648000000,,446,,116,648000000,"""map""",,,-0.0126467859372,0.017767906189,-0.016635781154,,0.0088692219923,-0.00900381161452,0.0293456283595,-0.99948945811
116680000000,,447,,116,680000000,"""map""",,,-0.0130794141442,0.0178854521364,-0.016835745424,,0.00888061386563,-0.0090355860166,0.0293186122296,-0.999489837431
116716000000,,448,,116,716000000,"""map""",,,-0.0136666577309,0.0180480182171,-0.0169971585274,,0.0088779743575,-0.00898458048911,0.0293376204583,-0.999489795285
116748000000,,449,,116,748000000,"""map""",,,-0.0141403665766,0.018232261762,-0.0170705169439,,0.00893636478253,-0.00902261283385,0.0293700735317,-0.999487940823
116780000000,,450,,116,780000000,"""map""",,,-0.0146721303463,0.0184648875147,-0.0171323567629,,0.00896640573082,-0.00902563213694,0.0293804416564,-0.999487350767
116816000000,,451,,116,816000000,"""map""",,,-0.0152435209602,0.0187436211854,-0.0172027759254,,0.00897162157568,-0.00902625363061,0.0293536362607,-0.999488109411
116848000000,,452,,116,848000000,"""map""",,,-0.0155089367181,0.01861233823,-0.0172209907323,,0.00896491730962,-0.00901131417287,0.0293592417916,-0.999488151557
116880000000,,453,,116,880000000,"""map""",,,-0.0157112386078,0.0184148233384,-0.0171158388257,,0.00896179085156,-0.00906280677377,0.0293565443933,-0.999487814383
116916000000,,454,,116,916000000,"""map""",,,-0.0160589236766,0.0182572323829,-0.0169568303972,,0.00899486868365,-0.00901069963958,0.0293365246403,-0.999488530879
116948000000,,455,,116,948000000,"""map""",,,-0.0163908880204,0.0182254258543,-0.0168889928609,,0.008982282727,-0.00902964713618,0.0292222645339,-0.999491776186
116980000000,,456,,116,980000000,"""map""",,,-0.0167839862406,0.0182062573731,-0.0167333241552,,0.00899603449972,-0.00892921510114,0.0292382803364,-0.999492113361
117016000000,,457,,117,16000000,"""map""",,,-0.0172192417085,0.0182138364762,-0.0166101977229,,0.0089465732488,-0.00898364572891,0.0292424107275,-0.999491944774
117048000000,,458,,117,48000000,"""map""",,,-0.0172807723284,0.0178478676826,-0.0162379201502,,0.00891106002716,-0.00892375692477,0.029184964573,-0.999494515732
117080000000,,459,,117,80000000,"""map""",,,-0.0172768160701,0.0173981562257,-0.0157455634326,,0.008922435015,-0.0089474836763,0.0291958806068,-0.999493883529
117116000000,,460,,117,116000000,"""map""",,,-0.0174317844212,0.0169473011047,-0.0151902055368,,0.00892569875129,-0.00896743758518,0.0291804970071,-0.999494094263
117148000000,,461,,117,148000000,"""map""",,,-0.0176137071103,0.0166661329567,-0.014964511618,,0.00910302342318,-0.00896657518256,0.0291928460337,-0.999492197655
117180000000,,462,,117,180000000,"""map""",,,-0.0178197622299,0.0164404008538,-0.0147105008364,,0.00910517482635,-0.00895047185544,0.0292088618361,-0.999491776186
117216000000,,463,,117,216000000,"""map""",,,-0.0180525574833,0.0162378065288,-0.0145110497251,,0.0090518016873,-0.00892100009539,0.029195543432,-0.999492956298
117248000000,,464,,117,248000000,"""map""",,,-0.0183449573815,0.0160751771182,-0.0142849981785,,0.00906676122035,-0.00898838101635,0.0291993366483,-0.999492113361
117280000000,,465,,117,280000000,"""map""",,,-0.0186967272311,0.0159522537142,-0.0141777498648,,0.00907149570262,-0.00897604956464,0.0291940682923,-0.999492324095
117316000000,,466,,117,316000000,"""map""",,,-0.0191648006439,0.0158912558109,-0.0141821699217,,0.00906351883531,-0.0090086019959,0.0291303422573,-0.999494009969
117348000000,,467,,117,348000000,"""map""",,,-0.0192047711462,0.0155206359923,-0.0144088435918,,0.00901186524343,-0.0089802977478,0.0291069086096,-0.999495358669
117380000000,,468,,117,380000000,"""map""",,,-0.0191992353648,0.0151244578883,-0.0146750342101,,0.00901488706043,-0.00899820052399,0.0290598305798,-0.999496580927
117416000000,,469,,117,416000000,"""map""",,,-0.0192520301789,0.0148140750825,-0.014986817725,,0.00897229674715,-0.0089961085924,0.0289996448801,-0.99949868827
117448000000,,470,,117,448000000,"""map""",,,-0.0193770844489,0.0145691093057,-0.0152810933068,,0.00899735247365,-0.00906134722048,0.0290121624941,-0.999497550305
117480000000,,471,,117,480000000,"""map""",,,-0.0195656772703,0.0143882771954,-0.0155752040446,,0.00896149539403,-0.00901406832433,0.0289908361888,-0.999498899004
117516000000,,472,,117,516000000,"""map""",,,-0.0199125111103,0.0142412288114,-0.0158359725028,,0.00903749705296,-0.00904543444489,0.0290096336832,-0.999497381717
117548000000,,473,,117,548000000,"""map""",,,-0.0198967065662,0.0139622269198,-0.015918744728,,0.00895427280971,-0.0089877341147,0.028959900402,-0.999500079116
117584000000,,474,,117,584000000,"""map""",,,-0.0198532212526,0.0136652216315,-0.0159722622484,,0.00896463263061,-0.00899674735614,0.0289644522616,-0.999499741941
117616000000,,475,,117,616000000,"""map""",,,-0.0199186243117,0.0134231252596,-0.0160656217486,,0.00890550670397,-0.00897040605944,0.0288580314691,-0.999503661598
117648000000,,476,,117,648000000,"""map""",,,-0.0200564470142,0.013226820156,-0.016198631376,,0.0089422930645,-0.00896425387233,0.0288615718044,-0.999503240129
117680000000,,477,,117,680000000,"""map""",,,-0.0202274508774,0.0130651239306,-0.0163864959031,,0.00896615636497,-0.00893419366804,0.0288156738864,-0.999504630975
117716000000,,478,,117,716000000,"""map""",,,-0.0205355007201,0.012909787707,-0.0166527312249,,0.00900116197613,-0.0088605749582,0.0288112484673,-0.999505094591
117748000000,,479,,117,748000000,"""map""",,,-0.020410541445,0.0127363624051,-0.0164153520018,,0.0091374745926,-0.00888784084624,0.0288453874146,-0.999502650073
117780000000,,480,,117,780000000,"""map""",,,-0.0202174037695,0.0125545626506,-0.0160011611879,,0.00916138027273,-0.00889796216084,0.0288258312768,-0.999502902954
117816000000,,481,,117,816000000,"""map""",,,-0.0201475005597,0.0124053480104,-0.0156027730554,,0.00915193738245,-0.008911412953,0.0288020183074,-0.999503535157
117848000000,,482,,117,848000000,"""map""",,,-0.0201872363687,0.0122885387391,-0.0153221674263,,0.00909891499037,-0.00895980050883,0.0288696639993,-0.999501638549
117880000000,,483,,117,880000000,"""map""",,,-0.0202955044806,0.0121964318678,-0.0151210231707,,0.00911577179016,-0.00897560488246,0.0288707598174,-0.999501301374
117916000000,,484,,117,916000000,"""map""",,,-0.0205276869237,0.0120993768796,-0.0149654364213,,0.00911788242531,-0.00895728088153,0.0288427321631,-0.999502270752
117948000000,,485,,117,948000000,"""map""",,,-0.0203800797462,0.0118601378053,-0.0147009911016,,0.00916105552797,-0.00893966062286,0.028857778588,-0.999501554255
117980000000,,486,,117,980000000,"""map""",,,-0.0202094707638,0.0116026364267,-0.0143804997206,,0.00916474498242,-0.00894969918723,0.028862246154,-0.999501385668
118016000000,,487,,118,16000000,"""map""",,,-0.0201406478882,0.0113902632147,-0.0140553731471,,0.00919735408966,-0.0089706284314,0.0288664608388,-0.999500711318
118048000000,,488,,118,48000000,"""map""",,,-0.020184064284,0.0111670969054,-0.0137485917658,,0.00917907157703,-0.00895952141972,0.0288163903828,-0.999502481486
118080000000,,489,,118,80000000,"""map""",,,-0.0203015506268,0.0109820514917,-0.0135876089334,,0.00919801070998,-0.00896797246995,0.0288310996329,-0.999501764989
118116000000,,490,,118,116000000,"""map""",,,-0.0205717105418,0.0107817845419,-0.0135359885171,,0.00917563463839,-0.00902754050118,0.028822164501,-0.999501764989
118148000000,,491,,118,148000000,"""map""",,,-0.0206491537392,0.0105207003653,-0.0134562039748,,0.00918199880737,-0.00902111838028,0.0288618668323,-0.999500584878
118180000000,,492,,118,180000000,"""map""",,,-0.020728295669,0.0102605530992,-0.0134713854641,,0.00914603601077,-0.00899529521405,0.0288380538629,-0.999501807136
118216000000,,493,,118,216000000,"""map""",,,-0.020858021453,0.0100670196116,-0.0135585591197,,0.00909416729606,-0.00899094003284,0.02890228566,-0.999500458437
118248000000,,494,,118,248000000,"""map""",,,-0.0210294444114,0.00989225041121,-0.0136558664963,,0.0090182250727,-0.00899547100685,0.0288509507986,-0.999502650073
118280000000,,495,,118,280000000,"""map""",,,-0.0212386269122,0.00973402615637,-0.013746291399,,0.00903626240612,-0.00895929867476,0.02885360605,-0.99950269222
118316000000,,496,,118,316000000,"""map""",,,-0.021614594385,0.0095135057345,-0.013901037164,,0.00901088740001,-0.00904185773468,0.0288421842541,-0.999502481486
118348000000,,497,,118,348000000,"""map""",,,-0.021507801488,0.00931365974247,-0.0138109028339,,0.00905373054358,-0.00900894544229,0.0288303831365,-0.999502734367
118380000000,,498,,118,380000000,"""map""",,,-0.0213769599795,0.00913928076625,-0.0137729374692,,0.00908418466682,-0.00896895427749,0.0288115013484,-0.999503408717
118416000000,,499,,118,416000000,"""map""",,,-0.0213662553579,0.0089610805735,-0.0137476203963,,0.00902976446064,-0.00902370112174,0.0288653228739,-0.999501849283
118448000000,,500,,118,448000000,"""map""",,,-0.0214561689645,0.00877233501524,-0.0137895084918,,0.00894602880742,-0.00897371931262,0.028863637,-0.999503113689
118480000000,,501,,118,480000000,"""map""",,,-0.0216123610735,0.00861132796854,-0.0139399208128,,0.00904347529749,-0.00896659351891,0.0288466096732,-0.999502776514
118516000000,,502,,118,516000000,"""map""",,,-0.0218359138817,0.00841780845076,-0.0141998520121,,0.00913065284838,-0.00901821739397,0.0288493913652,-0.999501427815
118548000000,,503,,118,548000000,"""map""",,,-0.0217113010585,0.00816916581243,-0.0145707912743,,0.00912333217437,-0.0090074531187,0.0288554605113,-0.999501427815
118580000000,,504,,118,580000000,"""map""",,,-0.0215715691447,0.00789148174226,-0.0149952936918,,0.00909967121555,-0.00905840547901,0.0288459774704,-0.999501385668
118616000000,,505,,118,616000000,"""map""",,,-0.02154808864,0.00763265835121,-0.0155710279942,,0.00913557387543,-0.00913185676887,0.0288692846777,-0.999499741941
118648000000,,506,,118,648000000,"""map""",,,-0.0216174889356,0.00738363247365,-0.0162218138576,,0.00908776854578,-0.00911956069254,0.0288497285399,-0.999500837759
118680000000,,507,,118,680000000,"""map""",,,-0.0217733792961,0.00714281480759,-0.0168824642897,,0.00907346837012,-0.0091379978448,0.0288584950844,-0.999500584878
118716000000,,508,,118,716000000,"""map""",,,-0.0220779106021,0.00684804935008,-0.0177315920591,,0.0090779462927,-0.00916345735555,0.0288930133534,-0.999499278325
118748000000,,509,,118,748000000,"""map""",,,-0.0220047459006,0.00655313767493,-0.0181089546531,,0.00904560498413,-0.00920211805722,0.0289482678718,-0.999497634598
118780000000,,510,,118,780000000,"""map""",,,-0.0219195764512,0.00625312561169,-0.0184360574931,,0.00901644613047,-0.00919476588627,0.0289857364201,-0.999496918102
118816000000,,511,,118,816000000,"""map""",,,-0.0219526458532,0.00597736472264,-0.0189274083823,,0.00902982589243,-0.00918941246477,0.0290151127735,-0.999495948724
118848000000,,512,,118,848000000,"""map""",,,-0.0220682006329,0.00570247787982,-0.0194242782891,,0.00906374977349,-0.00916982904892,0.0290217298287,-0.999495653696
118880000000,,513,,118,880000000,"""map""",,,-0.0222676731646,0.00544396415353,-0.0198290366679,,0.00909604858794,-0.00913117001161,0.0290243429333,-0.999495653696
118916000000,,514,,118,916000000,"""map""",,,-0.0226122401655,0.00510346097872,-0.0202578101307,,0.00907634322816,-0.00915010092305,0.0290094650958,-0.999496117312
118948000000,,515,,118,948000000,"""map""",,,-0.0225444324315,0.00470625748858,-0.0198534335941,,0.00916585969762,-0.00912970528515,0.0290224041783,-0.999495063641
118980000000,,516,,118,980000000,"""map""",,,-0.0224438011646,0.00429572304711,-0.0192786417902,,0.00911973375984,-0.00908819475398,0.0290027216,-0.999496454487
119016000000,,517,,119,16000000,"""map""",,,-0.0224496964365,0.00390351819806,-0.0188640970737,,0.00906289643358,-0.00917923819908,0.0290277146812,-0.999495400815
119048000000,,518,,119,48000000,"""map""",,,-0.0225716158748,0.00353564182296,-0.0186116155237,,0.00903664288793,-0.00915980982929,0.0290175572907,-0.999496117312
119080000000,,519,,119,80000000,"""map""",,,-0.0227654669434,0.00317349447869,-0.0185562428087,,0.0090582638405,-0.00917075653683,0.0290108980887,-0.999496033018
119116000000,,520,,119,116000000,"""map""",,,-0.0230974107981,0.0027476074174,-0.0186706595123,,0.00906846395149,-0.00905443856382,0.0290292319678,-0.99949641234
119148000000,,521,,119,148000000,"""map""",,,-0.022977810353,0.00254197767936,-0.0185608062893,,0.00925782883892,-0.0091333449526,0.0290755092074,-0.999492619123
119180000000,,522,,119,180000000,"""map""",,,-0.0227807592601,0.00234153377824,-0.0183383114636,,0.00925098394274,-0.00914082468569,0.0290875632061,-0.999492281949
119216000000,,523,,119,216000000,"""map""",,,-0.0226715244353,0.00212050485425,-0.018373997882,,0.0092097539734,-0.00912859137769,0.0291391930955,-0.999491312571
119248000000,,524,,119,248000000,"""map""",,,-0.0226535815746,0.00189181417227,-0.0184164009988,,0.00922476821967,-0.00919698179335,0.029114031427,-0.999491270424
119280000000,,525,,119,280000000,"""map""",,,-0.0227025654167,0.00166930619162,-0.0185840148479,,0.00917419658941,-0.00918113394164,0.0291246524328,-0.999491523305
119316000000,,526,,119,316000000,"""map""",,,-0.0228465944529,0.00140022637788,-0.0189523268491,,0.00920442972852,-0.00929004203744,0.0290902184576,-0.999491228277
119348000000,,527,,119,348000000,"""map""",,,-0.0225569941103,0.00110035785474,-0.0188840925694,,0.00919638624274,-0.00927937100538,0.0290852029826,-0.999491607599
119380000000,,528,,119,380000000,"""map""",,,-0.0222221482545,0.000803489354439,-0.0188131742179,,0.00924026508646,-0.00930229755073,0.0290827584654,-0.999491017543
119416000000,,529,,119,416000000,"""map""",,,-0.022020323202,0.000505466538016,-0.0188896581531,,0.00928355560684,-0.00928023323694,0.0291312273412,-0.999489415963
119448000000,,530,,119,448000000,"""map""",,,-0.0219347756356,0.000231362457271,-0.0190142132342,,0.00918104180328,-0.00930996470147,0.0290983527993,-0.999491101837
119480000000,,531,,119,480000000,"""map""",,,-0.0219604130834,-3.15374563797e-05,-0.0192644093186,,0.00913477956094,-0.00931668134611,0.0291144528954,-0.999490933249
119516000000,,532,,119,516000000,"""map""",,,-0.0221420880407,-0.000379392062314,-0.0197677612305,,0.00912696043562,-0.00932283171964,0.0291457680039,-0.999490048166
119548000000,,533,,119,548000000,"""map""",,,-0.0220197234303,-0.00060658226721,-0.0198580641299,,0.00908056685996,-0.0093535190088,0.0291566418908,-0.999489879578
119580000000,,534,,119,580000000,"""map""",,,-0.0218689627945,-0.000817646796349,-0.0198286939412,,0.00908857550203,-0.00938314223408,0.0291574426809,-0.999489500257
119616000000,,535,,119,616000000,"""map""",,,-0.0218232478946,-0.00104652252048,-0.0199213586748,,0.00905568360137,-0.00936929064556,0.0292318318685,-0.999487772236
119648000000,,536,,119,648000000,"""map""",,,-0.0218554995954,-0.00130359246396,-0.0202553477138,,0.00910605061852,-0.00939150445282,0.0292548861947,-0.999486465683
119680000000,,537,,119,680000000,"""map""",,,-0.0219492092729,-0.00156226195395,-0.0206834338605,,0.00904812384999,-0.0093510288668,0.029238111749,-0.999487814383
119716000000,,538,,119,716000000,"""map""",,,-0.0222050771117,-0.00191420770716,-0.0212635155767,,0.00906222264994,-0.0093718645359,0.0293034393642,-0.999485538453
119748000000,,539,,119,748000000,"""map""",,,-0.0220819879323,-0.00214448315091,-0.021513029933,,0.00905471112664,-0.00929547748888,0.0293124587898,-0.999486128509
119780000000,,540,,119,780000000,"""map""",,,-0.0219324789941,-0.00234900088981,-0.0216053463519,,0.00908433147079,-0.00932472048703,0.0292659708158,-0.999486929299
119816000000,,541,,119,816000000,"""map""",,,-0.021920280531,-0.00252469233237,-0.0218966118991,,0.00911419624815,-0.00938489586608,0.0292973280711,-0.999485159131
119848000000,,542,,119,848000000,"""map""",,,-0.0220098849386,-0.00274476944469,-0.0221840403974,,0.00921210704039,-0.00949558563218,0.0292494913981,-0.999484611222
119880000000,,543,,119,880000000,"""map""",,,-0.0222152769566,-0.00298558059148,-0.0224783979356,,0.00924131985868,-0.00950499249802,0.0292330119803,-0.999484737663
119916000000,,544,,119,916000000,"""map""",,,-0.022551337257,-0.00324464985169,-0.0229912605137,,0.00919329873142,-0.00948160896137,0.0292104212695,-0.999486086362
119948000000,,545,,119,948000000,"""map""",,,-0.0222459100187,-0.00313045852818,-0.0233530011028,,0.00916855238836,-0.00949970532199,0.0292376902805,-0.999485285572
119980000000,,546,,119,980000000,"""map""",,,-0.0218600314111,-0.00297985132784,-0.0237768702209,,0.00915251979304,-0.00949830492709,0.0292699747665,-0.999484526928
120016000000,,547,,120,16000000,"""map""",,,-0.0215765982866,-0.00286478037015,-0.0243463348597,,0.00919590548725,-0.00958069596555,0.029242284287,-0.999484147607
120048000000,,548,,120,48000000,"""map""",,,-0.0213997103274,-0.00277275196277,-0.0248887445778,,0.00914624127086,-0.00953143494304,0.0292774769055,-0.999484021166
120080000000,,549,,120,80000000,"""map""",,,-0.0213038418442,-0.00272806594148,-0.0255304891616,,0.00914185394445,-0.00954310840589,0.0292599859634,-0.999484484782
120116000000,,550,,120,116000000,"""map""",,,-0.0213112067431,-0.00276458379813,-0.0264189112931,,0.00914160299783,-0.00951763792111,0.0292960636657,-0.999483726138
120148000000,,551,,120,148000000,"""map""",,,-0.0209350753576,-0.0028090798296,-0.0267783980817,,0.00918236889909,-0.00954035966169,0.0292665608717,-0.999483979019
120180000000,,552,,120,180000000,"""map""",,,-0.0205144379288,-0.00285418401472,-0.0269086286426,,0.00914786604422,-0.00953725040553,0.0292734729549,-0.999484063313
120216000000,,553,,120,216000000,"""map""",,,-0.0202146712691,-0.00290989479981,-0.0271183773875,,0.00922160854113,-0.00956368043082,0.0292356672318,-0.999484274047
120248000000,,554,,120,248000000,"""map""",,,-0.0200548898429,-0.0030061120633,-0.0274055171758,,0.0092549691094,-0.00953132348438,0.0292239504079,-0.999484611222
120276000000,,555,,120,276000000,"""map""",,,-0.0199943277985,-0.00307920575142,-0.027816625312,,0.00926626228337,-0.00959665986645,0.0292171226184,-0.99948410546
120316000000,,556,,120,316000000,"""map""",,,-0.0200656503439,-0.00314226699993,-0.0283286571503,,0.00921772635952,-0.00957702457992,0.0292632734175,-0.999483388964
120348000000,,557,,120,348000000,"""map""",,,-0.019775416702,-0.00306007592008,-0.0290124751627,,0.00927064258187,-0.00959899672192,0.0292583000894,-0.999482798908
120376000000,,558,,120,376000000,"""map""",,,-0.0194111522287,-0.00294559122995,-0.0297716092318,,0.00925885967716,-0.00960088828812,0.0292408091473,-0.99948343111
120416000000,,559,,120,416000000,"""map""",,,-0.0190813522786,-0.00280804862268,-0.0309587009251,,0.00938752921064,-0.00958467181483,0.0292219273591,-0.999482925348
120448000000,,560,,120,448000000,"""map""",,,-0.0189735535532,-0.00276099191979,-0.0316600985825,,0.00939839304446,-0.00962722647732,0.0292580050615,-0.999481408062
120480000000,,561,,120,480000000,"""map""",,,-0.0189089216292,-0.00275541027077,-0.0326333232224,,0.00935626931704,-0.00959766763505,0.0292719556683,-0.999481618796
120516000000,,562,,120,516000000,"""map""",,,-0.0189317595214,-0.00283329398371,-0.0337275639176,,0.00934722592661,-0.00967709889667,0.029314903307,-0.999479722188
120548000000,,563,,120,548000000,"""map""",,,-0.0186075270176,-0.00287215411663,-0.0340870991349,,0.00934505960329,-0.00968913811925,0.029321857537,-0.99947942716
120580000000,,564,,120,580000000,"""map""",,,-0.018235296011,-0.00288713444024,-0.034374628216,,0.0093515152122,-0.00972544839068,0.0293052516787,-0.999479511453
120616000000,,565,,120,616000000,"""map""",,,-0.0179672390223,-0.00290429242887,-0.0346794575453,,0.00939258933287,-0.0097988898916,0.0293171792368,-0.999478036314
120648000000,,566,,120,648000000,"""map""",,,-0.0178326331079,-0.00291920639575,-0.0349715873599,,0.00935190770473,-0.00978120603709,0.029352456149,-0.999477572698
120680000000,,567,,120,676000000,"""map""",,,-0.0177694242448,-0.00293553620577,-0.0353533923626,,0.00935283067544,-0.0098173446342,0.0293352602348,-0.999477656992
120716000000,,568,,120,716000000,"""map""",,,-0.0178206767887,-0.00293629197404,-0.0356140136719,,0.00933518756837,-0.00980936245738,0.0293441953667,-0.999477656992
120748000000,,569,,120,748000000,"""map""",,,-0.0175808053464,-0.00273918919265,-0.0355620533228,,0.00932933294305,-0.00980919535171,0.0293491686948,-0.999477572698
120780000000,,570,,120,780000000,"""map""",,,-0.0173105709255,-0.00249693263322,-0.0355365760624,,0.00926843566546,-0.00978252069772,0.0293790508104,-0.999477530552
120816000000,,571,,120,816000000,"""map""",,,-0.0171468053013,-0.00227712607011,-0.0356186851859,,0.00935492960084,-0.00979669846127,0.0293722230209,-0.999476771908
120848000000,,572,,120,848000000,"""map""",,,-0.0170968081802,-0.00209841923788,-0.0357474796474,,0.00932329131168,-0.00977230910078,0.0293768170274,-0.99947715123
120884000000,,573,,120,884000000,"""map""",,,-0.0171808563173,-0.00193715270143,-0.0359738320112,,0.0092965643034,-0.00977389419683,0.0293879859423,-0.999477109083
120916000000,,574,,120,916000000,"""map""",,,-0.0173847898841,-0.00177358346991,-0.0364716649055,,0.00938222163002,-0.00972312524117,0.0294421867895,-0.999475170328
120948000000,,575,,120,948000000,"""map""",,,-0.0172047447413,-0.00167597981635,-0.0366889089346,,0.00939546791323,-0.00978076600588,0.0294940274131,-0.999472978692
120980000000,,576,,120,980000000,"""map""",,,-0.0170507896692,-0.00160540733486,-0.0368984974921,,0.00928413623087,-0.00963688139835,0.0295188940538,-0.999474664566
121016000000,,577,,121,16000000,"""map""",,,-0.0169883426279,-0.00154950912111,-0.0370985232294,,0.0094164460852,-0.00965476578996,0.0295369750518,-0.999472767958
121048000000,,578,,121,48000000,"""map""",,,-0.0170160010457,-0.00149306561798,-0.0373533032835,,0.00941347071937,-0.00971598810042,0.0295841373753,-0.999470787056
121080000000,,579,,121,80000000,"""map""",,,-0.0171413514763,-0.00145660468843,-0.0376160815358,,0.00941884131447,-0.00972117397379,0.0295958120523,-0.99947032344
121116000000,,580,,121,116000000,"""map""",,,-0.0174127556384,-0.00145198300015,-0.0379578322172,,0.00935228651188,-0.00966631292544,0.029597835101,-0.999471419259
121148000000,,581,,121,148000000,"""map""",,,-0.0171763598919,-0.00143714866135,-0.0379721261561,,0.00925468923827,-0.00958381671537,0.0295806391868,-0.999473610895
121180000000,,582,,121,180000000,"""map""",,,-0.0168743021786,-0.00141750648618,-0.0379563570023,,0.00929811476413,-0.00961949818998,0.0295504620433,-0.999473779482
121216000000,,583,,121,216000000,"""map""",,,-0.016663884744,-0.0013865402434,-0.0379986912012,,0.00932469032775,-0.00967578859889,0.0295837580536,-0.999472009314
121248000000,,584,,121,248000000,"""map""",,,-0.0165434945375,-0.00134118134156,-0.0380611903965,,0.00945646103992,-0.00976385453146,0.0295925245981,-0.999469649091
121280000000,,585,,121,280000000,"""map""",,,-0.0165157113224,-0.00127262901515,-0.0381633713841,,0.0094598518753,-0.00976491150569,0.0296511930112,-0.999467878923
121316000000,,586,,121,316000000,"""map""",,,-0.0165748856962,-0.00116342830006,-0.0383843742311,,0.00949229622294,-0.0098577420798,0.0296753853023,-0.999465940168
121348000000,,587,,121,348000000,"""map""",,,-0.016115847975,-0.00113534950651,-0.0381858460605,,0.00948953317598,-0.0099091241507,0.0297095242496,-0.999464422882
121380000000,,588,,121,380000000,"""map""",,,-0.0155706647784,-0.00113042583689,-0.037955455482,,0.00946476900077,-0.00996348068192,0.0297126852632,-0.99946404356
121416000000,,589,,121,416000000,"""map""",,,-0.0151537461206,-0.0010991912568,-0.0378436110914,,0.00946741034047,-0.0100342407131,0.0296887880001,-0.999464001413
121448000000,,590,,121,448000000,"""map""",,,-0.0151088638231,-0.00114032870624,-0.0357197523117,,0.00754211196629,-0.00726223725932,0.0296232917975,-0.999506316849
121480000000,,591,,121,480000000,"""map""",,,-0.0156814623624,-0.001487321686,-0.0298813153058,,0.00305893141936,-0.00296398362466,0.029382211824,-0.999559168997
121516000000,,592,,121,516000000,"""map""",,,-0.0172328110784,-0.00234615406953,-0.019045330584,,-0.00851624938001,0.00804663495287,0.0287486182504,-0.999517991526
