rosbagTimestamp,header,seq,stamp,secs,nsecs,frame_id,pose,position,x,y,z,orientation,x,y,z,w
101884000000,,88,,101,884000000,"""map""",,,0.000896197394468,-0.00750312395394,0.0226102918386,,0.00872908079871,-0.0114565701422,0.0437571110051,-0.998938388065
101920000000,,89,,101,920000000,"""map""",,,0.00126919266768,-0.00774311786518,0.0227479897439,,0.00867303182868,-0.0114629964665,0.0436237162296,-0.998944667946
101952000000,,90,,101,952000000,"""map""",,,0.00174926419277,-0.00798892974854,0.022930406034,,0.00872206211366,-0.0114571746038,0.0434641061143,-0.998951200707
101984000000,,91,,101,984000000,"""map""",,,0.00233022286557,-0.00822180788964,0.0230724904686,,0.00871764435014,-0.0114287744603,0.0433817090254,-0.998955204658
102020000000,,92,,102,20000000,"""map""",,,0.00317210145295,-0.00851270183921,0.0234283525497,,0.00869414542415,-0.0113356227634,0.0431800363553,-0.998965193461
102052000000,,93,,102,52000000,"""map""",,,0.00291794491932,-0.00845659524202,0.02362200059,,0.00862551175089,-0.0112376143831,0.0430830564569,-0.998971051873
102084000000,,94,,102,84000000,"""map""",,,0.00247148540802,-0.0083517068997,0.0237872283906,,0.00865238341258,-0.0112392985284,0.0430047054655,-0.998974212887
102120000000,,95,,102,120000000,"""map""",,,0.00216538249515,-0.00829328969121,0.0239097177982,,0.00861139642559,-0.0111785996579,0.0428738816477,-0.998980872089
102152000000,,96,,102,152000000,"""map""",,,0.00196209526621,-0.00827535521239,0.0240456108004,,0.00858299529427,-0.0111053030779,0.0427395596415,-0.998987657731
102184000000,,97,,102,184000000,"""map""",,,0.00185277406126,-0.00827700085938,0.0242352187634,,0.00859448450871,-0.0109992442379,0.042629809248,-0.998993473996
102220000000,,98,,102,220000000,"""map""",,,0.00186369323637,-0.00830596778542,0.0247026868165,,0.00864231393778,-0.0110314306008,0.0424869735784,-0.998998742353
102252000000,,99,,102,252000000,"""map""",,,0.00146899314132,-0.00828990526497,0.0245490726084,,0.00866194770143,-0.0110525001561,0.0423107576048,-0.99900586517
102284000000,,100,,102,284000000,"""map""",,,0.00103494198993,-0.00828136410564,0.0242020320147,,0.00865058896112,-0.0111052958339,0.0422094787278,-0.999009616239
102320000000,,101,,102,320000000,"""map""",,,0.000673739647027,-0.00829225964844,0.0238319467753,,0.00863976561749,-0.0110469338086,0.0420732179665,-0.999016149001
102352000000,,102,,102,352000000,"""map""",,,0.000401562370826,-0.00832159258425,0.0235407855362,,0.00870936644568,-0.0110711386943,0.0419607701747,-0.999019942217
102384000000,,103,,102,384000000,"""map""",,,0.00024017279793,-0.00837813131511,0.0233480073512,,0.00874119530116,-0.0110994744651,0.0419235966543,-0.999020953742
102420000000,,104,,102,420000000,"""map""",,,0.000246599345701,-0.0085003869608,0.0230857022107,,0.00872180338798,-0.0111258561697,0.0417566529874,-0.999027823678
102452000000,,105,,102,452000000,"""map""",,,-0.000178262809641,-0.00840022694319,0.0229463726282,,0.00871317135121,-0.011081230395,0.0416358601195,-0.999033471356
102484000000,,106,,102,484000000,"""map""",,,-0.000679397489876,-0.00824391748756,0.022823413834,,0.00872616188249,-0.0110160093817,0.0415398074518,-0.999037981068
102520000000,,107,,102,520000000,"""map""",,,-0.00106233893894,-0.00811832305044,0.022696595639,,0.00869474453501,-0.0109878508417,0.041361146961,-0.999046031117
102552000000,,108,,102,552000000,"""map""",,,-0.00133858248591,-0.00800964981318,0.022614357993,,0.00871547428135,-0.0109337039129,0.0412910567519,-0.999049360718
102584000000,,109,,102,584000000,"""map""",,,-0.00152657763101,-0.0079250363633,0.0225191302598,,0.0087141579332,-0.0109348003072,0.0412464653862,-0.999051215179
102620000000,,110,,102,620000000,"""map""",,,-0.00166769360658,-0.00780746433884,0.0223226845264,,0.0087373984628,-0.0108449782936,0.0411915901894,-0.999054165458
102652000000,,111,,102,652000000,"""map""",,,-0.00224265339784,-0.00755558442324,0.0220222454518,,0.00870783664679,-0.010810212165,0.041073452573,-0.999059686695
102684000000,,112,,102,684000000,"""map""",,,-0.00284497160465,-0.00730178039521,0.0217035841197,,0.00869217077844,-0.010843835225,0.0410586168823,-0.999060108164
102720000000,,113,,102,720000000,"""map""",,,-0.00334292789921,-0.00706213852391,0.021430073306,,0.00869509018856,-0.0108343422236,0.0409931628266,-0.999062847709
102752000000,,114,,102,752000000,"""map""",,,-0.00373187102377,-0.0068486505188,0.0212480071932,,0.00876913973185,-0.0108402544716,0.0409263600717,-0.999064912905
102784000000,,115,,102,784000000,"""map""",,,-0.00400985684246,-0.0066800173372,0.0211754031479,,0.00874109462616,-0.0107912577724,0.0408834124331,-0.999067399569
102820000000,,116,,102,820000000,"""map""",,,-0.00423659663647,-0.00646764459088,0.0213384330273,,0.00879233959633,-0.0108654721164,0.0407612708661,-0.999071192785
102852000000,,117,,102,852000000,"""map""",,,-0.0046838033013,-0.00634290697053,0.0219937842339,,0.00877103864494,-0.0108144912226,0.0406658082542,-0.999075786792
102884000000,,118,,102,884000000,"""map""",,,-0.00516104744747,-0.00625973707065,0.0227448996156,,0.00875568863101,-0.0108386683671,0.0406417845506,-0.999076629729
102920000000,,119,,102,920000000,"""map""",,,-0.00556436926126,-0.00621862569824,0.023443415761,,0.00873246777543,-0.0107744200241,0.040574349593,-0.999080338651
102952000000,,120,,102,952000000,"""map""",,,-0.00587607454509,-0.00620712479576,0.02393271029,,0.00871242431478,-0.0107887196595,0.0404817529668,-0.999084089721
102984000000,,121,,102,984000000,"""map""",,,-0.00614925147966,-0.00623039901257,0.0242995023727,,0.00874948868142,-0.010698523922,0.0404103140585,-0.999087587909
103020000000,,122,,103,20000000,"""map""",,,-0.00640417495742,-0.00625851377845,0.0246676970273,,0.00879803888745,-0.0107111511836,0.0403498333309,-0.999089484517
103052000000,,123,,103,52000000,"""map""",,,-0.00681729940698,-0.00604067603126,0.0247934944928,,0.00877719792941,-0.0106452381224,0.0402515890271,-0.999094331405
103084000000,,124,,103,84000000,"""map""",,,-0.00722357816994,-0.00576159311458,0.0247980132699,,0.00879289779511,-0.0105759024407,0.040195407278,-0.999097239537
103120000000,,125,,103,120000000,"""map""",,,-0.00757547281682,-0.00549178849906,0.0249029155821,,0.008899266151,-0.0105087227514,0.0401602146595,-0.999098377502
103152000000,,126,,103,152000000,"""map""",,,-0.00786926690489,-0.00528907123953,0.0251607298851,,0.00898933816449,-0.0105038835194,0.0400848139475,-0.999100695579
103184000000,,127,,103,184000000,"""map""",,,-0.00811061635613,-0.00516775902361,0.0254790913314,,0.00899097736409,-0.0105044030287,0.0400301073381,-0.999102802921
103220000000,,128,,103,220000000,"""map""",,,-0.00832485686988,-0.00505893491209,0.0258726645261,,0.00895633981628,-0.0105034739047,0.0399680250303,-0.99910562676
103252000000,,129,,103,252000000,"""map""",,,-0.00852702464908,-0.00496567320079,0.026182083413,,0.00890010777088,-0.0105120628891,0.0398635429928,-0.999110220767
103284000000,,130,,103,284000000,"""map""",,,-0.00868063978851,-0.00490307575092,0.0264764297754,,0.00886647343331,-0.0104416537799,0.0398369904783,-0.999112328109
103320000000,,131,,103,320000000,"""map""",,,-0.00873786024749,-0.00486248871312,0.0267116352916,,0.00885219528288,-0.0104272878784,0.0397649615141,-0.999115489123
103352000000,,132,,103,352000000,"""map""",,,-0.00876150932163,-0.00483536114916,0.0269537828863,,0.00879181473635,-0.0104150902347,0.0397470912504,-0.999116837822
103384000000,,133,,103,384000000,"""map""",,,-0.00874867569655,-0.00478900317103,0.0271481014788,,0.00878323069101,-0.0104291217602,0.0397367231256,-0.999117174997
103420000000,,134,,103,420000000,"""map""",,,-0.00867879204452,-0.00471787992865,0.0272579789162,,0.0087653256067,-0.0104326271103,0.0396246546555,-0.999121769003
103452000000,,135,,103,452000000,"""map""",,,-0.00876113492996,-0.00463749701157,0.0273063536733,,0.00872704622545,-0.0104756585487,0.0395292763373,-0.999125435779
103484000000,,136,,103,484000000,"""map""",,,-0.00886228866875,-0.00454815104604,0.0273611005396,,0.00875840018802,-0.0104881741871,0.039466477533,-0.999127458828
103520000000,,137,,103,520000000,"""map""",,,-0.0089091360569,-0.00446869479492,0.0274626426399,,0.00872418616665,-0.0105255531734,0.0393429029732,-0.999132263569
103552000000,,138,,103,552000000,"""map""",,,-0.00890942383558,-0.00440333457664,0.0275875870138,,0.00871840093547,-0.0105241931966,0.0392378308798,-0.999136436107
103584000000,,139,,103,584000000,"""map""",,,-0.00885016005486,-0.00431877793744,0.0274361725897,,0.00874431680212,-0.0105631703058,0.0391917643744,-0.999137574071
103620000000,,140,,103,620000000,"""map""",,,-0.00872074998915,-0.00419030152261,0.0272369273007,,0.00871010903693,-0.0105394801549,0.039075312632,-0.999142758134
103652000000,,141,,103,652000000,"""map""",,,-0.0086949467659,-0.00413882639259,0.0267781615257,,0.0087378158977,-0.0105804621205,0.0390451354884,-0.999143263896
103684000000,,142,,103,684000000,"""map""",,,-0.00867873895913,-0.00412606308237,0.0260705072433,,0.0087145407122,-0.0106095022046,0.0390187515613,-0.999144191127
103720000000,,143,,103,720000000,"""map""",,,-0.00859079509974,-0.00413907691836,0.0252684466541,,0.00871894752741,-0.0103989749097,0.0388448536643,-0.999153126259
103752000000,,144,,103,752000000,"""map""",,,-0.00843720138073,-0.00421303883195,0.0244269743562,,0.00872454515572,-0.0104893891194,0.0387866067197,-0.999154390664
103784000000,,145,,103,784000000,"""map""",,,-0.00824620760977,-0.00432016141713,0.0237315744162,,0.00876558202747,-0.010540906727,0.0387430268783,-0.999155149307
103820000000,,146,,103,820000000,"""map""",,,-0.00795159116387,-0.00446578906849,0.0232961177826,,0.00882889070983,-0.0105094571108,0.0386951902052,-0.999156793034
103852000000,,147,,103,852000000,"""map""",,,-0.00783346779644,-0.00442994944751,0.0226854812354,,0.00886087712209,-0.0105182227498,0.0385909610489,-0.99916045981
103884000000,,148,,103,884000000,"""map""",,,-0.00768448598683,-0.00438744667917,0.0220556221902,,0.00887386757105,-0.0105475859323,0.0385240740003,-0.9991626093
103920000000,,149,,103,920000000,"""map""",,,-0.00746107799932,-0.0043748836033,0.0213817507029,,0.00886379307485,-0.0105554898658,0.0383420417616,-0.999169647823
103952000000,,150,,103,952000000,"""map""",,,-0.00720831099898,-0.00439596362412,0.0206538122147,,0.00887439629997,-0.0105924941403,0.0382351152069,-0.999173230305
103984000000,,151,,103,984000000,"""map""",,,-0.00694169150665,-0.00447883689776,0.0200718007982,,0.0088681258038,-0.0105507580589,0.0381856348067,-0.999175590529
104020000000,,152,,104,20000000,"""map""",,,-0.00657994300127,-0.00462109269574,0.0193850882351,,0.00886397005869,-0.0106378732899,0.038079846217,-0.999178793689
104052000000,,153,,104,52000000,"""map""",,,-0.00686593772843,-0.00462107360363,0.0190633814782,,0.00884116334528,-0.0106254597259,0.0379999357922,-0.999182165437
104084000000,,154,,104,84000000,"""map""",,,-0.00727437715977,-0.00458512362093,0.0188357625157,,0.0088664177863,-0.0106099688657,0.0379795788644,-0.999182881934
104120000000,,155,,104,120000000,"""map""",,,-0.00763268768787,-0.00458383653313,0.0184860322624,,0.00879900505456,-0.0105619874775,0.0378944843772,-0.999187223059
104152000000,,156,,104,152000000,"""map""",,,-0.00793511793017,-0.00462301122025,0.0180953871459,,0.0087955322201,-0.0105862769039,0.0378385133624,-0.999189161814
104184000000,,157,,104,184000000,"""map""",,,-0.00818000920117,-0.00469005387276,0.0176205020398,,0.00876637129306,-0.0105834733976,0.0378162598264,-0.999190257632
104220000000,,158,,104,220000000,"""map""",,,-0.00845874845982,-0.00479906564578,0.0169080141932,,0.00872062047741,-0.0105281547534,0.0377755038239,-0.999192744296
104252000000,,159,,104,252000000,"""map""",,,-0.00879590865225,-0.00479085091501,0.016633970663,,0.00868554705546,-0.0105148343737,0.0376994287623,-0.999196073897
104284000000,,160,,104,284000000,"""map""",,,-0.00910872127861,-0.00474674487486,0.0164366513491,,0.00871749889413,-0.0104853125642,0.0376424040763,-0.99919830768
104320000000,,161,,104,320000000,"""map""",,,-0.00935774110258,-0.00472620222718,0.0162376537919,,0.0087590180674,-0.0105055938418,0.0375895519283,-0.999199656379
104352000000,,162,,104,352000000,"""map""",,,-0.00953330658376,-0.0047307559289,0.0160419642925,,0.00880392150091,-0.0104153285455,0.0375747162376,-0.999200752197
104380000000,,163,,104,380000000,"""map""",,,-0.00966117531061,-0.00473592057824,0.0159525629133,,0.00881171307025,-0.0104315000937,0.0375033194762,-0.999203196715
104380000000,,164,,104,380000000,"""map""",,,-0.0097512928769,-0.00479024462402,0.0158797632903,,0.00872698613326,-0.0104358226975,0.0374779470734,-0.999204882589
104452000000,,165,,104,452000000,"""map""",,,-0.00966210477054,-0.00473486958072,0.0156483594328,,0.00874650926143,-0.0104117529781,0.0374280030579,-0.99920686349
104484000000,,166,,104,484000000,"""map""",,,-0.00950962491333,-0.00468921754509,0.0154157364741,,0.00869577112358,-0.0103739221479,0.0374194051008,-0.999207959309
104520000000,,167,,104,520000000,"""map""",,,-0.00935028400272,-0.00471858168021,0.0151776233688,,0.00875613413637,-0.010376884775,0.0373615374778,-0.999209603036
104552000000,,168,,104,552000000,"""map""",,,-0.00916815642267,-0.00479512521997,0.0149016212672,,0.00878991500008,-0.0103330097411,0.0372982329114,-0.999212131847
104584000000,,169,,104,584000000,"""map""",,,-0.00895634759218,-0.00488606560975,0.0146525809541,,0.008793265016,-0.0103750452956,0.0372714275157,-0.999212637609
104620000000,,170,,104,620000000,"""map""",,,-0.00866743735969,-0.00499804783612,0.0142613425851,,0.00899255523673,-0.0103690984741,0.0371402243763,-0.999215798622
104652000000,,171,,104,652000000,"""map""",,,-0.00843169167638,-0.00495303049684,0.0140016460791,,0.00900464101017,-0.0104064338318,0.0370926827312,-0.999217063028
104684000000,,172,,104,684000000,"""map""",,,-0.00814506132156,-0.00490223057568,0.0136964144185,,0.00905103324817,-0.010352854239,0.0370839583335,-0.999217526643
104720000000,,173,,104,720000000,"""map""",,,-0.00783886853606,-0.00490680197254,0.0135320639238,,0.0090226806022,-0.0103895111312,0.0369753459049,-0.9992214463
104752000000,,174,,104,752000000,"""map""",,,-0.00750770652667,-0.00496317166835,0.0132774785161,,0.00905618092596,-0.0103824869309,0.0369308388329,-0.999222879293
104784000000,,175,,104,784000000,"""map""",,,-0.00713829929009,-0.00504279555753,0.0130035635084,,0.00904168224543,-0.0104019009876,0.0368780709785,-0.999224733754
104820000000,,176,,104,820000000,"""map""",,,-0.00663727102801,-0.00514538260177,0.0129056666046,,0.00903244344221,-0.0104880933507,0.0368290963406,-0.999225745279
104852000000,,177,,104,852000000,"""map""",,,-0.00620291009545,-0.0051240879111,0.0128289470449,,0.00900920883952,-0.0104931310516,0.0367973597636,-0.999227051831
104884000000,,178,,104,884000000,"""map""",,,-0.00573709281161,-0.00506501132622,0.0127582801506,,0.00897251712676,-0.0104854579379,0.0367654124525,-0.999228653411
104920000000,,179,,104,920000000,"""map""",,,-0.00524777313694,-0.00501740444452,0.0127617074177,,0.00890900923468,-0.0104964916865,0.036701264949,-0.999231435103
104952000000,,180,,104,948000000,"""map""",,,-0.00473543861881,-0.00499486736953,0.0127958962694,,0.00889475331012,-0.0105072191296,0.0365915567024,-0.999235523347
104984000000,,181,,104,984000000,"""map""",,,-0.00420458987355,-0.00499438913539,0.0127558447421,,0.00885093038352,-0.0104917032448,0.0365298537162,-0.999238305039
105020000000,,182,,105,20000000,"""map""",,,-0.00356337637641,-0.00501371920109,0.0126035800204,,0.00889303385041,-0.0105003643398,0.0365235738357,-0.999238094305
105052000000,,183,,105,52000000,"""map""",,,-0.003269091947,-0.00491957133636,0.0125708580017,,0.00890855187551,-0.0104803827001,0.0364333795799,-0.999241466053
105084000000,,184,,105,84000000,"""map""",,,-0.00302832853049,-0.00479986239225,0.0125951301306,,0.00895524029391,-0.010493164802,0.0363808646067,-0.999242814752
105120000000,,185,,105,120000000,"""map""",,,-0.00276156654581,-0.00469429139048,0.0126530081034,,0.0089606154165,-0.0104620932727,0.0363040309018,-0.999245891472
105152000000,,186,,105,152000000,"""map""",,,-0.00245478423312,-0.00460162339732,0.0126556819305,,0.00893703878225,-0.0104855105392,0.0362372281469,-0.999248293843
105184000000,,187,,105,184000000,"""map""",,,-0.00214602658525,-0.00449574179947,0.0126923974603,,0.00901326267487,-0.0104718259843,0.0362089897584,-0.999248715311
105220000000,,188,,105,220000000,"""map""",,,-0.00172834750265,-0.00439284509048,0.0127409985289,,0.00899138681413,-0.0104576254598,0.0361638083368,-0.99925073836
105252000000,,189,,105,252000000,"""map""",,,-0.00159846770111,-0.00421961769462,0.0121739367023,,0.00896679058835,-0.010442307303,0.0361733335246,-0.999250822653
105284000000,,190,,105,284000000,"""map""",,,-0.00150116859004,-0.00404061703011,0.0114045310766,,0.00899747695142,-0.0104207918307,0.0361920045785,-0.999250021863
105320000000,,191,,105,320000000,"""map""",,,-0.00137956056278,-0.00389363686554,0.0106981694698,,0.00895357244762,-0.0104417803027,0.0362142581145,-0.999249431807
105356000000,,192,,105,352000000,"""map""",,,-0.00119945523329,-0.00373210338876,0.0100098848343,,0.00916845910141,-0.0103973038942,0.0362107599261,-0.999248040961
105384000000,,193,,105,384000000,"""map""",,,-0.000941009202506,-0.00357841071673,0.00952522270381,,0.00917151351316,-0.010422533969,0.0361919202848,-0.999248420283
105420000000,,194,,105,420000000,"""map""",,,-0.000593631993979,-0.00340551044792,0.00898589007556,,0.00911798401094,-0.010421875795,0.036156516932,-0.999250190451
105452000000,,195,,105,452000000,"""map""",,,-0.000505213160068,-0.00347849423997,0.00871916115284,,0.00909982316441,-0.0104206477741,0.0361371293817,-0.999251117681
105484000000,,196,,105,484000000,"""map""",,,-0.00044411723502,-0.00359664298594,0.00847341865301,,0.00906427262696,-0.0104489925175,0.0361074158535,-0.999252171353
105520000000,,197,,105,520000000,"""map""",,,-0.000331762363203,-0.0037293205969,0.00824637711048,,0.00906505736506,-0.0104498659945,0.0360755106892,-0.999253309318
105552000000,,198,,105,552000000,"""map""",,,-0.000163922421052,-0.00387520366348,0.00793429743499,,0.00906158786448,-0.0103753651424,0.0360320994352,-0.999255753835
105584000000,,199,,105,584000000,"""map""",,,4.77205903735e-05,-0.00402845442295,0.00770237855613,,0.00904060778891,-0.0103399079537,0.0359941672716,-0.999257608296
105620000000,,200,,105,620000000,"""map""",,,0.000356848235242,-0.00421346304938,0.00738984812051,,0.00904093092847,-0.010300269707,0.0359395871028,-0.999260010666
105652000000,,201,,105,652000000,"""map""",,,0.000394738308387,-0.00424858788028,0.00720035843551,,0.00899993801457,-0.010321126964,0.035927280223,-0.999260600722
105684000000,,202,,105,684000000,"""map""",,,0.000371109665139,-0.00426161428913,0.00699833407998,,0.00900665187583,-0.0103003400066,0.0358879572133,-0.999262160156
105720000000,,203,,105,720000000,"""map""",,,0.000399893266149,-0.00430885283276,0.00682061817497,,0.0089976999099,-0.0103154743884,0.0358458946585,-0.999263593149
105752000000,,204,,105,752000000,"""map""",,,0.000494890322443,-0.00434506079182,0.00657578511164,,0.00899258277212,-0.0102473495231,0.035756459046,-0.999267554952
105784000000,,205,,105,784000000,"""map""",,,0.000644213054329,-0.00440936023369,0.00622793240473,,0.00900686223964,-0.0102511602732,0.0357098446315,-0.999269072239
105820000000,,206,,105,820000000,"""map""",,,0.000922920065932,-0.00450997753069,0.00563314696774,,0.0089837554769,-0.0102412515656,0.0357106032748,-0.99926932512
105852000000,,207,,105,852000000,"""map""",,,0.000817189284135,-0.00453102076426,0.00524220243096,,0.00898190377322,-0.0101375082916,0.0356568238961,-0.999272359693
105884000000,,208,,105,884000000,"""map""",,,0.000686729094014,-0.00451962975785,0.00499768648297,,0.00898833976985,-0.0101349669272,0.0356403023315,-0.999272865455
105920000000,,209,,105,920000000,"""map""",,,0.0006411158829,-0.00447609741241,0.00471916189417,,0.00898964903865,-0.00994198169386,0.0355738788982,-0.999277164434
105952000000,,210,,105,952000000,"""map""",,,0.000677402189467,-0.00445346906781,0.00460511445999,,0.00897181729974,-0.0099913102995,0.0355573994805,-0.999277459462
105984000000,,211,,105,984000000,"""map""",,,0.000732782413252,-0.00448275404051,0.00441245501861,,0.00897886697754,-0.00998017764575,0.0355593803823,-0.999277417315
106020000000,,212,,106,20000000,"""map""",,,0.000843797868583,-0.00454880017787,0.00408755801618,,0.00892452363778,-0.00998477848464,0.0354670787841,-0.999281126238
106052000000,,213,,106,52000000,"""map""",,,0.000723956269212,-0.00453384360299,0.00395066477358,,0.00896492345003,-0.00995421601025,0.0354265335158,-0.99928255923
106084000000,,214,,106,84000000,"""map""",,,0.000590136449318,-0.00448251795024,0.0039055373054,,0.00898882783365,-0.0100072770404,0.0353894021423,-0.999283107139
106120000000,,215,,106,120000000,"""map""",,,0.000512327591423,-0.00444673979655,0.00390176940709,,0.00898371868072,-0.0100477500334,0.0353261818695,-0.999284961601
106152000000,,216,,106,152000000,"""map""",,,0.000500347756315,-0.00446548638865,0.00386053998955,,0.00895781816638,-0.0101191915346,0.0352372098723,-0.999287616852
106184000000,,217,,106,184000000,"""map""",,,0.00052353850333,-0.00448568491265,0.00373040279374,,0.00897061681426,-0.0101506404922,0.0351994884429,-0.999288501936
106220000000,,218,,106,220000000,"""map""",,,0.000609360809904,-0.0045584696345,0.00358923268504,,0.00891723540224,-0.0101376695938,0.0351392605964,-0.999291241481
106252000000,,219,,106,252000000,"""map""",,,0.000473944935948,-0.00473223160952,0.00396950915456,,0.00889203290392,-0.0101480377185,0.0350694232684,-0.999293812439
106284000000,,220,,106,284000000,"""map""",,,0.000300045416225,-0.00491078337654,0.00436433358118,,0.00888689535126,-0.0101683929177,0.0350198164277,-0.999295371872
106320000000,,221,,106,320000000,"""map""",,,0.000195573695237,-0.00507865287364,0.00457972101867,,0.00891429537144,-0.0101852602593,0.035019732134,-0.999295034698
106352000000,,222,,106,352000000,"""map""",,,0.000144688761793,-0.0052416594699,0.00460844067857,,0.00885026159041,-0.0101645077521,0.0349795240405,-0.999297226334
106384000000,,223,,106,384000000,"""map""",,,0.000144016536069,-0.00539492769167,0.00466794101521,,0.00888919572954,-0.0101053918579,0.0349868154453,-0.999297184187
106420000000,,224,,106,420000000,"""map""",,,0.000192794192117,-0.00556717580184,0.00480189500377,,0.00888150586416,-0.0100631877572,0.0349385573038,-0.999299333676
106452000000,,225,,106,452000000,"""map""",,,4.71854000352e-05,-0.00557771418244,0.0047810152173,,0.00879654180999,-0.0100090237474,0.0349241009347,-0.999301145991
106484000000,,226,,106,484000000,"""map""",,,-0.000110593151476,-0.00554569391534,0.00483494903892,,0.00877416541427,-0.00994152067154,0.0348500489219,-0.999304644179
106520000000,,227,,106,520000000,"""map""",,,-0.0001839036413,-0.00551338912919,0.00480856793001,,0.00876697093899,-0.010014811942,0.0348094615068,-0.999305360675
106552000000,,228,,106,552000000,"""map""",,,-0.000195890213945,-0.0054896264337,0.00471703568473,,0.00876263397066,-0.00993080911585,0.0347777670767,-0.99930729943
106584000000,,229,,106,584000000,"""map""",,,-0.000140147501952,-0.00549820391461,0.00454719737172,,0.00876688240592,-0.00995016818411,0.0347733838045,-0.99930729943
106620000000,,230,,106,620000000,"""map""",,,-2.72038087132e-05,-0.00554616888985,0.00423363735899,,0.0087125050688,-0.00988428739154,0.0347375589832,-0.999309659654
106652000000,,231,,106,652000000,"""map""",,,-6.85100094415e-05,-0.0056592579931,0.00390893081203,,0.0087123004261,-0.00991179133828,0.0347272751522,-0.999309743948
106684000000,,232,,106,684000000,"""map""",,,-0.000113724199764,-0.00580269936472,0.00363572523929,,0.00868877610498,-0.00984682703386,0.0347426587519,-0.999310038976
106720000000,,233,,106,720000000,"""map""",,,-8.17201071186e-05,-0.00596878910437,0.00335847539827,,0.00865794984236,-0.00982885646553,0.0347324170677,-0.999310839766
106752000000,,234,,106,752000000,"""map""",,,3.03183478536e-05,-0.0061471494846,0.00285021611489,,0.00866760319934,-0.00972101807367,0.0346925040022,-0.999313242136
106784000000,,235,,106,784000000,"""map""",,,0.000227671756875,-0.00634392397478,0.00248385849409,,0.00866612653676,-0.0097052329676,0.0347127766363,-0.999312694227
106820000000,,236,,106,820000000,"""map""",,,0.000506723998114,-0.00654060486704,0.00206913775764,,0.00861226940865,-0.00964498935717,0.0347174970833,-0.999313537164
106852000000,,237,,106,852000000,"""map""",,,0.000514331448358,-0.00640210835263,0.00202254694887,,0.00886868247971,-0.0096582660672,0.0346553304818,-0.99931332643
106884000000,,238,,106,884000000,"""map""",,,0.000426215847256,-0.00621007289737,0.00212284387089,,0.00886676253435,-0.00965853306584,0.0346512843843,-0.999313495017
106920000000,,239,,106,920000000,"""map""",,,0.000329613161739,-0.00604573544115,0.00233287992887,,0.00882890577404,-0.00964550409202,0.0346091796827,-0.999315391625
106952000000,,240,,106,952000000,"""map""",,,0.000288581388304,-0.00591449486092,0.00256520067342,,0.00886115025342,-0.00964858130587,0.0346054286131,-0.999315265185
106984000000,,241,,106,984000000,"""map""",,,0.000295644567814,-0.00581922288984,0.00270954705775,,0.0087842621775,-0.00960846314488,0.0345885698737,-0.999316866765
107020000000,,242,,107,20000000,"""map""",,,0.000336375815095,-0.00573167670518,0.00305599416606,,0.00878357457472,-0.00960685374442,0.0345944704325,-0.999316698178
107052000000,,243,,107,52000000,"""map""",,,7.09655578248e-05,-0.00546628236771,0.00351492874324,,0.00871076918664,-0.00958966902548,0.0345658527224,-0.999318510492
107084000000,,244,,107,84000000,"""map""",,,-0.000186213321285,-0.00516204489395,0.00407880172133,,0.00869872416063,-0.0096039794446,0.0345329360337,-0.999319648457
107120000000,,245,,107,120000000,"""map""",,,-0.000360707956133,-0.00486839935184,0.00465748738497,,0.00870300490573,-0.00958368684833,0.0345272040623,-0.999319985632
107152000000,,246,,107,152000000,"""map""",,,-0.000468178768642,-0.0045760483481,0.00519176153466,,0.00873252543923,-0.00954633885481,0.0345191540142,-0.99932028066
107184000000,,247,,107,184000000,"""map""",,,-0.000523996714037,-0.00430423626676,0.00558423949406,,0.00877594204387,-0.00954551690895,0.0345338211175,-0.999319437723
107220000000,,248,,107,220000000,"""map""",,,-0.000570808071643,-0.0040239635855,0.00590880820528,,0.00879085005097,-0.0094931798662,0.03456374538,-0.999318763373
107252000000,,249,,107,252000000,"""map""",,,-0.000582528300583,-0.00382582098246,0.00603721290827,,0.00880664198943,-0.00945493551128,0.0345282577335,-0.999320196366
107284000000,,250,,107,284000000,"""map""",,,-0.000544306181837,-0.00366110890172,0.0059643369168,,0.00882570030865,-0.00938031710901,0.0344649953139,-0.999322935911
107320000000,,251,,107,320000000,"""map""",,,-0.000443680037279,-0.00348406541161,0.00572271412238,,0.00881817960689,-0.00936889148527,0.0344864059129,-0.999322345855
107352000000,,252,,107,352000000,"""map""",,,-0.000987549778074,-0.00338673475198,0.00533581105992,,0.00887600744969,-0.00912982429134,0.0344470407564,-0.999325464722
107384000000,,253,,107,384000000,"""map""",,,-0.00157590897288,-0.00326581276022,0.00500932475552,,0.00892065768312,-0.00911036338534,0.0344422781626,-0.999325338282
107420000000,,254,,107,420000000,"""map""",,,-0.00221174000762,-0.00315877259709,0.00459119351581,,0.00885435953796,-0.0091669374623,0.0343701649048,-0.999327909239
107452000000,,255,,107,452000000,"""map""",,,-0.00262093660422,-0.00310379266739,0.00428703147918,,0.00894237900198,-0.00915433978368,0.0344021543628,-0.999326181219
107484000000,,256,,107,484000000,"""map""",,,-0.00296385143884,-0.00305061577819,0.0040389681235,,0.00893348042961,-0.00920307239626,0.034360091808,-0.999327277037
107520000000,,257,,107,520000000,"""map""",,,-0.00324425543658,-0.00302205770276,0.00388405402191,,0.00896532536798,-0.00920763970082,0.0342817829634,-0.99932963726
107552000000,,258,,107,552000000,"""map""",,,-0.00357596133836,-0.00279515562579,0.0039477753453,,0.00900281591581,-0.00924625582469,0.0342441458277,-0.999330185169
107584000000,,259,,107,584000000,"""map""",,,-0.00386962410994,-0.00252324715257,0.00406653340906,,0.00900245030013,-0.00925021445921,0.0342678323566,-0.999329342232
107620000000,,260,,107,620000000,"""map""",,,-0.00419502658769,-0.00218761106953,0.00415567820892,,0.00894435357566,-0.009184753746,0.0342448623241,-0.99933123884
107652000000,,261,,107,652000000,"""map""",,,-0.00440988317132,-0.00192075129598,0.00414838176221,,0.00890960716222,-0.00918959828751,0.0342363065139,-0.999331871043
107684000000,,262,,107,684000000,"""map""",,,-0.00458966568112,-0.0016538973432,0.00410502264276,,0.00887356906517,-0.009219887291,0.0341938646374,-0.999333346183
107720000000,,263,,107,720000000,"""map""",,,-0.0047162361443,-0.00137819361407,0.00390990450978,,0.0089134636606,-0.00921688040765,0.0341880483723,-0.999333177595
107752000000,,264,,107,752000000,"""map""",,,-0.00482785375789,-0.00124200095888,0.00383904855698,,0.00891723364269,-0.00912319802679,0.0341628445569,-0.999334863469
107784000000,,265,,107,784000000,"""map""",,,-0.0048995828256,-0.00117692945059,0.00376468966715,,0.00889668932808,-0.00913415788464,0.034126387533,-0.999336170022
107820000000,,266,,107,820000000,"""map""",,,-0.00494552403688,-0.001092436607,0.00343171297573,,0.00892838090789,-0.00917294242097,0.0341127741009,-0.999336043581
107852000000,,267,,107,852000000,"""map""",,,-0.00493960082531,-0.00104632752482,0.00315823615529,,0.00890203740918,-0.00918061881706,0.0340528412823,-0.999338235217
107884000000,,268,,107,884000000,"""map""",,,-0.00490243872628,-0.00100851850584,0.00286112865433,,0.00888103845191,-0.00917624142027,0.0340044988471,-0.999340131825
107920000000,,269,,107,920000000,"""map""",,,-0.00484361266717,-0.000964714621659,0.00248895795085,,0.00892096258923,-0.00917573775719,0.0339626891734,-0.999341227644
107952000000,,270,,107,952000000,"""map""",,,-0.0048467181623,-0.000894303258974,0.0018698386848,,0.00892961304467,-0.00922296348617,0.0339097527316,-0.999342492049
107984000000,,271,,107,984000000,"""map""",,,-0.00486136833206,-0.000822728383355,0.00128651119303,,0.00895324562433,-0.00917859070577,0.0338501992347,-0.999344725832
108020000000,,272,,108,20000000,"""map""",,,-0.00480814324692,-0.000746571575291,0.000484639866045,,0.00897338717724,-0.00924613962246,0.0337636717547,-0.999346875321
108052000000,,273,,108,52000000,"""map""",,,-0.00474238581955,-0.000656633172184,-0.000258861633483,,0.00900629363791,-0.00917145114694,0.0337522078119,-0.999347633964
108084000000,,274,,108,84000000,"""map""",,,-0.00466090161353,-0.000562459114008,-0.000985103542916,,0.00901333427101,-0.00920103744228,0.0337347590166,-0.999347886846
108120000000,,275,,108,120000000,"""map""",,,-0.00453500263393,-0.000492814288009,-0.00162103574257,,0.00905143755334,-0.00918059500656,0.0336899569166,-0.999349193398
108152000000,,276,,108,152000000,"""map""",,,-0.00474998308346,-0.000423829769716,-0.00230920151807,,0.00910857870143,-0.0091912589181,0.0337068578029,-0.999348055433
108184000000,,277,,108,184000000,"""map""",,,-0.00502886902541,-0.000400029704906,-0.00295667885803,,0.00908010136674,-0.00916802206967,0.0336972061746,-0.999348771929
108220000000,,278,,108,220000000,"""map""",,,-0.00532440328971,-0.000347795168636,-0.00371809769422,,0.00911991299327,-0.00914424205064,0.0336875545463,-0.999348982664
108252000000,,279,,108,252000000,"""map""",,,-0.00552088348195,-0.000305375753669,-0.00426915660501,,0.00911924842508,-0.00912911998989,0.0336025864997,-0.999352017237
108284000000,,280,,108,284000000,"""map""",,,-0.00568056711927,-0.00022620803793,-0.00478493468836,,0.00914016976961,-0.00912772053876,0.033579953642,-0.999352565146
108320000000,,281,,108,320000000,"""map""",,,-0.00576300220564,-0.000145039026393,-0.00529596861452,,0.00908991576616,-0.00910812536042,0.0335486806804,-0.99935425102
108352000000,,282,,108,352000000,"""map""",,,-0.00627816934139,0.000175008404767,-0.00566462194547,,0.00914542014046,-0.00908919654809,0.0335450139046,-0.999354040285
108384000000,,283,,108,384000000,"""map""",,,-0.00691461795941,0.000540300912689,-0.00597523665056,,0.00913153740227,-0.00907302463202,0.0335574893718,-0.999353955992
108420000000,,284,,108,420000000,"""map""",,,-0.00758109753951,0.00101647584233,-0.00644665537402,,0.00930627977966,-0.00905718114188,0.033497893728,-0.999354461754
108452000000,,285,,108,452000000,"""map""",,,-0.00803423020989,0.00140227260999,-0.0066959769465,,0.00925661028463,-0.00908726157197,0.0334275506378,-0.999357032712
108484000000,,286,,108,484000000,"""map""",,,-0.00841520261019,0.00178736587986,-0.00690577505156,,0.00927117584858,-0.00911840163106,0.033433071875,-0.999356400509
108520000000,,287,,108,520000000,"""map""",,,-0.00875984784216,0.00218607718125,-0.00710485130548,,0.00924438523416,-0.00915529036696,0.033380472608,-0.999358086383
108552000000,,288,,108,552000000,"""map""",,,-0.0090310992673,0.00237918132916,-0.0070282923989,,0.00926399456478,-0.00907899220801,0.033310930308,-0.999360868075
108584000000,,289,,108,584000000,"""map""",,,-0.00925560109317,0.00251234509051,-0.00696092098951,,0.00927440377651,-0.00908353985914,0.0333224785445,-0.999360362313
108620000000,,290,,108,620000000,"""map""",,,-0.00953098479658,0.00266446615569,-0.0069118202664,,0.00936713153537,-0.00913729874064,0.03329284931,-0.999359982991
108652000000,,291,,108,652000000,"""map""",,,-0.00969642587006,0.00275368592702,-0.00685672648251,,0.00930149471295,-0.00910589902981,0.0332565608734,-0.999362048187
108684000000,,292,,108,684000000,"""map""",,,-0.00980832800269,0.00283547886647,-0.00686550792307,,0.00928547080733,-0.00912965556504,0.033239702134,-0.999362638243
108720000000,,293,,108,720000000,"""map""",,,-0.0098813707009,0.00290276668966,-0.00685507245362,,0.00919109224718,-0.00909965350688,0.0331574736326,-0.999366473606
108752000000,,294,,108,752000000,"""map""",,,-0.00991752743721,0.00288672605529,-0.00644992291927,,0.00915250696042,-0.00912590030373,0.0331150317561,-0.999368033039
108784000000,,295,,108,784000000,"""map""",,,-0.00994619168341,0.00286553171463,-0.00592192355543,,0.00909447485114,-0.00911213657367,0.0330997745969,-0.999369128857
108820000000,,296,,108,820000000,"""map""",,,-0.00999357923865,0.00286347186193,-0.0053109084256,,0.00908027459996,-0.00913243758117,0.0329893920007,-0.999372795633
108852000000,,297,,108,852000000,"""map""",,,-0.0099920630455,0.00285680545494,-0.00487356260419,,0.00901384316128,-0.00913850156189,0.0329037917514,-0.999376125234
108884000000,,298,,108,884000000,"""map""",,,-0.00998376961797,0.00289176870137,-0.00436211004853,,0.00902758377475,-0.00912034474894,0.0328848678164,-0.999376757437
108920000000,,299,,108,920000000,"""map""",,,-0.00996078364551,0.00292678945698,-0.00385376694612,,0.00898900650244,-0.0090702200273,0.0328419623246,-0.999379033367
108952000000,,300,,108,952000000,"""map""",,,-0.00979906786233,0.00301793101244,-0.00326907425188,,0.00899334503224,-0.00911630229921,0.0328003633851,-0.99937991845
108984000000,,301,,108,984000000,"""map""",,,-0.00964643340558,0.00312905409373,-0.00277993734926,,0.00897233087249,-0.00898633459379,0.0327869606873,-0.999381688618
109020000000,,302,,109,20000000,"""map""",,,-0.0094182305038,0.00326609238982,-0.00220399955288,,0.00901469229783,-0.00885865609327,0.0327708184443,-0.99938299517
109052000000,,303,,109,52000000,"""map""",,,-0.00924448668957,0.00339660374448,-0.00189544819295,,0.00901223197554,-0.00885572425312,0.0327770983247,-0.99938286873
109084000000,,304,,109,84000000,"""map""",,,-0.00906011648476,0.00353251886554,-0.00164096895605,,0.00899914485945,-0.00885466319901,0.0328082869926,-0.999381941499
109120000000,,305,,109,120000000,"""map""",,,-0.00883970968425,0.00365172023885,-0.0013687988976,,0.00897720323172,-0.00888474575394,0.0328128388523,-0.999381688618
109152000000,,306,,109,152000000,"""map""",,,-0.00869209505618,0.00384561880492,-0.00101936678402,,0.00896229162578,-0.00890349404018,0.0328236284455,-0.999381351443
109184000000,,307,,109,184000000,"""map""",,,-0.00855553615838,0.00406661489978,-0.000638431403786,,0.00898436734706,-0.00888280653072,0.0328205938724,-0.999381435737
109220000000,,308,,109,220000000,"""map""",,,-0.00837977509946,0.00436411472037,-0.000114995418699,,0.0090212425828,-0.00889517198494,0.0327971602246,-0.999381772912
109252000000,,309,,109,252000000,"""map""",,,-0.00822919234633,0.00462093111128,0.000190906270291,,0.00902653561885,-0.00889881144659,0.0327899109667,-0.999381941499
109284000000,,310,,109,284000000,"""map""",,,-0.00805524270982,0.00488049210981,0.000493909872603,,0.00906981463914,-0.00895473030263,0.0327754545976,-0.999381477884
109320000000,,311,,109,320000000,"""map""",,,-0.00785059761256,0.00515665346757,0.000740002491511,,0.00908429299224,-0.00897615843028,0.0327824509745,-0.999380972122
109352000000,,312,,109,352000000,"""map""",,,-0.00768582522869,0.00534715410322,0.000865851412527,,0.00902600615936,-0.00900681141852,0.0327575843339,-0.999381983646
109384000000,,313,,109,384000000,"""map""",,,-0.00749725522473,0.00553610455245,0.000886937021278,,0.00904944622022,-0.00902220836147,0.0327418635594,-0.99938219438
109420000000,,314,,109,420000000,"""map""",,,-0.00723560713232,0.00579440407455,0.00084587855963,,0.00908058344705,-0.00895308760452,0.0327398405107,-0.999382615849
109452000000,,315,,109,452000000,"""map""",,,-0.00700070848688,0.00605737743899,0.000799393455964,,0.00909482128221,-0.00894105457637,0.0327043107174,-0.999383753814
109484000000,,316,,109,484000000,"""map""",,,-0.00674285320565,0.00635868404061,0.000774391111918,,0.00906633935571,-0.00889902614239,0.0327122343249,-0.999384090988
109520000000,,317,,109,520000000,"""map""",,,-0.00644897762686,0.00671821692958,0.000735179928597,,0.009041760036,-0.00890308784941,0.0326895171735,-0.999384976072
109552000000,,318,,109,552000000,"""map""",,,-0.00625249510631,0.00697560748085,0.000880556181073,,0.00898314790271,-0.00883006088683,0.0326372972282,-0.999387884205
109584000000,,319,,109,584000000,"""map""",,,-0.00603769067675,0.00719809951261,0.00117384991609,,0.00897462871371,-0.00884411448388,0.0325979320717,-0.99938914861
109620000000,,320,,109,620000000,"""map""",,,-0.00575322424993,0.0074868304655,0.00141238339711,,0.00896834243305,-0.00883544126749,0.0325749620393,-0.999390033694
109652000000,,321,,109,652000000,"""map""",,,-0.00552933244035,0.00771994329989,0.00152658415027,,0.00895021127761,-0.00892925367487,0.0325642567398,-0.999389696519
109684000000,,322,,109,684000000,"""map""",,,-0.0053107207641,0.00797013565898,0.00161889393348,,0.00899052842452,-0.00892708206005,0.0324958102578,-0.999391635274
109720000000,,323,,109,720000000,"""map""",,,-0.00508526014164,0.00825132615864,0.00177798897494,,0.0089844816354,-0.00887187235612,0.0324981704813,-0.999392056743
109752000000,,324,,109,752000000,"""map""",,,-0.0050138020888,0.0085917506367,0.00189721258357,,0.00902722851572,-0.00886557723141,0.0325020058445,-0.999391593127
109784000000,,325,,109,780000000,"""map""",,,-0.00495568010956,0.0089698638767,0.00194993673358,,0.00905084120013,-0.00884030633193,0.0324951780551,-0.999391846009
109820000000,,326,,109,820000000,"""map""",,,-0.00483054062352,0.00950274337083,0.00196153926663,,0.00910505925179,-0.00883593878243,0.032442873816,-0.999393068267
109852000000,,327,,109,852000000,"""map""",,,-0.00468002865091,0.00996859744191,0.00182614964433,,0.00906867647872,-0.00878583622235,0.0324033400721,-0.99939517561
109884000000,,328,,109,884000000,"""map""",,,-0.00450812466443,0.0104594221339,0.00163911399432,,0.00910551668298,-0.00879135096667,0.0323909488987,-0.99939517561
109920000000,,329,,109,920000000,"""map""",,,-0.00431771716103,0.0109636317939,0.00140772515442,,0.00913074481309,-0.00857810179409,0.03240671182,-0.999396271428
109952000000,,330,,109,952000000,"""map""",,,-0.00404217932373,0.0111654577777,0.00140116550028,,0.00914577675003,-0.00856227038412,0.0323877035913,-0.99939690363
109984000000,,331,,109,984000000,"""map""",,,-0.00375752034597,0.011340316385,0.00147901067976,,0.00918285992634,-0.00855160274511,0.0323656186427,-0.999397325099
110020000000,,332,,110,20000000,"""map""",,,-0.00339859980159,0.0116095393896,0.00157697440591,,0.00914580926566,-0.00859139953639,0.0323234296474,-0.999398715945
110052000000,,333,,110,52000000,"""map""",,,-0.00307043665089,0.0118638481945,0.00162345997524,,0.0091850020893,-0.00866438845259,0.0323423114355,-0.999397114365
110084000000,,334,,110,84000000,"""map""",,,-0.00273133185692,0.0121819805354,0.00163110415451,,0.00917580627669,-0.00866533665378,0.032284317372,-0.99939905312
110120000000,,335,,110,120000000,"""map""",,,-0.00241719419137,0.0125505244359,0.00156663940288,,0.00913890232738,-0.00871331073627,0.0322306644338,-0.999400696847
110152000000,,336,,110,152000000,"""map""",,,-0.00221814308316,0.0129253519699,0.00161618273705,,0.00921479534255,-0.00872230674236,0.0321921000674,-0.999401160462
110184000000,,337,,110,184000000,"""map""",,,-0.00208597467281,0.0133489780128,0.00168343645055,,0.00915342335726,-0.00867135210801,0.0321209561871,-0.999404447916
110220000000,,338,,110,220000000,"""map""",,,-0.00193795806263,0.0139026893303,0.00172006594948,,0.00913968074757,-0.00871126659354,0.032085384247,-0.999405375147
110252000000,,339,,110,252000000,"""map""",,,-0.00185002177022,0.014361416921,0.00171529129148,,0.00910271664434,-0.00873610294111,0.0320910740715,-0.999405333
110284000000,,340,,110,284000000,"""map""",,,-0.00174656172749,0.0148591157049,0.00172965484671,,0.00911428945277,-0.00876040632038,0.0321145077193,-0.999404321476
110320000000,,341,,110,320000000,"""map""",,,-0.00161920790561,0.0153730278835,0.00172318913974,,0.00912971919175,-0.0087489094092,0.0320777978142,-0.999405375147
110352000000,,342,,110,352000000,"""map""",,,-0.00162129139062,0.0155466869473,0.00191056355834,,0.00912147020151,-0.00874448273476,0.03206367862,-0.99940600735
110384000000,,343,,110,384000000,"""map""",,,-0.00163943076041,0.0156673472375,0.00207200227305,,0.00917241440205,-0.00873240583109,0.0320922963301,-0.999404700797
110420000000,,344,,110,420000000,"""map""",,,-0.00162386428565,0.0159055572003,0.00232638930902,,0.00916302927847,-0.00867239221732,0.0319707026722,-0.99940921051
110452000000,,345,,110,452000000,"""map""",,,-0.00159621762577,0.0161405280232,0.00245110597461,,0.00920124685943,-0.00862272254736,0.0319395140043,-0.999410306328
110484000000,,346,,110,484000000,"""map""",,,-0.00157920643687,0.0163948331028,0.00256650336087,,0.00919301964231,-0.00861838341818,0.0319165439718,-0.999411107118
110520000000,,347,,110,520000000,"""map""",,,-0.00156138231978,0.0166836604476,0.00269297766499,,0.00917627806209,-0.00857715991081,0.0318156444165,-0.999414816041
110552000000,,348,,110,552000000,"""map""",,,-0.00150276441127,0.016721079126,0.00277671311051,,0.00923115961793,-0.00853217232766,0.0317549951015,-0.999416712649
110584000000,,349,,110,584000000,"""map""",,,-0.00138182693627,0.0167592316866,0.00276222196408,,0.00920839420761,-0.00854911357035,0.0317082963934,-0.999418229936
110620000000,,350,,110,620000000,"""map""",,,-0.00121702684555,0.0169214420021,0.00262943678536,,0.00920092180598,-0.00839525047006,0.0317006678138,-0.999419789369
110652000000,,351,,110,652000000,"""map""",,,-0.00102491129655,0.0171610731632,0.00260464567691,,0.00919571769916,-0.0084098164456,0.0316417886664,-0.999421601684
110684000000,,352,,110,684000000,"""map""",,,-0.000836506602354,0.0174506958574,0.00259020621888,,0.00915863701297,-0.00847535679125,0.0316537583714,-0.999421011628
110720000000,,353,,110,720000000,"""map""",,,-0.000633987772744,0.0177545100451,0.00258458126336,,0.0091768357464,-0.00845264175959,0.0316317577165,-0.999421770271
110752000000,,354,,110,752000000,"""map""",,,-0.000505325442646,0.0178823340684,0.00270237098448,,0.00913188829331,-0.00850775977406,0.0316003161675,-0.999422697502
110784000000,,355,,110,784000000,"""map""",,,-0.000399294192903,0.0180151052773,0.0027801154647,,0.00915046103885,-0.00852546624546,0.0315773039882,-0.99942311897
110820000000,,356,,110,820000000,"""map""",,,-0.000232227961533,0.0182969421148,0.00295095099136,,0.00919744316809,-0.00851070011355,0.0315338927342,-0.999424130495
110852000000,,357,,110,852000000,"""map""",,,-5.94087359786e-05,0.018564697355,0.00312208221294,,0.00921402766487,-0.00855247846525,0.0314952019273,-0.999424889138
110884000000,,358,,110,884000000,"""map""",,,9.09795344342e-05,0.0188641492277,0.00327458023094,,0.00922392509492,-0.00855768146077,0.0315254212177,-0.999423751173
110920000000,,359,,110,920000000,"""map""",,,0.00021807680605,0.0192021876574,0.00341434334405,,0.00923652231049,-0.00853195813606,0.0315004702833,-0.999424678404
110952000000,,360,,110,952000000,"""map""",,,0.000207077508094,0.0192151851952,0.00345925940201,,0.00921442600198,-0.00856251015606,0.0314213606487,-0.999427080774
110984000000,,361,,110,984000000,"""map""",,,0.000183868964086,0.0191800184548,0.00358043867163,,0.00921426227135,-0.00859311576511,0.0314134370412,-0.999427080774
111020000000,,362,,111,20000000,"""map""",,,0.000169436112628,0.0192469079047,0.00365044665523,,0.00926935861559,-0.00853647052419,0.031399570728,-0.999427544389
111052000000,,363,,111,52000000,"""map""",,,0.00019938373589,0.0193664617836,0.00367846759036,,0.00923604953727,-0.00855151157786,0.0313996128749,-0.99942767083
111084000000,,364,,111,84000000,"""map""",,,0.000271190627245,0.0195548608899,0.00383467343636,,0.00929258848499,-0.00851707074964,0.0313810261147,-0.999428050151
111120000000,,365,,111,120000000,"""map""",,,0.000338797282893,0.019792297855,0.00394833972678,,0.00918177318384,-0.00853914190999,0.0313973790919,-0.999428387326
111152000000,,366,,111,152000000,"""map""",,,0.00027075788239,0.019621161744,0.00413187034428,,0.00923871773324,-0.00855711996926,0.0313658532492,-0.999428724501
111184000000,,367,,111,184000000,"""map""",,,0.000172008003574,0.019390989095,0.00429283315316,,0.00917943205812,-0.0084961949299,0.0313738190036,-0.999429525291
111220000000,,368,,111,220000000,"""map""",,,0.000139714364195,0.0192524362355,0.00469704857096,,0.00923251300921,-0.00851942216513,0.0313768114298,-0.999428724501
111252000000,,369,,111,252000000,"""map""",,,0.000168999584275,0.0192376691848,0.00507474783808,,0.00923143287274,-0.00849699357975,0.0313652210465,-0.99942927241
111284000000,,370,,111,284000000,"""map""",,,0.000225106487051,0.019283534959,0.00532122980803,,0.00925800139816,-0.00847046983535,0.0313411130491,-0.99942994676
111320000000,,371,,111,320000000,"""map""",,,0.000277101789834,0.0194186251611,0.00548753282055,,0.00916239592329,-0.00838660744383,0.031335296784,-0.999431801221
111352000000,,372,,111,352000000,"""map""",,,0.000254935963312,0.0192829668522,0.0056059230119,,0.00913173602547,-0.0083786015594,0.0313018743332,-0.999433192067
111384000000,,373,,111,384000000,"""map""",,,0.000214790634345,0.0191299598664,0.00566452741623,,0.0090980736586,-0.00838395046369,0.0313291433441,-0.999432559864
111420000000,,374,,111,420000000,"""map""",,,0.000210205776966,0.0190377663821,0.005704279989,,0.00904960926915,-0.00831528612695,0.0312934871103,-0.9994347515
111452000000,,375,,111,452000000,"""map""",,,0.000213993989746,0.0190195534378,0.0057060145773,,0.00903251180736,-0.00834058773622,0.0312767126646,-0.999435172969
111484000000,,376,,111,484000000,"""map""",,,0.000239200075157,0.0190614294261,0.00575076323003,,0.0090139324558,-0.0082968134596,0.0312502865906,-0.999436563815
111520000000,,377,,111,520000000,"""map""",,,0.000267703231657,0.0191929098219,0.00591607671231,,0.00896383495828,-0.00830895245167,0.0312526046673,-0.999436774549
111552000000,,378,,111,552000000,"""map""",,,0.00013006766676,0.0191702339798,0.00629809545353,,0.00914979171068,-0.00826666508622,0.0312416886335,-0.999435805172
111584000000,,379,,111,584000000,"""map""",,,-7.75567968958e-06,0.0191591829062,0.00666053313762,,0.00918186521544,-0.00822730412794,0.0312144617694,-0.999436732402
111620000000,,380,,111,620000000,"""map""",,,-0.000163633711054,0.0192399695516,0.00722252437845,,0.00915901178654,-0.00824508149577,0.0312155154406,-0.999436690255
111652000000,,381,,111,652000000,"""map""",,,-0.000281625427306,0.0193515624851,0.00776429101825,,0.00907534922211,-0.00827165878807,0.0311948634848,-0.999437954661
111684000000,,382,,111,684000000,"""map""",,,-0.000374058203306,0.0195104498416,0.00824458897114,,0.00910874677176,-0.00830937745983,0.0311574370833,-0.999438460423
111720000000,,383,,111,720000000,"""map""",,,-0.000465223449282,0.0197228882462,0.00868087168783,,0.00910033649985,-0.0083263422249,0.0311359000437,-0.999439092626
111752000000,,384,,111,752000000,"""map""",,,-0.000744070857763,0.0195436086506,0.00916279293597,,0.00909392293489,-0.00834748216215,0.0311337505545,-0.999439050479
111784000000,,385,,111,784000000,"""map""",,,-0.00108957744669,0.0193060580641,0.00961277075112,,0.0090061446525,-0.00833870464878,0.0311571842022,-0.999439134773
111820000000,,386,,111,820000000,"""map""",,,-0.0014795511961,0.0191174149513,0.010121524334,,0.00900360157999,-0.00832350258098,0.0311651499566,-0.999439092626
111852000000,,387,,111,852000000,"""map""",,,-0.00177985883784,0.0190683212131,0.0105370078236,,0.00903257198187,-0.00835417787228,0.0311605559501,-0.999438713304
111884000000,,388,,111,884000000,"""map""",,,-0.00209431024268,0.0190890785307,0.0108828125522,,0.00902831831941,-0.00837171306037,0.0311332869391,-0.999439429801
111920000000,,389,,111,920000000,"""map""",,,-0.00240423413925,0.0192042868584,0.0110360886902,,0.00901325248801,-0.00838780358703,0.0310814463154,-0.999441031381
111952000000,,390,,111,952000000,"""map""",,,-0.00274152401835,0.0190556906164,0.0111256474629,,0.00900840175206,-0.00845089995053,0.0310831743362,-0.999440483472
111984000000,,391,,111,984000000,"""map""",,,-0.00307946302928,0.0188620202243,0.0112152863294,,0.00900153315342,-0.0084773576141,0.0310583919893,-0.999441073528
112020000000,,392,,112,20000000,"""map""",,,-0.00350216426887,0.0187379661947,0.0115746892989,,0.00898666039904,-0.00837535847465,0.0310076050369,-0.999443644485
112052000000,,393,,112,52000000,"""map""",,,-0.00380557053722,0.0187135338783,0.011906966567,,0.00899063716411,-0.00839067047822,0.0309762899284,-0.999444529569
112084000000,,394,,112,84000000,"""map""",,,-0.00412517646328,0.0187297426164,0.0122905131429,,0.00897197913705,-0.00842718428107,0.0309485573021,-0.999445203919
112120000000,,395,,112,120000000,"""map""",,,-0.00439989706501,0.0187919959426,0.0126355914399,,0.00902618097205,-0.0082440275776,0.0309195181235,-0.999447184821
112152000000,,396,,112,152000000,"""map""",,,-0.00465828599408,0.0189033150673,0.0128991696984,,0.00906670673094,-0.00826108099923,0.0308509873478,-0.999448786401
112184000000,,397,,112,184000000,"""map""",,,-0.00492917373776,0.0190618913621,0.0131889013574,,0.00905686457747,-0.00822778453616,0.0308871493438,-0.999448027758
112220000000,,398,,112,220000000,"""map""",,,-0.00526303984225,0.0193339884281,0.0133772417903,,0.00915721902259,-0.00820070633844,0.0308868964627,-0.999447353408
112252000000,,399,,112,252000000,"""map""",,,-0.00542472209781,0.0193351525813,0.0136686665937,,0.00921109952903,-0.00815341391126,0.0309253343886,-0.999446004709
112284000000,,400,,112,284000000,"""map""",,,-0.00557741429657,0.0193134527653,0.014040550217,,0.00918336307492,-0.00816070782675,0.0309318671501,-0.999446046856
112320000000,,401,,112,320000000,"""map""",,,-0.00577044812962,0.0193602908403,0.0143942283466,,0.0091597596873,-0.0082568288185,0.0309354917791,-0.999445372506
112352000000,,402,,112,352000000,"""map""",,,-0.00601765792817,0.0194700062275,0.0147660998628,,0.00895733174895,-0.00816026833061,0.0309770907185,-0.999446679058
112384000000,,403,,112,384000000,"""map""",,,-0.00624520191923,0.0196715071797,0.0149980699643,,0.00894571905741,-0.00819304664263,0.0309599369512,-0.99944705838
112420000000,,404,,112,420000000,"""map""",,,-0.00652396585792,0.0199862569571,0.0151731166989,,0.0090406795291,-0.00826523793796,0.0309039237895,-0.999447353408
112452000000,,405,,112,452000000,"""map""",,,-0.0068006743677,0.0200202837586,0.0154574466869,,0.00908690453795,-0.00829040573921,0.0309066633347,-0.999446636912
112484000000,,406,,112,484000000,"""map""",,,-0.0071232621558,0.0199928171933,0.0156819839031,,0.00908313169531,-0.00826209034216,0.0309185065991,-0.999446510471
112520000000,,407,,112,516000000,"""map""",,,-0.00747857103124,0.020086703822,0.0158500019461,,0.0087826614616,-0.00802125674665,0.0308329063498,-0.999453801876
112552000000,,408,,112,552000000,"""map""",,,-0.00792795792222,0.0202796459198,0.016217270866,,0.00827923586741,-0.00793452768001,0.0304596117125,-0.999470281294
112584000000,,409,,112,584000000,"""map""",,,-0.00853858143091,0.0205013118684,0.0172986611724,,0.00746601189033,-0.00753294118866,0.030174572576,-0.999488362292
112620000000,,410,,112,620000000,"""map""",,,-0.00954181607813,0.0207141786814,0.0203098580241,,0.00397797864212,-0.00493666131274,0.0293990284166,-0.999547662908
112652000000,,411,,112,652000000,"""map""",,,-0.0103731835261,0.0205378849059,0.0241487324238,,-0.000636281505392,-0.00102557893883,0.0287038582973,-0.999587280945
112684000000,,412,,112,684000000,"""map""",,,-0.0113216163591,0.0202417429537,0.0289768669754,,-0.00369177984992,0.00178759461845,0.0283216285281,-0.999590441959
112720000000,,413,,112,720000000,"""map""",,,-0.0124380197376,0.0198767799884,0.0346267335117,,-0.0113350733726,0.00952430152719,0.0273759796881,-0.999515631303
112752000000,,414,,112,752000000,"""map""",,,-0.0137028126046,0.01941415295,0.0407032780349,,-0.0184280940192,0.0170015162165,0.0266868365681,-0.999329384379
112784000000,,415,,112,784000000,"""map""",,,-0.0151263186708,0.0187987349927,0.0473085679114,,-0.02269550075,0.0214665466389,0.0263732640151,-0.999164000146
112820000000,,416,,112,820000000,"""map""",,,-0.0171432569623,0.0178014244884,0.0562218427658,,-0.0330317173559,0.0323490134018,0.025725045485,-0.998599400963
112852000000,,417,,112,852000000,"""map""",,,-0.0184786431491,0.0166060253978,0.0633500814438,,-0.0424723140484,0.0421632782086,0.0252915651481,-0.99788716137
112884000000,,418,,112,884000000,"""map""",,,-0.0199165102094,0.0151133872569,0.0709296017885,,-0.0480258528111,0.0480301023994,0.0250818424299,-0.997375330042
112920000000,,419,,112,920000000,"""map""",,,-0.0218641832471,0.0131869930774,0.0791314765811,,-0.0611930562331,0.061693013757,0.0250237640727,-0.995903224917
112952000000,,420,,112,952000000,"""map""",,,-0.0249630417675,0.0101950624958,0.0877547040582,,-0.0720202889543,0.0726583042839,0.0254795822393,-0.99442686296
112984000000,,421,,112,984000000,"""map""",,,-0.0295396577567,0.00581505009905,0.0970344170928,,-0.0771173527554,0.0777112763488,0.0258913569493,-0.993651613829
113020000000,,422,,113,20000000,"""map""",,,-0.037662807852,-0.00190542510245,0.110025279224,,-0.0856975812161,0.0850717235648,0.0272877663341,-0.992307466536
113052000000,,423,,113,52000000,"""map""",,,-0.0459137558937,-0.010029788129,0.121567994356,,-0.0906131446973,0.0879743267254,0.0287889949312,-0.991574996456
113084000000,,424,,113,84000000,"""map""",,,-0.0559510849416,-0.0198834259063,0.134481012821,,-0.0926552158955,0.0890522813553,0.029699956915,-0.991263194071
113120000000,,425,,113,120000000,"""map""",,,-0.0678777992725,-0.0314746424556,0.148797824979,,-0.095546207517,0.0908678704538,0.0318106289415,-0.990758316972
113152000000,,426,,113,152000000,"""map""",,,-0.0815707370639,-0.0447801724076,0.164270967245,,-0.0965690167,0.0902016025358,0.0335534432743,-0.990662517186
113184000000,,427,,113,184000000,"""map""",,,-0.0968657582998,-0.0597381331027,0.180968150496,,-0.0967922063241,0.0890934976804,0.0345155293853,-0.990707993635
113220000000,,428,,113,220000000,"""map""",,,-0.118107967079,-0.0806092023849,0.203682154417,,-0.0967529732057,0.0864556262016,0.0364234329237,-0.990877255379
113252000000,,429,,113,252000000,"""map""",,,-0.134825766087,-0.0977735519409,0.222541093826,,-0.0966271849485,0.0857051814783,0.0377789598655,-0.990903976481
113284000000,,430,,113,284000000,"""map""",,,-0.15244615078,-0.116028852761,0.242570579052,,-0.0967164964254,0.0858047721764,0.0384959620523,-0.99085904794
113320000000,,431,,113,320000000,"""map""",,,-0.171539217234,-0.135704278946,0.264107257128,,-0.0971517337591,0.0859211106492,0.039892413584,-0.990751109861
113352000000,,432,,113,352000000,"""map""",,,-0.192009776831,-0.156749621034,0.286959350109,,-0.097539242421,0.085665121228,0.041290466696,-0.990677900785
113384000000,,433,,113,384000000,"""map""",,,-0.213768795133,-0.179095506668,0.311301290989,,-0.0976508064461,0.0855966523555,0.0420264349647,-0.990641907377
113420000000,,434,,113,420000000,"""map""",,,-0.242698952556,-0.208817437291,0.343838065863,,-0.0974510086522,0.085132468698,0.0435567027404,-0.990635501056
113452000000,,435,,113,452000000,"""map""",,,-0.265944004059,-0.233262091875,0.37085288763,,-0.0967495823601,0.0844057068815,0.0446260947277,-0.990718825375
113484000000,,436,,113,484000000,"""map""",,,-0.289981752634,-0.258636593819,0.399190813303,,-0.0963597286212,0.0840555673277,0.0451477041249,-0.990762995272
113520000000,,437,,113,520000000,"""map""",,,-0.315167248249,-0.285116136074,0.429017364979,,-0.0957903523566,0.0834485829034,0.046220762888,-0.990819977812
113552000000,,438,,113,552000000,"""map""",,,-0.341433554888,-0.312613785267,0.460415095091,,-0.095176947782,0.0831833732006,0.0470602016697,-0.990861829632
113584000000,,439,,113,584000000,"""map""",,,-0.368642836809,-0.341071933508,0.493315547705,,-0.0947495194691,0.0829105737724,0.0474951571464,-0.990904988005
113620000000,,440,,113,620000000,"""map""",,,-0.403907895088,-0.377863168716,0.536477088928,,-0.0937731580888,0.0819308472297,0.0483265458801,-0.991039099277
113652000000,,441,,113,652000000,"""map""",,,-0.432653367519,-0.408309608698,0.572005927563,,-0.0929376626715,0.0814423415478,0.0488586076957,-0.991131990931
113684000000,,442,,113,684000000,"""map""",,,-0.462050437927,-0.439520120621,0.608883976936,,-0.0925074566179,0.0812490271246,0.0491408229933,-0.99117413778
113720000000,,443,,113,720000000,"""map""",,,-0.492177397013,-0.471394836903,0.6472427845,,-0.0917469891764,0.0808266221892,0.0495215776228,-0.991260454525
113752000000,,444,,113,752000000,"""map""",,,-0.522964656353,-0.50391972065,0.687099158764,,-0.090927848712,0.0803729594387,0.0499054932659,-0.99135347262
113784000000,,445,,113,784000000,"""map""",,,-0.554372191429,-0.537028491497,0.728382050991,,-0.0905106686687,0.0802603219861,0.0501072502297,-0.991390603994
113820000000,,446,,113,820000000,"""map""",,,-0.594394922256,-0.579130291939,0.781802713871,,-0.0895943540352,0.0799707731368,0.0504803762796,-0.991478311585
113852000000,,447,,113,852000000,"""map""",,,-0.627279937267,-0.613750934601,0.825458168983,,-0.0888875260317,0.079635478164,0.0507424032368,-0.991555566759
113884000000,,448,,113,884000000,"""map""",,,-0.660721957684,-0.648889422417,0.870403468609,,-0.0884435606784,0.0794824544816,0.0508440614354,-0.99160234976
113920000000,,449,,113,920000000,"""map""",,,-0.694584846497,-0.684370815754,0.916797161102,,-0.0877007142416,0.0793081222746,0.0511096708747,-0.991668604606
113952000000,,450,,113,948000000,"""map""",,,-0.728820443153,-0.72015273571,0.964673936367,,-0.0870419059865,0.079154644855,0.0512649820114,-0.991730939795
113984000000,,451,,113,984000000,"""map""",,,-0.76341855526,-0.756266534328,1.01415407658,,-0.086674355833,0.0790562721349,0.0513405513108,-0.991767059644
