rosbagTimestamp,header,seq,stamp,secs,nsecs,frame_id,pose,position,x,y,z,orientation,x,y,z,w
111508000000,,195,,111,432000000,"""map""",,,0.0116935102269,0.0133970491588,0.00580505374819,,0.00901680708489,-0.00834285288238,0.0313130011012,-0.999434203591
111508000000,,196,,111,432000000,"""map""",,,0.0117272138596,0.0134922629222,0.00566498050466,,0.00905898000765,-0.00838114619596,0.031276881252,-0.999434582913
111516000000,,197,,111,516000000,"""map""",,,0.0117617044598,0.0136355590075,0.00550634972751,,0.00904957000343,-0.0083994386485,0.0312586738134,-0.999435088675
111548000000,,198,,111,548000000,"""map""",,,0.0115364119411,0.0134609267116,0.00543419178575,,0.00903308544079,-0.00842092156396,0.0312604439811,-0.999435004381
111580000000,,199,,111,580000000,"""map""",,,0.011226888746,0.0132421022281,0.00538543518633,,0.00895432744832,-0.00841230913946,0.0312856477965,-0.999435004381
111616000000,,200,,111,616000000,"""map""",,,0.0108915911987,0.0130608137697,0.00518262153491,,0.00895516340884,-0.0083946078541,0.0312819810207,-0.999435299409
111648000000,,201,,111,648000000,"""map""",,,0.0106413988397,0.0130056869239,0.0048820078373,,0.00898062477689,-0.00842943228449,0.0312911690336,-0.999434456472
111680000000,,202,,111,680000000,"""map""",,,0.0103838033974,0.0130101712421,0.00433008326218,,0.00896874780321,-0.00844602311975,0.0312680304138,-0.999435088675
111716000000,,203,,111,716000000,"""map""",,,0.0101322773844,0.0131026925519,0.00373257207684,,0.00896083652282,-0.00845146617533,0.0312163162307,-0.999436816696
111748000000,,204,,111,748000000,"""map""",,,0.00955338962376,0.013107038103,0.00281386030838,,0.00896274969751,-0.00852607060411,0.0312201515939,-0.999436015906
111780000000,,205,,111,780000000,"""map""",,,0.00918340217322,0.013108019717,0.0023427461274,,0.00894505160197,-0.00854884476071,0.031202028449,-0.999436521668
111816000000,,206,,111,816000000,"""map""",,,0.00860182847828,0.0131944380701,0.00191928248387,,0.00894018322938,-0.00848670227835,0.0311526744894,-0.999438671157
111848000000,,207,,111,848000000,"""map""",,,0.00818203017116,0.0133120333776,0.00166117632762,,0.00889243148798,-0.00846152153258,0.0311245625415,-0.999440146297
111880000000,,208,,111,880000000,"""map""",,,0.00776748917997,0.0134616186842,0.00152149691712,,0.00890724822492,-0.00846833139728,0.0310950176007,-0.999440947087
111916000000,,209,,111,916000000,"""map""",,,0.00740913907066,0.01362795569,0.00135266617872,,0.00897034106933,-0.00840868274065,0.0310857031471,-0.999441157821
111948000000,,210,,111,948000000,"""map""",,,0.00707418471575,0.0136588746682,0.00118889950681,,0.0090139926303,-0.00817838649523,0.0310002714852,-0.999445330359
111980000000,,211,,111,980000000,"""map""",,,0.00677248649299,0.0136903831735,0.00117349438369,,0.0090310521023,-0.0081958755852,0.0310221878464,-0.999444318835
112016000000,,212,,112,16000000,"""map""",,,0.00640241568908,0.0137851992622,0.00109645945486,,0.0090516620347,-0.00821274737202,0.03103537981,-0.999443602339
112048000000,,213,,112,48000000,"""map""",,,0.00613148044795,0.0139169963077,0.00110535742715,,0.00910790544,-0.00816318819348,0.0310724268899,-0.999442295786
112080000000,,214,,112,80000000,"""map""",,,0.00585576239973,0.0140883820131,0.0011793251615,,0.00908328361329,-0.00816562760697,0.0310835536579,-0.999442211493
112116000000,,215,,112,116000000,"""map""",,,0.00555525533855,0.0143029922619,0.00126414967235,,0.00906591857664,-0.00826356424709,0.0310729747989,-0.999441916465
112148000000,,216,,112,148000000,"""map""",,,0.00523326452821,0.014574422501,0.00141504919156,,0.0090458272892,-0.00833494693208,0.0311178611926,-0.99944010415
112180000000,,217,,112,180000000,"""map""",,,0.00492629921064,0.0148961795494,0.00146340602078,,0.0090326622642,-0.00836972670492,0.0310912665312,-0.999440736353
112216000000,,218,,112,216000000,"""map""",,,0.00455628801137,0.0153354117647,0.00142519187648,,0.0090102179355,-0.00840128265544,0.0310308700972,-0.999442548667
112248000000,,219,,112,248000000,"""map""",,,0.00430026929826,0.0153785375878,0.00161067699082,,0.00902135999409,-0.00843048698468,0.031027877671,-0.999442253639
112280000000,,220,,112,280000000,"""map""",,,0.00405200943351,0.0153487920761,0.00160448008683,,0.00898512193617,-0.00838961738324,0.031032050209,-0.999442801548
112316000000,,221,,112,316000000,"""map""",,,0.00380005803891,0.0153665058315,0.00144113285933,,0.00899834203195,-0.00836350693726,0.0310392994669,-0.999442717255
112348000000,,222,,112,348000000,"""map""",,,0.00352983851917,0.0154254557565,0.00130936037749,,0.0090260453942,-0.00834640350741,0.0310047390512,-0.999443644485
112380000000,,223,,112,380000000,"""map""",,,0.0032408090774,0.0155266644433,0.00114807870705,,0.00904103182983,-0.0083898339209,0.0309884282208,-0.999443686632
112416000000,,224,,112,416000000,"""map""",,,0.00286847446114,0.0156867615879,0.00108112557791,,0.00912759715555,-0.00840593963524,0.0309507910851,-0.999443897366
112448000000,,225,,112,448000000,"""map""",,,0.00279875122942,0.0153084602207,0.00134262803476,,0.00907555341206,-0.00839919906177,0.030949147358,-0.999444529569
112480000000,,226,,112,480000000,"""map""",,,0.0027884603478,0.0148607846349,0.00167760602199,,0.00908618680676,-0.00846371876633,0.0309582932241,-0.999443560192
112516000000,,227,,112,516000000,"""map""",,,0.00274718855508,0.0145038999617,0.0019263747381,,0.00906272338043,-0.00846637482039,0.0308662866538,-0.999446636912
112548000000,,228,,112,548000000,"""map""",,,0.00269460701384,0.0142397582531,0.002410834888,,0.00909150086993,-0.00848658382266,0.0308321898534,-0.999447184821
112580000000,,229,,112,580000000,"""map""",,,0.00260237813927,0.0140412878245,0.00277619948611,,0.00910716926955,-0.00855282255476,0.0308284809307,-0.999446679058
112616000000,,230,,112,616000000,"""map""",,,0.00246308976784,0.0139229279011,0.00308809429407,,0.00913909904698,-0.00854847130424,0.0308102313453,-0.999446974086
112648000000,,231,,112,648000000,"""map""",,,0.0025554576423,0.0137927569449,0.00358254904859,,0.00906611605768,-0.00855734103442,0.0307799277612,-0.999448449226
112680000000,,232,,112,680000000,"""map""",,,0.00268419273198,0.0137127619237,0.00426485901698,,0.00912064541567,-0.00855207607398,0.0307312060043,-0.999449545044
112716000000,,233,,112,716000000,"""map""",,,0.00274976226501,0.0136967664585,0.00481673516333,,0.00908426305419,-0.00861672053156,0.030734914927,-0.999449207869
112748000000,,234,,112,748000000,"""map""",,,0.00281203887425,0.0137291746214,0.0052581964992,,0.00910608079838,-0.0086435112746,0.0307293936898,-0.999448912841
112780000000,,235,,112,780000000,"""map""",,,0.00285356957465,0.013793585822,0.0056001371704,,0.00906730224039,-0.00860749234737,0.0306949175678,-0.999450598715
112816000000,,236,,112,816000000,"""map""",,,0.00286472286098,0.0139205157757,0.00592996226624,,0.00906554011934,-0.00860747639824,0.0306680278784,-0.999451441652
112848000000,,237,,112,848000000,"""map""",,,0.00301899248734,0.0139131825417,0.00585941923782,,0.00928607037609,-0.00861283612736,0.0306068728012,-0.999451315212
112880000000,,238,,112,880000000,"""map""",,,0.00315923267044,0.0139082800597,0.00590431503952,,0.00927189108965,-0.00865604142153,0.0305884546284,-0.99945161024
112916000000,,239,,112,916000000,"""map""",,,0.00322633679025,0.0139480261132,0.0059750941582,,0.00921990332245,-0.00863573548974,0.0306018151794,-0.999451820974
112948000000,,240,,112,948000000,"""map""",,,0.00325053161941,0.0140344966203,0.00596131244674,,0.0091879881359,-0.00867634082961,0.0306244058902,-0.999451146624
112980000000,,241,,112,980000000,"""map""",,,0.00324325659312,0.0141548551619,0.00587016483769,,0.00919414618559,-0.00867881498133,0.030635026896,-0.999450725156
113016000000,,242,,113,16000000,"""map""",,,0.00315690413117,0.014335825108,0.00569915445521,,0.00917776925381,-0.00867254983584,0.0306067463607,-0.999451778827
113048000000,,243,,113,48000000,"""map""",,,0.0031210067682,0.0142511827871,0.00583335710689,,0.00919783848001,-0.00871794783626,0.030536824739,-0.999453338261
113080000000,,244,,113,80000000,"""map""",,,0.00305761839263,0.0141476206481,0.00602284539491,,0.00914705362667,-0.0086804929939,0.0305139811471,-0.999454855547
113116000000,,245,,113,116000000,"""map""",,,0.0029452976305,0.0141355544329,0.00625035725534,,0.00914626298225,-0.00872476338091,0.030472550795,-0.999455740631
113148000000,,246,,113,148000000,"""map""",,,0.00278137205169,0.0141725204885,0.00641573825851,,0.00911011290177,-0.00871162799042,0.0304443124065,-0.999457005036
113180000000,,247,,113,180000000,"""map""",,,0.00261868815869,0.0142921805382,0.0066720796749,,0.00912688994049,-0.00871538436945,0.0304584737476,-0.99945641498
113216000000,,248,,113,216000000,"""map""",,,0.00239626341499,0.0144851673394,0.00691694812849,,0.00907937229109,-0.00871891256281,0.0304122386548,-0.999458227295
113248000000,,249,,113,248000000,"""map""",,,0.00232256390154,0.0144251836464,0.00735699245706,,0.00907021364508,-0.00874606396186,0.0303602294437,-0.999459660288
113280000000,,250,,113,280000000,"""map""",,,0.002233435167,0.0143386032432,0.00774083100259,,0.00905873591401,-0.00872791904388,0.0303346041598,-0.999460671812
113316000000,,251,,113,316000000,"""map""",,,0.00208277557977,0.0143108284101,0.00798025541008,,0.00901215603198,-0.00871489801375,0.0302583605109,-0.999463495651
113348000000,,252,,113,348000000,"""map""",,,0.00185101036914,0.0143455695361,0.0082975095138,,0.00897744919295,-0.00867728744619,0.0302329038144,-0.999464928644
113380000000,,253,,113,380000000,"""map""",,,0.00159533787519,0.0144223449752,0.00858072657138,,0.00898458377154,-0.00867698197414,0.0302240529762,-0.999465097231
113416000000,,254,,113,416000000,"""map""",,,0.0012021844741,0.014586340636,0.00895725097507,,0.00900125618401,-0.00869363981631,0.0302367391776,-0.999464465029
113448000000,,255,,113,448000000,"""map""",,,0.000973783142399,0.0144584216177,0.00935922563076,,0.00897354413721,-0.00868408482941,0.0302211869905,-0.999465265819
113480000000,,256,,113,480000000,"""map""",,,0.000744453631341,0.0143077205867,0.00978918839246,,0.00900130106793,-0.00870840428128,0.030244409904,-0.99946404356
113516000000,,257,,113,516000000,"""map""",,,0.000477502704598,0.0142471063882,0.0102356113493,,0.00897612897585,-0.00865278218186,0.0301397171323,-0.999468005364
113548000000,,258,,113,548000000,"""map""",,,0.00020086306904,0.0142248049378,0.0106508890167,,0.00893702965524,-0.00863527169948,0.0301019535561,-0.999469606944
113580000000,,259,,113,580000000,"""map""",,,-0.000107003463199,0.0142634902149,0.0108863664791,,0.00912314405701,-0.00860089253779,0.03010363943,-0.999468173951
113616000000,,260,,113,616000000,"""map""",,,-0.000493130704854,0.0143861500546,0.0111142937094,,0.0091257334746,-0.00859360638077,0.0300987082487,-0.999468384685
113648000000,,261,,113,648000000,"""map""",,,-0.000685353588779,0.0142838228494,0.0112600801513,,0.00909368608524,-0.00859213517176,0.0300989611298,-0.999468637567
113680000000,,262,,113,680000000,"""map""",,,-0.000860676867887,0.0141858933493,0.0113735515624,,0.00910315348572,-0.00861377214548,0.0300625041059,-0.999469438357
113716000000,,263,,113,716000000,"""map""",,,-0.00107807631139,0.0141656668857,0.0113455466926,,0.00909338558315,-0.00866275242224,0.0301078962617,-0.99946779463
113748000000,,264,,113,748000000,"""map""",,,-0.00130769226234,0.014241842553,0.0112696280703,,0.00909332112811,-0.00869655411242,0.0300858534599,-0.999468089658
113780000000,,265,,113,780000000,"""map""",,,-0.00156129244715,0.0143447453156,0.0112404245883,,0.00913088901376,-0.00868783047622,0.030090278879,-0.999467710336
113816000000,,266,,113,816000000,"""map""",,,-0.00187157699838,0.0145515557379,0.0111093791202,,0.0091098962612,-0.00861378471956,0.0300490592612,-0.999469817678
113848000000,,267,,113,848000000,"""map""",,,-0.00196091667749,0.0145036065951,0.0111803580076,,0.00907650544105,-0.00864575440067,0.0300179970338,-0.999470787056
113880000000,,268,,113,880000000,"""map""",,,-0.00201256759465,0.014427521266,0.0113114546984,,0.00904904082176,-0.00860783740411,0.0299759766259,-0.99947259937
113916000000,,269,,113,916000000,"""map""",,,-0.00209653098136,0.0144362961873,0.0113289710134,,0.00908666398399,-0.00860524749262,0.0299594550612,-0.999472767958
113948000000,,270,,113,948000000,"""map""",,,-0.00222719181329,0.014513021335,0.0112139070407,,0.00910656048631,-0.00857130555303,0.0299189519398,-0.999474158804
113980000000,,271,,113,980000000,"""map""",,,-0.00241493014619,0.0146504528821,0.0109292939305,,0.00911073629646,-0.00859262595206,0.0299357685324,-0.999473358014
114016000000,,272,,114,16000000,"""map""",,,-0.00270825065672,0.0148779898882,0.0104665355757,,0.00910644639348,-0.00858902649183,0.0299055913888,-0.999474369538
114048000000,,273,,114,48000000,"""map""",,,-0.00274598482065,0.0149474833161,0.0100988000631,,0.00914969733302,-0.00869488715106,0.0299409525947,-0.999471967168
114080000000,,274,,114,80000000,"""map""",,,-0.00272636697628,0.0150344548747,0.0097088823095,,0.00913987059361,-0.00860891937216,0.0299343355395,-0.999473020839
114116000000,,275,,114,116000000,"""map""",,,-0.00271799578331,0.0151665071025,0.00931217893958,,0.00911282995351,-0.00863713090439,0.0298711995605,-0.999474959594
114148000000,,276,,114,148000000,"""map""",,,-0.0027355637867,0.015340520069,0.00888042338192,,0.0090604724753,-0.0085893645927,0.0298837593213,-0.999475465356
114180000000,,277,,114,180000000,"""map""",,,-0.00277399085462,0.0155841717497,0.00832762755454,,0.0090796003327,-0.00861099800616,0.0298813990978,-0.999475128181
114216000000,,278,,114,216000000,"""map""",,,-0.00287794764154,0.0159387253225,0.00753672840074,,0.00928602822924,-0.00854013413077,0.0298328037815,-0.999475338915
114248000000,,279,,114,248000000,"""map""",,,-0.00287672737613,0.0159225873649,0.0072115547955,,0.00929910789041,-0.00867867248876,0.0298615479322,-0.999473147279
114280000000,,280,,114,280000000,"""map""",,,-0.00288180494681,0.0158564802259,0.00687683094293,,0.00925983861386,-0.00866472083235,0.0298652990017,-0.999473526601
114316000000,,281,,114,316000000,"""map""",,,-0.00293142232113,0.0158404819667,0.00650907447562,,0.00924381692569,-0.0086917415309,0.0298250066145,-0.999474622419
114348000000,,282,,114,348000000,"""map""",,,-0.0030240106862,0.0158942695707,0.00605418812484,,0.00921775714647,-0.00872393367657,0.0298459535982,-0.999473990216
114380000000,,283,,114,380000000,"""map""",,,-0.00315790483728,0.015980001539,0.00559661071748,,0.00921484627685,-0.0087159798789,0.0298205390485,-0.999474791006
114416000000,,284,,114,416000000,"""map""",,,-0.00335769960657,0.0161431189626,0.0050566457212,,0.00921781563346,-0.0087040885613,0.0298473022974,-0.99947407451
114448000000,,285,,114,448000000,"""map""",,,-0.00341072259471,0.0160252545029,0.00495400791988,,0.00916040788031,-0.0086530551074,0.0297989177153,-0.999476519027
114480000000,,286,,114,480000000,"""map""",,,-0.00344637804665,0.0158823374659,0.00494690285996,,0.00916748608132,-0.00868294627798,0.0297810053046,-0.999476729761
114516000000,,287,,114,516000000,"""map""",,,-0.00349189341068,0.0158034246415,0.00491053238511,,0.00912138615477,-0.00863960005529,0.0297379312255,-0.999478837104
114548000000,,288,,114,548000000,"""map""",,,-0.00357820466161,0.0157787576318,0.00485065113753,,0.00916924167866,-0.00861637409599,0.0296718028202,-0.999480565125
114580000000,,289,,114,580000000,"""map""",,,-0.00371794565581,0.0158142838627,0.0047613652423,,0.00914196921032,-0.00856201997257,0.0296747530996,-0.999481155181
114616000000,,290,,114,616000000,"""map""",,,-0.00392722850665,0.0159687381238,0.00471257558092,,0.00916563524198,-0.00858369999864,0.029689378056,-0.99948035439
114648000000,,291,,114,648000000,"""map""",,,-0.00398392928764,0.0158691685647,0.00553772086278,,0.00910354538144,-0.00861929661362,0.0296521202419,-0.99948170309
114680000000,,292,,114,680000000,"""map""",,,-0.00399039173499,0.0157090369612,0.00648935232311,,0.00912239527133,-0.0086313271928,0.0296620668981,-0.999481113034
114716000000,,293,,114,716000000,"""map""",,,-0.00403000414371,0.0155959352851,0.00727313244715,,0.00911613885155,-0.00866710747996,0.0296224067137,-0.999482082411
114748000000,,294,,114,748000000,"""map""",,,-0.00410928903148,0.0155330495909,0.00793175399303,,0.00913150253028,-0.00864975367973,0.0296427214947,-0.999481408062
114780000000,,295,,114,780000000,"""map""",,,-0.0041951360181,0.0155050717294,0.00851191952825,,0.00911063741189,-0.00863565930437,0.0295748229217,-0.999483726138
114816000000,,296,,114,816000000,"""map""",,,-0.00429627532139,0.0155663592741,0.00909950677305,,0.00912717050103,-0.0086293455089,0.0295508413649,-0.999484358341
114848000000,,297,,114,848000000,"""map""",,,-0.00426776381209,0.0153768146411,0.00925307814032,,0.00907013217078,-0.00861886458784,0.0294824370298,-0.999487013593
114880000000,,298,,114,880000000,"""map""",,,-0.00420717289671,0.0151920616627,0.00920875370502,,0.00907260409991,-0.00859591060743,0.0294929315951,-0.999486887152
114916000000,,299,,114,916000000,"""map""",,,-0.00418475875631,0.0150538524613,0.00915707554668,,0.00906006487741,-0.00857015941805,0.0294245694068,-0.999489247375
114948000000,,300,,114,948000000,"""map""",,,-0.0042013451457,0.0149584524333,0.00908849667758,,0.00908608779871,-0.00860296691183,0.0294134847856,-0.999489036641
114980000000,,301,,114,980000000,"""map""",,,-0.00425569107756,0.0149317458272,0.00903020333499,,0.00906884177339,-0.00853068776255,0.0294187531417,-0.999489668844
115016000000,,302,,115,16000000,"""map""",,,-0.00436345441267,0.0150068029761,0.00876737199724,,0.00928695122053,-0.00853771229218,0.0293676711613,-0.999489078788
115048000000,,303,,115,48000000,"""map""",,,-0.00439798180014,0.014775683172,0.00848717242479,,0.00929177563528,-0.00848909071638,0.0293422987585,-0.999490174606
115080000000,,304,,115,80000000,"""map""",,,-0.00446228450164,0.01449896954,0.00807788223028,,0.00923378066623,-0.00840912061101,0.0293160834187,-0.999492197655
115116000000,,305,,115,116000000,"""map""",,,-0.00453967181966,0.0143289789557,0.00770724425092,,0.00921849156766,-0.00844700700583,0.0292984238892,-0.999492576977
115148000000,,306,,115,148000000,"""map""",,,-0.00465686572716,0.0142459860072,0.00742964912206,,0.00914771105988,-0.00849419713224,0.0292768868496,-0.999493377767
115180000000,,307,,115,180000000,"""map""",,,-0.00480361236259,0.0142373144627,0.0070967678912,,0.00916967349864,-0.00852975460498,0.0292807222128,-0.999492745564
115216000000,,308,,115,216000000,"""map""",,,-0.00504411105067,0.0143204610795,0.00663360394537,,0.00907013486669,-0.00849453790844,0.0292902474006,-0.999493757088
115248000000,,309,,115,248000000,"""map""",,,-0.00514419935644,0.0140054449439,0.00593699049205,,0.00916960116165,-0.00855468436298,0.0293320149275,-0.999491101837
115280000000,,310,,115,280000000,"""map""",,,-0.00526816258207,0.0136026870459,0.00516693433747,,0.00914023279309,-0.00855272050094,0.0293419194369,-0.99949105969
115316000000,,311,,115,316000000,"""map""",,,-0.00542457494885,0.0132908318192,0.00448902277276,,0.00914231107724,-0.00851195404403,0.029358019533,-0.999490891103
115348000000,,312,,115,348000000,"""map""",,,-0.00561704998836,0.0130964368582,0.00372930243611,,0.0090844371569,-0.00847001105621,0.0293348387663,-0.999492492683
115380000000,,313,,115,380000000,"""map""",,,-0.00583348888904,0.0129989171401,0.00305276713334,,0.0090761435091,-0.00849843377543,0.0293422566116,-0.999492071214
115416000000,,314,,115,416000000,"""map""",,,-0.00614661118016,0.0129673369229,0.00230811093934,,0.00903182832048,-0.00853946150987,0.0293170949431,-0.999492956298
115448000000,,315,,115,448000000,"""map""",,,-0.0062128813006,0.0127917602658,0.00210074475035,,0.00904241156289,-0.008479674456,0.0293013741686,-0.999493757088
115480000000,,316,,115,480000000,"""map""",,,-0.00626461720094,0.0126625820994,0.00202980218455,,0.0090505765064,-0.00850718550267,0.0293033550705,-0.999493377767
115516000000,,317,,115,516000000,"""map""",,,-0.00637460593134,0.0126210963354,0.00195167015772,,0.00898680713099,-0.00847169641566,0.029300994847,-0.999494304997
115548000000,,318,,115,548000000,"""map""",,,-0.00649758288637,0.0126507757232,0.00186519685667,,0.00898224893286,-0.00853193982029,0.0293115315591,-0.999493630648
115580000000,,319,,115,580000000,"""map""",,,-0.00666954275221,0.0127589460462,0.00179287977517,,0.00901216613653,-0.00849044803835,0.0293210146,-0.999493419913
115616000000,,320,,115,616000000,"""map""",,,-0.0069449772127,0.0130119072273,0.00159499864094,,0.00901217255734,-0.00849028093268,0.0293531726454,-0.999492450536
115648000000,,321,,115,648000000,"""map""",,,-0.00701354304329,0.0130287837237,0.00198502792045,,0.00907093180845,-0.00843257666988,0.0293232062361,-0.999493251326
115680000000,,322,,115,680000000,"""map""",,,-0.00705505395308,0.0130371712148,0.00237896852195,,0.00918376795632,-0.00846467168023,0.0293147768664,-0.999492239802
115716000000,,323,,115,716000000,"""map""",,,-0.00712818140164,0.0130864484236,0.00281734182499,,0.00914193618019,-0.00842933389382,0.0293460076812,-0.999491944774
115748000000,,324,,115,748000000,"""map""",,,-0.00724375806749,0.0131695643067,0.00316975731403,,0.00914145422851,-0.00848894919105,0.0293283902985,-0.999492029067
115780000000,,325,,115,780000000,"""map""",,,-0.00737895816565,0.0132969859987,0.00343197700568,,0.00915230189712,-0.00852890296288,0.0293229112082,-0.999491691893
115816000000,,326,,115,816000000,"""map""",,,-0.00762210134417,0.0135594913736,0.00375832966529,,0.00909138167337,-0.00857743859861,0.0293226161802,-0.999491902627
115848000000,,327,,115,848000000,"""map""",,,-0.00754528213292,0.0135444458574,0.00418052729219,,0.00908504791577,-0.00859564196242,0.0293380419268,-0.999491312571
115880000000,,328,,115,880000000,"""map""",,,-0.00741600384936,0.0135066509247,0.00456826435402,,0.00904084157221,-0.00857460103323,0.0293734874264,-0.999490848956
115916000000,,329,,115,916000000,"""map""",,,-0.00734261702746,0.0135563509539,0.0048062922433,,0.00907668905149,-0.00864720134643,0.0293728973705,-0.999489921725
115948000000,,330,,115,948000000,"""map""",,,-0.007336135488,0.0136881684884,0.00495905615389,,0.00902819292842,-0.00864464314797,0.0293617706025,-0.999490680368
115980000000,,331,,115,980000000,"""map""",,,-0.00738446274772,0.0139019386843,0.00510078854859,,0.00904544776177,-0.00865277257123,0.0293361874655,-0.999491228277
116016000000,,332,,116,16000000,"""map""",,,-0.00753534445539,0.0142492493615,0.00510156294331,,0.00905545500411,-0.00844430372178,0.0293500959255,-0.999492576977
116048000000,,333,,116,48000000,"""map""",,,-0.00782252475619,0.0142830749974,0.00515904324129,,0.00909721804465,-0.00853426143664,0.0293842770196,-0.999490343194
116080000000,,334,,116,80000000,"""map""",,,-0.00817667972296,0.0142754260451,0.00515992101282,,0.00911966280553,-0.00856505868215,0.0293825489988,-0.999489963872
116116000000,,335,,116,116000000,"""map""",,,-0.00854526646435,0.0143521325663,0.00521915405989,,0.00907710411974,-0.00863193609952,0.0293229955019,-0.999491523305
116148000000,,336,,116,148000000,"""map""",,,-0.00892165210098,0.0144859077409,0.00516474898905,,0.0090419522281,-0.00868747652913,0.0293372832835,-0.999490975396
116180000000,,337,,116,180000000,"""map""",,,-0.00929994136095,0.0146655617282,0.00507897138596,,0.00907120946727,-0.00870935263682,0.0293522032679,-0.999490048166
116216000000,,338,,116,216000000,"""map""",,,-0.00982097536325,0.0149830011651,0.0048216432333,,0.00904571594373,-0.008742372007,0.0293420458774,-0.9994902589
116248000000,,339,,116,248000000,"""map""",,,-0.01005047746,0.0150691140443,0.00449230521917,,0.00907183589745,-0.00883806829928,0.0294062776745,-0.99948730862
116280000000,,340,,116,280000000,"""map""",,,-0.0102559020743,0.0151375168934,0.00414881156757,,0.00904203673788,-0.00883124053041,0.029383054761,-0.999488362292
116316000000,,341,,116,316000000,"""map""",,,-0.0104910545051,0.0152751700953,0.00380333256908,,0.00905089916234,-0.00887218119291,0.0294332516576,-0.99948638139
116348000000,,342,,116,348000000,"""map""",,,-0.0107452506199,0.0154612585902,0.00339217903093,,0.00900166170337,-0.00890864683969,0.0294557580747,-0.999485875628
116380000000,,343,,116,380000000,"""map""",,,-0.0110246986151,0.0157053824514,0.00288582593203,,0.00900164027495,-0.0089613333895,0.0294792760162,-0.999484695516
116416000000,,344,,116,416000000,"""map""",,,-0.0114431604743,0.016065929085,0.00220230640844,,0.0090012113644,-0.00898666055081,0.0295160280681,-0.99948343111
116448000000,,345,,116,448000000,"""map""",,,-0.0114907035604,0.0161734391004,0.00181315070949,,0.00900227287769,-0.00901622004005,0.029538028723,-0.99948250388
116480000000,,346,,116,480000000,"""map""",,,-0.011531855911,0.0162609163672,0.00153620529454,,0.00894742262459,-0.00904058231661,0.0295597764968,-0.999482082411
116516000000,,347,,116,516000000,"""map""",,,-0.0116178281605,0.0163990147412,0.00128899118863,,0.0089484383729,-0.00899715761908,0.0295395038627,-0.999483136082
116548000000,,348,,116,548000000,"""map""",,,-0.0117469169199,0.0165765620768,0.00100954098161,,0.00893578614571,-0.00898726259941,0.029526606927,-0.999483641845
116580000000,,349,,116,580000000,"""map""",,,-0.0119021805003,0.0168124865741,0.00070747314021,,0.00890581411306,-0.0089608118557,0.0295173767672,-0.999484442635
116616000000,,350,,116,616000000,"""map""",,,-0.0121569912881,0.017203649506,0.000236120948102,,0.0089144303422,-0.00897661972527,0.0294849658407,-0.999485159131
116648000000,,351,,116,648000000,"""map""",,,-0.0125257102773,0.0173386652023,-6.32026276435e-05,,0.00887292927375,-0.00899145764368,0.0294666319616,-0.999485959921
116680000000,,352,,116,680000000,"""map""",,,-0.0129655767232,0.0174464788288,-0.000265231443336,,0.00886380216071,-0.00903482643696,0.029451206215,-0.999486128509
116716000000,,353,,116,716000000,"""map""",,,-0.0134401004761,0.0175609569997,-0.000408834253903,,0.00887097082926,-0.00898576906934,0.029450658306,-0.99948650783
116748000000,,354,,116,748000000,"""map""",,,-0.0139125892892,0.017722805962,-0.00047797895968,,0.00892133482122,-0.00900168626502,0.0294858509245,-0.999484864103
116780000000,,355,,116,780000000,"""map""",,,-0.0144379623234,0.0179322697222,-0.000560817599762,,0.00895931912823,-0.00902677998517,0.02949099284,-0.999484189754
116816000000,,356,,116,816000000,"""map""",,,-0.0151530178264,0.0182584188879,-0.000728131388314,,0.00896447940582,-0.00902737538658,0.0294628387452,-0.999484948397
116848000000,,357,,116,848000000,"""map""",,,-0.0154234012589,0.0181283652782,-0.000750002451241,,0.00895882715175,-0.00902009909486,0.0294698351221,-0.999484864103
116880000000,,358,,116,880000000,"""map""",,,-0.0156308878213,0.0179280694574,-0.000725627352949,,0.00896673303259,-0.00906156166161,0.0294654939967,-0.999484569075
116916000000,,359,,116,916000000,"""map""",,,-0.0159102659672,0.0177889484912,-0.000687229097821,,0.00898805061865,-0.00901137085014,0.0294424818174,-0.999485496306
116948000000,,360,,116,948000000,"""map""",,,-0.0162388123572,0.0177384894341,-0.000676766852848,,0.00897548062077,-0.00903025497276,0.0293280109769,-0.99948878376
116980000000,,361,,116,980000000,"""map""",,,-0.0166231244802,0.0177072305232,-0.000648741086479,,0.00898484377315,-0.00892778548076,0.0293457969469,-0.999489120935
117016000000,,362,,117,16000000,"""map""",,,-0.0171687509865,0.0177002195269,-0.000592151423916,,0.0089549975225,-0.00898029356501,0.0293487472263,-0.99948878376
117048000000,,363,,117,48000000,"""map""",,,-0.0172341037542,0.0173293109983,-0.000346940243617,,0.00890739830554,-0.00892724479064,0.0292787413109,-0.999491776186
117080000000,,364,,117,80000000,"""map""",,,-0.0172399245203,0.0168801862746,-1.80075585376e-05,,0.00891598605456,-0.00894756056008,0.0293014584623,-0.999490806809
117116000000,,365,,117,116000000,"""map""",,,-0.0173611305654,0.0165072754025,0.00023474462796,,0.00891928897296,-0.00896750426281,0.0292856533941,-0.999491101837
117148000000,,366,,117,148000000,"""map""",,,-0.0175384916365,0.0162099711597,0.000174227345269,,0.00908141613027,-0.00896873565615,0.0292915539529,-0.999489415963
117180000000,,367,,117,180000000,"""map""",,,-0.0177368335426,0.0159690193832,0.00023810568382,,0.00909884026615,-0.00895053575484,0.0293122480555,-0.999488868054
117216000000,,368,,117,216000000,"""map""",,,-0.0180294271559,0.0157006811351,0.000319393613609,,0.00903969794279,-0.00891630700368,0.0292923968899,-0.9994902589
117248000000,,369,,117,248000000,"""map""",,,-0.0183249376714,0.0155318249017,0.0003358462709,,0.00906041884765,-0.00898849092383,0.0293022592524,-0.999489163082
117280000000,,370,,117,280000000,"""map""",,,-0.0186804160476,0.0154011435807,0.000294113560813,,0.00905719202844,-0.0089640351661,0.029301542756,-0.99948945811
117316000000,,371,,117,316000000,"""map""",,,-0.0190517604351,0.0153388520703,0.000176003333763,,0.00905711375682,-0.0090087811946,0.0292341920921,-0.999490975396
117348000000,,372,,117,348000000,"""map""",,,-0.0190889276564,0.0149583341554,-0.000162155396538,,0.00900206157944,-0.00898624102388,0.0292009803754,-0.99949266127
117380000000,,373,,117,380000000,"""map""",,,-0.0190824642777,0.0145528251305,-0.000633494055364,,0.00900815377533,-0.00899875402743,0.0291644390578,-0.999493546354
117416000000,,374,,117,416000000,"""map""",,,-0.0191587582231,0.0141653753817,-0.00132308073808,,0.00896995281747,-0.00899237810755,0.0291144107486,-0.999495442962
117448000000,,375,,117,448000000,"""map""",,,-0.0193011090159,0.0139250904322,-0.00178747996688,,0.00901731144638,-0.00904665660382,0.0291110811476,-0.999494557878
117480000000,,376,,117,480000000,"""map""",,,-0.0195027869195,0.0137478914112,-0.00230186618865,,0.00895479110481,-0.00901463366164,0.0290945174361,-0.999495948724
117516000000,,377,,117,516000000,"""map""",,,-0.0197866372764,0.0136247007176,-0.00273714377545,,0.00902265479291,-0.00901273242564,0.0291004601417,-0.999495147934
117548000000,,378,,117,548000000,"""map""",,,-0.0197744760662,0.0133488820866,-0.00299036223441,,0.00894626533166,-0.00898481897354,0.029053382112,-0.999497466011
117580000000,,379,,117,580000000,"""map""",,,-0.0197305399925,0.0130553580821,-0.00319733261131,,0.00895794654526,-0.00899751312635,0.029066447635,-0.999496875955
117616000000,,380,,117,616000000,"""map""",,,-0.0198275782168,0.0127636240795,-0.00354163628072,,0.00889123081214,-0.00898744652111,0.0289631878561,-0.999500584878
117648000000,,381,,117,648000000,"""map""",,,-0.0199799705297,0.0125749278814,-0.00382857071236,,0.00893588588433,-0.0089648461045,0.0289616705696,-0.99950041629
117680000000,,382,,117,680000000,"""map""",,,-0.0201693419367,0.0124230487272,-0.0041512735188,,0.00895979904254,-0.00893475184753,0.0289154776236,-0.999501849283
117716000000,,383,,117,716000000,"""map""",,,-0.020422488451,0.0123022506014,-0.00443046167493,,0.00899492503486,-0.00886104963502,0.0289102935613,-0.999502312899
117748000000,,384,,117,748000000,"""map""",,,-0.0203074961901,0.0121315699071,-0.00427258014679,,0.00913136831068,-0.00888852467269,0.0289436317184,-0.999499826234
117780000000,,385,,117,780000000,"""map""",,,-0.0201215017587,0.0119579993188,-0.00397587846965,,0.0091553447226,-0.00889858052385,0.028923443378,-0.999500121262
117816000000,,386,,117,816000000,"""map""",,,-0.0200570374727,0.011783127673,-0.00363372918218,,0.00914606256863,-0.00891187321387,0.0288991246464,-0.999500753465
117848000000,,387,,117,848000000,"""map""",,,-0.0201229639351,0.0116759762168,-0.00345103815198,,0.00909318975877,-0.0089600980166,0.0289655902265,-0.999498941151
117880000000,,388,,117,880000000,"""map""",,,-0.0202564522624,0.0115900235251,-0.00334395770915,,0.00911010762312,-0.00897582420351,0.0289661802824,-0.999498603976
117916000000,,389,,117,916000000,"""map""",,,-0.0204555168748,0.0115151442587,-0.00330354226753,,0.00911231365461,-0.00895737978154,0.028937351838,-0.9994996155
117948000000,,390,,117,948000000,"""map""",,,-0.0203154459596,0.0112820239738,-0.00308322301134,,0.00915547721353,-0.00893990867806,0.0289509652701,-0.999498983297
117980000000,,391,,117,980000000,"""map""",,,-0.0201573781669,0.0110292332247,-0.00280040758662,,0.00915785153401,-0.00894806316717,0.028952651144,-0.99949881471
118016000000,,392,,118,16000000,"""map""",,,-0.0201029963791,0.0107721518725,-0.00247757975012,,0.00919195928276,-0.00897055073343,0.0289581723812,-0.999498182507
118048000000,,393,,118,48000000,"""map""",,,-0.0201789755374,0.0105581944808,-0.00238253944553,,0.00917734517173,-0.00896258598746,0.0289070482539,-0.999499826234
118080000000,,394,,118,80000000,"""map""",,,-0.0203258506954,0.0103830173612,-0.00239957380109,,0.00919336601615,-0.00896331456406,0.0289241598744,-0.999499151885
118116000000,,395,,118,116000000,"""map""",,,-0.0205633416772,0.0102249402553,-0.00242629833519,,0.00917044381565,-0.00902703096265,0.0289129488127,-0.999499151885
118148000000,,396,,118,148000000,"""map""",,,-0.0206459630281,0.00996823050082,-0.00235567218624,,0.00917679000328,-0.00902054911486,0.0289536205215,-0.999497929626
118180000000,,397,,118,180000000,"""map""",,,-0.0207394957542,0.00971404649317,-0.00233470322564,,0.00914089560784,-0.00899463252277,0.0289298075521,-0.999499151885
118216000000,,398,,118,216000000,"""map""",,,-0.020923441276,0.00948113948107,-0.00238352245651,,0.00909094805783,-0.0089713736311,0.0290040702992,-0.999497718892
118248000000,,399,,118,248000000,"""map""",,,-0.0211156141013,0.00931706093252,-0.00241261534393,,0.00902117532637,-0.0089820498955,0.0289453597392,-0.999499952675
118280000000,,400,,118,280000000,"""map""",,,-0.0213466323912,0.00916353520006,-0.00244296272285,,0.00903133211491,-0.00895830469958,0.028949026515,-0.999499994822
118316000000,,401,,118,316000000,"""map""",,,-0.0216604229063,0.00899358466268,-0.00240067834966,,0.00900599356027,-0.00904076935611,0.0289403021174,-0.999499699794
118348000000,,402,,118,348000000,"""map""",,,-0.0215628556907,0.00880357716233,-0.00214793579653,,0.00904896100668,-0.00900815554645,0.0289315355729,-0.999499868381
118380000000,,403,,118,380000000,"""map""",,,-0.0214335303754,0.0086431382224,-0.00195045233704,,0.00906526676163,-0.00897593013657,0.0289219260914,-0.99950028985
118416000000,,404,,118,416000000,"""map""",,,-0.0214433651417,0.00843502953649,-0.00188676523976,,0.00902517798626,-0.00902277557859,0.0289697627645,-0.99949881471
118448000000,,405,,118,448000000,"""map""",,,-0.0215619187802,0.00825380254537,-0.00194384355564,,0.00894156151802,-0.00897271936552,0.0289705214078,-0.999500079116
118480000000,,406,,118,480000000,"""map""",,,-0.0217355079949,0.00810249336064,-0.00209662504494,,0.00915091746164,-0.00897197056568,0.0289610383669,-0.999498351095
118516000000,,407,,118,516000000,"""map""",,,-0.0219251662493,0.00795200653374,-0.0022163130343,,0.00912734756719,-0.00902722830478,0.0289564865072,-0.999498266801
118548000000,,408,,118,548000000,"""map""",,,-0.0218113753945,0.00772086530924,-0.0024652692955,,0.00911980158349,-0.00900103310206,0.0289758740575,-0.99949801392
118580000000,,409,,118,580000000,"""map""",,,-0.0216773450375,0.00745919486508,-0.00281001860276,,0.00911396486236,-0.00904518394267,0.0289596475209,-0.999498140361
118616000000,,410,,118,616000000,"""map""",,,-0.0216788109392,0.00715111522004,-0.00343390926719,,0.00913148100544,-0.00913081562587,0.0289802151829,-0.999496623074
118648000000,,411,,118,648000000,"""map""",,,-0.0217773988843,0.00691389385611,-0.00402435008436,,0.00907664954139,-0.00912749629278,0.0289716593727,-0.99949733957
118680000000,,412,,118,680000000,"""map""",,,-0.0219632480294,0.00668609049171,-0.00466870283708,,0.0090695869448,-0.00913901196733,0.0289659695481,-0.999497466011
118716000000,,413,,118,716000000,"""map""",,,-0.0222277175635,0.00645664194599,-0.00536928605288,,0.00907141433636,-0.00916628960885,0.0289968631881,-0.999496328046
118748000000,,414,,118,748000000,"""map""",,,-0.0221617054194,0.00616822438315,-0.00586754828691,,0.009036536924,-0.00921900040648,0.0290672062783,-0.999494094263
118780000000,,415,,118,780000000,"""map""",,,-0.022084236145,0.00587696302682,-0.00631376029924,,0.00901492174399,-0.00919628500439,0.0291013452256,-0.999493504207
118816000000,,416,,118,816000000,"""map""",,,-0.022147949785,0.00554074207321,-0.00709412898868,,0.00903573524382,-0.0091727214227,0.029122376503,-0.999492956298
118848000000,,417,,118,848000000,"""map""",,,-0.0222933478653,0.00527214538306,-0.00774791929871,,0.00907857418145,-0.00915924566759,0.0291391930955,-0.999492239802
118880000000,,418,,118,880000000,"""map""",,,-0.0225194990635,0.00501652341336,-0.00830912683159,,0.00910223678019,-0.00912585109811,0.0291437028083,-0.999492197655
118916000000,,419,,118,916000000,"""map""",,,-0.0228133909404,0.00474381772801,-0.00886760186404,,0.00907288808179,-0.00914840493427,0.0291171924406,-0.999492998445
118948000000,,420,,118,948000000,"""map""",,,-0.0227504838258,0.00435133464634,-0.00860838033259,,0.0091623800822,-0.00912824318257,0.0291289935582,-0.999492071214
118980000000,,421,,118,980000000,"""map""",,,-0.0226556751877,0.00394079554826,-0.00806972198188,,0.00911626488179,-0.00909863235001,0.0291107861196,-0.999493251326
119016000000,,422,,119,16000000,"""map""",,,-0.0226839967072,0.00345530966297,-0.00759507529438,,0.00905946575625,-0.00917761784003,0.0291312273412,-0.999492450536
119048000000,,423,,119,48000000,"""map""",,,-0.0228336453438,0.00309137953445,-0.00737128267065,,0.00903323499727,-0.00915809951203,0.0291191733425,-0.999493209179
119084000000,,424,,119,84000000,"""map""",,,-0.0230518206954,0.0027299716603,-0.00736767379567,,0.00905486127479,-0.00916900006486,0.029111249735,-0.999493124886
119116000000,,425,,119,116000000,"""map""",,,-0.0233320314437,0.00238960096613,-0.00756453117356,,0.00906507655417,-0.0090526260937,0.0291281084744,-0.999493630648
119148000000,,426,,119,148000000,"""map""",,,-0.0232241302729,0.0021900255233,-0.00758771691471,,0.00925465173725,-0.009131783168,0.029172994868,-0.999489879578
119180000000,,427,,119,180000000,"""map""",,,-0.0230398941785,0.00199458096176,-0.00747827021405,,0.00925656811206,-0.00913326356576,0.0291764087628,-0.999489753138
119216000000,,428,,119,216000000,"""map""",,,-0.0229282081127,0.00172126234975,-0.00759936589748,,0.00920657146446,-0.00912681109522,0.0292361729939,-0.999488488732
119248000000,,429,,119,248000000,"""map""",,,-0.022938368842,0.00149443827104,-0.0077359941788,,0.0092050210629,-0.00920156925556,0.0292051107666,-0.99948878376
119280000000,,430,,119,280000000,"""map""",,,-0.0230102483183,0.00127141945995,-0.00787670817226,,0.00917061363331,-0.00917893751113,0.0292210001285,-0.999488825907
119316000000,,431,,119,316000000,"""map""",,,-0.0231400299817,0.00105478020851,-0.0081950481981,,0.00920517873543,-0.00929430982259,0.0291764509096,-0.999488699466
119348000000,,432,,119,348000000,"""map""",,,-0.0228492114693,0.00075665966142,-0.00820808112621,,0.0092010321482,-0.00928410409081,0.0291747650357,-0.999488868054
119380000000,,433,,119,380000000,"""map""",,,-0.0225061010569,0.000457917107269,-0.0082855289802,,0.00922689155496,-0.00930162564497,0.029182182881,-0.999488277998
119416000000,,434,,119,416000000,"""map""",,,-0.0222670752555,8.84471155587e-05,-0.00843774341047,,0.00926918380611,-0.00928863599025,0.0292237396736,-0.999486845005
119448000000,,435,,119,448000000,"""map""",,,-0.0222016349435,-0.000186802179087,-0.00855551287532,,0.00918124831873,-0.00931826394689,0.029191075866,-0.999488320145
119480000000,,436,,119,480000000,"""map""",,,-0.0222478676587,-0.000450739171356,-0.00870153214782,,0.00918554950443,-0.00933073852399,0.0292019076061,-0.999487772236
119516000000,,437,,119,516000000,"""map""",,,-0.0224051941186,-0.000735630630516,-0.00897295307368,,0.00910639206356,-0.00932358712164,0.0292347400011,-0.999487645795
119548000000,,438,,119,548000000,"""map""",,,-0.0222759079188,-0.000954366871156,-0.00893589947373,,0.00911300553794,-0.00939062658212,0.0292498707197,-0.99948650783
119580000000,,439,,119,580000000,"""map""",,,-0.0221253968775,-0.00116331863683,-0.00881889648736,,0.00909064410352,-0.0093792863428,0.0292507136567,-0.999486845005
119616000000,,440,,119,616000000,"""map""",,,-0.0220741834491,-0.00143796345219,-0.00894409697503,,0.0090875725902,-0.00940549384178,0.0293254821659,-0.999484400488
119648000000,,441,,119,648000000,"""map""",,,-0.022126223892,-0.00169721804559,-0.00930925924331,,0.00909218457289,-0.0093908548604,0.0293399806818,-0.999484063313
119680000000,,442,,119,680000000,"""map""",,,-0.0222359094769,-0.00195119995624,-0.0097012585029,,0.00908015552688,-0.00938699981288,0.0293334479203,-0.999484442635
119716000000,,443,,119,716000000,"""map""",,,-0.0224502459168,-0.00223448895849,-0.0101418597624,,0.0090561979555,-0.00936842594576,0.0294011779059,-0.999482798908
119748000000,,444,,119,748000000,"""map""",,,-0.0223119035363,-0.00245708902366,-0.0102922338992,,0.0090634466578,-0.00935657401735,0.0294072470521,-0.99948263032
119780000000,,445,,119,780000000,"""map""",,,-0.0221591070294,-0.00265545933507,-0.0103362482041,,0.00907227474533,-0.00932671465241,0.029373318839,-0.999483852579
119816000000,,446,,119,816000000,"""map""",,,-0.0221465658396,-0.00287383142859,-0.010494674556,,0.00925570202827,-0.00942235614144,0.0293987755355,-0.999480480831
119848000000,,447,,119,848000000,"""map""",,,-0.0222589895129,-0.00309686246328,-0.0107574770227,,0.0092349061085,-0.00951618201297,0.0293648894693,-0.999480818006
119880000000,,448,,119,880000000,"""map""",,,-0.0224864054471,-0.00333304377273,-0.0111091528088,,0.00923629140832,-0.00948750662874,0.0293595789664,-0.999481239474
119916000000,,449,,119,916000000,"""map""",,,-0.0227561071515,-0.00353581714444,-0.0115855326876,,0.00923253671681,-0.00951462779648,0.0293287696201,-0.999481955971
119948000000,,450,,119,948000000,"""map""",,,-0.0224506948143,-0.00341554358602,-0.0118631040677,,0.00920253196788,-0.00953535628747,0.0293650580567,-0.999480902299
119980000000,,451,,119,980000000,"""map""",,,-0.0220624431968,-0.00325011066161,-0.0121672907844,,0.00919222126,-0.0095318362436,0.0293921584803,-0.999480270097
120016000000,,452,,120,16000000,"""map""",,,-0.0217264313251,-0.00310221966356,-0.0127836288884,,0.0091881981087,-0.00957251266512,0.0293651002035,-0.999480691565
120048000000,,453,,120,48000000,"""map""",,,-0.0215673707426,-0.00301266857423,-0.0132634826005,,0.00918291110759,-0.00957234164934,0.0293941393822,-0.999479890775
120080000000,,454,,120,80000000,"""map""",,,-0.0214999187738,-0.00297484896146,-0.0138024445623,,0.00913349565639,-0.00953731193829,0.02938360267,-0.999480986593
120116000000,,455,,120,116000000,"""map""",,,-0.0215113218874,-0.00300149084069,-0.0144563093781,,0.00918199731535,-0.00955039604463,0.0294177837642,-0.99947942716
120148000000,,456,,120,148000000,"""map""",,,-0.0211403109133,-0.00303078978322,-0.0147568881512,,0.00916244460413,-0.00949837813872,0.029384993516,-0.999481113034
120180000000,,457,,120,180000000,"""map""",,,-0.0207131002098,-0.00306587852538,-0.0149467997253,,0.00916650159844,-0.00953551968883,0.0293832654952,-0.999480733712
120216000000,,458,,120,216000000,"""map""",,,-0.0203559603542,-0.00312011502683,-0.0153069039807,,0.0092815182695,-0.00953314969004,0.0293524982958,-0.999480565125
120248000000,,459,,120,248000000,"""map""",,,-0.0202172473073,-0.00321705895476,-0.0155741134658,,0.00924835147795,-0.00950287757204,0.029330750522,-0.99948182953
120280000000,,460,,120,280000000,"""map""",,,-0.0201793201268,-0.00327676418237,-0.0158759430051,,0.00924536727323,-0.00956554566553,0.0293353023816,-0.999481155181
120316000000,,461,,120,316000000,"""map""",,,-0.0202424433082,-0.00331561174244,-0.0161551032215,,0.00927237951359,-0.00956041554207,0.0293680926298,-0.999479975069
120348000000,,462,,120,348000000,"""map""",,,-0.0199593268335,-0.00323510426097,-0.0165143702179,,0.00919947542616,-0.00946609015424,0.0293680504829,-0.999481534502
120380000000,,463,,120,380000000,"""map""",,,-0.0196110289544,-0.00311164464802,-0.0171661023051,,0.00921187243391,-0.00949108135238,0.0293495901633,-0.99948170309
120416000000,,464,,120,416000000,"""map""",,,-0.0192836485803,-0.0029848117847,-0.0182018931955,,0.00924274605,-0.00950697888434,0.029332689277,-0.999481745236
120448000000,,465,,120,448000000,"""map""",,,-0.019152905792,-0.00291966274381,-0.019067812711,,0.0092477618954,-0.00955376941829,0.0293653109378,-0.999480312244
120480000000,,466,,120,480000000,"""map""",,,-0.0191109776497,-0.00291696051136,-0.0198118109256,,0.00926732728361,-0.00955707264667,0.0293789665167,-0.999479722188
120516000000,,467,,120,516000000,"""map""",,,-0.0191706381738,-0.00299902795814,-0.0208174660802,,0.00907474899995,-0.00945025157231,0.0294281097421,-0.999481070887
120548000000,,468,,120,548000000,"""map""",,,-0.0188485141844,-0.00303209247068,-0.0214098077267,,0.00908193246518,-0.00949725973464,0.0294281518889,-0.999480522978
120580000000,,469,,120,580000000,"""map""",,,-0.0184830501676,-0.00304053677246,-0.0218974351883,,0.00910307209374,-0.00952017541658,0.0294213240995,-0.99948035439
120616000000,,470,,120,616000000,"""map""",,,-0.0181795414537,-0.0030511028599,-0.0223762579262,,0.00918168242818,-0.00957697368678,0.0294352325595,-0.999478668516
120648000000,,471,,120,648000000,"""map""",,,-0.0181796718389,-0.00297297956422,-0.0225925035775,,0.00899328737358,-0.0093657191529,0.0292229388835,-0.99948865732
120680000000,,472,,120,680000000,"""map""",,,-0.0184269603342,-0.00285375374369,-0.0220363214612,,0.00856590431503,-0.0090260717154,0.029001330754,-0.99950189143
120716000000,,473,,120,716000000,"""map""",,,-0.0189478620887,-0.00274134031497,-0.0203316751868,,0.00590811159733,-0.00670573947063,0.0281581830496,-0.999563552269
120748000000,,474,,120,748000000,"""map""",,,-0.019386369735,-0.0024807092268,-0.0171554796398,,0.00193440353403,-0.00308337107619,0.0272219329568,-0.999622810738
120780000000,,475,,120,780000000,"""map""",,,-0.0199816264212,-0.0022392757237,-0.0129802534357,,-0.000803381658982,-0.000417545041566,0.026670989353,-0.999643884163
120816000000,,476,,120,816000000,"""map""",,,-0.0211189221591,-0.00211866875179,-0.00669064279646,,-0.00718519465182,0.00606836786828,0.0253691574962,-0.999633937506
120848000000,,477,,120,848000000,"""map""",,,-0.0223397817463,-0.00220959098078,-0.00100032822229,,-0.0156699618177,0.0148792251188,0.0238683082208,-0.999481618796
120880000000,,478,,120,880000000,"""map""",,,-0.0238234717399,-0.00246932031587,0.00508908927441,,-0.0189525228101,0.0182863067525,0.0233262154552,-0.999381056415
120916000000,,479,,120,916000000,"""map""",,,-0.0255319532007,-0.00297408713959,0.0115078184754,,-0.0278188402095,0.0276502056472,0.0220234142209,-0.998987784172
120948000000,,480,,120,948000000,"""map""",,,-0.0269697643816,-0.00375319714658,0.0182900410146,,-0.0377662225857,0.0380213184443,0.0207768368825,-0.998346857047
120980000000,,481,,120,980000000,"""map""",,,-0.0285868234932,-0.00486094225198,0.0256094876677,,-0.043168046112,0.0436443096984,0.0201881297025,-0.997909878521
121016000000,,482,,121,16000000,"""map""",,,-0.0311224535108,-0.00676889065653,0.0355330780149,,-0.0547620016037,0.0557660328839,0.0190987179622,-0.996758089445
121048000000,,483,,121,48000000,"""map""",,,-0.0341405570507,-0.00922408048064,0.043944131583,,-0.067200926622,0.0684401705734,0.0184614576127,-0.995218127894
121080000000,,484,,121,80000000,"""map""",,,-0.0386067032814,-0.0130614889786,0.0528320036829,,-0.0729250824545,0.0742699094474,0.0183417605629,-0.994399130334
121116000000,,485,,121,116000000,"""map""",,,-0.0447328612208,-0.0184829495847,0.0625559687614,,-0.0826769523094,0.0839119224715,0.0184922248121,-0.992865237929
121148000000,,486,,121,148000000,"""map""",,,-0.0522697269917,-0.0254848413169,0.0735071599483,,-0.0881644268752,0.088356658322,0.0190012744484,-0.991997518612
121180000000,,487,,121,180000000,"""map""",,,-0.0615652389824,-0.0342391617596,0.0857629701495,,-0.0909103379312,0.0902896269698,0.0194681350894,-0.991566482792
121216000000,,488,,121,216000000,"""map""",,,-0.0758896246552,-0.0477408282459,0.10278391093,,-0.0940942585463,0.0922283607633,0.020484843516,-0.991070456532
121248000000,,489,,121,248000000,"""map""",,,-0.0894065871835,-0.0605470277369,0.117704920471,,-0.0954933663996,0.0914843624498,0.0215870678982,-0.990982201031
121280000000,,490,,121,280000000,"""map""",,,-0.104600220919,-0.0750333741307,0.133813336492,,-0.0957262549026,0.0906193344394,0.0220680477335,-0.991028562565
121316000000,,491,,121,316000000,"""map""",,,-0.121363215148,-0.0911157503724,0.151313185692,,-0.0958440793811,0.0883345718916,0.0231310333997,-0.991199215154
121348000000,,492,,121,348000000,"""map""",,,-0.143484577537,-0.113063402474,0.175569996238,,-0.0959230530263,0.0878590385488,0.0239122673837,-0.991215315251
121380000000,,493,,121,380000000,"""map""",,,-0.157725229859,-0.127324730158,0.191182166338,,-0.0961172492406,0.087923160369,0.0243141797311,-0.99118109201
121416000000,,494,,121,416000000,"""map""",,,-0.1832203269,-0.152877748013,0.218626454473,,-0.096586457922,0.0881536104463,0.025126054474,-0.991094733117
121448000000,,495,,121,448000000,"""map""",,,-0.205112427473,-0.174837470055,0.241981968284,,-0.0968070130388,0.0877545002057,0.0261221109449,-0.991082889853
121480000000,,496,,121,480000000,"""map""",,,-0.228297531605,-0.198107972741,0.266453713179,,-0.0968918388398,0.0876625305139,0.0264758915913,-0.991073364665
121516000000,,497,,121,516000000,"""map""",,,-0.252717018127,-0.22262737155,0.292096823454,,-0.0970090044445,0.0875880596668,0.0275495404102,-0.991039225718
121548000000,,498,,121,548000000,"""map""",,,-0.278039216995,-0.248627886176,0.319044798613,,-0.0966888941909,0.0869590018184,0.0284921125303,-0.99109924283
121580000000,,499,,121,580000000,"""map""",,,-0.304379314184,-0.275809079409,0.347288668156,,-0.0963597770242,0.0865577773208,0.0288488434561,-0.991156056782
121616000000,,500,,121,616000000,"""map""",,,-0.338788300753,-0.311234116554,0.384361237288,,-0.0956943382137,0.0858966651478,0.0296295295311,-0.991254975435
121648000000,,501,,121,648000000,"""map""",,,-0.367391824722,-0.340687185526,0.415523380041,,-0.094963563227,0.0854785802643,0.0303682794918,-0.991339100545
121680000000,,502,,121,680000000,"""map""",,,-0.39685562253,-0.371052742004,0.448020577431,,-0.0946678382181,0.0852695546155,0.030590519824,-0.991378507848
121716000000,,503,,121,716000000,"""map""",,,-0.427121847868,-0.402276962996,0.48196965456,,-0.0938276309149,0.0845407611892,0.0311003702504,-0.991504906247
121748000000,,504,,121,748000000,"""map""",,,-0.458502203226,-0.434455901384,0.517513990402,,-0.0927253169706,0.0837545907556,0.0314890484874,-0.991663125516
121780000000,,505,,121,780000000,"""map""",,,-0.490672379732,-0.467387884855,0.554414212704,,-0.0922304303217,0.0835664139673,0.0317157985324,-0.991717916419
121816000000,,506,,121,816000000,"""map""",,,-0.531438887119,-0.509255945683,0.599384844303,,-0.0913143593497,0.0819066486825,0.0320317734557,-0.991930968738
121848000000,,507,,121,848000000,"""map""",,,-0.564034879208,-0.542697966099,0.627790629864,,-0.090194295326,0.0738924369626,0.0323118814109,-0.992653450015
121880000000,,508,,121,880000000,"""map""",,,-0.596571207047,-0.576072454453,0.647749066353,,-0.0896825298521,0.069077820699,0.0324315363138,-0.993042591868
121916000000,,509,,121,916000000,"""map""",,,-0.628999173641,-0.609370410442,0.659046113491,,-0.0878123740849,0.0512041377673,0.0329110410093,-0.994275597921
121948000000,,510,,121,948000000,"""map""",,,-0.661381721497,-0.642981767654,0.662884056568,,-0.0781940286154,0.0314423155349,0.0326503627513,-0.995907144574
121980000000,,511,,121,980000000,"""map""",,,-0.693395614624,-0.676661670208,0.661268591881,,-0.0660598850746,0.0192882259981,0.0322054184715,-0.997109299134
122016000000,,512,,122,16000000,"""map""",,,-0.731990337372,-0.718509197235,0.658751547337,,-0.0370451147443,-0.000554478670653,0.0312748160564,-0.998824001519
122048000000,,513,,122,48000000,"""map""",,,-0.760855555534,-0.751357972622,0.664371490479,,-0.0251935026025,-0.00243305063666,0.0311693646414,-0.99919362938
122080000000,,514,,122,80000000,"""map""",,,-0.787697196007,-0.783279836178,0.682696819305,,-0.0230304249211,-0.00150414594928,0.0313463814052,-0.999242098256
122116000000,,515,,122,116000000,"""map""",,,-0.812739193439,-0.814154684544,0.715303421021,,-0.0167842455082,0.00156865104238,0.0321186381105,-0.99934194414
122148000000,,516,,122,148000000,"""map""",,,-0.836575686932,-0.844291806221,0.76194614172,,-0.0169817581526,0.00803647941454,0.0330084423762,-0.99927855528
122180000000,,517,,122,180000000,"""map""",,,-0.859288156033,-0.873451292515,0.818175315857,,-0.0222446726632,0.0157638874279,0.0333078957349,-0.999073173687
122216000000,,518,,122,216000000,"""map""",,,-0.886794269085,-0.908814549446,0.895898461342,,-0.0359438328215,0.0346066830581,0.0334664943258,-0.998193611105
122248000000,,519,,122,248000000,"""map""",,,-0.908775508404,-0.936604917049,0.959300637245,,-0.0496628762495,0.0574907867158,0.0334318496164,-0.996549462545
122280000000,,520,,122,280000000,"""map""",,,-0.930948913097,-0.964203357697,1.02141594887,,-0.0533569750816,0.0644332564323,0.0334518272226,-0.995932938445
122316000000,,521,,122,316000000,"""map""",,,-0.95348662138,-0.99174195528,1.08155322075,,-0.0604597536291,0.0758771564252,0.0337125476274,-0.994711438481
122348000000,,522,,122,348000000,"""map""",,,-0.976706624031,-1.01935124397,1.14098918438,,-0.0646843614288,0.0817329578978,0.0340539371004,-0.993969822535
122380000000,,523,,122,380000000,"""map""",,,-1.00083816051,-1.04715096951,1.20132899284,,-0.0663527687933,0.0842626189894,0.0342376130662,-0.993642257228
122416000000,,524,,122,416000000,"""map""",,,-1.0323189497,-1.08237361908,1.27956044674,,-0.0685364984305,0.0856535743086,0.0343796479457,-0.993370157174
122448000000,,525,,122,448000000,"""map""",,,-1.05903494358,-1.11102044582,1.34339749813,,-0.070129062541,0.0847176791713,0.0344645738454,-0.993336313255
122480000000,,526,,122,480000000,"""map""",,,-1.08674144745,-1.14006650448,1.40867877007,,-0.0709616373134,0.0844051754361,0.0344432053932,-0.993304492384
122516000000,,527,,122,516000000,"""map""",,,-1.11514770985,-1.16948330402,1.47531950474,,-0.0720074356266,0.0841216766352,0.034405146789,-0.993254716956
122548000000,,528,,122,548000000,"""map""",,,-1.14417803288,-1.19923019409,1.54323470592,,-0.0719808682948,0.0820206499808,0.0342835952779,-0.993436454167
122580000000,,529,,122,580000000,"""map""",,,-1.17376852036,-1.22926008701,1.61207354069,,-0.071460595743,0.0807215589862,0.0342977144722,-0.993579964186
122616000000,,530,,122,616000000,"""map""",,,-1.21140575409,-1.26718962193,1.69987261295,,-0.0687847766247,0.0769621443927,0.0342363065139,-0.994069162657
122648000000,,531,,122,648000000,"""map""",,,-1.24129056931,-1.29721498489,1.77092885971,,-0.0645025800956,0.0713528759714,0.0342729742721,-0.994773099321
122680000000,,532,,122,680000000,"""map""",,,-1.27116513252,-1.32716012001,1.84201455116,,-0.0628625398651,0.0691215490421,0.0342901701863,-0.995034999837
122716000000,,533,,122,716000000,"""map""",,,-1.30105769634,-1.35706233978,1.91192793846,,-0.0582367918614,0.0649704265777,0.0478918011377,-0.995034578369
122748000000,,534,,122,748000000,"""map""",,,-1.33084118366,-1.3868585825,1.97973883152,,-0.0561728274333,0.0626326057574,0.0478949621514,-0.995302927353
122780000000,,535,,122,780000000,"""map""",,,-1.36046588421,-1.41649341583,2.04470896721,,-0.0552867462489,0.0616018061247,0.0478329641372,-0.995419884858
122816000000,,536,,122,816000000,"""map""",,,-1.39723849297,-1.45332026482,2.12195849419,,-0.0539557046505,0.0601607757396,0.0474893830281,-0.995597491678
122848000000,,537,,122,848000000,"""map""",,,-1.42678916454,-1.482178092,2.18126058578,,-0.0520026322028,0.05871436768,0.0468723110191,-0.995816950318
122880000000,,538,,122,880000000,"""map""",,,-1.45626437664,-1.51078414917,2.23866057396,,-0.0509460153205,0.0579211172344,0.0466111269989,-0.995930283194
122916000000,,539,,122,916000000,"""map""",,,-1.48552584648,-1.53923976421,2.29424548149,,-0.047903253556,0.0550660281423,0.0459480727781,-0.996273948596
122948000000,,540,,122,948000000,"""map""",,,-1.51460802555,-1.567517519,2.34817790985,,-0.044382133622,0.0517548699782,0.045149895761,-0.996650994303
122980000000,,541,,122,980000000,"""map""",,,-1.54342782497,-1.59557318687,2.40054416656,,-0.0425749696126,0.0500988169087,0.044711147068,-0.9968342488
123016000000,,542,,123,16000000,"""map""",,,-1.57902550697,-1.63033211231,2.46379041672,,-0.0390275951555,0.0464508128995,0.0438357991713,-0.997194899383
123048000000,,543,,123,48000000,"""map""",,,-1.60822677612,-1.65762650967,2.51563334465,,-0.0353896487672,0.0425242165752,0.0428853455905,-0.997547120596
123080000000,,544,,123,80000000,"""map""",,,-1.63734507561,-1.68458104134,2.56663107872,,-0.0341606160423,0.0411946458359,0.04250821559,-0.997661844318
123116000000,,545,,123,116000000,"""map""",,,-1.66593706608,-1.71123492718,2.6157605648,,-0.0311823422488,0.0382893407495,0.041632951987,-0.997911985864
123148000000,,546,,123,148000000,"""map""",,,-1.69400417805,-1.73758220673,2.66299939156,,-0.0285466808454,0.0354990063389,0.0407781296055,-0.998129295015
123180000000,,547,,123,180000000,"""map""",,,-1.72156214714,-1.7635833025,2.7083029747,,-0.0273171449925,0.0341996311824,0.0403663970424,-0.998225769151
123216000000,,548,,123,216000000,"""map""",,,-1.7552767992,-1.79555439949,2.76249217987,,-0.0250282678586,0.0319857392189,0.0395036089065,-0.998393724342
123248000000,,549,,123,248000000,"""map""",,,-1.7829092741,-1.82062709332,2.80616903305,,-0.0227492458432,0.02974377943,0.03860512239,-0.998552702255
123280000000,,550,,123,280000000,"""map""",,,-1.8102761507,-1.84526002407,2.84877586365,,-0.0217892380987,0.0287577038597,0.0382932778578,-0.99861495315
123316000000,,551,,123,316000000,"""map""",,,-1.83694851398,-1.86944067478,2.88967728615,,-0.0202714589611,0.027221237863,0.0376376414824,-0.998714925475
123352000000,,552,,123,348000000,"""map""",,,-1.86298179626,-1.89317452908,2.92883777618,,-0.0188329573869,0.0259580737641,0.0369918674695,-0.998800905046
123380000000,,553,,123,380000000,"""map""",,,-1.88835847378,-1.91647076607,2.966381073,,-0.0182022288111,0.0252933478281,0.0366761875742,-0.998841197433
123416000000,,554,,123,416000000,"""map""",,,-1.91919076443,-1.94499242306,3.01113414764,,-0.0170663587314,0.0236089984182,0.0362076410593,-0.998919632718
123448000000,,555,,123,448000000,"""map""",,,-1.94468295574,-1.96710503101,3.04716491699,,-0.0159347362638,0.0222452640362,0.0358151274591,-0.998983738074
123480000000,,556,,123,480000000,"""map""",,,-1.96996808052,-1.98872113228,3.08218836784,,-0.0154656276811,0.0216355818843,0.0356830813827,-0.999009236918
123516000000,,557,,123,516000000,"""map""",,,-1.99454200268,-2.00993537903,3.11567640305,,-0.0145364039289,0.0204765847093,0.0354806079225,-0.999054839808
123548000000,,558,,123,548000000,"""map""",,,-2.0184276104,-2.03077173233,3.14765787125,,-0.0134775407513,0.0190510386812,0.0352997979424,-0.999104320208
123580000000,,559,,123,580000000,"""map""",,,-2.0416226387,-2.05122494698,3.17825889587,,-0.0129632418567,0.0182693140816,0.0352104887704,-0.999128891821
123616000000,,560,,123,616000000,"""map""",,,-2.06970834732,-2.07625317574,3.21321702003,,-0.0121131949107,0.0157307754807,0.0352661647572,-0.999180774591
123648000000,,561,,123,648000000,"""map""",,,-2.09310817719,-2.09583449364,3.23550057411,,-0.0114137603864,0.0044302804692,0.0355642694168,-0.999292421593
123680000000,,562,,123,680000000,"""map""",,,-2.11650204659,-2.11523485184,3.2508995533,,-0.0111362187791,-0.00320751280748,0.0358114185364,-0.999291410069
