rosbagTimestamp,header,seq,stamp,secs,nsecs,frame_id,pose,position,x,y,z,orientation,x,y,z,w
116896000000,,205,,116,832000000,"""map""",,,-0.0257786791772,0.018817583099,0.0291944611818,,0.00869865549676,-0.00868911510138,0.0288391918278,-0.999508508485
116896000000,,206,,116,832000000,"""map""",,,-0.0258033443242,0.0185964182019,0.0291479639709,,0.00868384431403,-0.00876098653154,0.0288010910768,-0.999509098541
116912000000,,207,,116,912000000,"""map""",,,-0.0258998945355,0.0184132196009,0.0291382800788,,0.00869331109327,-0.00872410454443,0.0288136086908,-0.999508972101
116948000000,,208,,116,944000000,"""map""",,,-0.0260293632746,0.0182935409248,0.0291240699589,,0.00873700812211,-0.00873947764087,0.0288295401995,-0.999507960576
116976000000,,209,,116,976000000,"""map""",,,-0.0262320693582,0.0182474832982,0.0290506612509,,0.00876517320574,-0.00875118215885,0.0288609817485,-0.999506696171
117012000000,,210,,117,12000000,"""map""",,,-0.0265886429697,0.0182863771915,0.0289050620049,,0.00876501709017,-0.00879750751278,0.028840245499,-0.999506949052
117044000000,,211,,117,44000000,"""map""",,,-0.0265847500414,0.0180419441313,0.0288270991296,,0.00873870850075,-0.00877436862927,0.0288434908064,-0.99950724408
117076000000,,212,,117,76000000,"""map""",,,-0.0265361890197,0.0177728515118,0.0286666639149,,0.00875731943673,-0.00881024961715,0.0288389389467,-0.999506906905
117112000000,,213,,117,112000000,"""map""",,,-0.0265747383237,0.0175686217844,0.0285731628537,,0.00878295951666,-0.00876450417339,0.0288072866635,-0.999507960576
117144000000,,214,,117,144000000,"""map""",,,-0.0266886074096,0.0174554549158,0.0284770410508,,0.0087789332585,-0.00881519226121,0.0287299471965,-0.999509772891
117176000000,,215,,117,176000000,"""map""",,,-0.0268701184541,0.0173769295216,0.0284147337079,,0.00879127892293,-0.00868386736052,0.0287231615539,-0.999511079443
117212000000,,216,,117,212000000,"""map""",,,-0.0271875169128,0.0173075906932,0.0283645037562,,0.00874208548982,-0.00874030478322,0.0287283456162,-0.999510868709
117244000000,,217,,117,244000000,"""map""",,,-0.0270801112056,0.0168977938592,0.0283138100058,,0.00872660570033,-0.00866997490623,0.0286818154955,-0.999512891757
117276000000,,218,,117,276000000,"""map""",,,-0.0269185937941,0.01640968211,0.0282827354968,,0.0087185974602,-0.00870629792603,0.0286827005793,-0.999512681023
117312000000,,219,,117,312000000,"""map""",,,-0.0268851034343,0.0160044208169,0.0281796269119,,0.00869386600577,-0.00870716899584,0.0286616693019,-0.999513481813
117344000000,,220,,117,344000000,"""map""",,,-0.0269320867956,0.0156730525196,0.027702415362,,0.00891880515626,-0.00873421268171,0.0286950917528,-0.9995103208
117376000000,,221,,117,376000000,"""map""",,,-0.0270088259131,0.0154047459364,0.0275704674423,,0.00890962790637,-0.00872111663925,0.0286996436124,-0.9995103208
117412000000,,222,,117,412000000,"""map""",,,-0.0271621793509,0.0151089541614,0.0274604391307,,0.00885548587544,-0.0086901088653,0.0286835013694,-0.999511543058
117444000000,,223,,117,444000000,"""map""",,,-0.0273564178497,0.0149180907756,0.0274407360703,,0.00888748853522,-0.00872307952376,0.0286840914253,-0.999511037296
117476000000,,224,,117,476000000,"""map""",,,-0.0276186447591,0.0147684859112,0.0274024643004,,0.00886720375917,-0.00873334783784,0.0286770950484,-0.999511290177
117512000000,,225,,117,512000000,"""map""",,,-0.0279092211276,0.0146864717826,0.0272168517113,,0.00885765366505,-0.00877306849006,0.0286167829082,-0.999512681023
117544000000,,226,,117,544000000,"""map""",,,-0.0279798526317,0.01448661834,0.0271028075367,,0.00884185426137,-0.00871828377628,0.0285994605535,-0.999513903282
117576000000,,227,,117,576000000,"""map""",,,-0.0278739146888,0.0142002282664,0.0269953273237,,0.0088067932463,-0.00876327037418,0.0285452597063,-0.999515336275
117612000000,,228,,117,612000000,"""map""",,,-0.0278443899006,0.0139534668997,0.0267229489982,,0.008787472281,-0.00876468946557,0.0284835145732,-0.999517232883
117644000000,,229,,117,644000000,"""map""",,,-0.0279057882726,0.0138213513419,0.0265825334936,,0.00876996357875,-0.0087933881561,0.0285070325147,-0.99951647424
117676000000,,230,,117,676000000,"""map""",,,-0.0280365049839,0.0137453572825,0.0265129543841,,0.00875991673756,-0.00877272179853,0.0284740315323,-0.999517696498
117712000000,,231,,117,712000000,"""map""",,,-0.0282469596714,0.0137178106233,0.0264344550669,,0.00880600147772,-0.00875472398163,0.0284766024901,-0.999517317177
117744000000,,232,,117,744000000,"""map""",,,-0.0282134674489,0.0135868759826,0.0263113286346,,0.00877752542411,-0.00876106898851,0.0284792998884,-0.999517485764
117776000000,,233,,117,776000000,"""map""",,,-0.0279515814036,0.0133468685672,0.0262143891305,,0.00875504214674,-0.0087623379131,0.0284484483953,-0.999518497288
117812000000,,234,,117,812000000,"""map""",,,-0.027797119692,0.0131219690666,0.026082566008,,0.00870708470922,-0.00872628746191,0.0283432077145,-0.999522248358
117844000000,,235,,117,844000000,"""map""",,,-0.0277740228921,0.0129893133417,0.0259610135108,,0.00875906422597,-0.00874654500933,0.0283504148256,-0.999521447568
117880000000,,236,,117,876000000,"""map""",,,-0.0277958903462,0.0128873307258,0.0257781930268,,0.00879057416712,-0.00868509368358,0.0282970569154,-0.999523217735
117912000000,,237,,117,912000000,"""map""",,,-0.0278951507062,0.0128192976117,0.0254542771727,,0.00877308801487,-0.00862962232397,0.0283065821032,-0.99952355491
117944000000,,238,,117,944000000,"""map""",,,-0.0279308538884,0.0126378852874,0.0252438113093,,0.00897122644126,-0.00861792575033,0.0283148007386,-0.999521658302
117976000000,,239,,117,976000000,"""map""",,,-0.0278897248209,0.0123466085643,0.0254445932806,,0.00899216319695,-0.00866330706077,0.0283103331727,-0.999521236833
118012000000,,240,,118,12000000,"""map""",,,-0.0279870480299,0.0120391016826,0.0257386900485,,0.00894657993972,-0.00868773523422,0.0282985320551,-0.999521742596
118044000000,,241,,118,44000000,"""map""",,,-0.0281757041812,0.0118377618492,0.0259068403393,,0.00892868550531,-0.00867236263427,0.0283350312259,-0.999520983952
118076000000,,242,,118,76000000,"""map""",,,-0.028422800824,0.0116670606658,0.0259512569755,,0.00892313230817,-0.00873636692485,0.0283592656638,-0.999519845987
118112000000,,243,,118,112000000,"""map""",,,-0.0287298150361,0.0115162972361,0.0259909257293,,0.00891990853729,-0.00871891634944,0.0283325445619,-0.999520773218
118144000000,,244,,118,144000000,"""map""",,,-0.0286554060876,0.0112686837092,0.0263178907335,,0.00895453385058,-0.00869076716285,0.0283292149608,-0.999520815365
118176000000,,245,,118,176000000,"""map""",,,-0.0282632745802,0.0109467236325,0.0268723778427,,0.00896924473678,-0.00870803651504,0.0283493611544,-0.999519972428
118212000000,,246,,118,212000000,"""map""",,,-0.0279435832053,0.0106171956286,0.0274740774184,,0.00903955757505,-0.00874773353683,0.0283552195664,-0.999518834463
118244000000,,247,,118,244000000,"""map""",,,-0.0278267525136,0.010349820368,0.0279360320419,,0.00898599560865,-0.00873277658135,0.0283148007386,-0.999520562484
118276000000,,248,,118,276000000,"""map""",,,-0.0277955438942,0.0101230097935,0.0283042583615,,0.00900061327993,-0.00872909601726,0.0283172452559,-0.999520393897
118312000000,,249,,118,312000000,"""map""",,,-0.0278665646911,0.00992119405419,0.0285372752696,,0.00897871654128,-0.00878549390269,0.0283139156548,-0.999520183162
118344000000,,250,,118,344000000,"""map""",,,-0.0277258530259,0.00966639909893,0.0287792943418,,0.00897410095717,-0.0087863202217,0.0283487710985,-0.999519213785
118376000000,,251,,118,376000000,"""map""",,,-0.027414444834,0.00936859007925,0.0289697498083,,0.00893147064438,-0.0087411388927,0.028335284107,-0.999520393897
118412000000,,252,,118,412000000,"""map""",,,-0.0271335225552,0.00908911880106,0.0290856380016,,0.0088857013689,-0.00877576822928,0.0283901171569,-0.999518918757
118444000000,,253,,118,444000000,"""map""",,,-0.0269822776318,0.00889368448406,0.0291162319481,,0.00887765890439,-0.00880358546828,0.0283417325748,-0.999520098869
118476000000,,254,,118,476000000,"""map""",,,-0.0268893204629,0.00871549919248,0.0291508957744,,0.00885673940462,-0.00873665908195,0.0283368435404,-0.999521026099
118512000000,,255,,118,512000000,"""map""",,,-0.0268923100084,0.00852283742279,0.0291630551219,,0.00879931204823,-0.00879899259493,0.0283412689595,-0.999520899659
118544000000,,256,,118,544000000,"""map""",,,-0.0266256742179,0.00824031420052,0.0292481333017,,0.00880806553949,-0.00878688842921,0.0283286670518,-0.99952127898
118576000000,,257,,118,576000000,"""map""",,,-0.0261340010911,0.00791835132986,0.0293261669576,,0.0088851948247,-0.00875337718094,0.0283030839148,-0.999521574008
118612000000,,258,,118,612000000,"""map""",,,-0.0257239751518,0.00753144174814,0.0292431991547,,0.00881936970357,-0.00880841270885,0.0283552617132,-0.999520225309
118644000000,,259,,118,644000000,"""map""",,,-0.0255297813565,0.00722009362653,0.0291049685329,,0.00881320167153,-0.00876338812503,0.0283634803487,-0.999520436043
118676000000,,260,,118,676000000,"""map""",,,-0.0254173185676,0.00694377440959,0.0288134142756,,0.00895405404945,-0.00876454165062,0.0283451043227,-0.9995196774
118712000000,,261,,118,712000000,"""map""",,,-0.025331331417,0.00667232088745,0.0285196565092,,0.00895001174377,-0.00884179303217,0.028339751673,-0.999519213785
118744000000,,262,,118,744000000,"""map""",,,-0.0250068604946,0.00630853557959,0.0282460711896,,0.00896206096285,-0.00886209020223,0.0283328395898,-0.999519129491
118780000000,,263,,118,780000000,"""map""",,,-0.0244705677032,0.00582896638662,0.0281237196177,,0.00889536255125,-0.00885563880697,0.0283379815053,-0.999519635253
118812000000,,264,,118,812000000,"""map""",,,-0.0240051131696,0.00527034746483,0.0276818200946,,0.00887723473613,-0.00888735634656,0.0283665149218,-0.999518665876
118844000000,,265,,118,844000000,"""map""",,,-0.0237585362047,0.00484843552113,0.0272051542997,,0.00889473902215,-0.00887438416385,0.0283624266775,-0.999518792316
118876000000,,266,,118,876000000,"""map""",,,-0.0236153434962,0.00444426340982,0.0266367513686,,0.00886518990177,-0.00894029679486,0.0283510891752,-0.999518750169
118912000000,,267,,118,912000000,"""map""",,,-0.0235687214881,0.00405755965039,0.0259663704783,,0.00886288031158,-0.00897792017575,0.0283875040523,-0.99951740147
118944000000,,268,,118,944000000,"""map""",,,-0.0233924817294,0.00365737848915,0.0254278164357,,0.00885625832243,-0.00900194617916,0.0284377852426,-0.999515842037
118972000000,,269,,118,972000000,"""map""",,,-0.0231320019811,0.00326821999624,0.0250026080757,,0.00880741414315,-0.0090028074885,0.0284868441743,-0.999514830513
119012000000,,270,,119,12000000,"""map""",,,-0.0229660924524,0.00283287721686,0.02433206141,,0.00882748323044,-0.00897967485216,0.0285086762418,-0.999514240457
119044000000,,271,,119,44000000,"""map""",,,-0.0229337848723,0.00249225390144,0.0237391907722,,0.00885119101794,-0.00897177344994,0.0285234276388,-0.999513734694
119076000000,,272,,119,76000000,"""map""",,,-0.022988025099,0.00217015459202,0.0232074130327,,0.00888355861685,-0.00893674401413,0.0285204773594,-0.999513818988
119112000000,,273,,119,112000000,"""map""",,,-0.0231117103249,0.00183624017518,0.0227101836354,,0.00889984210476,-0.00894206473734,0.028508339067,-0.999513987576
119144000000,,274,,119,144000000,"""map""",,,-0.023080939427,0.00137490930501,0.0222539361566,,0.00893279279789,-0.00894131291939,0.0285087183886,-0.999513692548
119176000000,,275,,119,176000000,"""map""",,,-0.0229241959751,0.000811143021565,0.0218352396041,,0.00890618775347,-0.00889266608289,0.0285002047252,-0.999514619778
119212000000,,276,,119,212000000,"""map""",,,-0.0228639431298,0.000152331806021,0.0213339868933,,0.00883881340124,-0.00898865814525,0.0285290331696,-0.99951352396
119244000000,,277,,119,244000000,"""map""",,,-0.0229400563985,-0.000343004619936,0.0208996497095,,0.00889779153093,-0.00899977549299,0.028494978516,-0.999513861135
119280000000,,278,,119,280000000,"""map""",,,-0.0230827815831,-0.00082687381655,0.0203990396112,,0.00884283862592,-0.00897306756192,0.0285096456193,-0.99951419831
119312000000,,279,,119,312000000,"""map""",,,-0.0232865680009,-0.00128225877415,0.0199843496084,,0.00885831161516,-0.00885414776718,0.028551455293,-0.999513861135
119344000000,,280,,119,344000000,"""map""",,,-0.0233626700938,-0.00167747540399,0.019623156637,,0.00905879837284,-0.0088797156315,0.0285890081351,-0.999510784415
119376000000,,281,,119,376000000,"""map""",,,-0.0233205463737,-0.00205425801687,0.0194588508457,,0.00904345382791,-0.00893425674554,0.0285974375048,-0.999510194359
119412000000,,282,,119,412000000,"""map""",,,-0.023350469768,-0.00253660790622,0.0188763197511,,0.0089905351463,-0.00893792683466,0.0286475079608,-0.999509182835
119444000000,,283,,119,444000000,"""map""",,,-0.0234569273889,-0.00292624719441,0.0183993130922,,0.00902083669558,-0.00895476785253,0.028629089788,-0.999509309275
119476000000,,284,,119,476000000,"""map""",,,-0.0236132051796,-0.00330291781574,0.017898330465,,0.00894512257815,-0.00899003811755,0.0286236528445,-0.999509857184
119512000000,,285,,119,512000000,"""map""",,,-0.0238068439066,-0.00366407004185,0.0172900520265,,0.00896797237734,-0.00908623077489,0.0285777549265,-0.999510067919
119544000000,,286,,119,544000000,"""map""",,,-0.0239230468869,-0.00396942812949,0.0166603010148,,0.00896175952439,-0.00907580879357,0.028562582061,-0.999510657975
119580000000,,287,,119,580000000,"""map""",,,-0.0239849239588,-0.00425531016663,0.0156937483698,,0.00901782833308,-0.00908864613093,0.0285844984223,-0.999509393569
119612000000,,288,,119,612000000,"""map""",,,-0.024142390117,-0.00449312338606,0.0148847587407,,0.00901254617587,-0.00906796714654,0.0286220091174,-0.999508550632
119644000000,,289,,119,644000000,"""map""",,,-0.0243831891567,-0.00471678050235,0.0141415884718,,0.00896958527117,-0.00905595275572,0.028621292621,-0.999509098541
119676000000,,290,,119,676000000,"""map""",,,-0.0247054863721,-0.00493770092726,0.0134554719552,,0.00891441880738,-0.00909339383554,0.0286169093488,-0.999509351422
119712000000,,291,,119,712000000,"""map""",,,-0.0251090135425,-0.00517962034792,0.012824209407,,0.00889679682518,-0.00910156043569,0.0286526498763,-0.999508424192
119744000000,,292,,119,744000000,"""map""",,,-0.0254190620035,-0.00551175698638,0.0126933576539,,0.00887879781596,-0.00907918803239,0.0286542936034,-0.999508719219
119776000000,,293,,119,776000000,"""map""",,,-0.0256229788065,-0.00590844079852,0.0129432808608,,0.00887160941164,-0.009142206523,0.0286741026222,-0.999507707695
119812000000,,294,,119,812000000,"""map""",,,-0.0259803906083,-0.00641365908086,0.0131041957065,,0.00885858222824,-0.00912042304371,0.0287704924647,-0.999505221031
119844000000,,295,,119,844000000,"""map""",,,-0.0263243429363,-0.00684056105092,0.0131593141705,,0.00886855800451,-0.00914744693209,0.0287580169976,-0.999505221031
119876000000,,296,,119,876000000,"""map""",,,-0.026600331068,-0.00715846894309,0.013036487624,,0.00882908601973,-0.00911096502749,0.0287505570054,-0.999506106115
119912000000,,297,,119,912000000,"""map""",,,-0.0271524582058,-0.00769433332607,0.0126812700182,,0.0088170322783,-0.00910772078,0.028787393351,-0.999505178884
119944000000,,298,,119,944000000,"""map""",,,-0.0273934658617,-0.00804783776402,0.0125244194642,,0.00882750226135,-0.00910718823358,0.028805474349,-0.999504630975
119976000000,,299,,119,976000000,"""map""",,,-0.0274306219071,-0.00829968228936,0.0125535801053,,0.00885154682234,-0.00906379036659,0.0287698181152,-0.999505811087
120012000000,,300,,120,12000000,"""map""",,,-0.0276034511626,-0.00854618381709,0.0125015489757,,0.00883865336463,-0.00891875826583,0.0287933360566,-0.99950656973
120044000000,,301,,120,44000000,"""map""",,,-0.0278559383005,-0.00881518889219,0.0123496456072,,0.00881067007981,-0.00897442807886,0.0287616837734,-0.999507201933
120076000000,,302,,120,76000000,"""map""",,,-0.0282051581889,-0.00911822915077,0.0120338089764,,0.00886365501717,-0.00903238286641,0.0287457522647,-0.999506696171
120112000000,,303,,120,112000000,"""map""",,,-0.0287080295384,-0.0094532771036,0.0114724952728,,0.00885450371805,-0.00906472678601,0.0287073564857,-0.999507581255
120144000000,,304,,120,144000000,"""map""",,,-0.0288415793329,-0.00954329036176,0.0114164846018,,0.00884164127367,-0.00909063763126,0.0287276291198,-0.999506864758
120180000000,,305,,120,180000000,"""map""",,,-0.0289653036743,-0.00963083840907,0.011360116303,,0.00885619471629,-0.00911487641144,0.0287737799189,-0.999505136737
120212000000,,306,,120,212000000,"""map""",,,-0.029152456671,-0.00975058227777,0.0111281266436,,0.00890052737692,-0.00920987201236,0.0287672471574,-0.999504083066
120244000000,,307,,120,244000000,"""map""",,,-0.0294148214161,-0.00988244917244,0.0108220297843,,0.00888534802891,-0.00919350576135,0.0287649712276,-0.999504420241
120276000000,,308,,120,276000000,"""map""",,,-0.029727358371,-0.0100576179102,0.0103749856353,,0.00887611103668,-0.00919400781922,0.0287832629598,-0.999503998772
120312000000,,309,,120,312000000,"""map""",,,-0.0302134621888,-0.0103605911136,0.0096008554101,,0.00887605655242,-0.00916880185325,0.0288158424737,-0.999503282276
120344000000,,310,,120,344000000,"""map""",,,-0.0301464013755,-0.0105120632797,0.00922277849168,,0.00887281911674,-0.00920172252407,0.0288069073419,-0.999503282276
120376000000,,311,,120,376000000,"""map""",,,-0.0300070550293,-0.0106496680528,0.00893831811845,,0.00884921238495,-0.00921505991281,0.0287877726726,-0.999503956626
120412000000,,312,,120,412000000,"""map""",,,-0.0299664288759,-0.0107954805717,0.00856260769069,,0.00892382382106,-0.00925928941861,0.0287418747546,-0.99950416736
120444000000,,313,,120,444000000,"""map""",,,-0.0300575140864,-0.0109896259382,0.00813442096114,,0.0088987480514,-0.00923770072444,0.0287766880515,-0.999503577304
120476000000,,314,,120,476000000,"""map""",,,-0.0302330534905,-0.0111714173108,0.00769412331283,,0.00895145641035,-0.00926857615153,0.0287438556565,-0.999503788038
120512000000,,315,,120,512000000,"""map""",,,-0.0305821988732,-0.0113744381815,0.00706704426557,,0.00889907982406,-0.00927409861316,0.0287800176525,-0.999503113689
120544000000,,316,,120,544000000,"""map""",,,-0.0304692201316,-0.0113179590553,0.00640961015597,,0.00896369817653,-0.00927171535088,0.0287763087298,-0.99950269222
120576000000,,317,,120,576000000,"""map""",,,-0.0302627310157,-0.0112083749846,0.00562405725941,,0.00889093558355,-0.00926870712985,0.0287583963192,-0.999503914479
120612000000,,318,,120,612000000,"""map""",,,-0.0301385764033,-0.0111219389364,0.00474789226428,,0.00889408223269,-0.00926289074128,0.0287502198306,-0.99950416736
120644000000,,319,,120,644000000,"""map""",,,-0.0301248580217,-0.0110837239772,0.00382083305158,,0.00885234082122,-0.00925874345435,0.0287453307962,-0.999504673122
120676000000,,320,,120,676000000,"""map""",,,-0.0301981307566,-0.0111060235649,0.00294748297893,,0.00887875329218,-0.00926062337254,0.0287786268065,-0.99950349301
120712000000,,321,,120,712000000,"""map""",,,-0.0304019339383,-0.0112446928397,0.00182426918764,,0.00886501949052,-0.00925744179997,0.0288264213327,-0.999502228605
120744000000,,322,,120,744000000,"""map""",,,-0.0302653703839,-0.0112539408728,0.00116065994371,,0.00887647322587,-0.00928283626401,0.0288411305829,-0.999501512108
120776000000,,323,,120,776000000,"""map""",,,-0.0301015041769,-0.0112309698015,0.000487509241793,,0.00889911003479,-0.00928035355122,0.0288128921944,-0.999502186458
120812000000,,324,,120,812000000,"""map""",,,-0.0300262328237,-0.0112280650064,-0.000156601046911,,0.00893260801248,-0.00930837680146,0.0288195935433,-0.999501385668
120844000000,,325,,120,844000000,"""map""",,,-0.0300772115588,-0.011216852814,-0.000902997911908,,0.00891788705261,-0.00931341188871,0.0288569777979,-0.99950041629
120876000000,,326,,120,876000000,"""map""",,,-0.0302040725946,-0.0112447235733,-0.00153022259474,,0.00912955547142,-0.00934372169809,0.028839149681,-0.999498772563
120912000000,,327,,120,912000000,"""map""",,,-0.0304655916989,-0.0112886372954,-0.00228314287961,,0.00910549607259,-0.00934270240496,0.0288606024269,-0.999498308948
120944000000,,328,,120,944000000,"""map""",,,-0.0303282774985,-0.0113521395251,-0.0025183246471,,0.00907357376554,-0.0093768216165,0.0288592115809,-0.999498351095
120976000000,,329,,120,976000000,"""map""",,,-0.0301409251988,-0.0114298444241,-0.0027431845665,,0.00904298690442,-0.00937118721259,0.0288796528024,-0.999498056067
121012000000,,330,,121,12000000,"""map""",,,-0.0300591047853,-0.011530008167,-0.00307356356643,,0.00905082047656,-0.00946239610027,0.0288723613976,-0.99949733957
121044000000,,331,,121,44000000,"""map""",,,-0.0301003344357,-0.0116626825184,-0.00346064940095,,0.0090664703752,-0.00947823911709,0.0288572728258,-0.999497508158
121080000000,,332,,121,80000000,"""map""",,,-0.0302724670619,-0.0118002165109,-0.00385302910581,,0.00904948931115,-0.00944485733135,0.0288870706477,-0.999497128836
121112000000,,333,,121,112000000,"""map""",,,-0.0305997617543,-0.0120106507093,-0.00454568956047,,0.00905776347015,-0.00942311988843,0.0289555592766,-0.999495316522
121144000000,,334,,121,144000000,"""map""",,,-0.03056002222,-0.0121694812551,-0.0049147028476,,0.00903973472353,-0.00940977952596,0.0289673182473,-0.999495190081
121176000000,,335,,121,176000000,"""map""",,,-0.0305417776108,-0.0123396134004,-0.00518675334752,,0.00907784961271,-0.00943890466522,0.0290265767163,-0.999492914151
121212000000,,336,,121,212000000,"""map""",,,-0.0306379646063,-0.0125347403809,-0.00548183964565,,0.0090777210216,-0.00939931116869,0.0290337416805,-0.999493082739
121244000000,,337,,121,244000000,"""map""",,,-0.0308233685791,-0.0127249285579,-0.00588440382853,,0.00905545375905,-0.0093812583852,0.029041117379,-0.999493209179
121272000000,,338,,121,272000000,"""map""",,,-0.0311065092683,-0.0129395928234,-0.00628080591559,,0.00905567096555,-0.00938664802664,0.0290926208279,-0.999491691893
121312000000,,339,,121,312000000,"""map""",,,-0.0315513312817,-0.0132315680385,-0.00676267687231,,0.00908791991069,-0.00940645965904,0.0290641295583,-0.999492029067
121344000000,,340,,121,344000000,"""map""",,,-0.0317213013768,-0.0134457834065,-0.00692884158343,,0.00906666924535,-0.00938022794826,0.0290596198455,-0.999492576977
121376000000,,341,,121,376000000,"""map""",,,-0.0318811424077,-0.0136422840878,-0.00704610534012,,0.00911302040664,-0.00942816455545,0.0290376613375,-0.999492366242
121412000000,,342,,121,412000000,"""map""",,,-0.0321102812886,-0.0138468043879,-0.00730869872496,,0.00910401094154,-0.0094386425748,0.0290924100937,-0.999490722515
121444000000,,343,,121,444000000,"""map""",,,-0.032417152077,-0.0140326600522,-0.00762686738744,,0.00916042014571,-0.00940989619123,0.0290952339325,-0.999490427487
121476000000,,344,,121,476000000,"""map""",,,-0.0328051187098,-0.0142016662285,-0.00796348042786,,0.00918461176792,-0.00941150634285,0.0291552931917,-0.999488446585
121512000000,,345,,121,512000000,"""map""",,,-0.0333699733019,-0.0143821509555,-0.00835141353309,,0.00935624782688,-0.00950209743861,0.0291605615477,-0.999485791334
121544000000,,346,,121,544000000,"""map""",,,-0.033163394779,-0.0144352149218,-0.00816196855158,,0.00934243267439,-0.00950826557227,0.0291987465925,-0.99948477981
121572000000,,347,,121,572000000,"""map""",,,-0.0328346453607,-0.0144811943173,-0.00787670630962,,0.00928293069312,-0.0095652901091,0.0291914551877,-0.999484990544
121612000000,,348,,121,612000000,"""map""",,,-0.0326323211193,-0.0145221818238,-0.00776298996061,,0.0092537810951,-0.00950263333435,0.0291556303664,-0.999486929299
121644000000,,349,,121,644000000,"""map""",,,-0.0325494222343,-0.0145535767078,-0.0075941006653,,0.00922277622286,-0.00947440476227,0.0291775467277,-0.999486845005
121676000000,,350,,121,676000000,"""map""",,,-0.0325813740492,-0.014585156925,-0.00756006315351,,0.00927586732994,-0.00951978318129,0.0291917923625,-0.999485496306
121712000000,,351,,121,712000000,"""map""",,,-0.0327774658799,-0.0145935621113,-0.00774253578857,,0.00925761169416,-0.00959292981891,0.0292349507353,-0.999483726138
121744000000,,352,,121,744000000,"""map""",,,-0.0325925759971,-0.0144288903102,-0.00754492916167,,0.00927727098669,-0.00963863238588,0.0293034393642,-0.999481070887
121776000000,,353,,121,776000000,"""map""",,,-0.0323931239545,-0.0142106916755,-0.00742568774149,,0.00925157814025,-0.00969741445967,0.0293000676163,-0.999480818006
121812000000,,354,,121,812000000,"""map""",,,-0.03234134987,-0.0139819849283,-0.00742029491812,,0.00924270015768,-0.00965899182441,0.029358567442,-0.9994795536
121844000000,,355,,121,844000000,"""map""",,,-0.0323942825198,-0.0137792918831,-0.00749999890104,,0.00926247118669,-0.00965548157639,0.0293919898929,-0.999478415635
121876000000,,356,,121,876000000,"""map""",,,-0.03253582865,-0.0135848987848,-0.00768033135682,,0.00925303759835,-0.00962428165149,0.0293369461087,-0.999480438684
121912000000,,357,,121,912000000,"""map""",,,-0.0328323543072,-0.013360013254,-0.00777322333306,,0.00922474376864,-0.00959350008758,0.0292967380153,-0.999482208852
121944000000,,358,,121,944000000,"""map""",,,-0.0327368527651,-0.012994684279,-0.00731362914667,,0.00920814005059,-0.00959086376928,0.0292458246223,-0.999483894726
121976000000,,359,,121,976000000,"""map""",,,-0.0326033271849,-0.0125623913482,-0.00674800481647,,0.00923028330098,-0.00961409028422,0.0292636527392,-0.999482925348
122012000000,,360,,122,12000000,"""map""",,,-0.0325709655881,-0.0121998144314,-0.00637441128492,,0.00924038871276,-0.00941076132836,0.0292572042714,-0.99948490625
122044000000,,361,,122,44000000,"""map""",,,-0.032607473433,-0.011867611669,-0.00597676029429,,0.00922556329641,-0.00947414518255,0.0293020063713,-0.999483178229
122076000000,,362,,122,76000000,"""map""",,,-0.0327751338482,-0.011530932039,-0.00558959320188,,0.00932727721405,-0.00957895609096,0.0293180643206,-0.999480775859
122112000000,,363,,122,112000000,"""map""",,,-0.0329848639667,-0.0113028278574,-0.0053413505666,,0.00933599327699,-0.00958805102279,0.02935190824,-0.9994795536
122144000000,,364,,122,144000000,"""map""",,,-0.032704602927,-0.0110334297642,-0.00488518876955,,0.00932915546531,-0.00963192010924,0.0293541420229,-0.999479174279
122176000000,,365,,122,176000000,"""map""",,,-0.0323610715568,-0.0107622323558,-0.00441314093769,,0.00938709883122,-0.00959087104414,0.0293683876577,-0.999478584223
122212000000,,366,,122,212000000,"""map""",,,-0.0321326516569,-0.0104839261621,-0.00424961559474,,0.00941782549928,-0.00964460534341,0.02940754208,-0.999476603321
122244000000,,367,,122,244000000,"""map""",,,-0.0320008546114,-0.0102474289015,-0.00426301266998,,0.00940673375761,-0.00965233455682,0.0294118410585,-0.999476519027
122276000000,,368,,122,276000000,"""map""",,,-0.0319848284125,-0.0100253308192,-0.004407342989,,0.00939765993008,-0.00965991085414,0.029418120939,-0.999476392587
122312000000,,369,,122,312000000,"""map""",,,-0.0320682711899,-0.00975178927183,-0.00477794045582,,0.00941659787971,-0.00967569532224,0.0294409645309,-0.999475381062
122344000000,,370,,122,344000000,"""map""",,,-0.0318299159408,-0.00949140638113,-0.00552274193615,,0.00935830847953,-0.00964773251403,0.0294017679617,-0.999477319817
122376000000,,371,,122,376000000,"""map""",,,-0.0315935052931,-0.00923352781683,-0.0064357877709,,0.00938334310045,-0.00973665638604,0.0294084271638,-0.999476055412
122412000000,,372,,122,412000000,"""map""",,,-0.0314701683819,-0.00901146698743,-0.00739019084722,,0.00938780552151,-0.00973784559394,0.0294118832054,-0.999475886824
122444000000,,373,,122,444000000,"""map""",,,-0.0314706228673,-0.00877700559795,-0.00840323325247,,0.00942350250279,-0.00976565337666,0.0293895032288,-0.999475928971
122476000000,,374,,122,476000000,"""map""",,,-0.0315996520221,-0.00853188615292,-0.00939038861543,,0.00940642216316,-0.00976138502043,0.0293723494615,-0.999476645468
122512000000,,375,,122,512000000,"""map""",,,-0.0319032259285,-0.00821605790406,-0.0107594244182,,0.00933665307685,-0.00974137736814,0.0293603376097,-0.999477867726
122544000000,,376,,122,544000000,"""map""",,,-0.0322409905493,-0.00796360615641,-0.0119060073048,,0.00937839391209,-0.00977132568804,0.0293298654382,-0.999478078461
122576000000,,377,,122,576000000,"""map""",,,-0.0326600559056,-0.00767894368619,-0.0131765184924,,0.00938396930424,-0.00972586488922,0.029320171663,-0.99947875281
122612000000,,378,,122,612000000,"""map""",,,-0.0331164784729,-0.00738190021366,-0.0143873151392,,0.00942555135823,-0.00974046195012,0.0292694268574,-0.999479680041
122644000000,,379,,122,644000000,"""map""",,,-0.0334318615496,-0.00719524547458,-0.0152002396062,,0.00943723822863,-0.00974280471191,0.0292527367054,-0.999480017216
122676000000,,380,,122,676000000,"""map""",,,-0.0336118191481,-0.00712627917528,-0.0157154034823,,0.00942516504985,-0.00976427927209,0.0292547597541,-0.999479932922
122712000000,,381,,122,712000000,"""map""",,,-0.0339810401201,-0.00704904692248,-0.0166618563235,,0.00941048327852,-0.00951000092965,0.0292712813188,-0.999481955971
122744000000,,382,,122,744000000,"""map""",,,-0.0343673676252,-0.00696169445291,-0.0173275433481,,0.00941699805354,-0.00952777722735,0.0292336863299,-0.999482883201
122776000000,,383,,122,776000000,"""map""",,,-0.0348227322102,-0.00683173956349,-0.0181017126888,,0.00943071559224,-0.0095441999537,0.0292146781012,-0.999483093936
122812000000,,384,,122,812000000,"""map""",,,-0.0353277735412,-0.00669820047915,-0.0188203901052,,0.00942291779759,-0.00962112121408,0.0291436606615,-0.999484569075
122844000000,,385,,122,844000000,"""map""",,,-0.0356516875327,-0.0065544792451,-0.0191927459091,,0.0094429410903,-0.00965479695763,0.02913405118,-0.999484316194
122876000000,,386,,122,876000000,"""map""",,,-0.0358024574816,-0.00638685747981,-0.0192216653377,,0.00945812361785,-0.0096628030993,0.0290329830373,-0.999487013593
122912000000,,387,,122,912000000,"""map""",,,-0.0361108221114,-0.00613426417112,-0.0193747282028,,0.00939124797032,-0.00966002712841,0.0290665740755,-0.999486718565
122944000000,,388,,122,944000000,"""map""",,,-0.0364498645067,-0.00592493545264,-0.0195095986128,,0.00937494253178,-0.00967319262673,0.029053930021,-0.999487140033
122976000000,,389,,122,976000000,"""map""",,,-0.0368888899684,-0.00570274190977,-0.0196602120996,,0.00931049118208,-0.00967269041452,0.0289778971063,-0.999489921725
123012000000,,390,,123,12000000,"""map""",,,-0.0373827591538,-0.00548588065431,-0.0198327954859,,0.00934909179928,-0.00968757809934,0.0289824489659,-0.999489247375
123044000000,,391,,123,44000000,"""map""",,,-0.0375012494624,-0.00517410971224,-0.0195762440562,,0.00937652372801,-0.00970943295868,0.0289839241056,-0.99948878376
123076000000,,392,,123,76000000,"""map""",,,-0.0373212508857,-0.00478634890169,-0.0188729111105,,0.00935038399738,-0.00967087595976,0.0290172622628,-0.999488404439
123112000000,,393,,123,112000000,"""map""",,,-0.0372501127422,-0.00427479948848,-0.0181241240352,,0.00938655677707,-0.00969207030925,0.0290983106525,-0.999485496306
123144000000,,394,,123,144000000,"""map""",,,-0.0373481623828,-0.00385092734359,-0.0176648683846,,0.00934376325843,-0.009700257314,0.0291210278038,-0.999485201278
123176000000,,395,,123,176000000,"""map""",,,-0.0375363789499,-0.00340385921299,-0.0173174999654,,0.00935990122087,-0.0097527976412,0.0291696231201,-0.999483136082
123212000000,,396,,123,212000000,"""map""",,,-0.0378278829157,-0.00298711215146,-0.0170698817819,,0.00932122663059,-0.00978788316391,0.0292034670395,-0.999482166705
123244000000,,397,,123,244000000,"""map""",,,-0.0378079153597,-0.00244608824141,-0.0167102795094,,0.00935391620374,-0.0097379700177,0.0292330119803,-0.999481450208
123276000000,,398,,123,276000000,"""map""",,,-0.0375621989369,-0.00183797522914,-0.0160117708147,,0.0092752727157,-0.0097824324116,0.0292291766171,-0.99948182953
123312000000,,399,,123,312000000,"""map""",,,-0.0374364256859,-0.00124264869373,-0.0154847819358,,0.0092836581893,-0.00981925206721,0.0292738522765,-0.999480143656
123344000000,,400,,123,344000000,"""map""",,,-0.0374438948929,-0.000685883685946,-0.0151167316362,,0.00925928020928,-0.00983969063398,0.0293009105533,-0.999479300719
123380000000,,401,,123,380000000,"""map""",,,-0.0375740528107,-0.00015102661564,-0.015039649792,,0.0092917064881,-0.00983766672091,0.0293266201309,-0.999478289195
123412000000,,402,,123,412000000,"""map""",,,-0.0379073210061,0.000507563934661,-0.0151152610779,,0.00928704020636,-0.00984593392403,0.0292954736098,-0.999479174279
123444000000,,403,,123,444000000,"""map""",,,-0.0381088256836,0.00095598428743,-0.0148971965536,,0.00924591331981,-0.00987049578202,0.0292630626833,-0.99948022795
123476000000,,404,,123,476000000,"""map""",,,-0.0382472462952,0.00134425633587,-0.0144553938881,,0.00927066082561,-0.00984880919109,0.0293014163154,-0.999479132132
123512000000,,405,,123,512000000,"""map""",,,-0.0384397394955,0.0017939399695,-0.0141788106412,,0.00927644373131,-0.00989455475896,0.0292462882376,-0.99948022795
123544000000,,406,,123,544000000,"""map""",,,-0.0387448631227,0.0022837202996,-0.0141698895022,,0.00930176898645,-0.00984767797626,0.0292390811265,-0.999480691565
123576000000,,407,,123,576000000,"""map""",,,-0.0391150265932,0.00281259580515,-0.0142532242462,,0.00931042818818,-0.00977262431723,0.0291575269746,-0.999483683991
123612000000,,408,,123,612000000,"""map""",,,-0.0396603234112,0.00350950355642,-0.0144572900608,,0.00925479303106,-0.00970675669554,0.0291591707017,-0.999484821956
123644000000,,409,,123,644000000,"""map""",,,-0.0393974855542,0.00385508127511,-0.0144935520366,,0.00929668156549,-0.00974652504592,0.0291498562482,-0.999484358341
123676000000,,410,,123,676000000,"""map""",,,-0.0390424914658,0.00418125418946,-0.0145104331896,,0.00930105539173,-0.009833758712,0.0291373386342,-0.999483810432
123712000000,,411,,123,712000000,"""map""",,,-0.0388283580542,0.00456386385486,-0.0146073875949,,0.00928984889868,-0.00979492372498,0.0291585806458,-0.999483641845
123744000000,,412,,123,744000000,"""map""",,,-0.0387303642929,0.00497099105269,-0.0147387236357,,0.00933705353365,-0.00982899006774,0.0291789375737,-0.999482250999
123776000000,,413,,123,776000000,"""map""",,,-0.0387116372585,0.00539972214028,-0.0150010790676,,0.00930409469812,-0.0098041497689,0.0291124298467,-0.99948477981
123812000000,,414,,123,812000000,"""map""",,,-0.0387882776558,0.00603119330481,-0.0153421675786,,0.00932674144694,-0.00979557216495,0.0291806655945,-0.99948263032
123844000000,,415,,123,844000000,"""map""",,,-0.0385017208755,0.00648150965571,-0.0155310593545,,0.00946645884656,-0.00976751493792,0.029200558907,-0.99948102874
123876000000,,416,,123,876000000,"""map""",,,-0.0381795167923,0.00691162515432,-0.0156666263938,,0.00946662413094,-0.00980674115183,0.0292592273201,-0.999478921398
123912000000,,417,,123,912000000,"""map""",,,-0.0379765592515,0.00733741465956,-0.015832953155,,0.00942300943817,-0.00987018066847,0.0293440689261,-0.999476266146
123944000000,,418,,123,944000000,"""map""",,,-0.0378775075078,0.00778034003451,-0.0160889793187,,0.00944777244035,-0.00989685657781,0.0293429309612,-0.999475802531
123972000000,,419,,123,972000000,"""map""",,,-0.0379183217883,0.00840331986547,-0.0164775177836,,0.00940475861799,-0.00992918617407,0.0293657745531,-0.999475212475
124012000000,,420,,124,12000000,"""map""",,,-0.0380304083228,0.00893029384315,-0.0168954599649,,0.00939354582761,-0.00999041410274,0.0294375506361,-0.999472557223
124044000000,,421,,124,44000000,"""map""",,,-0.0377971306443,0.00916093308479,-0.0170119013637,,0.00942792997984,-0.0100173404442,0.029443999104,-0.999471756433
124080000000,,422,,124,76000000,"""map""",,,-0.0375417545438,0.00935273710638,-0.0170974880457,,0.00942479594594,-0.0100190309485,0.0294783066386,-0.999470829203
124112000000,,423,,124,112000000,"""map""",,,-0.0373771451414,0.00962203741074,-0.0173165276647,,0.00936286650273,-0.0100869979278,0.0294665055211,-0.999471082084
124144000000,,424,,124,144000000,"""map""",,,-0.0373303815722,0.0100478623062,-0.017606260255,,0.00936116729326,-0.0100971870931,0.0294477501735,-0.999471545699
124176000000,,425,,124,176000000,"""map""",,,-0.0373728200793,0.0103602558374,-0.0178271234035,,0.00936633966647,-0.0101033034898,0.0294717317303,-0.999470744909
124212000000,,426,,124,212000000,"""map""",,,-0.0375781692564,0.0109698874876,-0.0182806011289,,0.00937091951425,-0.0100861006609,0.0295424541421,-0.99946872186
124244000000,,427,,124,244000000,"""map""",,,-0.0374102443457,0.0111403008923,-0.0183368697762,,0.00940953296278,-0.0100780291896,0.0295436342538,-0.999468468979
124276000000,,428,,124,276000000,"""map""",,,-0.0372027494013,0.0112701291218,-0.0183082874864,,0.00935792206825,-0.0100776216534,0.0295776046137,-0.999467878923
124312000000,,429,,124,312000000,"""map""",,,-0.0371037423611,0.0114770252258,-0.0183916799724,,0.00935610847783,-0.0100549834863,0.0296202150776,-0.999466909546
124344000000,,430,,124,344000000,"""map""",,,-0.0371247753501,0.0117535078898,-0.0186500139534,,0.00933865606055,-0.0100684740998,0.0296248512309,-0.999466740958
124376000000,,431,,124,376000000,"""map""",,,-0.0372480526567,0.012079410255,-0.0189651399851,,0.00941073143147,-0.0100873358229,0.0296291923563,-0.999465771581
124412000000,,432,,124,412000000,"""map""",,,-0.0375900305808,0.012572625652,-0.0193683169782,,0.0094159720875,-0.0100577896061,0.0296270007202,-0.999466108756
124444000000,,433,,124,444000000,"""map""",,,-0.0374392308295,0.0127647211775,-0.0193543918431,,0.0094341733522,-0.0100692939671,0.0296534267942,-0.999465055084
124476000000,,434,,124,476000000,"""map""",,,-0.0372428148985,0.0129227368161,-0.0193381626159,,0.00956839793498,-0.0100380367694,0.0296248933778,-0.999464928644
124512000000,,435,,124,512000000,"""map""",,,-0.0371381826699,0.0131438551471,-0.0193856917322,,0.00956625622476,-0.0100961652995,0.029599225947,-0.999465139378
124544000000,,436,,124,544000000,"""map""",,,-0.0371607840061,0.0134514868259,-0.0194981656969,,0.00952191679347,-0.0101162966347,0.0295875091231,-0.99946564514
124576000000,,437,,124,576000000,"""map""",,,-0.0372806526721,0.0138559862971,-0.0196129698306,,0.00955615415201,-0.0101718847471,0.0296126286448,-0.99946404356
124612000000,,438,,124,612000000,"""map""",,,-0.0375482439995,0.0144913466647,-0.0197734385729,,0.00953030284329,-0.0102518302187,0.0295988466254,-0.99946391712
124644000000,,439,,124,644000000,"""map""",,,-0.0371757857502,0.0147641077638,-0.0195938311517,,0.00949568373473,-0.0102657473222,0.0296038199535,-0.99946391712
124676000000,,440,,124,676000000,"""map""",,,-0.0367004424334,0.015011979267,-0.0192654039711,,0.00948449613368,-0.0103307169361,0.0296234603849,-0.999462737008
124712000000,,441,,124,712000000,"""map""",,,-0.0363303236663,0.0153391184285,-0.0189743135124,,0.00938585406892,-0.0102771733163,0.0296701590931,-0.999462821301
124744000000,,442,,124,744000000,"""map""",,,-0.0360688120127,0.0157592259347,-0.0188370551914,,0.00938327385037,-0.0102881038792,0.0296749216869,-0.999462610567
124776000000,,443,,124,776000000,"""map""",,,-0.0359108150005,0.0162217207253,-0.0186900757253,,0.00940458595586,-0.0102475570058,0.0297270994854,-0.999461346162
124812000000,,444,,124,812000000,"""map""",,,-0.0358529798687,0.0168698355556,-0.0184079706669,,0.00940201034713,-0.0103010631296,0.029708301991,-0.999461346162
124844000000,,445,,124,844000000,"""map""",,,-0.0354938991368,0.0168569236994,-0.0181427933276,,0.00938364259414,-0.0102219821005,0.0297047616557,-0.99946244198
124876000000,,446,,124,876000000,"""map""",,,-0.0351071171463,0.0167770702392,-0.0178784355521,,0.00939553286219,-0.0102649024919,0.0297483414971,-0.999460587518
124912000000,,447,,124,912000000,"""map""",,,-0.034855555743,0.0168264117092,-0.017651244998,,0.00941841378532,-0.010294284978,0.0297807524236,-0.999459112379
124944000000,,448,,124,944000000,"""map""",,,-0.0347052179277,0.0169775355607,-0.0174343269318,,0.00945023210409,-0.0102993596396,0.0298032166938,-0.999458058708
124976000000,,449,,124,976000000,"""map""",,,-0.0346854180098,0.0172352492809,-0.0173104275018,,0.00938130023364,-0.0102894452932,0.0297949980584,-0.999459028085
125012000000,,450,,125,12000000,"""map""",,,-0.0347882881761,0.0176856871694,-0.0173578094691,,0.00942654808592,-0.0102847137333,0.0297533991189,-0.999459997463
125044000000,,451,,125,44000000,"""map""",,,-0.0343542397022,0.0178769081831,-0.0172198191285,,0.00948902103415,-0.01027534318,0.0297586253281,-0.999459238819
125080000000,,452,,125,80000000,"""map""",,,-0.0338234864175,0.0180764291435,-0.0170506555587,,0.00950435734213,-0.0102905198732,0.0297647366211,-0.999458775204
125112000000,,453,,125,112000000,"""map""",,,-0.0334024690092,0.0183239877224,-0.0169386938214,,0.00960125504597,-0.0102328529828,0.0297485100844,-0.999458901645
125144000000,,454,,125,144000000,"""map""",,,-0.0331055484712,0.018669301644,-0.0169612467289,,0.00970870102762,-0.0102471073433,0.0297581195659,-0.999457468652
125176000000,,455,,125,176000000,"""map""",,,-0.0329245179892,0.0191065836698,-0.0169971957803,,0.00964739567881,-0.0102943158884,0.0298054926236,-0.999456204246
125212000000,,456,,125,212000000,"""map""",,,-0.0328627601266,0.0197510067374,-0.0169235821813,,0.00960392567032,-0.0102844187671,0.0298650882674,-0.999454939841
125244000000,,457,,125,244000000,"""map""",,,-0.0325078293681,0.0199180264026,-0.0169216617942,,0.00961673748909,-0.010291770264,0.0298643296242,-0.999454771253
125276000000,,458,,125,276000000,"""map""",,,-0.0321398489177,0.0200619939715,-0.0169965773821,,0.00958153402518,-0.0102724739016,0.0298090751058,-0.999456920743
125312000000,,459,,125,312000000,"""map""",,,-0.0318786911666,0.0203115064651,-0.017150066793,,0.00957300933116,-0.0102982985598,0.0298315815229,-0.999456077806
125344000000,,460,,125,344000000,"""map""",,,-0.0317533910275,0.0206561908126,-0.0173051320016,,0.00955746517007,-0.0102373501421,0.0298458271577,-0.99945641498
125376000000,,461,,125,376000000,"""map""",,,-0.0317072384059,0.0211121439934,-0.0174833871424,,0.00956886412275,-0.0102564510198,0.0299093846052,-0.999454223344
125412000000,,462,,125,412000000,"""map""",,,-0.0317884348333,0.0218031704426,-0.0177379623055,,0.00953942885019,-0.0102283439903,0.0299549032016,-0.999453464701
125444000000,,463,,125,444000000,"""map""",,,-0.0315142534673,0.02190929465,-0.0178717523813,,0.00952750814504,-0.0101985577547,0.0299570948377,-0.999453801876
125476000000,,464,,125,476000000,"""map""",,,-0.0312362238765,0.0219438951463,-0.0180398188531,,0.00951154064273,-0.0101679003058,0.0299757237448,-0.999453717582
125512000000,,465,,125,512000000,"""map""",,,-0.0310731660575,0.02209228836,-0.0181730724871,,0.00952629815182,-0.0101616683139,0.0300430744087,-0.99945161024
125544000000,,466,,125,544000000,"""map""",,,-0.0310206189752,0.0223316326737,-0.0182726457715,,0.00953239057344,-0.010175250568,0.0300791942579,-0.999450303687
125576000000,,467,,125,576000000,"""map""",,,-0.0310696661472,0.0226744301617,-0.0183563996106,,0.00947559695421,-0.0101539012959,0.0301030493741,-0.999450303687
125612000000,,468,,125,612000000,"""map""",,,-0.0312276855111,0.0232457239181,-0.0184062682092,,0.00947161109299,-0.0102176329491,0.0301227319524,-0.999449165723
125644000000,,469,,125,644000000,"""map""",,,-0.0309542529285,0.0233585741371,-0.0180016681552,,0.0094808358404,-0.0101674585871,0.0300945778576,-0.999450430128
125676000000,,470,,125,676000000,"""map""",,,-0.0306464452296,0.0234506614506,-0.0174791049212,,0.00943781195467,-0.0102718825286,0.0301212146658,-0.999448912841
125712000000,,471,,125,712000000,"""map""",,,-0.0305196400732,0.0236610453576,-0.0170080661774,,0.0094344278385,-0.0100673878512,0.0301280424553,-0.999450851596
125744000000,,472,,125,744000000,"""map""",,,-0.0304301511496,0.0240566432476,-0.0163786392659,,0.00945195952807,-0.010059464326,0.0301683769893,-0.999449545044
125776000000,,473,,125,776000000,"""map""",,,-0.0304642058909,0.0243438761681,-0.016057908535,,0.00945098494394,-0.010081018426,0.0301915999028,-0.99944865996
125812000000,,474,,125,812000000,"""map""",,,-0.0306278001517,0.0249391328543,-0.0154301375151,,0.00940914777598,-0.0101792230526,0.0302182367111,-0.999447226968
125844000000,,475,,125,844000000,"""map""",,,-0.030300302431,0.0250832233578,-0.0149465082213,,0.00939538065609,-0.0102144099911,0.0302439462887,-0.999446215443
125876000000,,476,,125,876000000,"""map""",,,-0.0299359224737,0.0252119600773,-0.014508205466,,0.00937055982547,-0.0101707777543,0.0302704145096,-0.999446131149
125912000000,,477,,125,912000000,"""map""",,,-0.0297094676644,0.0254687294364,-0.0140474019572,,0.00941260711028,-0.0101449491036,0.0302408695687,-0.999446847646
125944000000,,478,,125,944000000,"""map""",,,-0.0296030174941,0.0258122999221,-0.0135828414932,,0.00940946519443,-0.0101786567043,0.0302463486591,-0.999446426177
125976000000,,479,,125,976000000,"""map""",,,-0.0296171866357,0.0262451842427,-0.0131166977808,,0.00936247487454,-0.0101676608632,0.0303030783172,-0.999445246066
126012000000,,480,,126,12000000,"""map""",,,-0.0297732912004,0.026896269992,-0.0126851145178,,0.0094119593906,-0.0101969698804,0.030308135939,-0.999444318835
126044000000,,481,,126,44000000,"""map""",,,-0.029410995543,0.0269587505609,-0.0119480099529,,0.00940866279911,-0.0101966089157,0.0303257111748,-0.999443770926
126080000000,,482,,126,76000000,"""map""",,,-0.0289527345449,0.0269561652094,-0.0111295497045,,0.00936864341979,-0.0102159565829,0.0303237302729,-0.999444065954
126112000000,,483,,126,112000000,"""map""",,,-0.028655404225,0.0270586740226,-0.0103015201166,,0.00939082352809,-0.0101678561628,0.0303413476556,-0.999443813073
126144000000,,484,,126,144000000,"""map""",,,-0.0284872855991,0.0272523704916,-0.00953503884375,,0.00939573293624,-0.0102275552392,0.0303319910552,-0.999443391604
126176000000,,485,,126,176000000,"""map""",,,-0.028423609212,0.0275129098445,-0.00885302759707,,0.00939899240228,-0.0101833343048,0.0303522215425,-0.999443223017
126212000000,,486,,126,212000000,"""map""",,,-0.0284864958376,0.0279184095562,-0.00812490936369,,0.00943776239919,-0.0102029482298,0.0303818929239,-0.999441790024
126244000000,,487,,126,244000000,"""map""",,,-0.0282645374537,0.0277984775603,-0.00754395732656,,0.00945756804295,-0.0102068330661,0.0303713983586,-0.999441832171
126280000000,,488,,126,280000000,"""map""",,,-0.0280252359807,0.0276324860752,-0.00701137725264,,0.00937189025001,-0.01019624614,0.0304446917281,-0.999440525619
126312000000,,489,,126,312000000,"""map""",,,-0.0279024783522,0.027595570311,-0.00661185197532,,0.00937357711177,-0.0101695899047,0.0304749110185,-0.999439893416
126344000000,,490,,126,344000000,"""map""",,,-0.0278902873397,0.0276683587581,-0.00621913233772,,0.00937960155924,-0.0101846112226,0.0304676617606,-0.999439893416
126376000000,,491,,126,376000000,"""map""",,,-0.027992837131,0.0278704781085,-0.00586753664538,,0.00937641556207,-0.0101626711126,0.030473393732,-0.99943997771
126412000000,,492,,126,412000000,"""map""",,,-0.0282464865595,0.0282745435834,-0.00548821454868,,0.00931259436744,-0.0101818100623,0.0304990190159,-0.999439556241
126444000000,,493,,126,444000000,"""map""",,,-0.0281005073339,0.028210606426,-0.0049114623107,,0.00930772496587,-0.0101436448974,0.0305098507559,-0.999439682682
126476000000,,494,,126,476000000,"""map""",,,-0.0279422234744,0.0280928872526,-0.00426066014916,,0.00928361120626,-0.0101325541847,0.030485911346,-0.9994407785
126512000000,,495,,126,512000000,"""map""",,,-0.0279268473387,0.0280813239515,-0.00365418428555,,0.00925977592866,-0.0100968399166,0.030483677563,-0.999441410702
126544000000,,496,,126,544000000,"""map""",,,-0.0280487425625,0.0281564667821,-0.00306553277187,,0.00926797406692,-0.0101202756224,0.0304886087443,-0.999440947087
126576000000,,497,,126,576000000,"""map""",,,-0.0282981134951,0.0283476728946,-0.002509013284,,0.0092513759465,-0.0100314644746,0.0304304460934,-0.999443813073
126612000000,,498,,126,612000000,"""map""",,,-0.0287452824414,0.0286991540343,-0.00194104830734,,0.00925205840441,-0.0101331738339,0.0304613397333,-0.999441747877
126644000000,,499,,126,644000000,"""map""",,,-0.0285940077156,0.0286481939256,-0.00129903561901,,0.00929321891788,-0.0101213949422,0.0304794207313,-0.999440947087
126676000000,,500,,126,676000000,"""map""",,,-0.0283284913749,0.0285722911358,-0.000669952307362,,0.00943953155843,-0.0100424342827,0.0304634049289,-0.999440947087
126712000000,,501,,126,712000000,"""map""",,,-0.0281770657748,0.0285885259509,0.000126255690702,,0.00946373512705,-0.0101167647775,0.0304614661739,-0.999440019856
126744000000,,502,,126,744000000,"""map""",,,-0.0281672533602,0.0286939572543,0.000980684766546,,0.00941992714118,-0.0101096264432,0.0304624776982,-0.999440441325
126776000000,,503,,126,776000000,"""map""",,,-0.0282577630132,0.0288793407381,0.00177483540028,,0.00935954348714,-0.0101449103318,0.0305443690249,-0.999438123248
126812000000,,504,,126,812000000,"""map""",,,-0.0284995529801,0.0292613320053,0.00272734905593,,0.0093243668795,-0.0101464879987,0.0305635458409,-0.99943782822
126844000000,,505,,126,844000000,"""map""",,,-0.0282178483903,0.0292063578963,0.00395234161988,,0.00931808625821,-0.0101865098064,0.0305479936538,-0.999437954661
126876000000,,506,,126,876000000,"""map""",,,-0.0278805214912,0.0290907025337,0.00510000344366,,0.00927217537509,-0.0101926393329,0.030571890917,-0.999437659633
126912000000,,507,,126,912000000,"""map""",,,-0.0276981759816,0.0290773231536,0.00604106439278,,0.00928510297421,-0.0101872744589,0.0306005929208,-0.999436690255
126944000000,,508,,126,944000000,"""map""",,,-0.0276758410037,0.0291554518044,0.00689487531781,,0.00926233527957,-0.0102153368514,0.0306368392105,-0.999435510144
126976000000,,509,,126,976000000,"""map""",,,-0.0277828089893,0.0293226763606,0.00756355794147,,0.00924797962668,-0.010232973373,0.0307074351818,-0.999433276361
127012000000,,510,,127,12000000,"""map""",,,-0.0280552562326,0.029661398381,0.00847856607288,,0.00916603804485,-0.0103166535123,0.030739930402,-0.999432138396
127044000000,,511,,127,44000000,"""map""",,,-0.0278360787779,0.0295341089368,0.00906636100262,,0.00914333303541,-0.0102744879365,0.0307790426774,-0.999431632634
127076000000,,512,,127,76000000,"""map""",,,-0.0275618899614,0.0293645560741,0.00963123701513,,0.00910967585459,-0.0103184368508,0.0307641648399,-0.999431927661
127112000000,,513,,127,112000000,"""map""",,,-0.0273908786476,0.0292922314256,0.0102037368342,,0.00912009135337,-0.0102496071371,0.0307287614871,-0.999433613535
127144000000,,514,,127,144000000,"""map""",,,-0.0273175667971,0.0293315481395,0.0107317883521,,0.00911754686086,-0.0102884005535,0.0307534173935,-0.999432475571
127176000000,,515,,127,176000000,"""map""",,,-0.027395972982,0.0294456854463,0.0110850920901,,0.00910003780876,-0.0102788592314,0.0307428806814,-0.999433065626
127212000000,,516,,127,212000000,"""map""",,,-0.0276468768716,0.0297430418432,0.0115010719746,,0.00913408962238,-0.0102446388304,0.0307832573622,-0.999431885515
127244000000,,517,,127,244000000,"""map""",,,-0.0273248888552,0.0293047446758,0.0121187502518,,0.00910504752147,-0.0102087181498,0.0308345922237,-0.999430958284
127276000000,,518,,127,276000000,"""map""",,,-0.0269345678389,0.0287513080984,0.01256806124,,0.00911922512038,-0.0102494842363,0.0308723136531,-0.999429230263
127312000000,,519,,127,312000000,"""map""",,,-0.0266768466681,0.0283558275551,0.012978201732,,0.00918911360904,-0.0101995680854,0.0308374160626,-0.999430157494
127344000000,,520,,127,344000000,"""map""",,,-0.0265283063054,0.0281405244023,0.0133703183383,,0.0093217212181,-0.0102126634488,0.0308278908748,-0.999429061676
127376000000,,521,,127,376000000,"""map""",,,-0.0264881812036,0.0280479025096,0.0138996727765,,0.00935281176286,-0.0101997487324,0.0308346343706,-0.999428724501
127412000000,,522,,127,412000000,"""map""",,,-0.0266461521387,0.028085783124,0.0146819222718,,0.00931660819622,-0.0101832647872,0.0307927404032,-0.999430494669
127444000000,,523,,127,444000000,"""map""",,,-0.0266172569245,0.0277737602592,0.0154418842867,,0.00934359497973,-0.0102185223135,0.0307986831088,-0.999429693879
127476000000,,524,,127,476000000,"""map""",,,-0.0266332663596,0.027438223362,0.0161632746458,,0.00935415939188,-0.0101659124686,0.030763026875,-0.999431295459
127512000000,,525,,127,512000000,"""map""",,,-0.0267728026956,0.0272043030709,0.0167117547244,,0.00936848096509,-0.0101677054795,0.0307062972169,-0.999432812745
127544000000,,526,,127,544000000,"""map""",,,-0.0270493049175,0.0270464122295,0.0171711649746,,0.00934326550168,-0.0101169723219,0.0306905764424,-0.999434119298
127576000000,,527,,127,576000000,"""map""",,,-0.027441130951,0.0270118936896,0.0176970884204,,0.00931861395815,-0.0101708131922,0.0307073087412,-0.999433234214
127612000000,,528,,127,612000000,"""map""",,,-0.0280573721975,0.0270990543067,0.018476460129,,0.00928057050047,-0.0101460025279,0.0307086574404,-0.99943382427
127644000000,,529,,127,644000000,"""map""",,,-0.0286383610219,0.0272460952401,0.019135793671,,0.00925183227669,-0.0101536804983,0.0306958447984,-0.999434414326
127676000000,,530,,127,676000000,"""map""",,,-0.0292902514338,0.0274837631732,0.0196477808058,,0.00922983030468,-0.0101279564328,0.0307116920135,-0.999434414326
127712000000,,531,,127,712000000,"""map""",,,-0.0300173647702,0.0277795288712,0.0200316756964,,0.00930752485066,-0.0101366076085,0.0307361371856,-0.999432812745
127744000000,,532,,127,744000000,"""map""",,,-0.0303297359496,0.0279240943491,0.0206358507276,,0.00925056124463,-0.010102124407,0.0307438500589,-0.999433444948
127776000000,,533,,127,776000000,"""map""",,,-0.0302606001496,0.0279387757182,0.0215887185186,,0.00930971500506,-0.0101339880831,0.0307751651673,-0.999431632634
127812000000,,534,,127,812000000,"""map""",,,-0.0303668528795,0.0281026922166,0.0227001085877,,0.00924381832509,-0.0101314172076,0.030752995925,-0.999432981333
127844000000,,535,,127,844000000,"""map""",,,-0.0305967740715,0.0283189602196,0.023640261963,,0.00924475642175,-0.0101633852629,0.0307651342174,-0.999432222689
127876000000,,536,,127,876000000,"""map""",,,-0.0309268347919,0.0286165103316,0.0246162042022,,0.00924340537653,-0.0101381943303,0.0307700653987,-0.99943234913
127912000000,,537,,127,912000000,"""map""",,,-0.0313678532839,0.0289803463966,0.0255725830793,,0.00923278568779,-0.0101802423971,0.0307492448555,-0.999432686305
127944000000,,538,,127,944000000,"""map""",,,-0.0314771533012,0.0290597286075,0.0264710336924,,0.0092292300002,-0.0101802142855,0.0307590650712,-0.999432391277
127976000000,,539,,127,976000000,"""map""",,,-0.0312986671925,0.0288999304175,0.0273090098053,,0.00940510698804,-0.0101701166579,0.0307119027477,-0.999432264836
128012000000,,540,,128,12000000,"""map""",,,-0.0312759503722,0.0288013685495,0.0281563904136,,0.009418497297,-0.0101926380981,0.0307064236574,-0.999432096249
128048000000,,541,,128,44000000,"""map""",,,-0.0315581709146,0.0288924723864,0.0289186704904,,0.00941320436899,-0.0101882833491,0.0306866567854,-0.999432812745
128076000000,,542,,128,76000000,"""map""",,,-0.0318436548114,0.0289746057242,0.0296563431621,,0.00943114867786,-0.0101992609979,0.0307002280707,-0.999432138396
128112000000,,543,,128,112000000,"""map""",,,-0.0323785431683,0.0291817691177,0.0305676627904,,0.00944353742294,-0.0101998231891,0.0307840581524,-0.999429398851
128144000000,,544,,128,144000000,"""map""",,,-0.0325434394181,0.029004259035,0.031312122941,,0.00942715707496,-0.0102622963843,0.0308041621991,-0.999428345179
128176000000,,545,,128,176000000,"""map""",,,-0.0324857644737,0.0285332687199,0.0319379083812,,0.00937150944665,-0.0102521330257,0.0307779468593,-0.999429778172
128212000000,,546,,128,212000000,"""map""",,,-0.0325323566794,0.028200250119,0.0326187461615,,0.00939105220767,-0.0103155273601,0.0308081240029,-0.999428008005
128244000000,,547,,128,244000000,"""map""",,,-0.0327507145703,0.0279553495347,0.0330949760973,,0.00933229069281,-0.010285661955,0.0308234654557,-0.999428345179
128276000000,,548,,128,276000000,"""map""",,,-0.0331375487149,0.027832377702,0.0334972962737,,0.00937046297827,-0.0103100211048,0.030851198082,-0.999426912187
128312000000,,549,,128,312000000,"""map""",,,-0.0337478220463,0.0277891047299,0.0339281484485,,0.00931405361976,-0.0102785200398,0.0308608075635,-0.999427502242
128344000000,,550,,128,344000000,"""map""",,,-0.0337453186512,0.0272438563406,0.0342166908085,,0.00935371594447,-0.0102614668652,0.0308452132295,-0.999427755123
128376000000,,551,,128,376000000,"""map""",,,-0.0336957573891,0.026648439467,0.0347350165248,,0.0093827820411,-0.0103336348645,0.0308240133647,-0.999427375802
128412000000,,552,,128,412000000,"""map""",,,-0.0337971299887,0.0261673983186,0.0352002047002,,0.00936390107615,-0.010293457558,0.0308130130373,-0.999428345179
128444000000,,553,,128,444000000,"""map""",,,-0.0340293012559,0.0258181504905,0.0356049127877,,0.00938665951001,-0.0103030046835,0.0308327799092,-0.999427375802
128476000000,,554,,128,476000000,"""map""",,,-0.0343781076372,0.0255595464259,0.0359709784389,,0.00929798772678,-0.0103194631101,0.0308644743393,-0.999427038627
128512000000,,555,,128,512000000,"""map""",,,-0.0350052900612,0.0253841076046,0.0365067273378,,0.00928563651874,-0.0103141903501,0.0308636314023,-0.999427291508
128548000000,,556,,128,540000000,"""map""",,,-0.0352170802653,0.0250400211662,0.0366547033191,,0.0092705907112,-0.0102984399822,0.0308639685771,-0.999427544389
128576000000,,557,,128,576000000,"""map""",,,-0.0351620689034,0.0245663691312,0.0365677289665,,0.00929197402181,-0.0103208933453,0.0308545698299,-0.999427417949
128612000000,,558,,128,612000000,"""map""",,,-0.0352039113641,0.0241874773055,0.0365145951509,,0.0092132601724,-0.0102749842321,0.0308863485537,-0.99942767083
128644000000,,559,,128,644000000,"""map""",,,-0.0353579111397,0.0238985288888,0.0364381633699,,0.00921431524302,-0.0102975682751,0.0309271467031,-0.999426153543
128676000000,,560,,128,676000000,"""map""",,,-0.0356426239014,0.0236817449331,0.0363919921219,,0.00922048782186,-0.0102137849089,0.0309476300714,-0.999426322131
128712000000,,561,,128,712000000,"""map""",,,-0.0361560247838,0.0235294084996,0.0362919196486,,0.00935562609398,-0.0102257246501,0.0309555536789,-0.99942472055
128744000000,,562,,128,744000000,"""map""",,,-0.0362195447087,0.0232144612819,0.0361781641841,,0.00934315070914,-0.0102647841596,0.0310009879816,-0.999422950383
128776000000,,563,,128,776000000,"""map""",,,-0.0359847545624,0.0227734073997,0.0359699428082,,0.00931401134943,-0.010228800053,0.0310359698659,-0.999422528914
128812000000,,564,,128,812000000,"""map""",,,-0.0359071008861,0.0224574226886,0.0358164981008,,0.00924776086643,-0.0102673719103,0.0310336096424,-0.999422866089
128844000000,,565,,128,844000000,"""map""",,,-0.035986173898,0.0222212541848,0.035674918443,,0.00913668692192,-0.0102610971747,0.031048740361,-0.999423498292
128876000000,,566,,128,876000000,"""map""",,,-0.0362114459276,0.0220675133169,0.0355727747083,,0.00913199516273,-0.010305902197,0.0311015082153,-0.999421390949
128912000000,,567,,128,912000000,"""map""",,,-0.0366475470364,0.0219905786216,0.0355016663671,,0.00916335427018,-0.0103058963936,0.0310737334422,-0.999422023152
128944000000,,568,,128,944000000,"""map""",,,-0.0366653986275,0.0217995643616,0.0352994464338,,0.0091383770764,-0.0103087662482,0.0310988529639,-0.999421433096
128976000000,,569,,128,976000000,"""map""",,,-0.0364130325615,0.0214397534728,0.0350228846073,,0.00915346112067,-0.0103301273741,0.0311708397811,-0.999418819992
129012000000,,570,,129,12000000,"""map""",,,-0.036349594593,0.0211959891021,0.0348181016743,,0.00912111522544,-0.0103331087697,0.03120455726,-0.999417977055
129044000000,,571,,129,44000000,"""map""",,,-0.0364401005208,0.0210472028702,0.0347127206624,,0.0091201785282,-0.0103474139205,0.0312247034535,-0.999417218411
