rosbagTimestamp,header,seq,stamp,secs,nsecs,frame_id,pose,position,x,y,z,orientation,x,y,z,w
107040000000,,100,,107,40000000,"""map""",,,0.00180924125016,0.00661468971521,-0.00261390814558,,0.00884329036173,-0.00949181495039,0.0344995135828,-0.999320533541
107072000000,,101,,107,72000000,"""map""",,,0.00197460851632,0.00671551842242,-0.00257742591202,,0.00885607839057,-0.00940566638044,0.0344127753686,-0.999324242464
107108000000,,102,,107,108000000,"""map""",,,0.00216992152855,0.00680659431964,-0.00264298194088,,0.00885707676463,-0.00938648690961,0.0344276110593,-0.999323905289
107140000000,,103,,107,140000000,"""map""",,,0.00198621139862,0.00681275874376,-0.00307531259023,,0.00885549781156,-0.00911460525573,0.0344373891281,-0.999326096925
107172000000,,104,,107,172000000,"""map""",,,0.0015375133371,0.00675173569471,-0.00347095984034,,0.00894933891193,-0.00913519680034,0.034383441162,-0.999326939862
107208000000,,105,,107,208000000,"""map""",,,0.00106173404492,0.00667333090678,-0.00388464983553,,0.00887954317515,-0.00919440445852,0.0343106535547,-0.99932951082
107240000000,,106,,107,240000000,"""map""",,,0.000757029978558,0.00660032266751,-0.00420489860699,,0.00891151410132,-0.00918599230358,0.0343261214481,-0.999328794323
107272000000,,107,,107,272000000,"""map""",,,0.000509035307914,0.00654793018475,-0.00452033150941,,0.00895507449504,-0.00923318592851,0.0342987681434,-0.999328920764
107308000000,,108,,107,308000000,"""map""",,,0.000302143598674,0.00648952182382,-0.00475138286129,,0.00898484549154,-0.00923925028996,0.0342183519564,-0.999331280987
107340000000,,109,,107,340000000,"""map""",,,0.000377608812414,0.00641731219366,-0.00503981718794,,0.00900853851324,-0.00927012163201,0.0341987536719,-0.999331491721
107372000000,,110,,107,372000000,"""map""",,,0.000703228870407,0.00632487004623,-0.00532186590135,,0.00901694133536,-0.00929745802033,0.0342049914054,-0.999330985959
107408000000,,111,,107,408000000,"""map""",,,0.00110198603943,0.00625938782468,-0.00566789507866,,0.00895092749621,-0.00922619298843,0.0341827378694,-0.999333009008
107440000000,,112,,107,440000000,"""map""",,,0.00140497740358,0.00624104076996,-0.00597318680957,,0.00894632150216,-0.00925701827353,0.0341603578929,-0.999333472623
107472000000,,113,,107,472000000,"""map""",,,0.00170610193163,0.00624898262322,-0.00626621348783,,0.00887869427012,-0.00928130932567,0.0341291270781,-0.999334947763
107508000000,,114,,107,508000000,"""map""",,,0.0020200824365,0.00629814947024,-0.00648407684639,,0.00891495694114,-0.00928725804053,0.0341266404141,-0.999334652735
107540000000,,115,,107,540000000,"""map""",,,0.00213372544385,0.00631482573226,-0.00661691091955,,0.00892206788416,-0.0092761312931,0.0341027010041,-0.999335495672
107572000000,,116,,107,572000000,"""map""",,,0.00207168399356,0.0062786322087,-0.00661836564541,,0.00889427820113,-0.00921332237399,0.0340707958398,-0.99933739228
107608000000,,117,,107,608000000,"""map""",,,0.00204307259992,0.00625753309578,-0.00691220490262,,0.00892595818439,-0.00925470526971,0.0340662018333,-0.999336844371
107640000000,,118,,107,640000000,"""map""",,,0.00205144076608,0.00623334245756,-0.00722600659356,,0.00886345373921,-0.00924930982485,0.0340170164611,-0.999339162448
107672000000,,119,,107,672000000,"""map""",,,0.00209662760608,0.00622041523457,-0.00760661065578,,0.00888843679815,-0.00925802843965,0.0339529111045,-0.999341059056
107708000000,,120,,107,708000000,"""map""",,,0.00215462315828,0.00621865084395,-0.00808234140277,,0.00891181157822,-0.00924763357183,0.0339219331708,-0.99934194414
107740000000,,121,,107,740000000,"""map""",,,0.00219373987056,0.00619630888104,-0.00885060150176,,0.00894461181772,-0.00930779215799,0.0338845067694,-0.999342449902
107772000000,,122,,107,772000000,"""map""",,,0.00219935085624,0.00613619014621,-0.00964198634028,,0.00895034121668,-0.00925072394628,0.0338069144213,-0.999345526622
107808000000,,123,,107,808000000,"""map""",,,0.00227074185386,0.0060856109485,-0.0106482692063,,0.00896824835894,-0.00931481086362,0.0337304600381,-0.999347381083
107840000000,,124,,107,840000000,"""map""",,,0.00235608546063,0.00608981819823,-0.0114948758855,,0.00898143188492,-0.00926245052486,0.0337136012987,-0.999348308314
107872000000,,125,,107,872000000,"""map""",,,0.00244955159724,0.00612179748714,-0.012335899286,,0.00900977048537,-0.00926858277813,0.0336960682097,-0.999348561195
107908000000,,126,,107,908000000,"""map""",,,0.0025792743545,0.00614893622696,-0.0131223136559,,0.00904762307834,-0.00924657608312,0.0336530784242,-0.999349909894
107940000000,,127,,107,940000000,"""map""",,,0.00267253792845,0.00613076146692,-0.0136995920911,,0.00907440719477,-0.00926831484312,0.0336458713131,-0.999349614866
107972000000,,128,,107,972000000,"""map""",,,0.00272779888473,0.00604353519157,-0.0140267526731,,0.00905495268385,-0.00921642264204,0.0336550593261,-0.999350036335
108008000000,,129,,108,8000000,"""map""",,,0.00279612326995,0.00598498573527,-0.014347365126,,0.00908229410901,-0.00919471177243,0.0336528255431,-0.999350078482
108040000000,,130,,108,40000000,"""map""",,,0.00287982961163,0.00593869155273,-0.0146955521777,,0.0091214156555,-0.00922228102826,0.0336197824139,-0.999350584244
108072000000,,131,,108,72000000,"""map""",,,0.00297250784934,0.00593969365582,-0.0150030069053,,0.00910138705584,-0.00918338965079,0.033550197967,-0.999353408083
108108000000,,132,,108,108000000,"""map""",,,0.00315656885505,0.00597453163937,-0.0154138635844,,0.00905842585273,-0.00916110884949,0.0335208216136,-0.999354967516
108140000000,,133,,108,140000000,"""map""",,,0.00325938314199,0.00603836961091,-0.0156688243151,,0.00907312098017,-0.00917241832759,0.0335288716616,-0.999354503901
108172000000,,134,,108,172000000,"""map""",,,0.00325585319661,0.00612106360495,-0.0159142278135,,0.00908939157245,-0.00914474832988,0.0335377224998,-0.999354335313
108208000000,,135,,108,208000000,"""map""",,,0.00329264928587,0.00624357024208,-0.0162164196372,,0.00925428787083,-0.00914336204739,0.0334814564571,-0.999354714635
108240000000,,136,,108,240000000,"""map""",,,0.0033800159581,0.0063946750015,-0.0164088346064,,0.00924874982021,-0.00912544537681,0.0334626168158,-0.999355515425
108272000000,,137,,108,272000000,"""map""",,,0.00350032164715,0.00656984280795,-0.0165586862713,,0.00922296550071,-0.00921726722248,0.0334222822817,-0.999356316215
108308000000,,138,,108,308000000,"""map""",,,0.00367765268311,0.00682982243598,-0.0167755614966,,0.00919386284425,-0.00926434155857,0.0333746984898,-0.999357707061
108340000000,,139,,108,340000000,"""map""",,,0.00378777226433,0.00689700525254,-0.0167546086013,,0.00921046898681,-0.00924996129643,0.033308696525,-0.999359898697
108372000000,,140,,108,372000000,"""map""",,,0.00387453450821,0.00683459453285,-0.0166532937437,,0.00922093548871,-0.00920516091807,0.0333244594464,-0.99935973011
108408000000,,141,,108,408000000,"""map""",,,0.00395755888894,0.00678491452709,-0.0165649633855,,0.0092955051619,-0.00926947169617,0.0332908262612,-0.999359561523
108440000000,,142,,108,440000000,"""map""",,,0.00405293377116,0.00672229053453,-0.0164643339813,,0.00924427286229,-0.00921873759834,0.0332566030202,-0.999361584571
108472000000,,143,,108,472000000,"""map""",,,0.00419987132773,0.00666359160095,-0.0163122415543,,0.0092378432826,-0.00926293865683,0.033247204273,-0.999361542424
108508000000,,144,,108,508000000,"""map""",,,0.00442909030244,0.00659170141444,-0.0161837805063,,0.00913203791668,-0.00923795708347,0.0331779148541,-0.99936508276
108540000000,,145,,108,540000000,"""map""",,,0.0045766797848,0.00654892716557,-0.0156409274787,,0.00908690902429,-0.00925797962504,0.0331639642472,-0.999365799256
108572000000,,146,,108,572000000,"""map""",,,0.00467372126877,0.00653698528185,-0.014651870355,,0.00903553767532,-0.00925271482923,0.0331306682369,-0.999367400836
108608000000,,147,,108,608000000,"""map""",,,0.00475831609219,0.00655505247414,-0.0137170171365,,0.00901435327603,-0.00926782876525,0.0330345312754,-0.999370646144
108640000000,,148,,108,640000000,"""map""",,,0.00486619351432,0.00655924482271,-0.0128907030448,,0.00896093276292,-0.00928016005232,0.0329645675069,-0.999373343542
108672000000,,149,,108,672000000,"""map""",,,0.0050044786185,0.00659302901477,-0.0121070146561,,0.00897140072918,-0.00925980996718,0.0329297963569,-0.999374565801
108708000000,,150,,108,708000000,"""map""",,,0.00519384955987,0.00665921345353,-0.0111055411398,,0.00893425418854,-0.00920854690762,0.0328907683752,-0.999376673143
108740000000,,151,,108,740000000,"""map""",,,0.00539127830416,0.0067028417252,-0.0103012574837,,0.00893317332149,-0.00921115032957,0.0328773235305,-0.999377052465
108772000000,,152,,108,772000000,"""map""",,,0.00556884659454,0.0067667318508,-0.00959653034806,,0.00891909509077,-0.00912192926877,0.0328441118139,-0.999379075513
108808000000,,153,,108,808000000,"""map""",,,0.0057864068076,0.00683088740334,-0.00888480432332,,0.00895960653274,-0.00900048270676,0.0328438167859,-0.99937979201
108840000000,,154,,108,840000000,"""map""",,,0.0060619963333,0.00693992106244,-0.00815487653017,,0.00896522979028,-0.00900131055123,0.0328648902102,-0.99937911766
108872000000,,155,,108,872000000,"""map""",,,0.00624269293621,0.00701408972964,-0.00775368418545,,0.00894739968872,-0.00898522561063,0.0328793465792,-0.999378906926
108908000000,,156,,108,908000000,"""map""",,,0.00659271376207,0.00712922634557,-0.00706019764766,,0.00892575581057,-0.00901354054464,0.0328879023895,-0.999378611898
108940000000,,157,,108,940000000,"""map""",,,0.00663817487657,0.00708895456046,-0.00637271115556,,0.00891339623181,-0.00902608451586,0.0328954466754,-0.99937831687
108972000000,,158,,108,972000000,"""map""",,,0.00648169685155,0.00693870522082,-0.00554617680609,,0.00892901434282,-0.00901414503448,0.032896373906,-0.99937831687
109008000000,,159,,109,8000000,"""map""",,,0.00635871849954,0.00683004688472,-0.00476859183982,,0.00894847678457,-0.00899750643158,0.0328798523414,-0.999378738339
109040000000,,160,,109,40000000,"""map""",,,0.00627656606957,0.0067627239041,-0.00411764672026,,0.00897923778954,-0.00903733744659,0.0328841934668,-0.999378021842
109072000000,,161,,109,72000000,"""map""",,,0.00623681163415,0.00672363350168,-0.00356396730058,,0.00899899990248,-0.00905506627249,0.0328720130276,-0.999378063989
109108000000,,162,,109,108000000,"""map""",,,0.00624866504222,0.00672358414158,-0.00298590143211,,0.00902224911663,-0.00907913479833,0.0328857107534,-0.999377178905
109140000000,,163,,109,140000000,"""map""",,,0.00624002423137,0.006616698578,-0.00269536976703,,0.00897830837745,-0.00907026553633,0.0328701164194,-0.99937819043
109176000000,,164,,109,172000000,"""map""",,,0.00622218381613,0.00642944872379,-0.00246707792394,,0.00897171147472,-0.00912258781842,0.0328374526118,-0.999378822632
109208000000,,165,,109,208000000,"""map""",,,0.00623999256641,0.00627745734528,-0.00229325518012,,0.00899721999559,-0.00904949945685,0.0328382534019,-0.999379201954
109240000000,,166,,109,240000000,"""map""",,,0.00630393717438,0.00619470421225,-0.00215156469494,,0.00901664404689,-0.00902851992342,0.0328119116216,-0.999380087038
109272000000,,167,,109,272000000,"""map""",,,0.00641368562356,0.00617044372484,-0.00208196183667,,0.00898302702442,-0.00899803685767,0.0328090034891,-0.999380803534
109308000000,,168,,109,308000000,"""map""",,,0.00661435909569,0.00624490436167,-0.00191777874716,,0.00894825819409,-0.00899329038334,0.0327937041831,-0.999381688618
109344000000,,169,,109,340000000,"""map""",,,0.0067050694488,0.00629908870906,-0.00158361019567,,0.00892836110011,-0.00898601197965,0.0327594809421,-0.999383037317
109372000000,,170,,109,372000000,"""map""",,,0.00675443420187,0.00631726905704,-0.0011502483394,,0.00887705938708,-0.00893157515231,0.0327040156894,-0.999385819009
109408000000,,171,,109,408000000,"""map""",,,0.00684090284631,0.00635348912328,-0.000891479896381,,0.00884796596085,-0.00892917698016,0.0326919195439,-0.999386451212
109440000000,,172,,109,440000000,"""map""",,,0.00694932835177,0.0063944645226,-0.000718002789654,,0.0088547710048,-0.00897588262875,0.0326794440767,-0.999386366918
109472000000,,173,,109,472000000,"""map""",,,0.00706060649827,0.00646111508831,-0.000536579580512,,0.00886462088587,-0.0089952036352,0.0325989014492,-0.999388769289
109508000000,,174,,109,508000000,"""map""",,,0.00722758239135,0.00658943550661,-0.000310496368911,,0.00889511292687,-0.00894497106404,0.0326052234765,-0.999388684995
109540000000,,175,,109,540000000,"""map""",,,0.00740211876109,0.00661785108969,0.000170533996425,,0.00892821862812,-0.00899366449321,0.0326233887682,-0.999387378443
109572000000,,176,,109,572000000,"""map""",,,0.00763363949955,0.00658646412194,0.000700576463714,,0.00892861796398,-0.00894451705869,0.0326011773791,-0.999388600701
109608000000,,177,,109,608000000,"""map""",,,0.00789294671267,0.00661638984457,0.00117534492165,,0.00899244777821,-0.0089259490085,0.0325538043213,-0.999389696519
109640000000,,178,,109,640000000,"""map""",,,0.00819844938815,0.00671123620123,0.00149007176515,,0.00899861220498,-0.0088879755649,0.0325542679367,-0.999389991547
109672000000,,179,,109,672000000,"""map""",,,0.00853468198329,0.0068462411873,0.00166841875762,,0.00899333794774,-0.00888461893782,0.0325044082149,-0.999391635274
109708000000,,180,,109,708000000,"""map""",,,0.00896485708654,0.00706302421167,0.00178683898412,,0.00901088633759,-0.00867950785247,0.0325164622135,-0.99939289968
109740000000,,181,,109,740000000,"""map""",,,0.00901920907199,0.00718478020281,0.00211057788692,,0.00904037192708,-0.00867094685619,0.0325059255014,-0.999393068267
109772000000,,182,,109,772000000,"""map""",,,0.00876519363374,0.00729635730386,0.00254578632303,,0.00906617582059,-0.00864618873135,0.0324809745671,-0.99939382691
109808000000,,183,,109,808000000,"""map""",,,0.00855551753193,0.00744525808841,0.00290755042806,,0.00903513423449,-0.00868412527845,0.0324368889636,-0.999395259903
109840000000,,184,,109,840000000,"""map""",,,0.00841876398772,0.00762013252825,0.00330170197412,,0.00905770918138,-0.00868991911187,0.0324641579745,-0.999394121938
109872000000,,185,,109,872000000,"""map""",,,0.00834662932903,0.00784130394459,0.00366928824224,,0.00906021652786,-0.00874490138385,0.0323983245972,-0.999395723519
109904000000,,186,,109,904000000,"""map""",,,0.00828691478819,0.00820035208017,0.00404248945415,,0.00902430831843,-0.00878616882849,0.032344671659,-0.999397451539
109940000000,,187,,109,940000000,"""map""",,,0.0081788264215,0.00854162592441,0.0044556921348,,0.00904059002879,-0.00878612419152,0.0323387289534,-0.999397493686
109972000000,,188,,109,972000000,"""map""",,,0.00800748821348,0.00895024836063,0.00486746430397,,0.00904104199611,-0.00873465873243,0.0322336990069,-0.999401286903
110008000000,,189,,110,8000000,"""map""",,,0.0078494772315,0.00937601085752,0.00517234718427,,0.00902922920994,-0.00876853934506,0.0321980849199,-0.99940225628
110040000000,,190,,110,40000000,"""map""",,,0.00768351834267,0.00980329420418,0.0053435312584,,0.00904798806634,-0.00878383645935,0.0322022574579,-0.999401876959
110072000000,,191,,110,72000000,"""map""",,,0.00754362391308,0.0102575598285,0.00558014353737,,0.00900613543288,-0.00881133018836,0.0322268712174,-0.999401202609
110108000000,,192,,110,108000000,"""map""",,,0.00742590567097,0.0108477612957,0.00591371906921,,0.00903944576654,-0.00881647490269,0.0321929430044,-0.999401919105
110140000000,,193,,110,140000000,"""map""",,,0.00726984394714,0.0109640490264,0.00633376929909,,0.0090281897386,-0.0087920378183,0.0321914678647,-0.999402298427
110172000000,,194,,110,172000000,"""map""",,,0.00705531938002,0.0107901012525,0.00675682956353,,0.00906388912768,-0.00877931109584,0.0322055870589,-0.999401581931
110208000000,,195,,110,208000000,"""map""",,,0.00687629263848,0.0106855621561,0.00703960517421,,0.00904103947512,-0.00871941594806,0.0320943193789,-0.999405965203
110240000000,,196,,110,240000000,"""map""",,,0.0067401942797,0.0106485839933,0.00730408448726,,0.00909125459486,-0.00867096704469,0.0320764491151,-0.999406470965
110272000000,,197,,110,272000000,"""map""",,,0.00661008432508,0.0106295347214,0.00759149948135,,0.00907595740854,-0.00866561095815,0.0320451340067,-0.999407693224
110308000000,,198,,110,308000000,"""map""",,,0.00645485613495,0.0106668751687,0.00801943056285,,0.00906135369017,-0.00861729338296,0.0319343720888,-0.999411823615
110340000000,,199,,110,340000000,"""map""",,,0.00638095429167,0.010614797473,0.00835668668151,,0.00906086083134,-0.00860918301634,0.0319165861187,-0.999412413671
110372000000,,200,,110,372000000,"""map""",,,0.00638633780181,0.010524966754,0.00844516884536,,0.00909080713445,-0.00858903453842,0.0318278248557,-0.999415111069
110408000000,,201,,110,408000000,"""map""",,,0.00640458567068,0.0105128390715,0.00837808754295,,0.00909148948945,-0.00843213752359,0.0318237366114,-0.999416586209
110440000000,,202,,110,440000000,"""map""",,,0.00649225199595,0.0105896582827,0.00844794232398,,0.00904079133761,-0.00844063219209,0.0317560487727,-0.99941911502
110472000000,,203,,110,472000000,"""map""",,,0.00659994781017,0.0107409246266,0.0084597542882,,0.00903871692241,-0.00851596836672,0.0317741297707,-0.999417977055
110508000000,,204,,110,508000000,"""map""",,,0.00675091613084,0.010953293182,0.00836787745357,,0.00906244512479,-0.00851254704278,0.0317661640164,-0.999418019201
110540000000,,205,,110,540000000,"""map""",,,0.00707203708589,0.0109883695841,0.00807062722743,,0.00904655127657,-0.00851609844984,0.031765700401,-0.999418145642
110572000000,,206,,110,572000000,"""map""",,,0.00755547126755,0.0109421303496,0.00757015589625,,0.00902979913906,-0.00857174686017,0.0316990662335,-0.999419957957
110608000000,,207,,110,608000000,"""map""",,,0.00803354103118,0.0109807066619,0.00697646662593,,0.00907636189893,-0.00856306226331,0.0316567507976,-0.999420969481
110640000000,,208,,110,640000000,"""map""",,,0.00853261724114,0.0110632143915,0.00658196164295,,0.00909591052511,-0.00858197658766,0.0316457083233,-0.999420969481
110672000000,,209,,110,672000000,"""map""",,,0.00900841224939,0.0111800106242,0.00625184038654,,0.00911477235111,-0.00862576868614,0.0316378268626,-0.999420590159
110708000000,,210,,110,708000000,"""map""",,,0.00953849684447,0.0113664483652,0.00589410727844,,0.00911464134192,-0.00859941303523,0.0316250142207,-0.999421264509
110740000000,,211,,110,740000000,"""map""",,,0.00980755966157,0.0114645613357,0.00561521481723,,0.00912723828996,-0.00863716576609,0.0315786526873,-0.999422276033
110772000000,,212,,110,772000000,"""map""",,,0.00996321067214,0.0115198753774,0.00545010855421,,0.00909468250424,-0.00866824509502,0.0315399197336,-0.999423582585
110808000000,,213,,110,808000000,"""map""",,,0.0101228011772,0.0116372331977,0.00528387306258,,0.00914802845776,-0.00862100516618,0.0315302681052,-0.99942379332
110840000000,,214,,110,840000000,"""map""",,,0.0103036304936,0.0117863891646,0.00512802321464,,0.00910021796184,-0.00860458386497,0.0315429543066,-0.99942391976
110872000000,,215,,110,872000000,"""map""",,,0.0105281993747,0.0119994040579,0.00501532573253,,0.00917297214808,-0.00860436177083,0.031506960898,-0.999424425522
110908000000,,216,,110,908000000,"""map""",,,0.0108164390549,0.0123072164133,0.00485355546698,,0.00908433886913,-0.00862686796156,0.0315349042586,-0.999424130495
110940000000,,217,,110,940000000,"""map""",,,0.0109066665173,0.0123446378857,0.0048016551882,,0.00911108888531,-0.00864345544237,0.0315168232606,-0.999424341229
110972000000,,218,,110,972000000,"""map""",,,0.0108824549243,0.0121966470033,0.00487075559795,,0.00907288900272,-0.00858237315493,0.0314984893815,-0.999425816368
111008000000,,219,,111,8000000,"""map""",,,0.010921753943,0.0121388779953,0.00499564269558,,0.0091367839955,-0.00859982157978,0.0315134093658,-0.999424551963
111040000000,,220,,111,40000000,"""map""",,,0.0110140787438,0.012148367241,0.00513905426487,,0.0091473728767,-0.00858109572264,0.0314912401235,-0.999425310606
111072000000,,221,,111,72000000,"""map""",,,0.0111438725144,0.0122120929882,0.00524653494358,,0.0091533280741,-0.00856477635177,0.0314843280404,-0.999425647781
111108000000,,222,,111,108000000,"""map""",,,0.0113091142848,0.0123830027878,0.00535791739821,,0.00907331549261,-0.00847719330725,0.0314630438819,-0.99942779727
111140000000,,223,,111,140000000,"""map""",,,0.011355263181,0.0124059114605,0.00550514226779,,0.00901320293254,-0.00847889692073,0.0314530972256,-0.999428640207
111172000000,,224,,111,172000000,"""map""",,,0.0113190077245,0.0123348208144,0.00565940281376,,0.00901560676405,-0.00847418686635,0.0314554153023,-0.99942859806
111208000000,,225,,111,208000000,"""map""",,,0.011312102899,0.0123176230118,0.00577545678243,,0.00896280950158,-0.00839517907972,0.0314214449424,-0.999430789697
111240000000,,226,,111,240000000,"""map""",,,0.0113396346569,0.0123382238671,0.0058584860526,,0.00896314486537,-0.00844307683278,0.0314269661795,-0.999430241788
111272000000,,227,,111,272000000,"""map""",,,0.0113668292761,0.0123930815607,0.00590295530856,,0.00893312455833,-0.00838136320695,0.0313720066891,-0.999432770598
111308000000,,228,,111,308000000,"""map""",,,0.0114335427061,0.012554705143,0.00591373350471,,0.00888441811261,-0.00834694684779,0.0313724281576,-0.999433444948
111340000000,,229,,111,340000000,"""map""",,,0.0114135602489,0.0125839486718,0.0056865978986,,0.00885850156683,-0.00832264805775,0.0313952717495,-0.999433192067
111372000000,,230,,111,372000000,"""map""",,,0.011386862956,0.0125108091161,0.00544158229604,,0.00909125060243,-0.00831084070457,0.0313386685319,-0.999432981333
111408000000,,231,,111,404000000,"""map""",,,0.0113841146231,0.0125045590103,0.00530233280733,,0.00909465404277,-0.00834627426805,0.0313424196014,-0.999432517717
111440000000,,232,,111,440000000,"""map""",,,0.0113606890664,0.0125288609415,0.00527174118906,,0.00902102436276,-0.00832563330174,0.0313249708061,-0.999433866417
111472000000,,233,,111,472000000,"""map""",,,0.011372692883,0.0125950509682,0.00524303410202,,0.00903257599487,-0.00839418307231,0.0312800001188,-0.999434582913
111508000000,,234,,111,508000000,"""map""",,,0.0113891446963,0.0127334073186,0.00514481728896,,0.00902197737956,-0.00841885873503,0.0312556813872,-0.999435299409
111540000000,,235,,111,540000000,"""map""",,,0.0112425843254,0.0126699795946,0.00519126420841,,0.00903203520635,-0.00842095632276,0.0312546698628,-0.999435215116
111572000000,,236,,111,572000000,"""map""",,,0.0109141524881,0.0124354669824,0.00518849259242,,0.00893021951271,-0.00842019185548,0.0312905789778,-0.999434962235
111608000000,,237,,111,608000000,"""map""",,,0.0105527434498,0.0122333625332,0.00510106422007,,0.00893079407222,-0.00840860906599,0.031284383391,-0.999435257263
111644000000,,238,,111,640000000,"""map""",,,0.0103516317904,0.0121674509719,0.00503205601126,,0.00893177157864,-0.00845362562509,0.0312725401266,-0.999435299409
111672000000,,239,,111,672000000,"""map""",,,0.0100800553337,0.0121357813478,0.00487433001399,,0.00895056184967,-0.00846630456192,0.0312670610363,-0.999435215116
111708000000,,240,,111,708000000,"""map""",,,0.00973571557552,0.0122036673129,0.00465626688674,,0.00893741267089,-0.00846584162571,0.0312206573561,-0.999436690255
111740000000,,241,,111,740000000,"""map""",,,0.00934007577598,0.0122406277806,0.00438653305173,,0.00890738639579,-0.008521349622,0.0312129444828,-0.999436732402
111772000000,,242,,111,772000000,"""map""",,,0.00882729981095,0.0122272484004,0.00394659303129,,0.00890136419148,-0.00854436622589,0.031205653078,-0.999436858843
111808000000,,243,,111,808000000,"""map""",,,0.0083364136517,0.0122724007815,0.00358785898425,,0.00891779882822,-0.00850169517595,0.0311578585518,-0.999438544717
111840000000,,244,,111,840000000,"""map""",,,0.00789154041559,0.0123634003103,0.0032749529928,,0.00891597622398,-0.00851966265735,0.0311337505545,-0.999439134773
111872000000,,245,,111,872000000,"""map""",,,0.00745474128053,0.0124861309305,0.00304781715386,,0.00889795959869,-0.00847189858882,0.0311011710406,-0.9994407785
111908000000,,246,,111,908000000,"""map""",,,0.00697059649974,0.0126661546528,0.00278927828185,,0.00894878653715,-0.00842415758993,0.0310921937618,-0.999440989234
111940000000,,247,,111,940000000,"""map""",,,0.0066152443178,0.0127393091097,0.00255131395534,,0.00894664007306,-0.00820300873352,0.0310094594982,-0.999445414653
111972000000,,248,,111,972000000,"""map""",,,0.00631356239319,0.0127601278946,0.00249022222124,,0.00901020925094,-0.00821168847361,0.0310296899855,-0.999444150248
112008000000,,249,,112,8000000,"""map""",,,0.00600654119626,0.0128179211169,0.00240218266845,,0.00904112832718,-0.0082269544408,0.0310464222843,-0.99944318087
112040000000,,250,,112,40000000,"""map""",,,0.00572513137013,0.0129211815074,0.00232351478189,,0.00907679666178,-0.00819335657014,0.0310267818529,-0.999443770926
112072000000,,251,,112,72000000,"""map""",,,0.0053761061281,0.0131074413657,0.00238636974245,,0.0090634064763,-0.00818224231448,0.0310993165792,-0.99944170573
112108000000,,252,,112,108000000,"""map""",,,0.00506785698235,0.0132982842624,0.00246234657243,,0.00904640866052,-0.00828049530291,0.0310928259645,-0.999441284262
112140000000,,253,,112,140000000,"""map""",,,0.00473738880828,0.0135476058349,0.00255459989421,,0.00904471200292,-0.00833674578756,0.0311034891172,-0.999440567765
112172000000,,254,,112,172000000,"""map""",,,0.0044121844694,0.0138415917754,0.00264426553622,,0.00901356004888,-0.00838703109374,0.0311158381438,-0.999440019856
112208000000,,255,,112,208000000,"""map""",,,0.0041065835394,0.0141675565392,0.00268313521519,,0.00899357371697,-0.00841040234442,0.0310583498425,-0.999441790024
112240000000,,256,,112,240000000,"""map""",,,0.00382863287814,0.0143063580617,0.00280297198333,,0.00898490344345,-0.00843336171667,0.0310715839529,-0.999441284262
112272000000,,257,,112,272000000,"""map""",,,0.00358133530244,0.0142710274085,0.00298023293726,,0.00896648352139,-0.00840759988769,0.0310631545832,-0.999441874318
112308000000,,258,,112,308000000,"""map""",,,0.00326526444405,0.0142811117694,0.00306381029077,,0.00897885728459,-0.00839651818882,0.0310705724285,-0.999441621437
112340000000,,259,,112,340000000,"""map""",,,0.00299279857427,0.014334875159,0.00312992720865,,0.00905390917378,-0.00837654959645,0.0310620166183,-0.999441410702
112372000000,,260,,112,372000000,"""map""",,,0.00269517838024,0.0144271049649,0.00314880185761,,0.00902655187667,-0.008421565106,0.0310290999296,-0.999442295786
112408000000,,261,,112,408000000,"""map""",,,0.00239352672361,0.0145422182977,0.00323436991312,,0.00911037298569,-0.00842476670244,0.0309894397452,-0.999442759402
112440000000,,262,,112,440000000,"""map""",,,0.00223510968499,0.0143301971257,0.00358625943772,,0.009067787279,-0.00840025989466,0.0309762477816,-0.999443728779
112472000000,,263,,112,472000000,"""map""",,,0.0022266022861,0.013858939521,0.00412023300305,,0.00906910502656,-0.00848312125737,0.0309976583806,-0.99944238008
112508000000,,264,,112,508000000,"""map""",,,0.0021656723693,0.013402055949,0.00458004558459,,0.00904619535384,-0.00848593742006,0.0309058625446,-0.999445330359
112540000000,,265,,112,540000000,"""map""",,,0.00210606330074,0.0131363971159,0.00490884482861,,0.0090478514698,-0.008504150909,0.0308866014348,-0.999445793975
112572000000,,266,,112,572000000,"""map""",,,0.00200135400519,0.0129326926544,0.0052060787566,,0.00909307789881,-0.00855916549082,0.0308621141158,-0.999445667534
112608000000,,267,,112,608000000,"""map""",,,0.00187902757898,0.0128173530102,0.00546323182061,,0.00912731033884,-0.00856883162769,0.0308540219209,-0.999445498947
112640000000,,268,,112,640000000,"""map""",,,0.0018934099935,0.0127127626911,0.0058928844519,,0.00906379703435,-0.00855702192845,0.0308412092789,-0.999446594765
112672000000,,269,,112,672000000,"""map""",,,0.00206091045402,0.0126134259626,0.00661021843553,,0.00910638144453,-0.00857236045901,0.0307533752466,-0.999448786401
112708000000,,270,,112,708000000,"""map""",,,0.00212405342609,0.0126069439575,0.00720435380936,,0.00907070189409,-0.00863715162797,0.0307522794286,-0.999448617814
112740000000,,271,,112,740000000,"""map""",,,0.0021772228647,0.0126465465873,0.00777566991746,,0.00911056723574,-0.00863356550327,0.0307421220381,-0.999448575667
112772000000,,272,,112,772000000,"""map""",,,0.00220984616317,0.0127168744802,0.00822816602886,,0.00905468244909,-0.00862809633229,0.0307060021889,-0.999450219394
112808000000,,273,,112,808000000,"""map""",,,0.00221655261703,0.0128126535565,0.00866958126426,,0.00905349783041,-0.00862817723036,0.0306752771364,-0.999451188771
112840000000,,274,,112,840000000,"""map""",,,0.002315022517,0.0128604890779,0.00884031597525,,0.00905071957519,-0.0086277760327,0.0306636446062,-0.99945161024
112872000000,,275,,112,872000000,"""map""",,,0.00248453440145,0.0128542277962,0.00900644436479,,0.00926069873473,-0.00867718306688,0.0305911941736,-0.999451399506
112908000000,,276,,112,908000000,"""map""",,,0.00258317566477,0.01292395778,0.00931600481272,,0.00920937381315,-0.00865700190869,0.0306022366479,-0.99945173668
112940000000,,277,,112,940000000,"""map""",,,0.00260765757412,0.0130211524665,0.009446981363,,0.00919605942203,-0.00866558531607,0.0305973476135,-0.999451905268
112972000000,,278,,112,972000000,"""map""",,,0.00259683467448,0.0131510887295,0.00948232878,,0.0091867121236,-0.00870568664302,0.0306249537992,-0.999450851596
113008000000,,279,,113,8000000,"""map""",,,0.002539195586,0.0132978754118,0.00958585273474,,0.00916863034356,-0.00869411416386,0.03060581913,-0.999451694533
113040000000,,280,,113,40000000,"""map""",,,0.00248522730544,0.0133033934981,0.0098725091666,,0.00920828993121,-0.00871004495232,0.0305499324089,-0.999452874645
113072000000,,281,,113,72000000,"""map""",,,0.00244708638638,0.013198393397,0.0102900434285,,0.00914207910493,-0.0086902432804,0.0305136861192,-0.9994548134
113108000000,,282,,113,108000000,"""map""",,,0.00231686839834,0.0131875267252,0.0107914935797,,0.00913826471224,-0.00874671884322,0.0304685468444,-0.999455698484
113140000000,,283,,113,140000000,"""map""",,,0.00215442711487,0.0132334344089,0.0111134601757,,0.00913825043006,-0.00876859812016,0.0304646693343,-0.99945561419
113172000000,,284,,113,172000000,"""map""",,,0.00198385026306,0.0133601631969,0.011365131475,,0.0091439850768,-0.00872927638642,0.0304417414488,-0.999456625715
113208000000,,285,,113,208000000,"""map""",,,0.00180329626892,0.0135197658092,0.0115748317912,,0.00907469026601,-0.00873375592964,0.0304090776412,-0.999458185148
113240000000,,286,,113,240000000,"""map""",,,0.00170157453977,0.013545403257,0.0120463883504,,0.00908488031619,-0.00873897318677,0.0303822722455,-0.999458859498
113272000000,,287,,113,272000000,"""map""",,,0.00164275174029,0.0134745491669,0.0125148370862,,0.00905263703042,-0.00875068700605,0.0303306845029,-0.999460629665
113308000000,,288,,113,308000000,"""map""",,,0.00147907156497,0.0134575841948,0.0130531825125,,0.00900662287929,-0.00873784176615,0.0302536822107,-0.999463537798
113340000000,,289,,113,340000000,"""map""",,,0.00125623110216,0.0135108176619,0.0134208844975,,0.00899837816958,-0.00874907099956,0.0302524178052,-0.999463537798
113372000000,,290,,113,372000000,"""map""",,,0.00100020936225,0.0135992178693,0.0137070324272,,0.00897990725149,-0.00870022286388,0.0302186581796,-0.999465181525
113408000000,,291,,113,408000000,"""map""",,,0.000695816648658,0.0137398159131,0.0139132672921,,0.0090079748403,-0.00871082369149,0.0302180681237,-0.99946484435
113440000000,,292,,113,440000000,"""map""",,,0.000438430230133,0.0137178916484,0.0141570521519,,0.00894003564338,-0.00870968025243,0.0301854886098,-0.999466403784
113472000000,,293,,113,472000000,"""map""",,,0.000231721205637,0.0135698011145,0.0143699040636,,0.00899785115905,-0.0087324020959,0.0302358119469,-0.999464212147
113508000000,,294,,113,508000000,"""map""",,,-9.05836423044e-05,0.0134961176664,0.01479894761,,0.00897971720995,-0.00866814949288,0.0301088234924,-0.99946872186
113536000000,,295,,113,540000000,"""map""",,,-0.000361617683666,0.0134906163439,0.0150664560497,,0.00897332620013,-0.00866476375093,0.0300982867802,-0.999469143329
113572000000,,296,,113,572000000,"""map""",,,-0.000668175751343,0.0135396961123,0.0151477828622,,0.00912099897175,-0.00862543603885,0.0300921754872,-0.999468342539
113608000000,,297,,113,608000000,"""map""",,,-0.000969554821495,0.0136338751763,0.0152101479471,,0.00912406844771,-0.00861834680722,0.0300847997887,-0.999468553273
113640000000,,298,,113,640000000,"""map""",,,-0.00120437180158,0.0136110559106,0.0151652507484,,0.00908631120993,-0.00863407177994,0.0300769604749,-0.999469059035
113672000000,,299,,113,672000000,"""map""",,,-0.00140318355989,0.0134981060401,0.0150041654706,,0.00910587387135,-0.00864994144723,0.0300528103307,-0.999469438357
113708000000,,300,,113,708000000,"""map""",,,-0.00161373300944,0.0134869562462,0.0147591736168,,0.00909278192421,-0.00868829911296,0.030090573907,-0.999468089658
113740000000,,301,,113,740000000,"""map""",,,-0.00183998525608,0.0135717187077,0.0144248194993,,0.0090917596985,-0.00870902499035,0.0301174214495,-0.99946712028
113772000000,,302,,113,772000000,"""map""",,,-0.00209028576501,0.01368693728,0.0140591626987,,0.00914141512743,-0.00871849500443,0.0300720714405,-0.999467963217
113808000000,,303,,113,808000000,"""map""",,,-0.00234942487441,0.0138446632773,0.0136542804539,,0.00911040801202,-0.00863984655673,0.0300278172495,-0.999470239147
113840000000,,304,,113,840000000,"""map""",,,-0.00247738603503,0.0138854524121,0.0134020522237,,0.00910167357158,-0.00870936465526,0.0300363309129,-0.999469480504
113872000000,,305,,113,872000000,"""map""",,,-0.00252433051355,0.013807692565,0.0132780661806,,0.00906555588325,-0.0086366868396,0.0299690645427,-0.999472430783
113908000000,,306,,113,908000000,"""map""",,,-0.00261596287601,0.0138189634308,0.0129775395617,,0.00908806254731,-0.00863202146335,0.0299360635603,-0.999473231573
113940000000,,307,,113,940000000,"""map""",,,-0.0027403505519,0.0139015782624,0.0126892048866,,0.00908650085017,-0.0086059308766,0.02990276755,-0.999474495978
113972000000,,308,,113,972000000,"""map""",,,-0.00292273215018,0.0140452440828,0.0122776627541,,0.00911388617658,-0.00862704471903,0.0299136414369,-0.999473737335
114008000000,,309,,114,8000000,"""map""",,,-0.00315553392284,0.0142228724435,0.0118423355743,,0.00910881157666,-0.00861621415199,0.0298832535591,-0.999474791006
114040000000,,310,,114,40000000,"""map""",,,-0.00326184695587,0.0143474023789,0.0113499676809,,0.00912415317357,-0.00868887517477,0.0299095110458,-0.999473231573
114072000000,,311,,114,72000000,"""map""",,,-0.0032363482751,0.0144257517532,0.010642346926,,0.00914272377885,-0.00863655679764,0.0299148636955,-0.999473358014
114108000000,,312,,114,108000000,"""map""",,,-0.00321959960274,0.0145989879966,0.00986191816628,,0.00911608674421,-0.00866492843851,0.0298529921219,-0.999475212475
114140000000,,313,,114,140000000,"""map""",,,-0.00323798041791,0.0147794904187,0.00925792939961,,0.00905276307996,-0.00862021655914,0.029873559784,-0.99947554965
114172000000,,314,,114,172000000,"""map""",,,-0.00327481119893,0.0150292711332,0.00857455190271,,0.00908389418695,-0.00864592179445,0.029867153463,-0.999475212475
114208000000,,315,,114,208000000,"""map""",,,-0.00335184996948,0.0153219923377,0.00782485958189,,0.00929927744504,-0.00858012692135,0.0298294741804,-0.999474959594
114240000000,,316,,114,240000000,"""map""",,,-0.00337824551389,0.0154072297737,0.00737159093842,,0.00929715049034,-0.00862210503841,0.0298223935099,-0.999474791006
114272000000,,317,,114,272000000,"""map""",,,-0.00334718544036,0.0153443841264,0.0069866264239,,0.00930646344155,-0.00870987471856,0.0298572489536,-0.999472894398
114308000000,,318,,114,308000000,"""map""",,,-0.00339141883887,0.0153275812045,0.00647918786854,,0.00925184388354,-0.00872742612331,0.0298075156724,-0.99947474886
114340000000,,319,,114,340000000,"""map""",,,-0.00347019173205,0.0153898512945,0.00607606070116,,0.00925211010015,-0.00873686685274,0.0298277461596,-0.99947407451
114372000000,,320,,114,372000000,"""map""",,,-0.00359754660167,0.0154838813469,0.00562218949199,,0.00922013035567,-0.00874501518857,0.0298070099102,-0.999474917447
114408000000,,321,,114,408000000,"""map""",,,-0.00374904740602,0.0156141947955,0.00518658291548,,0.00922344993447,-0.00873332419198,0.0298355854735,-0.999474158804
114440000000,,322,,114,440000000,"""map""",,,-0.00383557775058,0.0155858220533,0.00498339673504,,0.009190356015,-0.00867093706034,0.0298220563351,-0.999475381062
114472000000,,323,,114,472000000,"""map""",,,-0.00385672017001,0.0154354991391,0.00493926228955,,0.00917332751517,-0.0087126148811,0.0297723652007,-0.999476687615
114508000000,,324,,114,508000000,"""map""",,,-0.00390606955625,0.015339451842,0.00484473956749,,0.00913465755528,-0.00867953114848,0.02974669777,-0.999478078461
114540000000,,325,,114,540000000,"""map""",,,-0.0039829867892,0.0153216458857,0.0047108149156,,0.00916082068482,-0.00867283854586,0.0296892094686,-0.999479595747
114572000000,,326,,114,572000000,"""map""",,,-0.00411868374795,0.0153597714379,0.0045589087531,,0.00914209071178,-0.00859141048469,0.0296741208968,-0.999480944446
114608000000,,327,,114,608000000,"""map""",,,-0.0042748930864,0.0154732316732,0.00443683331832,,0.00915637513896,-0.0086270806097,0.0296877764757,-0.999480101509
114640000000,,328,,114,640000000,"""map""",,,-0.00437301769853,0.0154711017385,0.0049065486528,,0.00915484603977,-0.00866351256781,0.0296815387422,-0.999479932922
114672000000,,329,,114,672000000,"""map""",,,-0.00437347125262,0.0153111312538,0.00583502557129,,0.0091296943317,-0.00866190761253,0.0296558291646,-0.999480944446
114708000000,,330,,114,708000000,"""map""",,,-0.00440958328545,0.0151773262769,0.00688639795408,,0.0091238068409,-0.00869781419618,0.0296150731621,-0.999481913824
114740000000,,331,,114,740000000,"""map""",,,-0.00448260782287,0.01512407884,0.00764944730327,,0.009126616768,-0.00871552188177,0.0296427636415,-0.999480944446
114772000000,,332,,114,772000000,"""map""",,,-0.00457191979513,0.0151017671451,0.00830960460007,,0.00910658740432,-0.0086412726966,0.0295543395534,-0.999484316194
114808000000,,333,,114,808000000,"""map""",,,-0.00464939465746,0.0151469511911,0.00880250707269,,0.00914605195989,-0.0086435519603,0.0295411897366,-0.999484400488
114840000000,,334,,114,840000000,"""map""",,,-0.00465413648635,0.0150473434478,0.00906960293651,,0.0091064930884,-0.00865210655636,0.0294747241565,-0.999486634271
114872000000,,335,,114,872000000,"""map""",,,-0.00458446564153,0.0148514928296,0.0090689631179,,0.0090715161638,-0.00862432155517,0.0294845022254,-0.999486887152
114908000000,,336,,114,908000000,"""map""",,,-0.00453886762261,0.014692120254,0.0089607629925,,0.00906923681778,-0.00860157357571,0.0294140326947,-0.999489163082
114940000000,,337,,114,940000000,"""map""",,,-0.00454781902954,0.0146078560501,0.00883968826383,,0.00911594307861,-0.00859124267932,0.0294220405959,-0.999488573026
114972000000,,338,,114,972000000,"""map""",,,-0.00459707947448,0.0145853124559,0.00875481776893,,0.0091082400835,-0.00857733092659,0.0294029059267,-0.999489331669
115008000000,,339,,115,8000000,"""map""",,,-0.00468039093539,0.0146452626213,0.00849120412022,,0.00929695763969,-0.00856947076571,0.0293611383998,-0.999488952348
115040000000,,340,,115,40000000,"""map""",,,-0.00472971657291,0.0145230134949,0.00821475032717,,0.00929541026589,-0.0085591840947,0.0293208038658,-0.9994902589
115072000000,,341,,115,72000000,"""map""",,,-0.00476413918659,0.0142367789522,0.00774438865483,,0.00924402840079,-0.00844120806869,0.0293129224051,-0.999491902627
115108000000,,342,,115,108000000,"""map""",,,-0.00485371286049,0.0140090538189,0.00714359479025,,0.00922908870124,-0.00847926663173,0.029296527281,-0.999492197655
115136000000,,343,,115,136000000,"""map""",,,-0.004963260144,0.0139324218035,0.00671229558066,,0.00915035023874,-0.00847475058045,0.0293088341608,-0.999492619123
115172000000,,344,,115,172000000,"""map""",,,-0.00510264188051,0.0139259221032,0.00623377785087,,0.00918069475547,-0.00856222362746,0.0292800900101,-0.999492450536
115208000000,,345,,115,208000000,"""map""",,,-0.00528294406831,0.0139880562201,0.00576733984053,,0.00908143509944,-0.00852714020386,0.0292897416384,-0.99949333562
115240000000,,346,,115,240000000,"""map""",,,-0.00541149871424,0.013810755685,0.00508615933359,,0.00912610882439,-0.00854653495701,0.0292971173369,-0.99949253483
115272000000,,347,,115,272000000,"""map""",,,-0.00551369972527,0.0134038021788,0.00422787293792,,0.0091515030209,-0.00858563334125,0.0293394327728,-0.999490764662
115308000000,,348,,115,308000000,"""map""",,,-0.00569998053834,0.0129994843155,0.00335726235062,,0.00915384058637,-0.00854495663162,0.0293550271067,-0.999490680368
115340000000,,349,,115,340000000,"""map""",,,-0.00588656496257,0.0128036942333,0.00273030414246,,0.0091550114785,-0.00856108306953,0.0293217732433,-0.999491481158
115372000000,,350,,115,372000000,"""map""",,,-0.00610307045281,0.0127082532272,0.00223638210446,,0.00908800397801,-0.00853155321351,0.0293405707377,-0.999491818333
115408000000,,351,,115,408000000,"""map""",,,-0.00634442642331,0.012682669796,0.00183550326619,,0.00904389621033,-0.00857262113974,0.0293143975448,-0.999492619123
115440000000,,352,,115,440000000,"""map""",,,-0.00647163251415,0.0125532057136,0.00175296352245,,0.00904553862033,-0.00852976833152,0.0292646221167,-0.999494431438
115472000000,,353,,115,472000000,"""map""",,,-0.0065064560622,0.012383592315,0.00185395462904,,0.00906275213001,-0.00854056271976,0.0292988453577,-0.999493167032
115508000000,,354,,115,508000000,"""map""",,,-0.00663567427546,0.0123159103096,0.00189553573728,,0.00899915461414,-0.00850508089732,0.0292953471693,-0.99949413641
115540000000,,355,,115,540000000,"""map""",,,-0.0067618326284,0.012341667898,0.00180959270801,,0.00898865778511,-0.00853911805833,0.0292978759802,-0.999493883529
115572000000,,356,,115,572000000,"""map""",,,-0.00693132169545,0.0124443527311,0.00168212596327,,0.00901295289142,-0.00851410118724,0.0293178957332,-0.999493251326
115608000000,,357,,115,608000000,"""map""",,,-0.00720822345465,0.0126857031137,0.00131012767088,,0.00902490230499,-0.008523744131,0.0293500959255,-0.999492071214
115640000000,,358,,115,640000000,"""map""",,,-0.00727757439017,0.0127157317474,0.00144868169446,,0.0089786660803,-0.0084773244605,0.0293337850951,-0.99949346206
115672000000,,359,,115,672000000,"""map""",,,-0.00730814272538,0.012722033076,0.0016586871352,,0.00919657549454,-0.00849840084821,0.0293147768664,-0.999491818333
115712000000,,360,,115,712000000,"""map""",,,-0.00739370565861,0.0127845229581,0.0021594199352,,0.00915500429625,-0.00846311858533,0.0293483257578,-0.999491565452
115740000000,,361,,115,740000000,"""map""",,,-0.00750872818753,0.0128781134263,0.00255153235048,,0.00915447482647,-0.00850215051832,0.0293359345844,-0.999491565452
115776000000,,362,,115,772000000,"""map""",,,-0.00764443352818,0.0130106825382,0.00289302808233,,0.00916142683388,-0.00854694693834,0.0293282217111,-0.999491354718
115808000000,,363,,115,808000000,"""map""",,,-0.00783542729914,0.0132162515074,0.00314600695856,,0.00911436209846,-0.00861131558925,0.0293314248716,-0.999491101837
115840000000,,364,,115,840000000,"""map""",,,-0.0078503433615,0.0132864266634,0.00360221718438,,0.00910446040846,-0.00863111125194,0.029337704752,-0.999490891103
115872000000,,365,,115,872000000,"""map""",,,-0.00770504865795,0.0132311731577,0.00411536172032,,0.00905465186793,-0.00860896063409,0.0293865529494,-0.999490090312
115908000000,,366,,115,908000000,"""map""",,,-0.007596175652,0.0132871223614,0.00465798098594,,0.00909287014859,-0.00868793429988,0.0293777021112,-0.999489331669
115940000000,,367,,115,940000000,"""map""",,,-0.00758235342801,0.013424506411,0.00500854756683,,0.0090457040179,-0.00865745539891,0.0293752154472,-0.999490048166
115972000000,,368,,115,972000000,"""map""",,,-0.00762232067063,0.0136373089626,0.00529527338222,,0.00906393654289,-0.00867825348982,0.0293533412328,-0.999490343194
116008000000,,369,,116,8000000,"""map""",,,-0.00773354014382,0.0139059927315,0.00552640901878,,0.0090714006304,-0.00846123263733,0.0293675447208,-0.99949173404
116040000000,,370,,116,40000000,"""map""",,,-0.00795315392315,0.0140298344195,0.00579901831225,,0.00910721641722,-0.00847655809991,0.0293910626622,-0.999490553928
116072000000,,371,,116,72000000,"""map""",,,-0.00828424282372,0.0140069099143,0.00594071671367,,0.00913575549303,-0.00858102920964,0.029400292822,-0.999489163082
116108000000,,372,,116,108000000,"""map""",,,-0.00864250771701,0.0140678035095,0.00610439572483,,0.00909352589429,-0.00864794500782,0.0293405707377,-0.999490722515
116140000000,,373,,116,140000000,"""map""",,,-0.0090040108189,0.0141911236569,0.00602209754288,,0.009058569755,-0.0086708392459,0.0293539734355,-0.999490469634
116172000000,,374,,116,172000000,"""map""",,,-0.0093715377152,0.0143567826599,0.0058790743351,,0.00908832444223,-0.00872646090286,0.0293694413289,-0.999489247375
116208000000,,375,,116,208000000,"""map""",,,-0.00986844766885,0.0146596236154,0.0055489432998,,0.00906574625406,-0.00875991561212,0.0293582302672,-0.999489500257
116240000000,,376,,116,240000000,"""map""",,,-0.0101546393707,0.014809306711,0.00508751440793,,0.0090953601877,-0.00877382093375,0.0293821696772,-0.999488404439
116272000000,,377,,116,272000000,"""map""",,,-0.0103431204334,0.0148678561673,0.00457183597609,,0.00906105606921,-0.00885308520289,0.0294009671716,-0.999487392914
116308000000,,378,,116,308000000,"""map""",,,-0.0105667440221,0.0149956308305,0.00406808406115,,0.00905580863737,-0.00890163061904,0.0294646089129,-0.999485201278
116340000000,,379,,116,340000000,"""map""",,,-0.0108138080686,0.0151761621237,0.00352086522616,,0.00901823217521,-0.00890950013845,0.0294753985061,-0.999485116984
116372000000,,380,,116,372000000,"""map""",,,-0.0110702412203,0.0154138738289,0.00295370491222,,0.00901626812859,-0.00900571639213,0.0295126563202,-0.999483178229
116408000000,,381,,116,408000000,"""map""",,,-0.0114775989205,0.0157620310783,0.00217041396536,,0.00902271832734,-0.00901471037918,0.0295336454507,-0.999482419586
116440000000,,382,,116,440000000,"""map""",,,-0.0116062518209,0.0159411653876,0.00159666698892,,0.00900892190479,-0.00901783706361,0.0295652555871,-0.999481576649
116472000000,,383,,116,472000000,"""map""",,,-0.011617812328,0.0160266608,0.00117456971202,,0.00897886057216,-0.00906683550212,0.0295762137677,-0.999481070887
116508000000,,384,,116,508000000,"""map""",,,-0.0116929402575,0.0161585491151,0.000806049152743,,0.00898696226195,-0.00902071998915,0.0295528222668,-0.999482124558
116540000000,,385,,116,540000000,"""map""",,,-0.0118049131706,0.0163332149386,0.00048403639812,,0.00897819417143,-0.00903783974112,0.0295404310933,-0.999482377439
116572000000,,386,,116,572000000,"""map""",,,-0.0119517659768,0.0165583025664,0.000136194052175,,0.00892927707893,-0.00899290238743,0.0295338983318,-0.99948343111
116608000000,,387,,116,608000000,"""map""",,,-0.0121798096225,0.0169434491545,-0.000402580248192,,0.00893818833857,-0.00900916069888,0.0295013188179,-0.999484231901
116640000000,,388,,116,640000000,"""map""",,,-0.0124992663041,0.0171498972923,-0.000808967277408,,0.00892019141817,-0.00899692384092,0.0294975677484,-0.999484611222
116672000000,,389,,116,672000000,"""map""",,,-0.0129253277555,0.0172570049763,-0.00114692596253,,0.00888796929329,-0.00906785652907,0.0294675591923,-0.999485116984
116708000000,,390,,116,708000000,"""map""",,,-0.0133874248713,0.017380816862,-0.00141689146403,,0.00891104646784,-0.00901652516096,0.0294753142124,-0.999485116984
116740000000,,391,,116,740000000,"""map""",,,-0.0138549208641,0.0175332836807,-0.00158512499183,,0.00893546930091,-0.00905689125367,0.0294801189531,-0.999484442635
116772000000,,392,,116,772000000,"""map""",,,-0.0143554573879,0.0177420638502,-0.00170078582596,,0.00899315446592,-0.00904734042383,0.0295097060408,-0.999483178229
116808000000,,393,,116,808000000,"""map""",,,-0.0150603214279,0.0180714279413,-0.00186676660087,,0.00898936363678,-0.00906076575912,0.0294788966945,-0.999483979019
116840000000,,394,,116,840000000,"""map""",,,-0.0154225211591,0.0180782414973,-0.00189334584866,,0.00896952900163,-0.00905960731245,0.0294858087777,-0.999483894726
116872000000,,395,,116,872000000,"""map""",,,-0.0156138418242,0.01787250489,-0.00185791263357,,0.0089918295001,-0.00909493209261,0.0294844600785,-0.999483473257
116908000000,,396,,116,908000000,"""map""",,,-0.0158687252551,0.0177276451141,-0.00181445165072,,0.00901327279485,-0.0090447051345,0.0294638924165,-0.999484316194
116940000000,,397,,116,940000000,"""map""",,,-0.0161846447736,0.017665239051,-0.00188000453636,,0.00900215855462,-0.00909697972357,0.0293749204192,-0.999486549977
116972000000,,398,,116,972000000,"""map""",,,-0.0165470764041,0.0176455490291,-0.00195495644584,,0.00901025189684,-0.0089610681607,0.0293709586155,-0.999487814383
117008000000,,399,,117,8000000,"""map""",,,-0.0170704256743,0.017638405785,-0.00208065635525,,0.00898053488299,-0.00901355369238,0.0293766062932,-0.999487477208
117040000000,,400,,117,40000000,"""map""",,,-0.0172627754509,0.0174031425267,-0.00202298234217,,0.00897226462831,-0.00896027110898,0.0293398120944,-0.999489120935
117072000000,,401,,117,72000000,"""map""",,,-0.0172376316041,0.0169451814145,-0.00175969698466,,0.0089479128949,-0.00896817503476,0.0293219418307,-0.999489795285
117108000000,,402,,117,108000000,"""map""",,,-0.0173260290176,0.0165707096457,-0.00144182099029,,0.00894512024752,-0.00900071150339,0.0293198344882,-0.999489542403
117140000000,,403,,117,140000000,"""map""",,,-0.0174959078431,0.0162638798356,-0.00145284435712,,0.00913770771221,-0.0090071137985,0.0293457969469,-0.999487013593
117168000000,,404,,117,168000000,"""map""",,,-0.0176826585084,0.0160191878676,-0.00145483983215,,0.00912485095293,-0.00898374797566,0.0293506016877,-0.99948718218
117208000000,,405,,117,208000000,"""map""",,,-0.0179578159004,0.0157572124153,-0.00151552446187,,0.00907163865308,-0.00895429318343,0.0293398120944,-0.999488277998
117240000000,,406,,117,240000000,"""map""",,,-0.0182373188436,0.015587547794,-0.0015528916847,,0.0091091646697,-0.00899537499054,0.0293428045207,-0.999487477208
117272000000,,407,,117,272000000,"""map""",,,-0.0185755640268,0.015459346585,-0.00163543026429,,0.00908353348978,-0.00899731042198,0.0293458812406,-0.999487603648
117308000000,,408,,117,308000000,"""map""",,,-0.0189391635358,0.015391740948,-0.00183490104973,,0.00907876143189,-0.00904547266041,0.0292796263948,-0.999489120935
117340000000,,409,,117,340000000,"""map""",,,-0.0190837327391,0.0151305617765,-0.00215168553405,,0.00907955985794,-0.00901522412396,0.0292648749978,-0.999489795285
117372000000,,410,,117,372000000,"""map""",,,-0.0190515033901,0.0147079685703,-0.00245512882248,,0.00903481877334,-0.00903213116639,0.0292133715489,-0.999491565452
117408000000,,411,,117,408000000,"""map""",,,-0.0191097669303,0.0143084684387,-0.00300358165987,,0.00899671619489,-0.00902579121017,0.0291657877569,-0.999493377767
117440000000,,412,,117,440000000,"""map""",,,-0.0192283056676,0.0140672121197,-0.00339267891832,,0.00898719388698,-0.0090666562854,0.0291759451474,-0.999492829858
117472000000,,413,,117,472000000,"""map""",,,-0.0194141659886,0.0138860577717,-0.00378120853566,,0.00898170200907,-0.00904811392294,0.0291499405419,-0.999493799235
117508000000,,414,,117,508000000,"""map""",,,-0.0196647997946,0.0137616032735,-0.00419560121372,,0.00904967818738,-0.00904627141831,0.0291589178206,-0.999492914151
117540000000,,415,,117,540000000,"""map""",,,-0.0197588987648,0.0135541604832,-0.00448683369905,,0.00899545493939,-0.00903580057092,0.0291563890097,-0.999493588501
117572000000,,416,,117,572000000,"""map""",,,-0.0196866635233,0.0132538434118,-0.00470634456724,,0.00896786011608,-0.00903532427603,0.0291238094958,-0.999494810759
117608000000,,417,,117,608000000,"""map""",,,-0.0197344180197,0.0129622695968,-0.00499149644747,,0.00891844382112,-0.00902108697594,0.029027503947,-0.999498140361
117640000000,,418,,117,640000000,"""map""",,,-0.0198628399521,0.0127837266773,-0.00520087545738,,0.00897068020431,-0.00901769879017,0.029027503947,-0.999497718892
117672000000,,419,,117,672000000,"""map""",,,-0.0200242623687,0.0126333991066,-0.00548624014482,,0.00898713111495,-0.00896845894848,0.0289826597002,-0.999499320472
117708000000,,420,,117,708000000,"""map""",,,-0.0202518217266,0.0125228613615,-0.00580633478239,,0.009022357298,-0.00889480669338,0.0289789929243,-0.999499784088
117740000000,,421,,117,740000000,"""map""",,,-0.020251981914,0.0123845506459,-0.00588083080947,,0.00917813835772,-0.00888167427663,0.02898185891,-0.999498435388
117772000000,,422,,117,772000000,"""map""",,,-0.0200342945755,0.0122118825093,-0.00545902363956,,0.00918287056595,-0.00893236254002,0.0289937021745,-0.999497550305
117808000000,,423,,117,808000000,"""map""",,,-0.0199238695204,0.0120399333537,-0.0050676940009,,0.00917137585678,-0.00895471796521,0.0289657166671,-0.999498224654
117840000000,,424,,117,840000000,"""map""",,,-0.0199612472206,0.0119384154677,-0.00482958322391,,0.00914201136746,-0.0089439415326,0.029014143396,-0.999497170983
117872000000,,425,,117,872000000,"""map""",,,-0.0200655348599,0.011862616986,-0.00467338180169,,0.00913044162022,-0.00900648657601,0.0290414967007,-0.999495948724
117908000000,,426,,117,908000000,"""map""",,,-0.0202398244292,0.0118007622659,-0.00460895011202,,0.00914004628093,-0.00899112228504,0.0290090014805,-0.999497002396
117940000000,,427,,117,940000000,"""map""",,,-0.0202081408352,0.0116270342842,-0.00445420434698,,0.00916808612856,-0.00896367512747,0.029013300459,-0.999496833808
117972000000,,428,,117,972000000,"""map""",,,-0.0200170073658,0.0113705890253,-0.00419448968023,,0.00918564715423,-0.00898175716475,0.029024427227,-0.999496159459
118008000000,,429,,118,8000000,"""map""",,,-0.0199237838387,0.0111223394051,-0.00390434707515,,0.00921977566771,-0.00900420289286,0.0290305806669,-0.999495485109
118040000000,,430,,118,40000000,"""map""",,,-0.0199701786041,0.010916990228,-0.00378460227512,,0.00922966889953,-0.00902526257,0.0290028480406,-0.999495990871
118072000000,,431,,118,72000000,"""map""",,,-0.0200930666178,0.0107436841354,-0.00385585101321,,0.00922124049707,-0.00899692048132,0.0289972425097,-0.99949653878
118108000000,,432,,118,108000000,"""map""",,,-0.0203031264246,0.0105972196907,-0.00400579581037,,0.00919836971964,-0.00906060916444,0.0289859050075,-0.999496496633
118140000000,,433,,118,140000000,"""map""",,,-0.0204306412488,0.0103827146813,-0.00416666455567,,0.00919390619757,-0.0090580591875,0.0290304542264,-0.999495274375
118172000000,,434,,118,172000000,"""map""",,,-0.0205053593963,0.0101213613525,-0.00444548809901,,0.00916888075511,-0.00902815279837,0.0290019208099,-0.999496580927
118208000000,,435,,118,208000000,"""map""",,,-0.0206739399582,0.00988639704883,-0.00488573592156,,0.0091171492852,-0.0090235971521,0.0290675434531,-0.999495190081
118240000000,,436,,118,240000000,"""map""",,,-0.0208528731018,0.00972877349705,-0.00522268144414,,0.009094124982,-0.00907408144418,0.0290283468839,-0.999496033018
118272000000,,437,,118,272000000,"""map""",,,-0.0210675150156,0.00958816241473,-0.00546655384824,,0.00907827866989,-0.00899299527308,0.0290123310815,-0.999497381717
118308000000,,438,,118,308000000,"""map""",,,-0.0213514231145,0.00943299476057,-0.00557983387262,,0.00903601200101,-0.00907802255396,0.0290090857742,-0.999497086689
118340000000,,439,,118,340000000,"""map""",,,-0.0213943254203,0.0092546036467,-0.00553059112281,,0.00901411034706,-0.00903150670188,0.0290116988788,-0.999497676745
118340000000,,440,,118,340000000,"""map""",,,-0.0212288051844,0.00909224990755,-0.0054156286642,,0.00910772517887,-0.00900142692711,0.0289744410647,-0.999498182507
118340000000,,441,,118,340000000,"""map""",,,-0.0212014969438,0.00889780651778,-0.00540387025103,,0.00905342611072,-0.009056032877,0.0290267874505,-0.999496665221
118440000000,,442,,118,440000000,"""map""",,,-0.0212930534035,0.00873354263604,-0.00536420708522,,0.00903731765424,-0.00900657005682,0.0290321822472,-0.999497086689
118472000000,,443,,118,472000000,"""map""",,,-0.0214604735374,0.00858838483691,-0.00563396373764,,0.00917461762444,-0.00900500532934,0.0290123732284,-0.99949641234
118508000000,,444,,118,508000000,"""map""",,,-0.0216340981424,0.00843958649784,-0.00588643969968,,0.00915117331647,-0.00906034953327,0.0290050396767,-0.999496328046
118540000000,,445,,118,540000000,"""map""",,,-0.0216227564961,0.00825570896268,-0.00620863493532,,0.0091914080347,-0.00909297486232,0.0289931964123,-0.999496033018
118572000000,,446,,118,572000000,"""map""",,,-0.0214585680515,0.00799299869686,-0.00646706204861,,0.00911881075312,-0.00909026626232,0.0290016679288,-0.999496496633
118608000000,,447,,118,608000000,"""map""",,,-0.0214230399579,0.00769233051687,-0.00718996860087,,0.00914693101649,-0.00916487630802,0.0290263659821,-0.999494810759
118640000000,,448,,118,640000000,"""map""",,,-0.0215052999556,0.0074625313282,-0.00804834440351,,0.00912085397299,-0.00910154276367,0.0290227413531,-0.99949573799
118672000000,,449,,118,672000000,"""map""",,,-0.0216660797596,0.00723833357915,-0.00897378288209,,0.00909298350829,-0.00917257160125,0.0290092543616,-0.99949573799
118708000000,,450,,118,708000000,"""map""",,,-0.0219096969813,0.0070291031152,-0.00986888725311,,0.00909710373573,-0.00919516984158,0.0290455427981,-0.999494431438
118740000000,,451,,118,740000000,"""map""",,,-0.0219515450299,0.00676271831617,-0.0104654831812,,0.00908584841778,-0.00922904748047,0.0290966669254,-0.999492703417
118772000000,,452,,118,772000000,"""map""",,,-0.0218371469527,0.00640100287274,-0.0108747892082,,0.0090357239611,-0.00922662930504,0.0291381815712,-0.999491986921
118808000000,,453,,118,808000000,"""map""",,,-0.0218770466745,0.00613678526133,-0.0113792801276,,0.00905915142473,-0.00920564635863,0.0291665464002,-0.999491186131
118840000000,,454,,118,840000000,"""map""",,,-0.0220004357398,0.00587614858523,-0.0120273195207,,0.00906084576199,-0.00917041103248,0.0291986201519,-0.999490553928
118872000000,,455,,118,872000000,"""map""",,,-0.0222068298608,0.00563119584695,-0.0127277653664,,0.00912561462789,-0.0091582914829,0.0291887577894,-0.999490301047
118908000000,,456,,118,908000000,"""map""",,,-0.0224787984043,0.00537686189637,-0.0134050482884,,0.00913307989615,-0.00915903694757,0.0291630482118,-0.999490975396
118940000000,,457,,118,940000000,"""map""",,,-0.0225363150239,0.00502929836512,-0.0135767357424,,0.00915668360211,-0.00916849085882,0.0291876198245,-0.999490006019
118972000000,,458,,118,972000000,"""map""",,,-0.0224017947912,0.00451534474269,-0.0132518578321,,0.00913858007789,-0.00911877351834,0.029156599744,-0.999491523305
119008000000,,459,,119,8000000,"""map""",,,-0.0224103052169,0.00413139164448,-0.0130946710706,,0.00908177785642,-0.00920973576053,0.0291820564405,-0.999490427487
119040000000,,460,,119,40000000,"""map""",,,-0.0225350502878,0.0037689821329,-0.0130860209465,,0.00913384663747,-0.00921676739781,0.0291592128486,-0.999490596075
119072000000,,461,,119,72000000,"""map""",,,-0.0227333325893,0.00341669097543,-0.0132746528834,,0.00908549374011,-0.00920086083916,0.0291649869668,-0.99949105969
119108000000,,462,,119,108000000,"""map""",,,-0.0229946039617,0.00308868126012,-0.0136220697314,,0.00910693340386,-0.00910436422366,0.0291835315802,-0.999491143984
119140000000,,463,,119,140000000,"""map""",,,-0.0230201836675,0.00284639582969,-0.0138940988109,,0.00928744571543,-0.00910752656082,0.0292446023636,-0.999487645795
119172000000,,464,,119,172000000,"""map""",,,-0.0228253919631,0.00264706392772,-0.0139077370986,,0.00927224241286,-0.00916380196726,0.0292337706236,-0.999487603648
