rosbagTimestamp,header,seq,stamp,secs,nsecs,frame_id,pose,position,x,y,z,orientation,x,y,z,w
110192000000,,155,,110,60000000,"""map""",,,-0.00182817096356,0.011768123135,0.00496018398553,,0.00915185493062,-0.00864697783231,0.032292662448,-0.999399221707
110192000000,,156,,110,60000000,"""map""",,,-0.0015085702762,0.0121276509017,0.00458388635889,,0.00914515162665,-0.00868750661638,0.0322142271629,-0.99940145549
110192000000,,157,,110,60000000,"""map""",,,-0.00128552329261,0.0125058293343,0.0044012949802,,0.00918277795813,-0.00869122239203,0.0322167981206,-0.999400991875
110192000000,,158,,110,60000000,"""map""",,,-0.00116022245493,0.0129249524325,0.00427302764729,,0.00915805897553,-0.00865085215255,0.0321309871371,-0.999404279329
110216000000,,159,,110,216000000,"""map""",,,-0.00101937563159,0.013477598317,0.00400079134852,,0.00914138174746,-0.00867964659957,0.0320891353165,-0.999405501587
110248000000,,160,,110,248000000,"""map""",,,-0.000941232545301,0.013928568922,0.00368788768537,,0.0091008275271,-0.0086912933502,0.0320750161222,-0.999406302378
110280000000,,161,,110,280000000,"""map""",,,-0.000865435285959,0.014404614456,0.00342555833049,,0.00908897784186,-0.00873309495675,0.0321005992593,-0.999405164413
110316000000,,162,,110,316000000,"""map""",,,-0.000763982709032,0.014897772111,0.00323903164826,,0.00916338061196,-0.00873646102469,0.0320537319637,-0.99940600735
110348000000,,163,,110,348000000,"""map""",,,-0.000756157387514,0.0151622127742,0.00340124848299,,0.00910052278563,-0.00872472814878,0.0320550806629,-0.999406597406
110380000000,,164,,110,380000000,"""map""",,,-0.000818559667096,0.0152548830956,0.00369993271306,,0.00912696133083,-0.00870366069258,0.0320744682132,-0.999405923056
110416000000,,165,,110,416000000,"""map""",,,-0.000857651582919,0.0154545065016,0.00383399287239,,0.00915545980326,-0.00866161859381,0.0320087612764,-0.999408156839
110448000000,,166,,110,448000000,"""map""",,,-0.000863112160005,0.0156658440828,0.00378489261493,,0.00920062614007,-0.00861602552015,0.0319284293831,-0.99941068565
110480000000,,167,,110,480000000,"""map""",,,-0.000877850106917,0.0158910900354,0.00363067397848,,0.00917732856406,-0.00860192303647,0.0319264063344,-0.999411107118
110516000000,,168,,110,516000000,"""map""",,,-0.000893768272363,0.0161507986486,0.00340823619626,,0.00919676667825,-0.00855102098278,0.0318312808973,-0.999414352426
110548000000,,169,,110,548000000,"""map""",,,-0.00087527371943,0.0162620488554,0.00317275035195,,0.00922932581843,-0.00851781646898,0.0317926322372,-0.999415658978
110580000000,,170,,110,580000000,"""map""",,,-0.000790235004388,0.0162801556289,0.00286021106876,,0.00921404556905,-0.00851829000364,0.0317248601048,-0.999417850614
110616000000,,171,,110,616000000,"""map""",,,-0.000665798725095,0.016416978091,0.00242276256904,,0.00919654565425,-0.00833841095851,0.0316957787793,-0.999420548012
110648000000,,172,,110,648000000,"""map""",,,-0.000502728216816,0.0166331939399,0.0021667634137,,0.00917420037475,-0.00836827813338,0.031654137693,-0.999421812418
110680000000,,173,,110,680000000,"""map""",,,-0.000339503749274,0.0169068798423,0.00174018763937,,0.00917642341522,-0.00843556973409,0.0316603754266,-0.999420969481
110716000000,,174,,110,716000000,"""map""",,,-0.00016377135762,0.0171969346702,0.0013850776013,,0.00917704606905,-0.00846395201456,0.0316509345325,-0.999421053775
110748000000,,175,,110,748000000,"""map""",,,-3.22954510921e-05,0.0173751916736,0.00121929647867,,0.00914867374906,-0.00847901119878,0.0316452868548,-0.999421306656
110780000000,,176,,110,780000000,"""map""",,,4.69144943054e-05,0.017495026812,0.00114769535139,,0.009134392203,-0.00849813831532,0.0315913810356,-0.999423034676
110816000000,,177,,110,816000000,"""map""",,,0.000180636969162,0.0177597533911,0.00124927982688,,0.00917935982402,-0.00848879004966,0.0315715298699,-0.999423329704
110848000000,,178,,110,848000000,"""map""",,,0.000331146729877,0.0180144943297,0.00157010369003,,0.00918177164038,-0.00851483789275,0.0315005124302,-0.999425310606
110880000000,,179,,110,880000000,"""map""",,,0.000464244221803,0.0183012709022,0.00185105728451,,0.00922439109747,-0.00853029415873,0.0315290458466,-0.99942391976
110916000000,,180,,110,916000000,"""map""",,,0.000573995057493,0.0186237785965,0.00209180801176,,0.00923137306866,-0.00850876230518,0.0315056121989,-0.999424762697
110948000000,,181,,110,948000000,"""map""",,,0.000564973684959,0.0187230557203,0.00232513225637,,0.00924499244821,-0.00855861607949,0.0314444992685,-0.999426111396
110980000000,,182,,110,980000000,"""map""",,,0.000532711972483,0.0186955202371,0.00242552021518,,0.0092040878616,-0.00855646634326,0.0314311808644,-0.999426954333
111016000000,,183,,111,16000000,"""map""",,,0.000486040400574,0.0187472235411,0.00231270585209,,0.00924170390332,-0.00853722896167,0.0314232994037,-0.99942699648
111048000000,,184,,111,48000000,"""map""",,,0.000486031873152,0.0188487134874,0.00218386878259,,0.00922597098691,-0.0085189414688,0.0314220771451,-0.999427375802
111080000000,,185,,111,80000000,"""map""",,,0.000532685429789,0.0190241150558,0.00223444076255,,0.00928300155868,-0.00850923522245,0.0313980534415,-0.999427628683
111116000000,,186,,111,116000000,"""map""",,,0.000582322769333,0.0192443951964,0.00229417323135,,0.00918447276358,-0.00848667348761,0.0313814475832,-0.999429314557
111148000000,,187,,111,148000000,"""map""",,,0.000537475571036,0.0192132536322,0.00246894988231,,0.009247046181,-0.00852986495234,0.0313808153804,-0.999428345179
111180000000,,188,,111,180000000,"""map""",,,0.000415933754994,0.0189643260092,0.00274831033312,,0.00918210443173,-0.00847110570123,0.0313741561784,-0.999429693879
111216000000,,189,,111,216000000,"""map""",,,0.000352542265318,0.0188021380454,0.00304372841492,,0.00921081553171,-0.00848130404496,0.0313904670087,-0.999428808795
111248000000,,190,,111,248000000,"""map""",,,0.000359009631211,0.0187690444291,0.00326399854384,,0.00922367464221,-0.0084617383172,0.031359784103,-0.999429820319
111280000000,,191,,111,280000000,"""map""",,,0.000397262279876,0.018796833232,0.00331780663691,,0.00923054536054,-0.00845543263006,0.0313396800563,-0.999430452522
111316000000,,192,,111,316000000,"""map""",,,0.000431739608757,0.0189128182828,0.00333974394016,,0.00919107261432,-0.00839480134271,0.0313489945098,-0.999431000431
111348000000,,193,,111,348000000,"""map""",,,0.000417198694777,0.0188682507724,0.00339418021031,,0.00912113037196,-0.00837341926687,0.0313142655066,-0.999432939186
111380000000,,194,,111,380000000,"""map""",,,0.000351147464244,0.0186987631023,0.00340349855833,,0.00911239700165,-0.00837219149296,0.0313317564488,-0.999432475571
111416000000,,195,,111,416000000,"""map""",,,0.000308119109832,0.0185877475888,0.00343273952603,,0.00907625842512,-0.0082823873836,0.031325560862,-0.999433782123
111448000000,,196,,111,448000000,"""map""",,,0.000288812239887,0.0185551457107,0.00342828291468,,0.00905365345271,-0.00837305029673,0.0312993033754,-0.999433992857
111480000000,,197,,111,480000000,"""map""",,,0.000286925322143,0.0185801032931,0.00336211803369,,0.00906107794523,-0.00829193994212,0.0312756168465,-0.999435341556
111516000000,,198,,111,516000000,"""map""",,,0.000293837219942,0.0186900012195,0.0034063369967,,0.00896520398999,-0.00830083992419,0.0312637735821,-0.999436479521
111548000000,,199,,111,548000000,"""map""",,,0.000181734270882,0.0187315680087,0.00362527975813,,0.00892990427569,-0.00822239846526,0.0312683254417,-0.999437322458
111580000000,,200,,111,580000000,"""map""",,,2.13918210648e-05,0.0187090039253,0.0040111518465,,0.0091676492563,-0.00821904001175,0.0312338071728,-0.999436268787
111616000000,,201,,111,616000000,"""map""",,,-0.000152894499479,0.01878050901,0.00455057946965,,0.00919126186355,-0.0082357171575,0.0312300982501,-0.999436015906
111648000000,,202,,111,648000000,"""map""",,,-0.000295101694064,0.0188834723085,0.00508986366913,,0.00907062305397,-0.0082169710707,0.0312033350013,-0.999438165395
111680000000,,203,,111,680000000,"""map""",,,-0.000405955244787,0.0190330334008,0.00551123404875,,0.00910978183909,-0.00826382873503,0.0311837788636,-0.999437996808
111716000000,,204,,111,716000000,"""map""",,,-0.000517492182553,0.0192324742675,0.00587188219652,,0.00913617062303,-0.00830180609131,0.031160303069,-0.999438207542
111748000000,,205,,111,748000000,"""map""",,,-0.000742691161577,0.0191986840218,0.00628132931888,,0.00911813683443,-0.0083418800475,0.0311582800203,-0.999438038955
111780000000,,206,,111,780000000,"""map""",,,-0.00110971787944,0.0189478993416,0.00670103821903,,0.0090607945653,-0.0083325196605,0.0311681845297,-0.999438333982
111816000000,,207,,111,816000000,"""map""",,,-0.00152719055768,0.0187456738204,0.00713666575029,,0.00900444657491,-0.00831995360231,0.0311755602282,-0.999438797598
111848000000,,208,,111,848000000,"""map""",,,-0.00184454175178,0.0186829417944,0.00745283439755,,0.00900353010733,-0.00834585919979,0.0311567627337,-0.999439134773
111880000000,,209,,111,880000000,"""map""",,,-0.00217504939064,0.0186898279935,0.00765147060156,,0.00903616724387,-0.0083493564004,0.0311573949365,-0.999438755451
111916000000,,210,,111,916000000,"""map""",,,-0.00250728242099,0.0187925230712,0.00772376218811,,0.00907874052053,-0.00838223915347,0.0311133936266,-0.999439514094
111948000000,,211,,111,948000000,"""map""",,,-0.00284702982754,0.0187427010387,0.0077584492974,,0.00898245606569,-0.00842167409512,0.0310957340971,-0.999440567765
111980000000,,212,,111,980000000,"""map""",,,-0.00320318690501,0.0185342729092,0.00775561155751,,0.00900981733464,-0.00844306751026,0.0310688865546,-0.999441031381
112016000000,,213,,112,16000000,"""map""",,,-0.00364010571502,0.0183921549469,0.00790615007281,,0.00899891617987,-0.00841050341042,0.0310142220921,-0.999443096576
112048000000,,214,,112,48000000,"""map""",,,-0.00396118173376,0.018354350701,0.00807614251971,,0.00900087502051,-0.00842778460613,0.0309814318439,-0.999443939513
112080000000,,215,,112,80000000,"""map""",,,-0.00429616775364,0.0183672551066,0.00821220222861,,0.00896469909215,-0.00838795132737,0.0309737189707,-0.999444824597
112116000000,,216,,112,116000000,"""map""",,,-0.00458762561902,0.0184143297374,0.00834858603776,,0.00900779408012,-0.00832855077739,0.0309564387628,-0.999445498947
112148000000,,217,,112,148000000,"""map""",,,-0.00488760275766,0.018513860181,0.00831091310829,,0.0090605388854,-0.00810792322069,0.0308683939962,-0.999449502897
112180000000,,218,,112,180000000,"""map""",,,-0.00516259251162,0.0186705570668,0.00844943616539,,0.00906171751543,-0.00810511666863,0.0308818809878,-0.999449165723
112216000000,,219,,112,216000000,"""map""",,,-0.00551827112213,0.0189180094749,0.00851753540337,,0.00911300776053,-0.00812908488991,0.0309284954022,-0.99944705838
112248000000,,220,,112,248000000,"""map""",,,-0.00569283822551,0.0189185030758,0.00867046415806,,0.00916918679309,-0.00810968556811,0.0309095293204,-0.999447226968
112280000000,,221,,112,280000000,"""map""",,,-0.00585319800302,0.0189006738365,0.0089201098308,,0.00914358595766,-0.00808475760053,0.0309678605587,-0.999445878268
112316000000,,222,,112,316000000,"""map""",,,-0.00605675252154,0.0189452730119,0.00917313154787,,0.00913809871787,-0.00814453788374,0.0309384420585,-0.999446384031
112348000000,,223,,112,348000000,"""map""",,,-0.00629638554528,0.0190713051707,0.00943021569401,,0.00909260687485,-0.0082562872068,0.0310044018764,-0.999443813073
112380000000,,224,,112,380000000,"""map""",,,-0.00654324656352,0.0192624665797,0.00959211960435,,0.00909497331338,-0.00828595369023,0.0309909991785,-0.99944398166
112416000000,,225,,112,416000000,"""map""",,,-0.00684710033238,0.0195696447045,0.00964001752436,,0.00905912890045,-0.00828920278419,0.0309623814684,-0.999445119625
112448000000,,226,,112,448000000,"""map""",,,-0.00713417679071,0.0196054521948,0.00986975710839,,0.0090792008843,-0.00837587164546,0.0309386106458,-0.999444951038
112480000000,,227,,112,480000000,"""map""",,,-0.00744132371619,0.0196028631181,0.00990196503699,,0.00908388342386,-0.0083581301683,0.0309354074854,-0.999445203919
112516000000,,228,,112,516000000,"""map""",,,-0.00775393424556,0.0196504723281,0.00980348698795,,0.0090366129756,-0.00829800386111,0.030933848052,-0.999446173296
112548000000,,229,,112,548000000,"""map""",,,-0.00808825530112,0.0197465959936,0.00967846997082,,0.00909593186607,-0.0082759348822,0.0309344381078,-0.999445836122
112580000000,,230,,112,580000000,"""map""",,,-0.00844973139465,0.019889537245,0.00954683218151,,0.00908233366284,-0.0083055199119,0.0309033758805,-0.999446636912
112616000000,,231,,112,616000000,"""map""",,,-0.00891480129212,0.0201119221747,0.00946083106101,,0.00915929541343,-0.0083497645951,0.0308760647227,-0.999446384031
112648000000,,232,,112,648000000,"""map""",,,-0.00912610627711,0.0200797729194,0.00956184789538,,0.00913592811401,-0.00830913585632,0.0308479527747,-0.99944785917
112680000000,,233,,112,680000000,"""map""",,,-0.00929137971252,0.0200546346605,0.00967158470303,,0.00913447174283,-0.0083568167836,0.0308688154647,-0.999446805499
112716000000,,234,,112,716000000,"""map""",,,-0.00949176121503,0.0200988892466,0.00969877652824,,0.00912184711534,-0.00836937555664,0.0307882306904,-0.99944933431
112748000000,,235,,112,748000000,"""map""",,,-0.00969552434981,0.0202181376517,0.00997288152575,,0.00914938209599,-0.00843301606312,0.030719615621,-0.999450598715
112780000000,,236,,112,780000000,"""map""",,,-0.00994207896292,0.0203863345087,0.0101676508784,,0.00916774132906,-0.0084453845168,0.0307303630674,-0.999450050806
112816000000,,237,,112,816000000,"""map""",,,-0.0102733867243,0.0207100380212,0.010253302753,,0.00918050519755,-0.0084844099055,0.0307371065631,-0.999449376457
112848000000,,238,,112,848000000,"""map""",,,-0.0102590480819,0.0208137147129,0.0105328699574,,0.00915101166438,-0.00847646254922,0.0307011974482,-0.99945080945
112880000000,,239,,112,880000000,"""map""",,,-0.0101840114221,0.0209262780845,0.0110250553116,,0.00917838065065,-0.0084676961282,0.0306322873509,-0.999452706058
112916000000,,240,,112,916000000,"""map""",,,-0.0101797943935,0.0211066529155,0.0114207845181,,0.00917894693719,-0.00852855755628,0.0306037960813,-0.999453127526
112948000000,,241,,112,948000000,"""map""",,,-0.0101903090253,0.0213374141604,0.0117817688733,,0.00918955022405,-0.00855300332522,0.0306168616043,-0.999452368883
112980000000,,242,,112,980000000,"""map""",,,-0.0102255269885,0.0216024965048,0.012169862166,,0.00915629119512,-0.00852224787671,0.0305798566713,-0.999454054757
113016000000,,243,,113,16000000,"""map""",,,-0.010313780047,0.0219759494066,0.0127091696486,,0.00914839592559,-0.00851125213848,0.0305420088014,-0.999455403456
113048000000,,244,,113,48000000,"""map""",,,-0.0102802449837,0.0219353679568,0.0131425261497,,0.00932738861097,-0.00852329662942,0.0305077855604,-0.999454644813
113080000000,,245,,113,80000000,"""map""",,,-0.0102711413056,0.0218398179859,0.0137252928689,,0.00936209057266,-0.00854218833688,0.0304656387119,-0.99945548775
113116000000,,246,,113,116000000,"""map""",,,-0.0103364381939,0.0218169149011,0.0143070612103,,0.00932374455494,-0.0085663743306,0.0304852791433,-0.999455066281
113148000000,,247,,113,148000000,"""map""",,,-0.0104474844411,0.0218547750264,0.0147547591478,,0.00925578272056,-0.00859391997143,0.0304871757514,-0.999455361309
113180000000,,248,,113,180000000,"""map""",,,-0.0105933202431,0.0219455789775,0.0151083208621,,0.00927649291636,-0.00858030756834,0.0305153298463,-0.999454434079
113216000000,,249,,113,216000000,"""map""",,,-0.0108463885263,0.0221101641655,0.0154267717153,,0.00923337403557,-0.00857609026989,0.0304874707794,-0.999455740631
113248000000,,250,,113,248000000,"""map""",,,-0.0109269432724,0.0218202155083,0.0156371165067,,0.00927150956601,-0.00863458297511,0.0304079818231,-0.999457257917
113280000000,,251,,113,280000000,"""map""",,,-0.0110130151734,0.0214724782854,0.0157589875162,,0.00925307927187,-0.00861555789181,0.0303886785665,-0.999458185148
113316000000,,252,,113,316000000,"""map""",,,-0.0111609827727,0.0212484169751,0.0159174259752,,0.00920597391249,-0.00861993688352,0.0303687431071,-0.999459238819
113348000000,,253,,113,348000000,"""map""",,,-0.0113692535087,0.0210987925529,0.0159545633942,,0.00917014740374,-0.00860884736443,0.0303078830579,-0.999461514749
113380000000,,254,,113,380000000,"""map""",,,-0.0115920417011,0.0210578832775,0.0158960670233,,0.00917078625365,-0.00863875839425,0.0303293358038,-0.999460545372
113416000000,,255,,113,416000000,"""map""",,,-0.011892660521,0.0210838969797,0.0158990379423,,0.00918700690458,-0.00864745970167,0.0302906871437,-0.999461514749
113448000000,,256,,113,448000000,"""map""",,,-0.0119405928999,0.020849050954,0.0160994753242,,0.00913133999327,-0.00863696659754,0.0302407431282,-0.999463664238
113480000000,,257,,113,480000000,"""map""",,,-0.0119885299355,0.0205972138792,0.0163606144488,,0.00912592651046,-0.00865556940975,0.0302139377326,-0.999464338588
113516000000,,258,,113,516000000,"""map""",,,-0.0121109867468,0.0204256940633,0.016668420285,,0.00906663204788,-0.00861630741836,0.0301230269803,-0.999468005364
113548000000,,259,,113,548000000,"""map""",,,-0.0123284840956,0.0203376635909,0.0168985109776,,0.00908328750282,-0.00862855679896,0.0301210882253,-0.999467752483
113580000000,,260,,113,580000000,"""map""",,,-0.0125889163464,0.0203076992184,0.0171580109745,,0.0090193102743,-0.00860298119401,0.0300996354794,-0.999469227622
113616000000,,261,,113,616000000,"""map""",,,-0.0129945119843,0.020368847996,0.0174430795014,,0.00903819693978,-0.00861046265063,0.0300904053196,-0.999469269769
113648000000,,262,,113,648000000,"""map""",,,-0.0131657989696,0.0199998915195,0.0177304148674,,0.00901438814802,-0.00862461717991,0.0300857270194,-0.999469480504
113680000000,,263,,113,680000000,"""map""",,,-0.0133244441822,0.019578659907,0.0180133022368,,0.00902267570427,-0.00860128978418,0.0300935241864,-0.999469354063
113716000000,,264,,113,716000000,"""map""",,,-0.013540500775,0.0192749854177,0.0183229912072,,0.00898015710739,-0.00859996775608,0.030047710562,-0.999471166377
113748000000,,265,,113,748000000,"""map""",,,-0.0137779330835,0.0190427359194,0.0185931380838,,0.00900682367363,-0.00857483428146,0.0299535966493,-0.999473990216
113780000000,,266,,113,780000000,"""map""",,,-0.0140623049811,0.0188926383853,0.018746374175,,0.00917802886441,-0.00852047727691,0.0299563361945,-0.999472767958
113816000000,,267,,113,816000000,"""map""",,,-0.014434158802,0.0188070777804,0.019042942673,,0.00917333074615,-0.00851968181688,0.0299633747182,-0.999472641517
113848000000,,268,,113,848000000,"""map""",,,-0.0145498216152,0.0185184087604,0.0192715786397,,0.00910372561684,-0.00848700839865,0.0299385502244,-0.999474285244
113880000000,,269,,113,880000000,"""map""",,,-0.0146396849304,0.0182462446392,0.0194746721536,,0.00913530498685,-0.00853368123835,0.0299183197371,-0.999474200951
113916000000,,270,,113,916000000,"""map""",,,-0.0147890513763,0.0180681478232,0.0195174813271,,0.0091943047096,-0.00862654056205,0.0299493398176,-0.999471925021
113948000000,,271,,113,948000000,"""map""",,,-0.0149674899876,0.0180082581937,0.019344355911,,0.00912206867441,-0.00862528303015,0.0299520372159,-0.999472515077
113980000000,,272,,113,980000000,"""map""",,,-0.0151821402833,0.0179992690682,0.0189843066037,,0.00915458198401,-0.00862786355738,0.0299322281971,-0.999472767958
114016000000,,273,,114,16000000,"""map""",,,-0.015472385101,0.018078783527,0.0185304377228,,0.00913327304777,-0.00857302630925,0.0298932845091,-0.999474622419
114048000000,,274,,114,48000000,"""map""",,,-0.0154758188874,0.0176891721785,0.0185842905194,,0.00909870396802,-0.00861043898419,0.0298740655462,-0.999475128181
114080000000,,275,,114,80000000,"""map""",,,-0.0154421804473,0.0172198805958,0.0186623800546,,0.00909394538714,-0.00854932204084,0.0298459114514,-0.999476645468
114116000000,,276,,114,116000000,"""map""",,,-0.0154529409483,0.0168710481375,0.0187727827579,,0.0090989486173,-0.00855179197376,0.0298010672045,-0.999477909873
114148000000,,277,,114,148000000,"""map""",,,-0.0155233200639,0.0166207086295,0.0187865756452,,0.00908819629359,-0.00852472013511,0.0297506174269,-0.999479722188
114180000000,,278,,114,180000000,"""map""",,,-0.0156638491899,0.016462918371,0.0186286140233,,0.00912524092446,-0.00852972357107,0.0297606905237,-0.999479089985
114216000000,,279,,114,216000000,"""map""",,,-0.0159193947911,0.0163574106991,0.0182616300881,,0.00910346221962,-0.00852438341308,0.0297448854555,-0.999479722188
114248000000,,280,,114,248000000,"""map""",,,-0.015658294782,0.0162976197898,0.0181233678013,,0.00914894152972,-0.0086355033528,0.0297779285847,-0.999477361964
114280000000,,281,,114,280000000,"""map""",,,-0.0152782136574,0.0163013320416,0.0181853566319,,0.0091514842318,-0.00856500017458,0.0297670968446,-0.999478331342
114316000000,,282,,114,316000000,"""map""",,,-0.014943158254,0.0163626279682,0.0182485282421,,0.00914253516758,-0.00855392685158,0.0297105779208,-0.999480143656
114348000000,,283,,114,348000000,"""map""",,,-0.0146679049358,0.0164743103087,0.018361274153,,0.00907417361726,-0.00853965950539,0.0297202716959,-0.999480649418
114380000000,,284,,114,380000000,"""map""",,,-0.0143902851269,0.0167206618935,0.0182581264526,,0.00909242155631,-0.00856514287294,0.0297123059416,-0.999480438684
114416000000,,285,,114,416000000,"""map""",,,-0.0142411757261,0.0169723331928,0.018000472337,,0.00930526077464,-0.00848863553865,0.0296655650866,-0.999480565125
114448000000,,286,,114,448000000,"""map""",,,-0.0139960665256,0.0169034097344,0.0179740488529,,0.00931134556126,-0.00859968079531,0.0296498864589,-0.999479975069
114480000000,,287,,114,480000000,"""map""",,,-0.0137660773471,0.0167907737195,0.0179226137698,,0.00929741421683,-0.00864780508769,0.0296903895803,-0.999478499929
114516000000,,288,,114,516000000,"""map""",,,-0.0136084603146,0.0167354624718,0.0177790410817,,0.00927164598762,-0.0086302134294,0.0296366102016,-0.999480522978
114548000000,,289,,114,548000000,"""map""",,,-0.0134987058118,0.0167685821652,0.0173826143146,,0.00925367391699,-0.0086937436091,0.0296443230749,-0.999479890775
114580000000,,290,,114,580000000,"""map""",,,-0.0134754180908,0.0168218184263,0.0170972533524,,0.00923804912535,-0.00869055114996,0.0296365680548,-0.999480312244
114616000000,,291,,114,616000000,"""map""",,,-0.0134893702343,0.0169637259096,0.0165475904942,,0.00924965831837,-0.00867604040984,0.0296471469138,-0.999480017216
114648000000,,292,,114,648000000,"""map""",,,-0.0133921001107,0.0169226955622,0.0162759236991,,0.00919608401455,-0.00861324463075,0.0296074867293,-0.999482166705
114680000000,,293,,114,680000000,"""map""",,,-0.0132858417928,0.0168858822435,0.0160995014012,,0.00917543551614,-0.00865197544426,0.0295821564734,-0.999482798908
114716000000,,294,,114,716000000,"""map""",,,-0.0132055450231,0.0169120877981,0.0159430783242,,0.00915917074272,-0.00864027841787,0.0295731791946,-0.999483346817
114748000000,,295,,114,748000000,"""map""",,,-0.0131742497906,0.0169893484563,0.0157273858786,,0.00918685441037,-0.00861756939543,0.0294897284346,-0.99948570704
114780000000,,296,,114,780000000,"""map""",,,-0.0132133075967,0.0171222947538,0.0155555075034,,0.00919020533178,-0.00856933603162,0.0294839543163,-0.999486339243
114816000000,,297,,114,816000000,"""map""",,,-0.0133106093854,0.0173943415284,0.0153664043173,,0.00916419572543,-0.00858643553078,0.0294792338693,-0.99948650783
114848000000,,298,,114,848000000,"""map""",,,-0.0131663335487,0.0173593703657,0.015352871269,,0.00914661231953,-0.00859273675217,0.0294802453937,-0.999486592124
114880000000,,299,,114,880000000,"""map""",,,-0.0129505014047,0.0172499157488,0.0153532717377,,0.00912717992645,-0.00861154484506,0.0294678120734,-0.999486971446
114916000000,,300,,114,916000000,"""map""",,,-0.0127857094631,0.0171906929463,0.0153437964618,,0.00914798659902,-0.00862926170911,0.0294425661111,-0.999487350767
114948000000,,301,,114,948000000,"""map""",,,-0.0126776387915,0.0171843823045,0.0152932824567,,0.00915542220448,-0.00862723275406,0.029461785074,-0.999486760711
114980000000,,302,,114,980000000,"""map""",,,-0.0126013746485,0.0172121338546,0.0151896998286,,0.00914122151535,-0.00864552959004,0.0293971739553,-0.99948865732
115016000000,,303,,115,16000000,"""map""",,,-0.0125139551237,0.0173430945724,0.0148958330974,,0.00915568763908,-0.00857684944823,0.029348283611,-0.999490511781
115048000000,,304,,115,48000000,"""map""",,,-0.012345507741,0.0171794872731,0.0143519388512,,0.00909642307853,-0.00860776761897,0.0292906267222,-0.99949253483
115080000000,,305,,115,80000000,"""map""",,,-0.0121592422947,0.017012655735,0.0136452913284,,0.00908266618666,-0.00857217450251,0.0292952207287,-0.999492829858
115116000000,,306,,115,116000000,"""map""",,,-0.0120197813958,0.0169033836573,0.0129890469834,,0.00908123107412,-0.00858977424854,0.0292545490199,-0.999493883529
115148000000,,307,,115,148000000,"""map""",,,-0.0119286198169,0.0168375167996,0.0123344724998,,0.00913142965822,-0.00857721806852,0.0292281650927,-0.999494304997
115180000000,,308,,115,180000000,"""map""",,,-0.0118863657117,0.0168381743133,0.0117593146861,,0.00911879704587,-0.00856247761984,0.029207766018,-0.999495147934
115216000000,,309,,115,216000000,"""map""",,,-0.0118878148496,0.0169535521418,0.0108991023153,,0.00929645665196,-0.00852372348974,0.0291801598323,-0.999494600025
115248000000,,310,,115,248000000,"""map""",,,-0.0118454294279,0.0169422868639,0.0105020049959,,0.00929772484404,-0.008497292312,0.0291544502547,-0.99949561155
115280000000,,311,,115,280000000,"""map""",,,-0.0118330139667,0.0169284902513,0.0101095037535,,0.0092603812957,-0.00841016963125,0.0291327024809,-0.999497297424
115316000000,,312,,115,316000000,"""map""",,,-0.0118516711518,0.0169959180057,0.00971350166947,,0.00925173242488,-0.00843469732725,0.0291527643807,-0.999496623074
115348000000,,313,,115,348000000,"""map""",,,-0.0119130918756,0.0171425119042,0.00928895361722,,0.00918144506404,-0.00845344040944,0.0291018509877,-0.999498561829
115380000000,,314,,115,380000000,"""map""",,,-0.0120089519769,0.0173497442156,0.00883425679058,,0.00920066028149,-0.0085116265622,0.0290976363029,-0.999498056067
115416000000,,315,,115,416000000,"""map""",,,-0.0121927037835,0.0176926068962,0.00824625976384,,0.00916530131876,-0.00852918638397,0.0290981420651,-0.999498224654
115448000000,,316,,115,448000000,"""map""",,,-0.0122561044991,0.0175074022263,0.00746440608054,,0.00916742263468,-0.0085175741246,0.0291105332385,-0.999497887479
115480000000,,317,,115,480000000,"""map""",,,-0.0123488921672,0.017214840278,0.00661308318377,,0.00920145411574,-0.00857027690651,0.0291524693528,-0.999495906578
115516000000,,318,,115,516000000,"""map""",,,-0.0124798566103,0.0170054417104,0.00584759144112,,0.00916427121109,-0.00849250691602,0.0291767459375,-0.999496243752
115548000000,,319,,115,548000000,"""map""",,,-0.0126464134082,0.0169115662575,0.00511307921261,,0.00917649976522,-0.00847929054513,0.0291426069903,-0.999497170983
115580000000,,320,,115,580000000,"""map""",,,-0.012845274061,0.0169181711972,0.0044670063071,,0.0091329615768,-0.00847782643605,0.0291551246043,-0.999497297424
115616000000,,321,,115,616000000,"""map""",,,-0.0131353531033,0.017018083483,0.00363959628157,,0.0090864188408,-0.00851130628319,0.0291211120975,-0.999498351095
115648000000,,322,,115,648000000,"""map""",,,-0.0132480282336,0.0167673509568,0.00337758590467,,0.00906158755579,-0.00849076121743,0.0290808197103,-0.999499952675
115680000000,,323,,115,680000000,"""map""",,,-0.0133632002398,0.0165198054165,0.00325312418863,,0.00909602994804,-0.0084869767062,0.0291085101898,-0.999498899004
115716000000,,324,,115,716000000,"""map""",,,-0.0135344350711,0.0163787789643,0.0032932839822,,0.00899860448252,-0.00849526948965,0.029077574403,-0.999500584878
115748000000,,325,,115,748000000,"""map""",,,-0.013715817593,0.016323659569,0.00345783610828,,0.00901465154524,-0.00849700312865,0.0291015559598,-0.999499699794
115780000000,,326,,115,780000000,"""map""",,,-0.0139362849295,0.0163578353822,0.00371209834702,,0.00900249571912,-0.00851668743558,0.0291179510839,-0.999499151885
115816000000,,327,,115,816000000,"""map""",,,-0.014271507971,0.0165286045521,0.00399863021448,,0.00904118481795,-0.00848981921067,0.0291325338935,-0.999498646123
115848000000,,328,,115,848000000,"""map""",,,-0.0145952953026,0.0163534227759,0.00474988436326,,0.00900716912138,-0.00843005158386,0.0291126827278,-0.999500036969
115880000000,,329,,115,880000000,"""map""",,,-0.0149363419041,0.0161550752819,0.00549150537699,,0.00923676346126,-0.00843689052741,0.029111249735,-0.999497929626
115916000000,,330,,115,916000000,"""map""",,,-0.0152881462127,0.0160130821168,0.00627175858244,,0.00917398264347,-0.00845663019325,0.0291197633984,-0.999498098214
115948000000,,331,,115,948000000,"""map""",,,-0.0156630929559,0.0159270055592,0.00697082094848,,0.00916927487342,-0.00846295929988,0.0290974677155,-0.999498730416
115980000000,,332,,115,980000000,"""map""",,,-0.0160418171436,0.015897506848,0.00751171680167,,0.00916696854766,-0.00847886456973,0.0290988164146,-0.999498561829
116016000000,,333,,116,16000000,"""map""",,,-0.0165689941496,0.0159831307828,0.0080300020054,,0.00913153591026,-0.00855011017456,0.0290928315622,-0.999498477535
116048000000,,334,,116,48000000,"""map""",,,-0.0166605822742,0.0158227588981,0.00850317068398,,0.00910466904359,-0.00857171395352,0.0291155487135,-0.999497845333
116080000000,,335,,116,80000000,"""map""",,,-0.0166772343218,0.0156491696835,0.00900560710579,,0.00906198220916,-0.00854173566985,0.0291469059688,-0.999497592451
116116000000,,336,,116,116000000,"""map""",,,-0.0167422182858,0.0155759872869,0.00943783577532,,0.00908703892219,-0.00859958312493,0.0291394459766,-0.999497128836
116148000000,,337,,116,148000000,"""map""",,,-0.0168644469231,0.015599408187,0.00964827183634,,0.00903315489665,-0.00861258997577,0.0291497298077,-0.999497128836
116180000000,,338,,116,180000000,"""map""",,,-0.0170375388116,0.0157152544707,0.00984690152109,,0.00904229133736,-0.00862120130955,0.0291239780832,-0.999497761039
116216000000,,339,,116,216000000,"""map""",,,-0.0173379927874,0.0159563608468,0.00992613751441,,0.00905894905606,-0.00841234474202,0.029123767349,-0.999499404766
116248000000,,340,,116,248000000,"""map""",,,-0.0177017971873,0.0156904459,0.0100101213902,,0.00910668219357,-0.00847110220272,0.0291502355698,-0.999497718892
116280000000,,341,,116,280000000,"""map""",,,-0.0181130729616,0.015334200114,0.0100941071287,,0.00911913123663,-0.00852802555522,0.0291651977011,-0.999496665221
116316000000,,342,,116,316000000,"""map""",,,-0.0185446273535,0.0150913232937,0.0100325271487,,0.00908335963403,-0.00860663547807,0.0291061499663,-0.999498056067
116348000000,,343,,116,348000000,"""map""",,,-0.0189804974943,0.0149332620203,0.00993063300848,,0.00904403370207,-0.00866135554644,0.0291127248747,-0.999497718892
116380000000,,344,,116,380000000,"""map""",,,-0.0194186326116,0.0148413293064,0.00985886808485,,0.00906597255671,-0.00866781576516,0.0291303422573,-0.999496960249
116416000000,,345,,116,416000000,"""map""",,,-0.0200071036816,0.0148501070216,0.00960604287684,,0.00903515973251,-0.00871498551785,0.0291170238532,-0.99949721313
116448000000,,346,,116,448000000,"""map""",,,-0.0202507562935,0.0146251190454,0.00973677448928,,0.00907776077094,-0.00875350004065,0.0291803705665,-0.999494642172
116480000000,,347,,116,480000000,"""map""",,,-0.0204644389451,0.0143772438169,0.00982492789626,,0.00906535297952,-0.00878701813482,0.0291815928251,-0.999494431438
116516000000,,348,,116,516000000,"""map""",,,-0.0207119230181,0.0142221730202,0.00988184567541,,0.00903329009378,-0.00883967239023,0.0291931410616,-0.999493925676
116548000000,,349,,116,548000000,"""map""",,,-0.0209836941212,0.0141381537542,0.00990280043334,,0.00896678997611,-0.00885175038976,0.029235330057,-0.999493124886
116580000000,,350,,116,580000000,"""map""",,,-0.0212740320712,0.0141310496256,0.00963870435953,,0.00899853868209,-0.0089206509922,0.0292565299218,-0.999491649746
116616000000,,351,,116,616000000,"""map""",,,-0.0217176284641,0.0141990408301,0.00926746334881,,0.00902929447016,-0.00899081188163,0.0292994354136,-0.999489542403
116648000000,,352,,116,648000000,"""map""",,,-0.0217466279864,0.014132800512,0.00905111152679,,0.0089469524058,-0.00897158267525,0.0293374097241,-0.999489331669
116680000000,,353,,116,680000000,"""map""",,,-0.021762162447,0.0140719367191,0.00893341843039,,0.00896655690023,-0.00899808551601,0.0293337429482,-0.999489036641
116716000000,,354,,116,716000000,"""map""",,,-0.0218355860561,0.0140691455454,0.00885437056422,,0.00889772503337,-0.00899519003214,0.0293397278007,-0.99948945811
116748000000,,355,,116,748000000,"""map""",,,-0.0219519268721,0.0141154713929,0.00873227603734,,0.00895961382175,-0.00897461305784,0.0293211410405,-0.999489668844
116780000000,,356,,116,780000000,"""map""",,,-0.0221034921706,0.0142229702324,0.00853224191815,,0.00888794898645,-0.00893501416433,0.0293280952705,-0.99949038534
116816000000,,357,,116,816000000,"""map""",,,-0.0223480723798,0.0144695620984,0.00811635609716,,0.00887344423497,-0.0089458877014,0.0292840518139,-0.999491776186
116848000000,,358,,116,848000000,"""map""",,,-0.0223640855402,0.0144260274246,0.00791722536087,,0.00885736861303,-0.00896096233569,0.0292744844792,-0.999491986921
116880000000,,359,,116,880000000,"""map""",,,-0.0223718415946,0.0143486605957,0.00782736390829,,0.00883532648524,-0.00900540024511,0.0292489856359,-0.99949253483
116916000000,,360,,116,916000000,"""map""",,,-0.0224491357803,0.0142932767048,0.007754616905,,0.00887181757859,-0.00896104217906,0.0292505450693,-0.999492576977
116948000000,,361,,116,948000000,"""map""",,,-0.0225572772324,0.0142867257819,0.00753574585542,,0.0089202143489,-0.00900265527211,0.0292671930744,-0.999491270424
116980000000,,362,,116,980000000,"""map""",,,-0.022736703977,0.0143404575065,0.00729942228645,,0.00891777359259,-0.00901353330065,0.0292879293239,-0.999490596075
117016000000,,363,,117,16000000,"""map""",,,-0.0230617113411,0.014486993663,0.00697543844581,,0.00893650043498,-0.00901303233607,0.029258974439,-0.999491312571
117048000000,,364,,117,48000000,"""map""",,,-0.0230674520135,0.0142612801865,0.00693329237401,,0.00889803416342,-0.00903238237764,0.0292832931706,-0.999490764662
117080000000,,365,,117,80000000,"""map""",,,-0.0230354685336,0.0139885898679,0.00699585070834,,0.00895394357861,-0.00904152925731,0.029281775884,-0.9994902589
117120000000,,366,,117,120000000,"""map""",,,-0.0230854451656,0.0137777291238,0.00702217407525,,0.00894638813606,-0.00902125987731,0.0292512615657,-0.999491354718
117148000000,,367,,117,148000000,"""map""",,,-0.0232060998678,0.013654938899,0.0068908110261,,0.00896685623186,-0.0090406271388,0.029149350486,-0.999493967823
117180000000,,368,,117,180000000,"""map""",,,-0.0233901999891,0.0135638592765,0.00669306982309,,0.00897797732764,-0.00896145073648,0.0291623738622,-0.999494178557
117216000000,,369,,117,216000000,"""map""",,,-0.0237055476755,0.0134748304263,0.00633900891989,,0.00892747814113,-0.00897648203288,0.0291735427771,-0.999494220704
117248000000,,370,,117,248000000,"""map""",,,-0.0237316861749,0.0132994614542,0.00659696105868,,0.00890144110807,-0.0089229392305,0.0291299207889,-0.999496201605
117280000000,,371,,117,280000000,"""map""",,,-0.0237342640758,0.0131049063057,0.00696859741583,,0.00888722837927,-0.00893958857398,0.029098985002,-0.999497044542
117316000000,,372,,117,316000000,"""map""",,,-0.0238488633186,0.0129676088691,0.00725565711036,,0.00894462062832,-0.00901162402835,0.0291390245081,-0.999494768613
117348000000,,373,,117,348000000,"""map""",,,-0.0240296572447,0.0128813339397,0.0072260722518,,0.0090886576143,-0.00897675396546,0.0291355263197,-0.999493883529
117380000000,,374,,117,380000000,"""map""",,,-0.0242275614291,0.0128376921639,0.00721241999418,,0.00908161814909,-0.00895453824945,0.0291426491371,-0.999493925676
117416000000,,375,,117,416000000,"""map""",,,-0.0245165284723,0.0127974078059,0.00715778023005,,0.00902420455136,-0.00892075265244,0.0291299629357,-0.999495147934
117448000000,,376,,117,448000000,"""map""",,,-0.0248078051955,0.0127926114947,0.00702062761411,,0.00904900432399,-0.00894767364838,0.0291319016907,-0.999494557878
117480000000,,377,,117,480000000,"""map""",,,-0.0251576676965,0.0128140635788,0.00679274229333,,0.00902896042861,-0.00897136456325,0.0291327867745,-0.999494515732
117516000000,,378,,117,516000000,"""map""",,,-0.0255269799381,0.0128891998902,0.00655125360936,,0.0090554316618,-0.00899848436503,0.0290947281703,-0.999495147934
117548000000,,379,,117,548000000,"""map""",,,-0.0256799925119,0.0128371529281,0.00643970584497,,0.00901374993864,-0.00897452895708,0.0290393050646,-0.999497381717
117580000000,,380,,117,580000000,"""map""",,,-0.025659121573,0.0126896919683,0.00638149259612,,0.00899507584381,-0.00899937888231,0.0290097601237,-0.999498182507
117616000000,,381,,117,616000000,"""map""",,,-0.0257236100733,0.0126003231853,0.00612393394113,,0.00896560844308,-0.00899606393743,0.0289615862759,-0.999499826234
117648000000,,382,,117,648000000,"""map""",,,-0.025851296261,0.0125822210684,0.00593192409724,,0.00897819669756,-0.00904111940082,0.0289655480797,-0.999499236179
117680000000,,383,,117,680000000,"""map""",,,-0.0260411649942,0.0126105817035,0.00568390963599,,0.00898864699502,-0.00899320714048,0.0289396277678,-0.99950028985
117716000000,,384,,117,716000000,"""map""",,,-0.0263040773571,0.0126784974709,0.00545449089259,,0.00902548904628,-0.00906316388625,0.0289588045839,-0.99949881471
117748000000,,385,,117,748000000,"""map""",,,-0.026403028518,0.012637806125,0.005321319215,,0.00897952354641,-0.00900120052671,0.0289133281344,-0.999501048493
117780000000,,386,,117,780000000,"""map""",,,-0.0263440422714,0.0124829802662,0.00526005169377,,0.00894483694733,-0.00900209720708,0.0289160676795,-0.999501259227
117816000000,,387,,117,816000000,"""map""",,,-0.0264189466834,0.0123541941866,0.00518878269941,,0.00890553669862,-0.0089779414241,0.0288269692418,-0.999504462388
117848000000,,388,,117,848000000,"""map""",,,-0.0265622027218,0.0122907981277,0.00498270755634,,0.00899080431335,-0.00899583480654,0.0288214058578,-0.999503703745
117880000000,,389,,117,880000000,"""map""",,,-0.0267368219793,0.0122519182041,0.00473289564252,,0.00896800342411,-0.00894759454844,0.0287817878202,-0.999505473912
117916000000,,390,,117,916000000,"""map""",,,-0.0269765295088,0.0122413905337,0.00449660094455,,0.00902245965537,-0.00885277875846,0.0287455415304,-0.999506822611
117948000000,,391,,117,948000000,"""map""",,,-0.0271390378475,0.0121145835146,0.00449109822512,,0.0091510938178,-0.00886313568279,0.0287820407012,-0.999504546681
117980000000,,392,,117,980000000,"""map""",,,-0.0272122267634,0.0118751013651,0.00485486723483,,0.00915821682042,-0.00888870019538,0.0287758451145,-0.999504420241
118016000000,,393,,118,16000000,"""map""",,,-0.0274397265166,0.0116257220507,0.0052813468501,,0.00919383786329,-0.00894161255907,0.0287463844674,-0.999504462388
118048000000,,394,,118,48000000,"""map""",,,-0.0277231317014,0.0114661157131,0.00554683804512,,0.00912143074029,-0.00892378854777,0.0287967078045,-0.999503872332
118080000000,,395,,118,80000000,"""map""",,,-0.0280573461205,0.0113332821056,0.00569105707109,,0.00910781401035,-0.00895688370716,0.0288255362489,-0.999502860808
118116000000,,396,,118,116000000,"""map""",,,-0.0284445676953,0.0112167717889,0.00565855251625,,0.00912180996932,-0.00893762070922,0.0287811134706,-0.999504209507
118148000000,,397,,118,148000000,"""map""",,,-0.0284415986389,0.0110019790009,0.00585403759032,,0.00915226330024,-0.00891650949068,0.0287916923296,-0.999503745891
118180000000,,398,,118,180000000,"""map""",,,-0.0281128250062,0.0107114408165,0.00630632694811,,0.00915458742729,-0.00892129632724,0.028803535594,-0.99950336657
118216000000,,399,,118,216000000,"""map""",,,-0.0278650820255,0.0104170851409,0.00684008281678,,0.0091841109654,-0.0089471023816,0.0287932096161,-0.999503155835
118248000000,,400,,118,248000000,"""map""",,,-0.0278006270528,0.0101748164743,0.00714230630547,,0.009169059694,-0.00894753659909,0.0287854967428,-0.999503535157
118280000000,,401,,118,280000000,"""map""",,,-0.0278175547719,0.00997076183558,0.00732740806416,,0.00916077996825,-0.00896958912469,0.0287809027363,-0.999503577304
118316000000,,402,,118,316000000,"""map""",,,-0.0279327537864,0.00978956278414,0.00739992875606,,0.0091811581753,-0.00900003606567,0.0287487025441,-0.999503998772
118348000000,,403,,118,348000000,"""map""",,,-0.0279767289758,0.00955471862108,0.00749040720984,,0.00918699969146,-0.00900738124474,0.0287983936785,-0.999502439339
118380000000,,404,,118,380000000,"""map""",,,-0.0279742367566,0.00927610322833,0.00753308320418,,0.00914869550675,-0.00898558665765,0.0287726841009,-0.999503788038
118416000000,,405,,118,416000000,"""map""",,,-0.0280473716557,0.00901803188026,0.00749233039096,,0.0090921885859,-0.00893363524931,0.0288480005192,-0.99950256578
118448000000,,406,,118,448000000,"""map""",,,-0.0281567834318,0.00883791502565,0.00744156260043,,0.00906498010184,-0.00903418583522,0.0288060644049,-0.999503113689
118480000000,,407,,118,480000000,"""map""",,,-0.0283067766577,0.00867355149239,0.00741222314537,,0.00902471137082,-0.00896713551904,0.0287779946038,-0.999504883856
118516000000,,408,,118,516000000,"""map""",,,-0.0286124963313,0.00844446662813,0.00729643041268,,0.00901256265878,-0.0090088989776,0.0287940946999,-0.999504209507
118548000000,,409,,118,548000000,"""map""",,,-0.0284574106336,0.0082232626155,0.00737852789462,,0.00901654715596,-0.00901674457397,0.0287635382347,-0.999504926003
118580000000,,410,,118,580000000,"""map""",,,-0.028116626665,0.00791334733367,0.00750797707587,,0.00904906851922,-0.00898408755054,0.0287630324726,-0.999504926003
118616000000,,411,,118,616000000,"""map""",,,-0.0278839468956,0.0075399489142,0.00748572591692,,0.00902170808116,-0.00899584048376,0.0287908072457,-0.9995042938
118648000000,,412,,118,648000000,"""map""",,,-0.0278231874108,0.0072383931838,0.00737144844607,,0.00899716832557,-0.00898229265918,0.0287830100788,-0.999504841709
118680000000,,413,,118,680000000,"""map""",,,-0.0278370045125,0.00697031058371,0.0071457196027,,0.00892905815404,-0.00898516872885,0.0287868875888,-0.999505347472
118716000000,,414,,118,716000000,"""map""",,,-0.0278706550598,0.00670707784593,0.00693594943732,,0.00910765327404,-0.00900090745897,0.0287918187701,-0.999503450863
118748000000,,415,,118,748000000,"""map""",,,-0.0277491733432,0.00642279023305,0.00659717945382,,0.00912687017644,-0.00905403825622,0.0287707453458,-0.99950336657
118780000000,,416,,118,780000000,"""map""",,,-0.027488918975,0.00608586613089,0.00618566665798,,0.00911602720253,-0.00903946931465,0.0287830522256,-0.999503282276
118816000000,,417,,118,816000000,"""map""",,,-0.0273405350745,0.00569259375334,0.00555899878964,,0.00911495846454,-0.009104107354,0.0287849909806,-0.999502607926
118848000000,,418,,118,848000000,"""map""",,,-0.0273332875222,0.00538980495185,0.00497294357046,,0.00908615836008,-0.00910259597185,0.0287908493926,-0.999502734367
118880000000,,419,,118,880000000,"""map""",,,-0.0274130608886,0.00509819248691,0.00431156437844,,0.00904735979944,-0.00915826775987,0.028799363056,-0.999502312899
118916000000,,420,,118,916000000,"""map""",,,-0.0275765582919,0.00481698475778,0.00357224489562,,0.00905623313619,-0.00915255938803,0.0288067809013,-0.999502060017
118948000000,,421,,118,948000000,"""map""",,,-0.0276304371655,0.00457597989589,0.00297948112711,,0.00903635777417,-0.00919193820419,0.0288760703203,-0.999499952675
118980000000,,422,,118,980000000,"""map""",,,-0.0276180133224,0.00439334195107,0.00254451762885,,0.00902247056766,-0.00921249646657,0.0289144239524,-0.99949868827
119016000000,,423,,119,16000000,"""map""",,,-0.0277514122427,0.0041802697815,0.00174173549749,,0.00902953752196,-0.00920913316658,0.0289191865463,-0.999498561829
119048000000,,424,,119,48000000,"""map""",,,-0.0279474072158,0.00400377018377,0.00105290603824,,0.00904828997298,-0.00917104321463,0.0289553063955,-0.999497676745
119080000000,,425,,119,80000000,"""map""",,,-0.0282152146101,0.00383192906156,0.000446822377853,,0.00908996504381,-0.00913214061618,0.0289785714558,-0.999497002396
119116000000,,426,,119,116000000,"""map""",,,-0.0285465754569,0.00364198395982,-0.000140773307066,,0.00903400652847,-0.00912242512191,0.0289387848309,-0.999498772563
119148000000,,427,,119,148000000,"""map""",,,-0.0286612659693,0.00328974123113,-0.000627881789114,,0.00914947183297,-0.00912441123041,0.0289418194039,-0.999497592451
119180000000,,428,,119,180000000,"""map""",,,-0.0286006778479,0.00280992779881,-0.000960195728112,,0.00914422083959,-0.00912720848696,0.0289487314871,-0.999497423864
119216000000,,429,,119,216000000,"""map""",,,-0.0286563318223,0.00224861921743,-0.00144547200762,,0.00907317182187,-0.00917653212136,0.0289475513753,-0.999497676745
119248000000,,430,,119,248000000,"""map""",,,-0.0288176145405,0.00182777561713,-0.00183118938003,,0.00905747325267,-0.00916292282578,0.0289497008646,-0.999497887479
119280000000,,431,,119,280000000,"""map""",,,-0.0290453303605,0.00141521031037,-0.00226090848446,,0.00905077122463,-0.00916037230348,0.0289487314871,-0.99949801392
119316000000,,432,,119,316000000,"""map""",,,-0.0293312929571,0.00102728116326,-0.00297828181647,,0.00909153593099,-0.00910304125147,0.0289570344163,-0.999497887479
119348000000,,433,,119,348000000,"""map""",,,-0.0293741300702,0.000746493984479,-0.00359584367834,,0.00922941881211,-0.00910547313158,0.0290295269957,-0.999494515732
119380000000,,434,,119,380000000,"""map""",,,-0.0291925538331,0.000529702519998,-0.00393624091521,,0.00925431862177,-0.0091167642939,0.0290200018079,-0.999494431438
119416000000,,435,,119,416000000,"""map""",,,-0.029070597142,0.000234885403188,-0.00452033197507,,0.00920674951071,-0.00912753262077,0.0290624015375,-0.999493504207
119448000000,,436,,119,444000000,"""map""",,,-0.0290723070502,-1.47975297295e-05,-0.00501582492143,,0.00921908058942,-0.00916635596235,0.029069229327,-0.999492914151
119480000000,,437,,119,480000000,"""map""",,,-0.0291317682713,-0.000254976097494,-0.00551308877766,,0.00920610771118,-0.00919818165277,0.0290527920561,-0.999493167032
119516000000,,438,,119,516000000,"""map""",,,-0.0292476359755,-0.000492558872793,-0.00611253920943,,0.00915629374698,-0.00926900977221,0.0290509797416,-0.999493040592
119548000000,,439,,119,548000000,"""map""",,,-0.029257895425,-0.000701845914591,-0.0066380710341,,0.00918460513102,-0.00929859235296,0.0290086643057,-0.999493714941
119580000000,,440,,119,580000000,"""map""",,,-0.0291782598943,-0.000871941214427,-0.00714830774814,,0.00919821974641,-0.00929012887271,0.0290256916325,-0.999493209179
119616000000,,441,,119,616000000,"""map""",,,-0.0292286984622,-0.00108399230521,-0.00779743213207,,0.00926846147475,-0.00928300073293,0.0290520755597,-0.99949186048
119648000000,,442,,119,648000000,"""map""",,,-0.0293831750751,-0.00124846911058,-0.00829854235053,,0.00917669478186,-0.00927406148257,0.0290498839235,-0.999492872004
119680000000,,443,,119,680000000,"""map""",,,-0.0296203028411,-0.00140585342888,-0.00881302263588,,0.00919648483663,-0.00930053286239,0.0290432668683,-0.99949266127
119716000000,,444,,119,716000000,"""map""",,,-0.0299594867975,-0.00158919661772,-0.0094323894009,,0.00911467534957,-0.00930112142111,0.0290867202691,-0.999492113361
119748000000,,445,,119,748000000,"""map""",,,-0.0301033034921,-0.00174671283457,-0.00985182821751,,0.00912727502439,-0.00937342920679,0.0290930844433,-0.999491143984
119780000000,,446,,119,780000000,"""map""",,,-0.0300811994821,-0.00186911737546,-0.0101092318073,,0.00909976337834,-0.00918557309112,0.0291120926719,-0.99949253483
119816000000,,447,,119,816000000,"""map""",,,-0.03016500175,-0.00204954831861,-0.0105630066246,,0.00905503010399,-0.00922131986712,0.029182182881,-0.999490553928
119848000000,,448,,119,848000000,"""map""",,,-0.0303142089397,-0.00223691156134,-0.0111860288307,,0.00908351018347,-0.00927148317278,0.0292156896256,-0.999488910201
119880000000,,449,,119,880000000,"""map""",,,-0.0305160973221,-0.00242521241307,-0.0118190050125,,0.00909555962379,-0.00929679559658,0.0292037199206,-0.999488910201
119912000000,,450,,119,912000000,"""map""",,,-0.0308072902262,-0.0026396852918,-0.0125820953399,,0.0091097516901,-0.00932120082388,0.0292590587327,-0.999486929299
119948000000,,451,,119,948000000,"""map""",,,-0.0309284068644,-0.00290632992983,-0.0133394505829,,0.00912207929344,-0.00932245635956,0.0292793735137,-0.999486170656
119980000000,,452,,119,980000000,"""map""",,,-0.0308960191905,-0.00320108258165,-0.0139649128541,,0.00905624609099,-0.00924285395869,0.0292608289003,-0.999488109411
120016000000,,453,,120,16000000,"""map""",,,-0.0310157816857,-0.00353940669447,-0.014671748504,,0.00904030883028,-0.00932470757338,0.0292918911277,-0.999486549977
120048000000,,454,,120,48000000,"""map""",,,-0.0312230307609,-0.00383146526292,-0.0152634484693,,0.00902527971274,-0.00944861517152,0.029247299762,-0.999486802858
120080000000,,455,,120,80000000,"""map""",,,-0.0315424315631,-0.00414823461324,-0.0158956348896,,0.00904122186108,-0.0094646861888,0.0292537482298,-0.999486339243
120116000000,,456,,120,116000000,"""map""",,,-0.0319053083658,-0.00442285882309,-0.0166400112212,,0.00902619488381,-0.00942959002648,0.029223360352,-0.999487730089
120148000000,,457,,120,148000000,"""map""",,,-0.0321301370859,-0.0045992010273,-0.0168252699077,,0.00866853429896,-0.00904143183388,0.0291737956581,-0.999495906578
120180000000,,458,,120,180000000,"""map""",,,-0.0325217433274,-0.00480390712619,-0.0148246120661,,0.00769739273798,-0.00789152402393,0.0290666162224,-0.999516769268
120216000000,,459,,120,216000000,"""map""",,,-0.0336347557604,-0.00536457030103,-0.00922054424882,,0.00252172475566,-0.00269706562653,0.0285090134166,-0.999586733036
120248000000,,460,,120,248000000,"""map""",,,-0.0349871739745,-0.00603441614658,-0.00293911341578,,-0.00606258648546,0.00571583501966,0.0277263464397,-0.999580832477
120280000000,,461,,120,280000000,"""map""",,,-0.0366479456425,-0.00687930034474,0.00381091958843,,-0.0108255524654,0.0107692480624,0.0272854904043,-0.999511037296
120316000000,,462,,120,316000000,"""map""",,,-0.0385502874851,-0.00790506415069,0.0107042547315,,-0.0215119960469,0.0225940697904,0.0263146798957,-0.999166866131
120348000000,,463,,120,348000000,"""map""",,,-0.0402334146202,-0.00904722604901,0.0161909703165,,-0.0286957316111,0.0312765364216,0.0253470304008,-0.998777218517
120380000000,,464,,120,380000000,"""map""",,,-0.0420610755682,-0.0105643123388,0.0180810168386,,-0.0289158365304,0.0332263145827,0.0246778648869,-0.998724661397
120416000000,,465,,120,416000000,"""map""",,,-0.0452266335487,-0.0130674168468,0.0156715512276,,-0.0213558888122,0.0294001015149,0.0231046073257,-0.999072457191
120448000000,,466,,120,448000000,"""map""",,,-0.0484400428832,-0.0155080864206,0.0112891625613,,-0.0100267346022,0.0198097596627,0.0215995855123,-0.999520183162
120480000000,,467,,120,480000000,"""map""",,,-0.0521197728813,-0.0181405544281,0.00631179613993,,-0.00405316759088,0.0135972634843,0.0208521954476,-0.99968190062
120516000000,,468,,120,516000000,"""map""",,,-0.0561085939407,-0.0208257678896,0.00177273864392,,0.00266488085862,0.00539418531545,0.0201203575701,-0.999779512721
120548000000,,469,,120,548000000,"""map""",,,-0.0598047822714,-0.0232767052948,-0.00059453753056,,0.007303243447,-0.00138041004604,0.019511630637,-0.999781999385
120580000000,,470,,120,580000000,"""map""",,,-0.0630477592349,-0.0253895930946,0.00217232806608,,0.00190153623103,0.00203055301297,0.0190518928135,-0.99981470534
120616000000,,471,,120,616000000,"""map""",,,-0.0674137100577,-0.0282797813416,0.0186443608254,,-0.0207343901493,0.0214415186137,0.0182866746319,-0.999387842058
120648000000,,472,,120,648000000,"""map""",,,-0.0719311535358,-0.0316099710763,0.0420782789588,,-0.0412042585278,0.0409385689107,0.0178848887251,-0.998151464257
120680000000,,473,,120,680000000,"""map""",,,-0.0775272995234,-0.0360874533653,0.0693171992898,,-0.0481356946191,0.0475426985857,0.0179824165325,-0.997546656981
120716000000,,474,,120,716000000,"""map""",,,-0.0840358138084,-0.0416237562895,0.0957228317857,,-0.059815531641,0.0565308120632,0.0186403288378,-0.996433137243
120748000000,,475,,120,748000000,"""map""",,,-0.0912430360913,-0.0479409024119,0.11805858463,,-0.069979979589,0.0629452379088,0.0197783358944,-0.995364082431
120780000000,,476,,120,780000000,"""map""",,,-0.0988804548979,-0.0546666868031,0.132794991136,,-0.0755072167429,0.0644647325549,0.0203768211433,-0.994850649522
120816000000,,477,,120,816000000,"""map""",,,-0.108987435699,-0.0636331886053,0.14010874927,,-0.0830352448088,0.0617830441587,0.0210174110938,-0.99440747541
120848000000,,478,,120,848000000,"""map""",,,-0.117648333311,-0.0715250149369,0.139142632484,,-0.08216124166,0.046447854059,0.0206616495455,-0.995321682701
120880000000,,479,,120,880000000,"""map""",,,-0.126778781414,-0.0803682282567,0.134768620133,,-0.0690450212312,0.0307167272448,0.019850238418,-0.99694298767
120916000000,,480,,120,916000000,"""map""",,,-0.136111393571,-0.090085722506,0.129223838449,,-0.0378831942902,0.00453487972758,0.0185162906626,-0.999100316257
120948000000,,481,,120,948000000,"""map""",,,-0.145123645663,-0.100069716573,0.127080500126,,-0.00945632113008,-0.0157193875998,0.0175936540018,-0.999676927292
120980000000,,482,,120,980000000,"""map""",,,-0.153066471219,-0.109786354005,0.132975682616,,-0.00541677092254,-0.0171096264227,0.0176856605721,-0.999682532823
121016000000,,483,,121,16000000,"""map""",,,-0.161254823208,-0.121540635824,0.158349692822,,-0.00595413665561,-0.0124414348961,0.0189665875921,-0.999725016846
121048000000,,484,,121,48000000,"""map""",,,-0.166926890612,-0.130744114518,0.192089304328,,-0.0103274065975,-0.00423039541814,0.0207834539377,-0.999721729392
121080000000,,485,,121,80000000,"""map""",,,-0.172409161925,-0.139950156212,0.233103647828,,-0.0206031207438,0.00805360157175,0.0217730619407,-0.999518160114
121116000000,,486,,121,116000000,"""map""",,,-0.178181156516,-0.149515733123,0.276717960835,,-0.0385828286827,0.0297931995733,0.0230416399341,-0.998545368703
121148000000,,487,,121,148000000,"""map""",,,-0.1847769171,-0.159723371267,0.318279206753,,-0.0535734849241,0.048983337178,0.0243397628682,-0.997064749915
121180000000,,488,,121,180000000,"""map""",,,-0.192416489124,-0.170674920082,0.356664508581,,-0.0598307057412,0.0574409088018,0.025216754492,-0.99623538423
121216000000,,489,,121,216000000,"""map""",,,-0.203357502818,-0.185530886054,0.403046131134,,-0.0663400406714,0.0665901817646,0.0264994516796,-0.995219898062
121248000000,,490,,121,248000000,"""map""",,,-0.21344807744,-0.198578193784,0.440654635429,,-0.0706394635518,0.0713608765875,0.0277554277652,-0.99455886689
121280000000,,491,,121,280000000,"""map""",,,-0.2249455899,-0.212821468711,0.479962646961,,-0.07199485045,0.072288479106,0.0283309851285,-0.994378478378
121316000000,,492,,121,316000000,"""map""",,,-0.237864598632,-0.228299185634,0.521502673626,,-0.0738518457635,0.0739314213132,0.0292741473045,-0.994094155738
121348000000,,493,,121,348000000,"""map""",,,-0.252192080021,-0.244764849544,0.565746843815,,-0.0750116497353,0.0747874589589,0.0299836473523,-0.993922112303
121380000000,,494,,121,380000000,"""map""",,,-0.267787843943,-0.262152850628,0.612005472183,,-0.0755361034685,0.0744728122375,0.0303346041598,-0.993895349054
121416000000,,495,,121,416000000,"""map""",,,-0.288786917925,-0.285323709249,0.67128944397,,-0.0760830879026,0.07379216961,0.0308434009151,-0.993888689852
121448000000,,496,,121,448000000,"""map""",,,-0.306701421738,-0.304929405451,0.719884395599,,-0.0762812213899,0.0738593294607,0.0313595312219,-0.993852443562
121480000000,,497,,121,480000000,"""map""",,,-0.325539588928,-0.325441658497,0.769523084164,,-0.07641582443,0.0737525117305,0.0316557392733,-0.993840642444
121516000000,,498,,121,516000000,"""map""",,,-0.345268249512,-0.346831083298,0.820465862751,,-0.076589811889,0.0732262082281,0.0320375897208,-0.993853876555
121548000000,,499,,121,548000000,"""map""",,,-0.366250485182,-0.368924885988,0.872552633286,,-0.0765182478573,0.073239346191,0.0323594652028,-0.993848018143
121580000000,,500,,121,580000000,"""map""",,,-0.388380914927,-0.391720414162,0.925944507122,,-0.0764566293294,0.0732730845786,0.0325311714637,-0.993844646395
121616000000,,501,,121,616000000,"""map""",,,-0.417052924633,-0.421335488558,0.994550406933,,-0.0763126117371,0.073170037345,0.0327192728486,-0.993857164009
121648000000,,502,,121,648000000,"""map""",,,-0.44076359272,-0.445840865374,1.05095613003,,-0.0760045167927,0.0729496002723,0.0329838286167,-0.993888226236
121680000000,,503,,121,680000000,"""map""",,,-0.46513274312,-0.471042484045,1.10859334469,,-0.0758992387396,0.0729578878903,0.033065256328,-0.993892946683
121716000000,,504,,121,716000000,"""map""",,,-0.490107238293,-0.496865510941,1.16741895676,,-0.0757447637897,0.0729181501622,0.0332486794127,-0.99390154464
121748000000,,505,,121,748000000,"""map""",,,-0.516059458256,-0.523263275623,1.2272734642,,-0.0756139994056,0.072303378943,0.0335015605038,-0.993947906174
121780000000,,506,,121,780000000,"""map""",,,-0.542541861534,-0.549778103828,1.2825012207,,-0.0755119615561,0.0703645399471,0.0334662414447,-0.994096010199
121812000000,,507,,121,816000000,"""map""",,,-0.575523853302,-0.58285087347,1.33995735645,,-0.0751592276662,0.0617964613445,0.0335716928597,-0.994688510596
121848000000,,508,,121,848000000,"""map""",,,-0.60176384449,-0.609303534031,1.3760881424,,-0.0747060581655,0.047270177269,0.033728816311,-0.995513408715
121880000000,,509,,121,880000000,"""map""",,,-0.627840042114,-0.635735273361,1.40333342552,,-0.0739770454439,0.0379304975422,0.0337490889451,-0.995966698071
121916000000,,510,,121,916000000,"""map""",,,-0.653752923012,-0.662158489227,1.42175602913,,-0.0691132793694,0.0168381111562,0.0335402513107,-0.996902653136
121948000000,,511,,121,948000000,"""map""",,,-0.680247008801,-0.688757121563,1.43244874477,,-0.0562587750649,-0.00530280320999,0.0325824220315,-0.997870344777
121980000000,,512,,121,980000000,"""map""",,,-0.706991016865,-0.715431511402,1.43637418747,,-0.0428687476347,-0.018421631475,0.0317447534173,-0.99840632625
122016000000,,513,,122,16000000,"""map""",,,-0.738879740238,-0.748456597328,1.43424153328,,-0.016281317043,-0.0355857485044,0.0302316394089,-0.998776586314
122048000000,,514,,122,48000000,"""map""",,,-0.762523531914,-0.774091422558,1.4305382967,,0.0142904382137,-0.0487075520736,0.0287173452888,-0.998297924555
122080000000,,515,,122,80000000,"""map""",,,-0.784007608891,-0.798451840878,1.42747092247,,0.0296563138533,-0.0534254452712,0.0280166539323,-0.997738087967
122116000000,,516,,122,116000000,"""map""",,,-0.803193569183,-0.821092784405,1.42576479912,,0.0474787498392,-0.0576077050371,0.0274257129693,-0.996832478633
122148000000,,517,,122,148000000,"""map""",,,-0.820562720299,-0.841860532761,1.42578196526,,0.062445342535,-0.0591270207237,0.0270462227453,-0.995928260145
122180000000,,518,,122,180000000,"""map""",,,-0.836258351803,-0.860706567764,1.42674481869,,0.066604057853,-0.0588901012698,0.026982033095,-0.995674578264
122216000000,,519,,122,216000000,"""map""",,,-0.853256344795,-0.881511628628,1.42745041847,,0.0747219666252,-0.0577525640847,0.0269379896383,-0.99516616083
122248000000,,520,,122,248000000,"""map""",,,-0.864962160587,-0.896058022976,1.42722260952,,0.0802279472795,-0.0568117509369,0.0270111565674,-0.994789620885
122280000000,,521,,122,280000000,"""map""",,,-0.875124692917,-0.908717095852,1.42635345459,,0.0821594109062,-0.0564032742179,0.0270959981734,-0.994652854362
