rosbagTimestamp,header,seq,stamp,secs,nsecs,frame_id,pose,position,x,y,z,orientation,x,y,z,w
98244000000,,65,,98,244000000,"""map""",,,0.0309267770499,0.00995446834713,0.0282583124936,,0.0103471942136,-0.0185339100209,0.0531450686298,-0.998361229122
98276000000,,66,,98,276000000,"""map""",,,0.0321312397718,0.0103436857462,0.0275845117867,,0.0103547589143,-0.0182253272597,0.0531097917176,-0.998368689114
98312000000,,67,,98,312000000,"""map""",,,0.0335949100554,0.0107707744464,0.0271721947938,,0.0103233298777,-0.0181866397455,0.0531068835851,-0.998369911373
98344000000,,68,,98,344000000,"""map""",,,0.0344478674233,0.0108941625804,0.0265048742294,,0.0103576578273,-0.0181832581195,0.0530949138801,-0.998370248548
98376000000,,69,,98,376000000,"""map""",,,0.0347042307258,0.0107290241867,0.0255439653993,,0.0103738036922,-0.0180837220805,0.0530322415163,-0.998375179729
98412000000,,70,,98,412000000,"""map""",,,0.0353097915649,0.0105957016349,0.024575971067,,0.0102842334074,-0.0179262301736,0.0529401085055,-0.99838386198
98444000000,,71,,98,444000000,"""map""",,,0.0360590517521,0.010560634546,0.0238435883075,,0.0102654639011,-0.0179124096293,0.0529002375868,-0.99838639079
98476000000,,72,,98,476000000,"""map""",,,0.0370506606996,0.0105475028977,0.02317590639,,0.0102587615643,-0.0177837731671,0.0529201308993,-0.99838773949
98512000000,,73,,98,512000000,"""map""",,,0.0382565148175,0.0105794658884,0.0225987397134,,0.0102368791181,-0.0177234271119,0.0528445194531,-0.998393049993
98544000000,,74,,98,544000000,"""map""",,,0.0387535728514,0.010521069169,0.022272085771,,0.0101142001788,-0.0176596220516,0.0528241203784,-0.99839642174
98576000000,,75,,98,576000000,"""map""",,,0.0386064462364,0.0103952568024,0.0222243852913,,0.0100172746103,-0.0175106260274,0.0528053650308,-0.998401015747
98612000000,,76,,98,612000000,"""map""",,,0.03877678141,0.0102999387309,0.0223531238735,,0.00989411921409,-0.017337007024,0.0528256376649,-0.998404261054
98644000000,,77,,98,644000000,"""map""",,,0.0391863696277,0.0102707352489,0.0224811416119,,0.00992597959738,-0.0172854166473,0.0527997595,-0.998406199809
98676000000,,78,,98,676000000,"""map""",,,0.0398136153817,0.0103129865602,0.022701498121,,0.00992619099017,-0.0171868028999,0.0527878740887,-0.998408560033
98712000000,,79,,98,712000000,"""map""",,,0.0406556352973,0.0104004507884,0.0230926908553,,0.00992317814904,-0.0171169095956,0.0527504898341,-0.998411721046
98744000000,,80,,98,744000000,"""map""",,,0.0408137142658,0.0105448691174,0.0233515538275,,0.00987505994821,-0.0170958990624,0.052710450328,-0.998414671326
98776000000,,81,,98,776000000,"""map""",,,0.0402566641569,0.0107843764126,0.0234634000808,,0.00992764999553,-0.0169716145916,0.0526517819148,-0.998419391773
98812000000,,82,,98,812000000,"""map""",,,0.0400874130428,0.0110104428604,0.0236356351525,,0.00991270004738,-0.0167678039567,0.0525193565168,-0.998429928485
98844000000,,83,,98,844000000,"""map""",,,0.0401474274695,0.011287683621,0.02387615107,,0.00990572704886,-0.016700053227,0.0524451780634,-0.998435070401
98876000000,,84,,98,876000000,"""map""",,,0.0404454506934,0.0116126900539,0.0241540856659,,0.00987970169917,-0.0165690736634,0.0523090015959,-0.998444637735
98912000000,,85,,98,912000000,"""map""",,,0.0409754663706,0.011988542974,0.0245676189661,,0.00992272342406,-0.0164635850407,0.0522146348021,-0.998450917616
98944000000,,86,,98,944000000,"""map""",,,0.0407425686717,0.0121641587466,0.0246590357274,,0.00989759303637,-0.0163935768204,0.0521972703005,-0.998453193545
98976000000,,87,,98,976000000,"""map""",,,0.039767626673,0.0121422559023,0.0244006682187,,0.00990294173486,-0.0161773226578,0.0521414678731,-0.998459599866
99012000000,,88,,99,12000000,"""map""",,,0.0388961061835,0.0121969850734,0.0239893309772,,0.00990468621926,-0.0160099700347,0.0521045050869,-0.998464193873
99044000000,,89,,99,44000000,"""map""",,,0.0384686887264,0.0122823202983,0.0237316340208,,0.00986265593313,-0.0159384013932,0.052097803738,-0.998466090481
99076000000,,90,,99,76000000,"""map""",,,0.0382805578411,0.0123900938779,0.023675294593,,0.00984339844535,-0.0158155449762,0.052027418501,-0.998471906746
99112000000,,91,,99,112000000,"""map""",,,0.0382928177714,0.0125307403505,0.023740299046,,0.00974153873213,-0.0156340751345,0.0519882640787,-0.998477765158
99144000000,,92,,99,144000000,"""map""",,,0.0376788899302,0.0126770520583,0.0233830958605,,0.00973582157798,-0.0156038541977,0.0519349061685,-0.998481136906
99176000000,,93,,99,176000000,"""map""",,,0.0365093648434,0.0128142386675,0.0227410458028,,0.00968527828699,-0.0154399964703,0.0518734139165,-0.998487332493
99212000000,,94,,99,212000000,"""map""",,,0.0354315973818,0.0130941746756,0.022157991305,,0.00964988711732,-0.0153241884551,0.0517348772255,-0.998496646946
99244000000,,95,,99,244000000,"""map""",,,0.0348098352551,0.0133816851303,0.0218390673399,,0.00960874421991,-0.0152551252462,0.0517190300104,-0.998498922876
99276000000,,96,,99,276000000,"""map""",,,0.0344148017466,0.0137308770791,0.0216568987817,,0.00965966321054,-0.0151409754461,0.051666557184,-0.998502926827
99312000000,,97,,99,312000000,"""map""",,,0.0342271402478,0.0141474260017,0.0215144790709,,0.00982687161238,-0.0150111908116,0.0515353540446,-0.99850996535
99344000000,,98,,99,344000000,"""map""",,,0.0334431417286,0.0141260558739,0.0210132282227,,0.00980643236649,-0.0149885744175,0.0515008357757,-0.998512367721
99376000000,,99,,99,376000000,"""map""",,,0.0321121774614,0.0137229710817,0.0200097989291,,0.00976605255753,-0.0148629562295,0.0513896523893,-0.998520291328
99412000000,,100,,99,412000000,"""map""",,,0.0307705681771,0.0132517646998,0.0189855471253,,0.00966846729206,-0.0146783472707,0.0512616945573,-0.998530575159
99444000000,,101,,99,444000000,"""map""",,,0.0299454070628,0.0129396449775,0.018497299403,,0.00964533064786,-0.0146685408845,0.0512063135983,-0.998533862613
99476000000,,102,,99,476000000,"""map""",,,0.0293367318809,0.0126507431269,0.0182704553008,,0.0095407756766,-0.0145434534832,0.0511269932294,-0.998540690403
99512000000,,103,,99,512000000,"""map""",,,0.028951253742,0.0124006057158,0.0182443223894,,0.00950504634432,-0.0144501713122,0.0510563551113,-0.998546000906
99544000000,,104,,99,544000000,"""map""",,,0.0281378291547,0.0120515096933,0.0182157475501,,0.00947658289823,-0.014390726969,0.0509683103448,-0.998551606437
99576000000,,105,,99,576000000,"""map""",,,0.0269667413086,0.0116098439321,0.0182737596333,,0.00944393950552,-0.0143235508194,0.0508653455939,-0.998558139198
99612000000,,106,,99,612000000,"""map""",,,0.0258566997945,0.0111752925441,0.0183823853731,,0.00930248365129,-0.0141697838049,0.0507955504127,-0.998565219869
99644000000,,107,,99,644000000,"""map""",,,0.0252185426652,0.01090480946,0.0185018349439,,0.0092388922887,-0.014111033403,0.0507190960295,-0.998570530372
99680000000,,108,,99,676000000,"""map""",,,0.0248079374433,0.0106905009598,0.0187843833119,,0.00910607176397,-0.0140077262089,0.050560370998,-0.998581319965
99712000000,,109,,99,712000000,"""map""",,,0.0245875418186,0.0105129517615,0.0191303826869,,0.00911626356341,-0.0139640065915,0.0504380608437,-0.998587979167
99744000000,,110,,99,744000000,"""map""",,,0.0239021908492,0.0102460971102,0.0191752649844,,0.00909293561203,-0.013928197246,0.0504186311465,-0.998589707188
99776000000,,111,,99,776000000,"""map""",,,0.0227958671749,0.00988014694303,0.0189230665565,,0.0090298116514,-0.0138109564027,0.0503206818706,-0.998596787858
99812000000,,112,,99,812000000,"""map""",,,0.0217578448355,0.00944650638849,0.0187825225294,,0.00901086269173,-0.0136862820735,0.0502648372963,-0.998601550452
99844000000,,113,,99,844000000,"""map""",,,0.0211878344417,0.00911925546825,0.0188781991601,,0.00895186467708,-0.0136086795179,0.0502336907752,-0.998604711466
99876000000,,114,,99,876000000,"""map""",,,0.0208301022649,0.0088405739516,0.0190658047795,,0.00889700149875,-0.013552967805,0.0501314003739,-0.99861107564
99912000000,,115,,99,912000000,"""map""",,,0.0206538289785,0.0085677690804,0.0192158501595,,0.00884173331556,-0.0134929538208,0.0500608044026,-0.998615922527
99944000000,,116,,99,944000000,"""map""",,,0.0199979431927,0.00818927958608,0.0191968213767,,0.00884802340342,-0.0135203206257,0.0500041168914,-0.998618324898
99976000000,,117,,99,976000000,"""map""",,,0.0189075488597,0.00769842555746,0.0190372783691,,0.00879643039249,-0.0134123245947,0.0498844198416,-0.998626248505
100012000000,,118,,100,12000000,"""map""",,,0.0178756583482,0.00715079065412,0.0188703797758,,0.00881579456448,-0.0133253041942,0.0498064903187,-0.998631095393
100044000000,,119,,100,44000000,"""map""",,,0.0172964241356,0.00676865736023,0.0189133491367,,0.00876185384237,-0.0132729808574,0.0497449980667,-0.998635352225
100076000000,,120,,100,76000000,"""map""",,,0.0169664230198,0.00639138231054,0.019110634923,,0.00897235018572,-0.0132298404298,0.0496003922295,-0.998641210637
100112000000,,121,,100,112000000,"""map""",,,0.0168338585645,0.00601078523323,0.019370438531,,0.00892651680506,-0.0131805299342,0.0494607175735,-0.998649218538
100144000000,,122,,100,144000000,"""map""",,,0.0162505656481,0.00546797458082,0.0194552913308,,0.00888060357587,-0.0131762857794,0.0494034400064,-0.998652548139
100176000000,,123,,100,176000000,"""map""",,,0.0152563564479,0.00477101653814,0.0194999147207,,0.00883673990182,-0.0130905228696,0.0492756507617,-0.998660303159
100212000000,,124,,100,212000000,"""map""",,,0.0143394721672,0.00397940119728,0.0196913313121,,0.00879619068229,-0.013051851819,0.0491449112376,-0.998667636711
100244000000,,125,,100,244000000,"""map""",,,0.0138629376888,0.00338261388242,0.0198241602629,,0.00879961857109,-0.0130311647958,0.0491035230324,-0.998669996934
100276000000,,126,,100,276000000,"""map""",,,0.0135972909629,0.00280447676778,0.0199414212257,,0.00869268049189,-0.0129689912795,0.04900793398,-0.998676403255
100312000000,,127,,100,312000000,"""map""",,,0.0135021442547,0.00226838211529,0.0200834833086,,0.00867807973697,-0.012871431368,0.0488714203377,-0.998684453303
100344000000,,128,,100,344000000,"""map""",,,0.0131085300818,0.00177495344542,0.0201184991747,,0.00866863933681,-0.0128368651899,0.0488119089876,-0.998687909345
100376000000,,129,,100,376000000,"""map""",,,0.0124381119385,0.00130035099573,0.0199748277664,,0.0086674521457,-0.0127974689172,0.0486971852659,-0.998694062785
100412000000,,130,,100,412000000,"""map""",,,0.0118720065802,0.000709365936927,0.0197881124914,,0.00867702063276,-0.0126813834902,0.0485288928998,-0.998703630119
100444000000,,131,,100,444000000,"""map""",,,0.0116322673857,0.000215882406337,0.0197304990143,,0.00872265315735,-0.0126790423644,0.0484445992028,-0.998707339042
100476000000,,132,,100,476000000,"""map""",,,0.0115674966946,-0.000261949171545,0.0197425708175,,0.00865255323475,-0.0126913563236,0.0482933341635,-0.998715136209
100512000000,,133,,100,512000000,"""map""",,,0.0116516361013,-0.000687340623699,0.019713928923,,0.00866959159217,-0.012662286358,0.048085634494,-0.998725335746
100544000000,,134,,100,544000000,"""map""",,,0.011124804616,-0.00106765842065,0.0195660945028,,0.00861513967489,-0.0126075015464,0.0480729904395,-0.998727105914
100576000000,,135,,100,576000000,"""map""",,,0.0100583788007,-0.00140370451845,0.0192902497947,,0.00856159934785,-0.0125740007288,0.0479385419927,-0.998734439465
100612000000,,136,,100,612000000,"""map""",,,0.00899468362331,-0.0018494654214,0.0191047433764,,0.00858106542959,-0.0124707704198,0.0478106684543,-0.998741688723
100644000000,,137,,100,644000000,"""map""",,,0.00833628606051,-0.00222457479686,0.0191157180816,,0.00857867178494,-0.012489610555,0.0477461837761,-0.998744554709
100676000000,,138,,100,676000000,"""map""",,,0.0078373523429,-0.00260909949429,0.0191565565765,,0.0086026526832,-0.0122574334447,0.047641322417,-0.998752309729
100712000000,,139,,100,712000000,"""map""",,,0.00752411456779,-0.00296365236863,0.019422609359,,0.00859572002053,-0.012169664773,0.0475891446186,-0.998755850065
100744000000,,140,,100,744000000,"""map""",,,0.00693980697542,-0.00306519656442,0.0193741265684,,0.00860459160287,-0.0121486996793,0.0475351545056,-0.998758673903
100776000000,,141,,100,776000000,"""map""",,,0.00611335784197,-0.00291270576417,0.0190509613603,,0.00859289074869,-0.012121865143,0.0473776938796,-0.998766513217
100812000000,,142,,100,812000000,"""map""",,,0.0053686182946,-0.00275480048731,0.0188278984278,,0.00860030513667,-0.0120803144419,0.047213152583,-0.998774774
100844000000,,143,,100,844000000,"""map""",,,0.00497033353895,-0.00264436588623,0.0187397189438,,0.00857027188511,-0.0120623648235,0.0471510702751,-0.998778187894
100876000000,,144,,100,876000000,"""map""",,,0.0047145569697,-0.00257678260095,0.0186625216156,,0.00854784482262,-0.0120819667301,0.0470231124431,-0.998784172747
100912000000,,145,,100,912000000,"""map""",,,0.00461193546653,-0.00255931168795,0.0186308585107,,0.00855730201566,-0.0120404094436,0.0469037104212,-0.998790199746
100944000000,,146,,100,944000000,"""map""",,,0.00419650506228,-0.00256962189451,0.0184049289674,,0.00858174340116,-0.0120304810619,0.0468581918248,-0.998792222795
100976000000,,147,,100,976000000,"""map""",,,0.00348677509464,-0.00259009096771,0.0177787020802,,0.0086167178768,-0.0119099893136,0.0467261457485,-0.998799598493
101012000000,,148,,101,12000000,"""map""",,,0.00286340201274,-0.00263976398855,0.0170838776976,,0.00862787724276,-0.0118524012427,0.046631947542,-0.998804613968
101044000000,,149,,101,44000000,"""map""",,,0.00254856329411,-0.00267845741473,0.0166118107736,,0.00861508238152,-0.011804665327,0.0465283084415,-0.998810050912
101076000000,,150,,101,76000000,"""map""",,,0.00240778760053,-0.00273666670546,0.0161086469889,,0.00862651553736,-0.011830605889,0.0463640621729,-0.998817342317
101112000000,,151,,101,112000000,"""map""",,,0.0023799049668,-0.00281324191019,0.0157823394984,,0.00861232324466,-0.0117863299661,0.0462398132635,-0.998823748637
101144000000,,152,,101,144000000,"""map""",,,0.00189888384193,-0.00291462847963,0.0152922011912,,0.00865465399173,-0.0117772017161,0.0462150730634,-0.998824633721
101176000000,,153,,101,176000000,"""map""",,,0.00101940741297,-0.00308306678198,0.0146140344441,,0.00855663079417,-0.0117025071284,0.0460735017993,-0.99883293665
101212000000,,154,,101,212000000,"""map""",,,0.000146873149788,-0.0033170406241,0.0139631042257,,0.00852328687473,-0.0116689863898,0.0459509809106,-0.998839216531
101244000000,,155,,101,244000000,"""map""",,,-0.000385745079257,-0.00350742670707,0.0136893829331,,0.00852299777369,-0.0116528500737,0.0459505594422,-0.998839385118
101276000000,,156,,101,276000000,"""map""",,,-0.000785620650277,-0.00374627485871,0.0135755138472,,0.00850887759163,-0.0116336610746,0.0458341076997,-0.998845074943
101312000000,,157,,101,312000000,"""map""",,,-0.00105876673479,-0.00403288844973,0.0135898990557,,0.00850621756572,-0.0116063889355,0.0456801031153,-0.998852492788
101344000000,,158,,101,344000000,"""map""",,,-0.00119199417531,-0.00424796482548,0.0133935064077,,0.00850007993091,-0.0116261821492,0.0456243006878,-0.998854853012
101376000000,,159,,101,376000000,"""map""",,,-0.00119528232608,-0.00438358960673,0.0132208559662,,0.00851683313855,-0.0116580743073,0.0454747215225,-0.998861217186
101412000000,,160,,101,412000000,"""map""",,,-0.00105828687083,-0.00455749919638,0.0132146514952,,0.00852020175835,-0.0116144212029,0.0452714894189,-0.998870910961
101444000000,,161,,101,444000000,"""map""",,,-0.000846524606459,-0.00471069244668,0.0133751062676,,0.00855583362604,-0.0116555927469,0.0451932648681,-0.998873608359
101476000000,,162,,101,476000000,"""map""",,,-0.000527238240466,-0.00488879159093,0.0135710900649,,0.00857734218358,-0.0116127750062,0.0450853267891,-0.998878876715
101512000000,,163,,101,512000000,"""map""",,,-0.000129241583636,-0.0050802254118,0.0137115353718,,0.00859265153239,-0.0115724343807,0.0449205747582,-0.998886589589
101544000000,,164,,101,544000000,"""map""",,,-4.43591270596e-05,-0.00525387981907,0.0137475896627,,0.00880541639694,-0.0115709608873,0.0448479135914,-0.998888022581
101576000000,,165,,101,576000000,"""map""",,,-0.000192851526663,-0.00544002838433,0.0140035096556,,0.00878106062222,-0.0115496321124,0.0446746057503,-0.998896283364
101612000000,,166,,101,612000000,"""map""",,,-0.000179029622814,-0.00570206949487,0.014270153828,,0.00876590339719,-0.0114468203085,0.0444943015324,-0.998905639964
101644000000,,167,,101,644000000,"""map""",,,-6.66092164465e-05,-0.00594215095043,0.0147743187845,,0.00876975950455,-0.0114790076591,0.0444278780992,-0.998908168775
101676000000,,168,,101,676000000,"""map""",,,0.000155081608682,-0.00620510056615,0.0153307151049,,0.00884431159962,-0.0115338450719,0.0443353657667,-0.998910992614
101712000000,,169,,101,712000000,"""map""",,,0.000448456907179,-0.00648561818525,0.015878867358,,0.00879357090992,-0.0114845383629,0.0441996950613,-0.998918031138
101744000000,,170,,101,744000000,"""map""",,,0.000505757401697,-0.00666071614251,0.0161654632539,,0.0087994490782,-0.0114757612817,0.0441820776786,-0.998918874075
101776000000,,171,,101,776000000,"""map""",,,0.000385863473639,-0.00674738455564,0.0160932485014,,0.00870831549096,-0.011428301543,0.0440591774684,-0.99892561757
101812000000,,172,,101,812000000,"""map""",,,0.000414990994614,-0.00690244371071,0.0160110481083,,0.0087546668992,-0.0114799995095,0.0439156674492,-0.99893097022
101844000000,,173,,101,844000000,"""map""",,,0.000559054256883,-0.00704795867205,0.0159216672182,,0.00872124774106,-0.0114341707386,0.0438412782616,-0.998935058464
101876000000,,174,,101,876000000,"""map""",,,0.000810678931884,-0.00724552106112,0.0158591214567,,0.00872437064143,-0.0114988028485,0.0437032473327,-0.99894032682
101912000000,,175,,101,912000000,"""map""",,,0.00115351006389,-0.00747598195449,0.0160194449127,,0.00866790571823,-0.0115057149316,0.0435730135708,-0.998946395967
101944000000,,176,,101,944000000,"""map""",,,0.00103042181581,-0.00757343927398,0.0162075273693,,0.00869252655711,-0.0114788168459,0.0434810912942,-0.998950484211
101976000000,,177,,101,976000000,"""map""",,,0.000480411865283,-0.00751281576231,0.016345789656,,0.00871717818295,-0.0114503746378,0.0433335351776,-0.998957016972
102012000000,,178,,102,12000000,"""map""",,,5.97222242504e-06,-0.0074651367031,0.0166164766997,,0.00869910508747,-0.0113335066953,0.0431335062345,-0.99896721651
102044000000,,179,,102,44000000,"""map""",,,-0.000220813861233,-0.00744177214801,0.0167251322418,,0.00862294260413,-0.0112920847396,0.0430753014367,-0.998970798992
102076000000,,180,,102,76000000,"""map""",,,-0.000327887712047,-0.00746097881347,0.0169366896152,,0.0086598125355,-0.0112231542274,0.0429568687924,-0.998976362376
102112000000,,181,,102,112000000,"""map""",,,-0.000321112689562,-0.00750710442662,0.0170972440392,,0.00861735682961,-0.0111653307269,0.0428227153736,-0.998983148019
102144000000,,182,,102,144000000,"""map""",,,-0.000232458522078,-0.00759218493477,0.017158055678,,0.00859089955705,-0.0112070227681,0.0427581464017,-0.998985676829
102176000000,,183,,102,176000000,"""map""",,,-8.46353868837e-05,-0.00769772520289,0.0172234568745,,0.00860364412196,-0.0109964619697,0.0425648188076,-0.998996171395
102212000000,,184,,102,212000000,"""map""",,,0.000232816702919,-0.00783670786768,0.0176448207349,,0.00864240111261,-0.0110354817196,0.0424221517254,-0.999001524045
102244000000,,185,,102,244000000,"""map""",,,0.000208639117773,-0.00792080629617,0.0176951531321,,0.00866380454999,-0.0110331839755,0.0423525672785,-0.99900426359
102276000000,,186,,102,276000000,"""map""",,,-5.90850468143e-05,-0.00797927938402,0.0175190158188,,0.00863562263167,-0.0111257715467,0.0421222347514,-0.999013240868
102312000000,,187,,102,312000000,"""map""",,,-0.000251451710938,-0.00805672258139,0.0174320228398,,0.00863287864135,-0.011074168493,0.0419944876535,-0.999019183574
102344000000,,188,,102,344000000,"""map""",,,-0.000369435962057,-0.00814827717841,0.0173521265388,,0.00864711242234,-0.0110850265748,0.0419285699825,-0.999021712385
102376000000,,189,,102,376000000,"""map""",,,-0.000402134348406,-0.00825795903802,0.0173980239779,,0.00873082306052,-0.0111387541755,0.0418394293979,-0.999024114755
102412000000,,190,,102,412000000,"""map""",,,-0.000236789332121,-0.00844566058367,0.0176325589418,,0.00870951684078,-0.0111718562444,0.0416707155633,-0.999030984692
102444000000,,191,,102,444000000,"""map""",,,-0.00038407969987,-0.00846395362169,0.0177646689117,,0.00868273926863,-0.0111405080441,0.0416099398077,-0.999034103558
102476000000,,192,,102,476000000,"""map""",,,-0.000800337991677,-0.00833913590759,0.0177526492625,,0.00872081334863,-0.0110682212598,0.0414341453026,-0.999041900725
102512000000,,193,,102,512000000,"""map""",,,-0.0011114643421,-0.00824732426554,0.0177746973932,,0.00867923507099,-0.0110452331998,0.0412893708779,-0.999048517781
102544000000,,194,,102,544000000,"""map""",,,-0.001316010952,-0.00816991366446,0.0178161114454,,0.00868218510343,-0.0110566552427,0.0412506379242,-0.999049908627
102576000000,,195,,102,576000000,"""map""",,,-0.00143048923928,-0.0081115309149,0.0177630968392,,0.00869763710945,-0.0109958545447,0.0411902836371,-0.999053027493
102612000000,,196,,102,612000000,"""map""",,,-0.00147840217687,-0.00803729798645,0.0175498984754,,0.00870023358581,-0.0109232442505,0.0411569454799,-0.999055092689
102644000000,,197,,102,644000000,"""map""",,,-0.00183649454266,-0.00785960629582,0.0172332841903,,0.00873205346861,-0.0109311201135,0.0411192240505,-0.999056314948
102676000000,,198,,102,676000000,"""map""",,,-0.00241872295737,-0.00761291012168,0.0168345719576,,0.00867490818662,-0.0109077741345,0.0410331601858,-0.999060613926
102712000000,,199,,102,712000000,"""map""",,,-0.00289269350469,-0.00738903367892,0.016338346526,,0.00867782553879,-0.0108983780214,0.0409822889397,-0.999062763415
102744000000,,200,,102,744000000,"""map""",,,-0.00326288980432,-0.00718282582238,0.0159335080534,,0.00872103519582,-0.0108924498861,0.040976093353,-0.999062721269
102776000000,,201,,102,776000000,"""map""",,,-0.00352163612843,-0.00702527398244,0.0156391393393,,0.00872399757597,-0.0108549205047,0.0408866155936,-0.999066809513
102812000000,,202,,102,812000000,"""map""",,,-0.00372309633531,-0.00682195927948,0.0153680033982,,0.00876976576073,-0.0109194084757,0.0407873597653,-0.999069717645
102844000000,,203,,102,844000000,"""map""",,,-0.00404931558296,-0.00667704641819,0.0155233824626,,0.00878820352523,-0.0109231294168,0.0407192083113,-0.999072288603
102876000000,,204,,102,876000000,"""map""",,,-0.00452896906063,-0.00655897054821,0.0159950219095,,0.00873919200876,-0.0109007823674,0.0406561144791,-0.99907553391
102912000000,,205,,102,912000000,"""map""",,,-0.0049422448501,-0.00648381887004,0.0164438728243,,0.00871755248318,-0.0108409428152,0.0405802080049,-0.999079453567
102944000000,,206,,102,944000000,"""map""",,,-0.00525312777609,-0.00643818918616,0.0168627537787,,0.00870069514319,-0.0108361722365,0.0405539926651,-0.999080717973
102976000000,,207,,102,976000000,"""map""",,,-0.00552578596398,-0.00643108086661,0.0172640271485,,0.00873370649765,-0.0107586380049,0.0404256555114,-0.999086492091
103012000000,,208,,103,12000000,"""map""",,,-0.005780342035,-0.00642705801874,0.0177711732686,,0.00880563849107,-0.0107620816988,0.0403583048475,-0.999088599434
103044000000,,209,,103,44000000,"""map""",,,-0.00611591106281,-0.00627262564376,0.0181303676218,,0.00879320327745,-0.0107231939047,0.0403233229632,-0.999090453895
103076000000,,210,,103,76000000,"""map""",,,-0.00654788780957,-0.00597445247695,0.0184484571218,,0.00878141994057,-0.0106194790716,0.0401978517952,-0.999096733775
103112000000,,211,,103,112000000,"""map""",,,-0.0069066840224,-0.00570838758722,0.0188168417662,,0.00888357855068,-0.0105667929591,0.0401714257212,-0.999097450272
103144000000,,212,,103,144000000,"""map""",,,-0.00722053367645,-0.00545773655176,0.0191409923136,,0.00897521592447,-0.0105871674207,0.0401292788727,-0.999098124621
103176000000,,213,,103,176000000,"""map""",,,-0.00747542921454,-0.00531002506614,0.019632672891,,0.00897408964872,-0.010552169896,0.0400333104986,-0.999102381453
103212000000,,214,,103,212000000,"""map""",,,-0.00770821236074,-0.00518770841882,0.0201859548688,,0.00894012974322,-0.0105608285215,0.0399798682947,-0.999104741677
103244000000,,215,,103,244000000,"""map""",,,-0.00789964199066,-0.00508258352056,0.0204699188471,,0.00890892897456,-0.0105560648575,0.0399503233539,-0.999106216816
103276000000,,216,,103,276000000,"""map""",,,-0.00808465201408,-0.00501301232725,0.0207170303911,,0.00884974080518,-0.0104988131382,0.0398484965679,-0.999111443025
103312000000,,217,,103,312000000,"""map""",,,-0.00816120114177,-0.00496348226443,0.0209559705108,,0.00883889235455,-0.0104904228696,0.0397752031983,-0.999114519745
103344000000,,218,,103,344000000,"""map""",,,-0.00819718837738,-0.00493084592745,0.0212048441172,,0.00882397558058,-0.0105008233454,0.0397909239728,-0.999113887543
103376000000,,219,,103,376000000,"""map""",,,-0.00819400232285,-0.00488361949101,0.0214584469795,,0.00877367759742,-0.0104982283507,0.0397550991516,-0.999115826298
103412000000,,220,,103,412000000,"""map""",,,-0.00813969969749,-0.0048060733825,0.0217994917184,,0.00874703017013,-0.010490016383,0.0396524294286,-0.99912020957
103444000000,,221,,103,444000000,"""map""",,,-0.00817242916673,-0.00472450163215,0.0220443457365,,0.00872098489948,-0.0105109934951,0.0396225894599,-0.999121389682
103476000000,,222,,103,476000000,"""map""",,,-0.00828673224896,-0.00462781544775,0.0222223438323,,0.00873997411268,-0.010561754682,0.0394888996564,-0.999125941541
103512000000,,223,,103,512000000,"""map""",,,-0.00834835506976,-0.00454420596361,0.022355793044,,0.00872545855696,-0.0105684967784,0.0393729536761,-0.999130619841
103544000000,,224,,103,544000000,"""map""",,,-0.00836022756994,-0.00446867523715,0.0223753470927,,0.00871374123916,-0.0105858222612,0.0393260020869,-0.999132390009
103576000000,,225,,103,576000000,"""map""",,,-0.00832182914019,-0.00438699079677,0.0224407743663,,0.00872436907739,-0.0106210870727,0.0392341219572,-0.999135508876
103612000000,,226,,103,612000000,"""map""",,,-0.0081938104704,-0.00424813944846,0.0226676370949,,0.00868980882624,-0.0105975413077,0.0391206204941,-0.999140524351
103644000000,,227,,103,644000000,"""map""",,,-0.00814573466778,-0.00417645741254,0.0225285626948,,0.0087326594942,-0.0106281894752,0.0390922978119,-0.999140945819
103676000000,,228,,103,676000000,"""map""",,,-0.00812895502895,-0.00415646517649,0.0221751332283,,0.00869372082758,-0.010667664197,0.0390661667658,-0.99914187305
103712000000,,229,,103,712000000,"""map""",,,-0.00808275397867,-0.00416333600879,0.021592784673,,0.00869770856153,-0.0104571542712,0.03889252175,-0.999150892476
103744000000,,230,,103,744000000,"""map""",,,-0.00794172566384,-0.00422452343628,0.02107555978,,0.00870463241616,-0.0105212939544,0.0388275734564,-0.99915270479
103776000000,,231,,103,776000000,"""map""",,,-0.00775796500966,-0.00432343361899,0.0205955542624,,0.00874384355558,-0.010599149638,0.0387943195929,-0.999152746937
103812000000,,232,,103,812000000,"""map""",,,-0.00746554369107,-0.00446316180751,0.0201947018504,,0.00879777497574,-0.0105639972731,0.0387540693526,-0.999154222077
103844000000,,233,,103,844000000,"""map""",,,-0.00731279747561,-0.00448061199859,0.0196604486555,,0.00881137597778,-0.0105786689038,0.0386848642274,-0.999156666594
103876000000,,234,,103,876000000,"""map""",,,-0.00718840910122,-0.0044278963469,0.0189745686948,,0.00885542025766,-0.0106045317577,0.0385993061249,-0.999159279698
103912000000,,235,,103,912000000,"""map""",,,-0.00697935838252,-0.00440858211368,0.01832321845,,0.00884087202166,-0.0106138248085,0.0384013845243,-0.999166950425
103944000000,,236,,103,944000000,"""map""",,,-0.00672969454899,-0.00441273581237,0.0177342314273,,0.00882159848186,-0.0106325794152,0.0383396815381,-0.999169310648
103976000000,,237,,103,976000000,"""map""",,,-0.00647275615484,-0.00448776455596,0.0171424634755,,0.00884479233711,-0.0106091089713,0.038248433611,-0.999172808837
104012000000,,238,,104,12000000,"""map""",,,-0.00613651331514,-0.00464942725375,0.0164848566055,,0.0088293070746,-0.0106911981082,0.0381462696502,-0.999176011997
104044000000,,239,,104,44000000,"""map""",,,-0.0062630311586,-0.00470295688137,0.0159450974315,,0.0088206821995,-0.0106353593785,0.038119337814,-0.999177740018
104076000000,,240,,104,76000000,"""map""",,,-0.00671933125705,-0.00469029974192,0.0151773719117,,0.00884233613074,-0.0106683988858,0.0380553167512,-0.999179636626
104112000000,,241,,104,112000000,"""map""",,,-0.00711735663936,-0.00470117060468,0.0142706232145,,0.0087745492634,-0.0106204109944,0.0379767550255,-0.999183682724
104144000000,,242,,104,144000000,"""map""",,,-0.00746320141479,-0.00475169811398,0.0133453710005,,0.00875113092678,-0.010614828348,0.0379490223992,-0.999185031423
104176000000,,243,,104,176000000,"""map""",,,-0.00773954857141,-0.00483173597604,0.0122247543186,,0.0087414579781,-0.010641950092,0.0379077606345,-0.999186337975
104212000000,,244,,104,212000000,"""map""",,,-0.00805416703224,-0.00496332952753,0.0109046557918,,0.00869545971435,-0.0105866760642,0.0378716407853,-0.999188740346
104244000000,,245,,104,244000000,"""map""",,,-0.00837409496307,-0.00500007579103,0.0101662967354,,0.00869008533262,-0.0105805575272,0.0378251106646,-0.999190594807
104276000000,,246,,104,276000000,"""map""",,,-0.00872341264039,-0.00497367372736,0.00960789900273,,0.00868957158559,-0.0105423014419,0.0377307017239,-0.999194556611
104304000000,,247,,104,304000000,"""map""",,,-0.00900434236974,-0.00495791994035,0.00901294779032,,0.00873345740319,-0.0105643372467,0.0376979957695,-0.99919523096
104304000000,,248,,104,304000000,"""map""",,,-0.00921540148556,-0.00497274519876,0.00853398628533,,0.0087454564134,-0.0105068670553,0.0376852252744,-0.999196200338
104376000000,,249,,104,376000000,"""map""",,,-0.00936582498252,-0.00498985871673,0.00818106997758,,0.00878206391478,-0.0105124538176,0.0376422354889,-0.999197464743
104412000000,,250,,104,412000000,"""map""",,,-0.00949009880424,-0.0050512640737,0.00778365507722,,0.00870093551193,-0.0104964231979,0.03759380876,-0.999200119995
104444000000,,251,,104,444000000,"""map""",,,-0.00945989973843,-0.00503764674067,0.0075077675283,,0.0087060812964,-0.0105178944654,0.0375959161024,-0.99919978282
104476000000,,252,,104,476000000,"""map""",,,-0.00932193547487,-0.00498408358544,0.00718978326768,,0.008669774009,-0.0104346996322,0.0375380063325,-0.999203154568
104512000000,,253,,104,512000000,"""map""",,,-0.00917368382215,-0.00500332796946,0.00693712197244,,0.0087337536659,-0.0104361029082,0.0374796750942,-0.999204756148
104544000000,,254,,104,544000000,"""map""",,,-0.00900370627642,-0.00508018583059,0.00671733636409,,0.00871180059082,-0.0103848653467,0.0374696862911,-0.999205894113
104576000000,,255,,104,576000000,"""map""",,,-0.00880937278271,-0.00517744803801,0.00635837158188,,0.00876881276451,-0.0104364300402,0.0373936112295,-0.999207706427
104612000000,,256,,104,612000000,"""map""",,,-0.00853362400085,-0.00529658002779,0.0058393869549,,0.00896974786478,-0.010429192636,0.0372643046983,-0.999210741001
104644000000,,257,,104,644000000,"""map""",,,-0.00830485671759,-0.00530901178718,0.00567648001015,,0.00898998131552,-0.0104503895374,0.0372423883371,-0.999211162469
104676000000,,258,,104,676000000,"""map""",,,-0.00804154388607,-0.0052417521365,0.00567063642666,,0.00901879494265,-0.0103943780221,0.0372028124463,-0.999212974783
104712000000,,259,,104,712000000,"""map""",,,-0.00773904146627,-0.00524279894307,0.0056891865097,,0.00899869657585,-0.0104529986084,0.0370971081503,-0.999216515119
104744000000,,260,,104,744000000,"""map""",,,-0.00742575060576,-0.00528974086046,0.00567268347368,,0.00904163054969,-0.0104544716078,0.0370550877423,-0.999217653084
104776000000,,261,,104,776000000,"""map""",,,-0.00706916162744,-0.00537297688425,0.00565017061308,,0.00901789709953,-0.0104591467799,0.036999243168,-0.999219886867
104812000000,,262,,104,812000000,"""map""",,,-0.00657884450629,-0.00548603991047,0.00567695777863,,0.00897257302072,-0.0105097010192,0.0369411648108,-0.999221909915
104844000000,,263,,104,844000000,"""map""",,,-0.00614962726831,-0.00549808889627,0.00563430273905,,0.00900572415125,-0.0105215600887,0.0369060986328,-0.999222752852
104876000000,,264,,104,876000000,"""map""",,,-0.00568356085569,-0.00543341878802,0.00568882748485,,0.00895014283014,-0.0105470248524,0.0368786610344,-0.999224059405
104912000000,,265,,104,912000000,"""map""",,,-0.00519246887416,-0.00537822023034,0.00578496512026,,0.00888765337714,-0.0105587668656,0.0368141763562,-0.999226841097
104944000000,,266,,104,944000000,"""map""",,,-0.00468261120841,-0.0053389808163,0.00590450316668,,0.00890127323002,-0.0105423337106,0.0367458141679,-0.999229454201
104976000000,,267,,104,976000000,"""map""",,,-0.0041416133754,-0.00533583434299,0.00602538324893,,0.0088299888328,-0.0105539605608,0.036640615634,-0.999233837473
105012000000,,268,,105,12000000,"""map""",,,-0.00348869757727,-0.00534584047273,0.00603640358895,,0.00887274862161,-0.01056307564,0.0366326077328,-0.999233584592
105044000000,,269,,105,44000000,"""map""",,,-0.00311738345772,-0.0052864830941,0.00611194502562,,0.0088526041567,-0.0105526004195,0.0366106070779,-0.99923468041
105076000000,,270,,105,76000000,"""map""",,,-0.00287620723248,-0.0051594581455,0.00625804997981,,0.00893362036003,-0.0105572476858,0.0364885498046,-0.999238389333
105112000000,,271,,105,112000000,"""map""",,,-0.00262020435184,-0.00504326820374,0.00634295912459,,0.0089406072703,-0.0105262713161,0.0364132755332,-0.999241423906
105144000000,,272,,105,144000000,"""map""",,,-0.0023094881326,-0.0049513191916,0.00654569501057,,0.00892400750353,-0.010533698875,0.0363753012227,-0.999242899046
105176000000,,273,,105,176000000,"""map""",,,-0.00200328812934,-0.00484520895407,0.00698376307264,,0.00894790880022,-0.0104954492106,0.036315663432,-0.999245217123
105212000000,,274,,105,212000000,"""map""",,,-0.00157854577992,-0.00473425956443,0.00749206077307,,0.00896009080348,-0.0105348575841,0.0362710720663,-0.999246312941
105244000000,,275,,105,244000000,"""map""",,,-0.00138896226417,-0.00459398981184,0.00730111263692,,0.00896567427309,-0.0105396698981,0.0362942106861,-0.999245343563
105276000000,,276,,105,276000000,"""map""",,,-0.00128999131266,-0.00439947005361,0.00659962976351,,0.00895265015604,-0.0104468922545,0.0363008698882,-0.999246270794
105312000000,,277,,105,312000000,"""map""",,,-0.00117469741963,-0.0042335614562,0.0059343255125,,0.00906330860012,-0.0104889055008,0.0363315949408,-0.999243699836
105344000000,,278,,105,344000000,"""map""",,,-0.00100373721216,-0.00408851308748,0.00547224609181,,0.00912684851393,-0.0105104152931,0.0363140197049,-0.999243489102
105376000000,,279,,105,376000000,"""map""",,,-0.000765155884437,-0.00394480163231,0.00502618448809,,0.00904108543947,-0.0104297773412,0.036312038803,-0.999245217123
105412000000,,280,,105,412000000,"""map""",,,-0.000415741000324,-0.00376880820841,0.00433452241123,,0.00902535536304,-0.0104697984904,0.0362795435828,-0.999246102206
105444000000,,281,,105,444000000,"""map""",,,-0.000260491797235,-0.00367909250781,0.00384296383709,,0.00902357992704,-0.0104623674742,0.0362648764796,-0.999246692262
105476000000,,282,,105,476000000,"""map""",,,-0.000227327735047,-0.00363343278877,0.00349964061752,,0.00888126500151,-0.010398784508,0.0362384504055,-0.999249600395
105512000000,,283,,105,512000000,"""map""",,,-0.0001310420339,-0.00359127600677,0.00316288229078,,0.00890503343684,-0.0104209166249,0.0362149324641,-0.999250021863
105544000000,,284,,105,544000000,"""map""",,,2.12746745092e-05,-0.00357923237607,0.00277784792706,,0.00891183587234,-0.010408218899,0.036171563357,-0.99925166559
105576000000,,285,,105,576000000,"""map""",,,0.000225981624681,-0.0035882985685,0.00252660061233,,0.00894899111812,-0.0103556668826,0.0361495205552,-0.999252719262
105612000000,,286,,105,612000000,"""map""",,,0.000506588723511,-0.00361901288852,0.00218908162788,,0.00882646940631,-0.0101625561142,0.0360938445683,-0.99925781903
105644000000,,287,,105,644000000,"""map""",,,0.000619520142209,-0.00357531104237,0.001895588357,,0.00887518898176,-0.0101829178577,0.0360797253741,-0.999257608296
105676000000,,288,,105,676000000,"""map""",,,0.000607818656135,-0.00347103667445,0.00160321604926,,0.00884327463898,-0.0101695757048,0.0360462607763,-0.99925929417
105712000000,,289,,105,712000000,"""map""",,,0.000635245814919,-0.00341026275419,0.001365402597,,0.00891287847177,-0.0102109827197,0.0359891096498,-0.999260305694
105744000000,,290,,105,744000000,"""map""",,,0.000720681156963,-0.00335757923312,0.00116903707385,,0.0089124376997,-0.0102241478888,0.0359418208857,-0.999261822981
105776000000,,291,,105,776000000,"""map""",,,0.000817635562271,-0.00328085641377,0.00107639248017,,0.00889971219142,-0.0101316221796,0.0357885749445,-0.999268397889
105812000000,,292,,105,812000000,"""map""",,,0.000840011343826,-0.00316297379322,0.00169669906609,,0.00771205536521,-0.00911668075136,0.0353557689572,-0.99930342192
105844000000,,293,,105,844000000,"""map""",,,0.00044880801579,-0.0030906626489,0.0034197838977,,0.00676044850838,-0.00821613249659,0.035102634985,-0.999327108449
105876000000,,294,,105,876000000,"""map""",,,-0.000294472178211,-0.00305615225807,0.00651615625247,,0.00296033973326,-0.00474777292599,0.0342731428595,-0.999396861484
105912000000,,295,,105,912000000,"""map""",,,-0.00110557687003,-0.00307331327349,0.0106915049255,,-0.00259502887802,0.000653537923361,0.0332867801638,-0.999442337933
105944000000,,296,,105,944000000,"""map""",,,-0.00190616748296,-0.0030831550248,0.0146698951721,,-0.00521413562498,0.00382612301186,0.0328191608796,-0.999440441325
105976000000,,297,,105,976000000,"""map""",,,-0.00245953164995,-0.0028416835703,0.0161410979927,,-0.0059054348197,0.00889051532926,0.0321489416945,-0.999426111396
106012000000,,298,,106,12000000,"""map""",,,-0.00266230851412,-0.00211982149631,0.0143702132627,,-0.00170301256126,0.0101839041516,0.0314976885913,-0.999450556569
106044000000,,299,,106,44000000,"""map""",,,-0.0025716656819,-0.00125073792879,0.0110744321719,,0.00108340779003,0.00938139720432,0.0310758407846,-0.999472430783
106076000000,,300,,106,76000000,"""map""",,,-0.00251143286005,-0.000291942211334,0.00751470308751,,0.00609438079822,0.00634918909921,0.0297999713865,-0.999517190736
106112000000,,301,,106,112000000,"""map""",,,-0.00250547076575,0.000606986985076,0.00469788908958,,0.00896163764221,0.00311765836063,0.027995580508,-0.999563046507
106144000000,,302,,106,144000000,"""map""",,,-0.00292543531395,0.000983630423434,0.0065115634352,,0.00725070032098,0.00331555213774,0.0271875832752,-0.999598576301
106176000000,,303,,106,176000000,"""map""",,,-0.00437427777797,0.000415143149439,0.0161497537047,,-0.00892178516277,0.0137084435779,0.0245981230496,-0.999563636563
106212000000,,304,,106,212000000,"""map""",,,-0.00755153596401,-0.00173446233384,0.0356594584882,,-0.0297290598078,0.0318500252143,0.0229572619433,-0.998786701558
106244000000,,305,,106,244000000,"""map""",,,-0.0109751662239,-0.00447116373107,0.0527209080756,,-0.0417335477887,0.0432475116488,0.0224499403278,-0.997939929224
106280000000,,306,,106,280000000,"""map""",,,-0.0152976270765,-0.00811658985913,0.0685257315636,,-0.0619316656357,0.0635783617755,0.0222991810507,-0.995803716207
106312000000,,307,,106,312000000,"""map""",,,-0.0205227639526,-0.0127286324278,0.0825581550598,,-0.0744568574328,0.0762590400469,0.023053609639,-0.994036920318
106344000000,,308,,106,344000000,"""map""",,,-0.0269961357117,-0.0186048801988,0.0959652885795,,-0.0784401071886,0.0800642960882,0.0236367955819,-0.993417488085
106376000000,,309,,106,376000000,"""map""",,,-0.0350717268884,-0.0260521136224,0.109993651509,,-0.0841242150156,0.084515114482,0.0251979991444,-0.992544879734
106412000000,,310,,106,412000000,"""map""",,,-0.0476975888014,-0.0378205031157,0.130217179656,,-0.0880181328591,0.0861058608657,0.0272902529982,-0.992015093848
106444000000,,311,,106,444000000,"""map""",,,-0.060042001307,-0.049059599638,0.148641824722,,-0.088905682927,0.0857888316127,0.0281274158502,-0.991939946017
106476000000,,312,,106,476000000,"""map""",,,-0.0741739571095,-0.0617998428643,0.168790906668,,-0.0900295004898,0.0832480475397,0.0304076446483,-0.991987824837
106512000000,,313,,106,512000000,"""map""",,,-0.0896361544728,-0.0760574564338,0.190348416567,,-0.0900510470782,0.0809528470614,0.0323059808521,-0.992115824816
106544000000,,314,,106,544000000,"""map""",,,-0.106333397329,-0.0917475670576,0.212940841913,,-0.090109329255,0.0806373637416,0.0330035533418,-0.992113253858
106576000000,,315,,106,576000000,"""map""",,,-0.124211259186,-0.108844764531,0.236619204283,,-0.0905544055729,0.0808424447088,0.0347182978735,-0.991997560759
106612000000,,316,,106,612000000,"""map""",,,-0.148154750466,-0.132130086422,0.267652541399,,-0.0912923481581,0.0810831519461,0.0363358517725,-0.991852280572
106644000000,,317,,106,644000000,"""map""",,,-0.168847471476,-0.152270719409,0.293537557125,,-0.0916194419468,0.0810264407273,0.0373110034065,-0.991790535439
106676000000,,318,,106,676000000,"""map""",,,-0.190883949399,-0.173723101616,0.320507735014,,-0.0917711389913,0.0811212922098,0.0387503182831,-0.991713575294
106712000000,,319,,106,712000000,"""map""",,,-0.213901355863,-0.196397572756,0.348838746548,,-0.0916101696401,0.081045996865,0.0403654698117,-0.991670248333
106744000000,,320,,106,744000000,"""map""",,,-0.237793713808,-0.220198154449,0.378535032272,,-0.0914372951214,0.0808791572481,0.0408922211244,-0.991678256235
106780000000,,321,,106,776000000,"""map""",,,-0.262514948845,-0.245095431805,0.409773916006,,-0.0912123899888,0.0802916713389,0.0422011757986,-0.991691785373
106812000000,,322,,106,812000000,"""map""",,,-0.294621527195,-0.277613043785,0.450876951218,,-0.0910414657496,0.0803567964516,0.0432779013375,-0.991655834111
106844000000,,323,,106,844000000,"""map""",,,-0.321609765291,-0.30471020937,0.485246092081,,-0.0908157008872,0.0805187299119,0.0438012387555,-0.991640450512
106876000000,,324,,106,876000000,"""map""",,,-0.349730521441,-0.332732737064,0.520922243595,,-0.0902164892637,0.0800297731271,0.0447864213394,-0.991690731702
106912000000,,325,,106,912000000,"""map""",,,-0.378532588482,-0.361554920673,0.557814955711,,-0.0895054004773,0.0792628351566,0.0456597040406,-0.99177687986
106944000000,,326,,106,944000000,"""map""",,,-0.40795275569,-0.391163676977,0.59614944458,,-0.0892112846218,0.0792282793506,0.0459495900646,-0.991792811369
106976000000,,327,,106,976000000,"""map""",,,-0.437902420759,-0.421518623829,0.636015892029,,-0.088692735481,0.0789995648673,0.0466021075733,-0.991827118904
107012000000,,328,,107,12000000,"""map""",,,-0.476083755493,-0.460426002741,0.687758147717,,-0.088087697385,0.0782940888557,0.047266299759,-0.991905554189
107044000000,,329,,107,44000000,"""map""",,,-0.507915019989,-0.492587357759,0.730699777603,,-0.0877798966454,0.078166702311,0.0474665394362,-0.991933244668
107076000000,,330,,107,76000000,"""map""",,,-0.540802538395,-0.525629758835,0.775072813034,,-0.0870136890007,0.0780978017626,0.0479113572754,-0.991984832411
107112000000,,331,,107,112000000,"""map""",,,-0.573962748051,-0.559151828289,0.820762395859,,-0.0864002699381,0.0778583582722,0.0482842725911,-0.992039201845
107144000000,,332,,107,144000000,"""map""",,,-0.607407391071,-0.59308052063,0.867715001106,,-0.0860621600168,0.0777150563531,0.048456231733,-0.992071402038
107176000000,,333,,107,176000000,"""map""",,,-0.641125380993,-0.627413988113,0.9159309268,,-0.0853472849287,0.0775756253586,0.0488353426353,-0.992125476444
107212000000,,334,,107,212000000,"""map""",,,-0.683663785458,-0.670880436897,0.9780575037,,-0.0846929455567,0.077455084384,0.0491833491635,-0.992173818879
107244000000,,335,,107,244000000,"""map""",,,-0.717988371849,-0.706048667431,1.02922236919,,-0.0844799969582,0.077350161451,0.0492757350554,-0.992195566653
107276000000,,336,,107,276000000,"""map""",,,-0.752530097961,-0.741537094116,1.08158159256,,-0.083852050733,0.0772359332841,0.0494101835022,-0.992251031906
107312000000,,337,,107,312000000,"""map""",,,-0.787280440331,-0.777333498001,1.13515102863,,-0.0833084103878,0.0771788967443,0.0496116875849,-0.992291197853
107344000000,,338,,107,344000000,"""map""",,,-0.82232940197,-0.812918841839,1.18916904926,,-0.0830238549523,0.0771468134437,0.0497063915535,-0.992312819186
107376000000,,339,,107,376000000,"""map""",,,-0.857645988464,-0.848323762417,1.2439057827,,-0.0823077911913,0.0770002576561,0.0498202723382,-0.992378146801
107412000000,,340,,107,412000000,"""map""",,,-0.902025163174,-0.893002808094,1.31443107128,,-0.0813575048809,0.0767957097807,0.0498754425629,-0.992469563315
107444000000,,341,,107,444000000,"""map""",,,-0.937673985958,-0.929045140743,1.37240314484,,-0.0806443528745,0.076486790174,0.0499339002418,-0.99254867295
107476000000,,342,,107,476000000,"""map""",,,-0.973422706127,-0.965264618397,1.43178379536,,-0.0779030546758,0.074605274514,0.0500756400933,-0.992903675855
107512000000,,343,,107,512000000,"""map""",,,-1.00922870636,-1.00161731243,1.49253582954,,-0.0736089488631,0.0710585070703,0.0502053259462,-0.993484670162
107544000000,,344,,107,544000000,"""map""",,,-1.0540266037,-1.04680240154,1.56979107857,,-0.0713690450501,0.0690506723663,0.05029969274,-0.993784966457
107576000000,,345,,107,576000000,"""map""",,,-1.08084571362,-1.07377934456,1.61697602272,,-0.0671569279464,0.0650930127445,0.050529772386,-0.994333760572
107612000000,,346,,107,612000000,"""map""",,,-1.12528574467,-1.11856114864,1.69756400585,,-0.0624372009493,0.0606107445493,0.050759852032,-0.994912816124
107644000000,,347,,107,644000000,"""map""",,,-1.16051268578,-1.15413427353,1.76369357109,,-0.0597046455875,0.0579774265764,0.0508748286348,-0.995231530592
107676000000,,348,,107,676000000,"""map""",,,-1.19535088539,-1.18940579891,1.83135700226,,-0.0559379935898,0.0543200060393,0.0510519718391,-0.995647562134
107708000000,,349,,107,708000000,"""map""",,,-1.22970497608,-1.22427904606,1.89977061749,,-0.0522768307089,0.0504476831667,0.0479823747152,-0.996202762569
107744000000,,350,,107,744000000,"""map""",,,-1.26396667957,-1.25910544395,1.96729207039,,-0.0513415605303,0.0495773612817,0.0480455528411,-0.996291987447
107776000000,,351,,107,776000000,"""map""",,,-1.29806733131,-1.2938375473,2.03273010254,,-0.0502373312916,0.0486819965131,0.0482412828056,-0.99638302464
107812000000,,352,,107,812000000,"""map""",,,-1.3398373127,-1.33654022217,2.11067199707,,-0.0502125067155,0.0491022428219,0.0485179347192,-0.996350234392
107844000000,,353,,107,844000000,"""map""",,,-1.37261986732,-1.37017846107,2.16998052597,,-0.0502304488841,0.0495143987056,0.0486320262381,-0.99632338685
107876000000,,354,,107,876000000,"""map""",,,-1.40488696098,-1.40337240696,2.22679638863,,-0.0494895795214,0.0498486458106,0.048888574105,-0.996331184017
107912000000,,355,,107,912000000,"""map""",,,-1.43668675423,-1.43613004684,2.28156042099,,-0.0474387983312,0.0489847933022,0.0492757772023,-0.99645471643
107944000000,,356,,107,944000000,"""map""",,,-1.46900725365,-1.46901333332,2.33534502983,,-0.0457566789999,0.0478496276182,0.0495364976072,-0.996575593591
107976000000,,357,,107,976000000,"""map""",,,-1.5017490387,-1.50196671486,2.38833165169,,-0.0429793351206,0.0456937566362,0.0499191909916,-0.996781354505
108012000000,,358,,108,12000000,"""map""",,,-1.54181146622,-1.54239583015,2.45239520073,,-0.0393985606854,0.0424348562014,0.0504130256156,-0.997048439085
108044000000,,359,,108,44000000,"""map""",,,-1.57315313816,-1.5740789175,2.50187826157,,-0.0377493368871,0.0408555787202,0.050678887936,-0.997164764386
108076000000,,360,,108,76000000,"""map""",,,-1.60387742519,-1.60517144203,2.54971885681,,-0.0349180877648,0.0379886266074,0.0511519020169,-0.997357080456
108112000000,,361,,108,112000000,"""map""",,,-1.6339315176,-1.63569307327,2.59607291222,,-0.0317393497304,0.0347130963597,0.0516973243835,-0.997554538441
108144000000,,362,,108,144000000,"""map""",,,-1.66434931755,-1.66598844528,2.64198064804,,-0.0307054299137,0.0336371554765,0.0518951195435,-0.997613501882
108176000000,,363,,108,176000000,"""map""",,,-1.69500589371,-1.69603645802,2.68737626076,,-0.0280456313724,0.031034382609,0.05240496997,-0.997749509763
108212000000,,364,,108,212000000,"""map""",,,-1.73221552372,-1.73268783092,2.74182748795,,-0.0258380563324,0.0290781914592,0.0527538615819,-0.997849650675
108244000000,,365,,108,244000000,"""map""",,,-1.76110982895,-1.76128101349,2.78373622894,,-0.0247762886442,0.0281927009892,0.0528808500365,-0.997895211418
108276000000,,366,,108,276000000,"""map""",,,-1.78925001621,-1.78920614719,2.82414126396,,-0.0228613182647,0.0265442817677,0.0531080636968,-0.997974068172
108312000000,,367,,108,312000000,"""map""",,,-1.81660747528,-1.8164961338,2.86304569244,,-0.021318324281,0.0250428561011,0.0533427373493,-0.998034591046
108344000000,,368,,108,344000000,"""map""",,,-1.84437179565,-1.84327459335,2.90158963203,,-0.0203479772231,0.0241021333387,0.0535090909604,-0.998069109315
108376000000,,369,,108,376000000,"""map""",,,-1.8724937439,-1.86956048012,2.93972635269,,-0.0190736425629,0.0228864980432,0.053697276639,-0.998112731303
108412000000,,370,,108,412000000,"""map""",,,-1.90643632412,-1.90152990818,2.98534750938,,-0.0175669508452,0.0215372060362,0.0537962374393,-0.998165077689
108444000000,,371,,108,444000000,"""map""",,,-1.93265140057,-1.9263843298,3.02021980286,,-0.0170180503758,0.0210374876463,0.0538301235055,-0.998183453715
108476000000,,372,,108,476000000,"""map""",,,-1.95806705952,-1.95062756538,3.05371308327,,-0.015721081047,0.0196119918322,0.0539047234274,-0.998229730955
108512000000,,373,,108,512000000,"""map""",,,-1.98273026943,-1.97426462173,3.08584666252,,-0.014562540408,0.018221145996,0.0539375136755,-0.998271877803
108544000000,,374,,108,544000000,"""map""",,,-2.00746941566,-1.99768948555,3.1177008152,,-0.0140692457905,0.0176428306483,0.0539157237548,-0.998290548857
108576000000,,375,,108,576000000,"""map""",,,-2.0322060585,-2.02087593079,3.14915800095,,-0.0132634951823,0.0165418130489,0.0539790704681,-0.998316974931
108612000000,,376,,108,612000000,"""map""",,,-2.06205272675,-2.04906058311,3.18662333488,,-0.0123897375059,0.0153328420593,0.053969376693,-0.998347995011
108644000000,,377,,108,644000000,"""map""",,,-2.08507061005,-2.07101416588,3.21523976326,,-0.0119460334301,0.0147967662502,0.0539369657665,-0.998363294318
108676000000,,378,,108,676000000,"""map""",,,-2.10732674599,-2.09244680405,3.24257087708,,-0.0109710180325,0.0135518992342,0.0539244060056,-0.998392797111
108712000000,,379,,108,712000000,"""map""",,,-2.12885665894,-2.11336970329,3.26874423027,,-0.00988123627251,0.0123743939128,0.0538219470169,-0.998425039451
108744000000,,380,,108,744000000,"""map""",,,-2.15044403076,-2.13396120071,3.29485583305,,-0.00930818228388,0.0118734922007,0.0537857850209,-0.998438526442
108776000000,,381,,108,776000000,"""map""",,,-2.17732787132,-2.1591668129,3.32724261284,,-0.00802066348036,0.0109066274438,0.0536946635344,-0.998465669013
108812000000,,382,,108,812000000,"""map""",,,-2.19804525375,-2.17873811722,3.35185790062,,-0.0070762075937,0.0101734780749,0.0535654834437,-0.998487458933
108844000000,,383,,108,844000000,"""map""",,,-2.21805524826,-2.19782495499,3.3753387928,,-0.0066025693773,0.00975167225038,0.0534883125641,-0.99849913361
108876000000,,384,,108,876000000,"""map""",,,-2.23739075661,-2.21640539169,3.39778280258,,-0.00578047846885,0.00901033108168,0.0534683349579,-0.998512199133
108912000000,,385,,108,912000000,"""map""",,,-2.25608634949,-2.23449516296,3.41922092438,,-0.00501858857123,0.00810462428314,0.0534600741756,-0.998524506013
108944000000,,386,,108,944000000,"""map""",,,-2.27476263046,-2.25203156471,3.44027447701,,-0.00465524437685,0.00762452574512,0.0534722546148,-0.998529437194
108976000000,,387,,108,976000000,"""map""",,,-2.29341268539,-2.26899814606,3.46096467972,,-0.00390837439773,0.00680210062533,0.0534461657156,-0.99853993176
109016000000,,388,,109,16000000,"""map""",,,-2.31579732895,-2.28961253166,3.48536682129,,-0.0031568597042,0.00616875417049,0.053459947735,-0.998545958759
109044000000,,389,,109,44000000,"""map""",,,-2.33300471306,-2.30561351776,3.50373148918,,-0.0028875112138,0.00583560753452,0.0534889447668,-0.998547223164
109076000000,,390,,109,76000000,"""map""",,,-2.349599123,-2.32120275497,3.52122712135,,-0.00235202825948,0.0050230617348,0.0535126734425,-0.998551817171
109112000000,,391,,109,112000000,"""map""",,,-2.36558008194,-2.33641219139,3.5379114151,,-0.00190240658506,0.00431231744944,0.0535165930994,-0.998555905415
109144000000,,392,,109,144000000,"""map""",,,-2.38166880608,-2.35092878342,3.55432200432,,-0.00166551857665,0.00398079725377,0.053517562477,-0.998557633436
109176000000,,393,,109,176000000,"""map""",,,-2.39781498909,-2.36477446556,3.5705139637,,-0.00114355587035,0.00340949277094,0.0534921057805,-0.998561848121
109212000000,,394,,109,212000000,"""map""",,,-2.41716861725,-2.38158416748,3.58974599838,,-0.000796874745335,0.0030884459848,0.0534356290034,-0.998566231393
109244000000,,395,,109,244000000,"""map""",,,-2.43200826645,-2.39463615417,3.60428881645,,-0.000610889675525,0.00282771660725,0.0534148084603,-0.998568254442
109276000000,,396,,109,276000000,"""map""",,,-2.44629454613,-2.40736055374,3.61813235283,,-0.000445766554866,0.00230864705161,0.0533693320107,-0.998572089805
109312000000,,397,,109,312000000,"""map""",,,-2.46006441116,-2.41976118088,3.631275177,,-0.000431344759413,0.00169047494396,0.0533267215469,-0.998575587993
109344000000,,398,,109,344000000,"""map""",,,-2.47383952141,-2.43161439896,3.64406466484,,-0.000416546153025,0.00147873621523,0.0532983567178,-0.998577484602
109376000000,,399,,109,376000000,"""map""",,,-2.48757195473,-2.44294428825,3.65654397011,,-0.000292107665115,0.0011524405001,0.0531972885751,-0.99858338516
109412000000,,400,,109,412000000,"""map""",,,-2.50400233269,-2.45675492287,3.67137217522,,-0.000105552954306,0.000799181173997,0.0531239530587,-0.998587599845
109444000000,,401,,109,444000000,"""map""",,,-2.51659560204,-2.46749997139,3.68261647224,,-1.81970253216e-05,0.00064692700084,0.0530775915253,-0.99859021295
109476000000,,402,,109,476000000,"""map""",,,-2.52871441841,-2.47798132896,3.69342494011,,6.15819375082e-06,0.000388207068952,0.0530043403026,-0.998594259047
109512000000,,403,,109,512000000,"""map""",,,-2.540371418,-2.48820209503,3.70371389389,,0.000135156747382,-0.000157375061555,0.052891555336,-0.9986002439
109544000000,,404,,109,544000000,"""map""",,,-2.55212140083,-2.4978826046,3.71320033073,,0.00195265914923,-0.00172948940494,0.0527547466658,-0.99860412141
109576000000,,405,,109,576000000,"""map""",,,-2.56396913528,-2.50709295273,3.72006225586,,0.0186387028914,-0.0145867746813,0.0518280217607,-0.998375516904
109612000000,,406,,109,612000000,"""map""",,,-2.57798910141,-2.51817321777,3.72374844551,,0.0426358095763,-0.0333461285241,0.0505493285237,-0.997253694237
109644000000,,407,,109,644000000,"""map""",,,-2.58817911148,-2.52624559402,3.72403097153,,0.0523686841676,-0.041623245041,0.049941360234,-0.996509423039
109676000000,,408,,109,676000000,"""map""",,,-2.59712290764,-2.53319191933,3.72338342667,,0.0637442002402,-0.0529963007913,0.0488941796359,-0.995357971138
109712000000,,409,,109,712000000,"""map""",,,-2.60462546349,-2.53878164291,3.72286343575,,0.0648559679202,-0.055593940469,0.0482564978179,-0.995175559577
109744000000,,410,,109,744000000,"""map""",,,-2.61074781418,-2.54216003418,3.72676110268,,0.0573628298716,-0.050352481997,0.0480465643654,-0.995924551222
109776000000,,411,,109,776000000,"""map""",,,-2.6154358387,-2.54345107079,3.73688769341,,0.0358099862021,-0.0343104843087,0.0476063826796,-0.997634280279
109808000000,,412,,109,808000000,"""map""",,,-2.6198348999,-2.54400920868,3.75415635109,,0.0119867250599,-0.0150529148745,0.0470029241026,-0.998709362091
109844000000,,413,,109,844000000,"""map""",,,-2.62296366692,-2.54435276985,3.76839804649,,0.00123778906195,-0.00526586544853,0.0468134740186,-0.998889034106
109876000000,,414,,109,876000000,"""map""",,,-2.62606048584,-2.54497790337,3.7809650898,,-0.0179768116602,0.013455017212,0.0465909808053,-0.998661651858
109912000000,,415,,109,912000000,"""map""",,,-2.62934756279,-2.54609799385,3.79091858864,,-0.0327508493992,0.0256867886589,0.0466839567531,-0.998042177479
109944000000,,416,,109,944000000,"""map""",,,-2.63373756409,-2.54810810089,3.79731345177,,-0.0357589394539,0.0280385185978,0.0467567865073,-0.997872241386
109976000000,,417,,109,976000000,"""map""",,,-2.63932657242,-2.55106902122,3.80150914192,,-0.0379727998072,0.0311078763407,0.0470812329472,-0.997684182147
110012000000,,418,,110,12000000,"""map""",,,-2.64697289467,-2.55589938164,3.80661416054,,-0.0353289319514,0.0280631735163,0.0474118749737,-0.997855930555
110044000000,,419,,110,44000000,"""map""",,,-2.65355086327,-2.56061816216,3.81084418297,,-0.032779883968,0.0242438801049,0.0476370234385,-0.998032357263
110076000000,,420,,110,76000000,"""map""",,,-2.66051459312,-2.56592607498,3.81539130211,,-0.0265037875366,0.016815499372,0.048015797166,-0.998353305514
110112000000,,421,,110,112000000,"""map""",,,-2.66767024994,-2.57169342041,3.82031607628,,-0.0199759940772,0.0118016022718,0.0483725702387,-0.998559867219
110144000000,,422,,110,144000000,"""map""",,,-2.67457699776,-2.57692408562,3.82574415207,,-0.0169692092578,0.00865168609627,0.0486052629893,-0.998636448043
110176000000,,423,,110,176000000,"""map""",,,-2.68125700951,-2.58153128624,3.83122491837,,-0.0116986638627,0.00139174293848,0.0490095777071,-0.998728876081
110212000000,,424,,110,212000000,"""map""",,,-2.68959164619,-2.58760452271,3.83773827553,,-0.00760352624248,-0.00194382220222,0.0494212259765,-0.998747209961
110244000000,,425,,110,244000000,"""map""",,,-2.69602584839,-2.59265375137,3.84289431572,,-0.00579608959568,-0.0027755639158,0.0496770152001,-0.998744639003
110276000000,,426,,110,276000000,"""map""",,,-2.70218205452,-2.59781074524,3.84766674042,,-0.00390702816812,-0.00577649608557,0.0501228445636,-0.998718760838
110312000000,,427,,110,312000000,"""map""",,,-2.70818591118,-2.60303688049,3.85201096535,,-0.00247955178146,-0.00803633782747,0.0505552290825,-0.998685844149
110344000000,,428,,110,344000000,"""map""",,,-2.71390151978,-2.60790109634,3.85684347153,,-0.00212791305107,-0.0073478707034,0.0506776235306,-0.998685759855
110376000000,,429,,110,376000000,"""map""",,,-2.7204272747,-2.61357784271,3.86329722404,,-0.00149866669434,-0.00594553886315,0.0509686053727,-0.998681460877
110412000000,,430,,110,412000000,"""map""",,,-2.72540593147,-2.6181936264,3.86792135239,,-0.00107606436022,-0.0079147705113,0.0511708680987,-0.998657985082
110444000000,,431,,110,444000000,"""map""",,,-2.7303314209,-2.62285995483,3.87231755257,,-0.000948274786264,-0.00796435397366,0.0512809135202,-0.99865212667
110476000000,,432,,110,476000000,"""map""",,,-2.73508501053,-2.62758755684,3.87686467171,,-0.000855850040203,-0.00507397973761,0.051412285247,-0.99866430711
110512000000,,433,,110,512000000,"""map""",,,-2.73959064484,-2.63238310814,3.88126182556,,-0.000888328138247,-0.00558262371051,0.0515268825281,-0.998655582712
110544000000,,434,,110,544000000,"""map""",,,-2.74386096001,-2.63670110703,3.88516759872,,-0.000842202363819,-0.00677396957958,0.051620954294,-0.99864344442
110576000000,,435,,110,576000000,"""map""",,,-2.74796438217,-2.64051818848,3.88893604279,,-0.000656556032841,-0.00613161077851,0.0517188614231,-0.998642643629
110612000000,,436,,110,612000000,"""map""",,,-2.75279378891,-2.64536166191,3.89382243156,,-0.000501285396565,-0.00379768689537,0.0518374205079,-0.99864824916
