rosbagTimestamp,header,seq,stamp,secs,nsecs,frame_id,pose,position,x,y,z,orientation,x,y,z,w
313284000000,,3699,,313,280001515,"""map""",,,0.309295862913,0.290491193533,-0.0215193536133,,-0.000868286653236,-0.00794011821868,0.0583473384352,-0.998264459958
313316000000,,3700,,313,312001515,"""map""",,,0.309969484806,0.290272861719,-0.0211359299719,,-0.000878249773097,-0.0078533378576,0.0583534075814,-0.998264712839
313348000000,,3701,,313,344001456,"""map""",,,0.311538100243,0.290067851543,-0.0208162777126,,-0.000877323530247,-0.00784221537013,0.0583587180843,-0.998264544251
313384000000,,3702,,313,376001456,"""map""",,,0.313919782639,0.289852529764,-0.020407455042,,-0.000829476649747,-0.00778791541199,0.0583886001999,-0.998263237699
313416000000,,3703,,313,408001456,"""map""",,,0.310975879431,0.289681702852,-0.0199245139956,,-0.000783916894323,-0.0077836964466,0.0583088162157,-0.998268000293
313448000000,,3704,,313,440001396,"""map""",,,0.309234559536,0.289539337158,-0.0195160247386,,-0.000764355817531,-0.0077215933946,0.0583250427523,-0.998267536678
313484000000,,3705,,313,480001396,"""map""",,,0.308590143919,0.289365082979,-0.0192501414567,,-0.000592380870538,-0.00778378699647,0.0583820252915,-0.998263827755
313516000000,,3706,,313,512001396,"""map""",,,0.309196233749,0.28921431303,-0.0189770776778,,-0.000589479652708,-0.00783734148222,0.0584441918931,-0.998259739511
313548000000,,3707,,313,544001336,"""map""",,,0.310647666454,0.289053529501,-0.018740169704,,-0.000665270881587,-0.00784711164855,0.0584561615981,-0.998258896574
313584000000,,3708,,313,576001336,"""map""",,,0.312916100025,0.288870692253,-0.0184393133968,,-0.000660027550215,-0.00789893975987,0.0584768978475,-0.998257294994
313616000000,,3709,,313,608001336,"""map""",,,0.309742003679,0.288909584284,-0.0178332980722,,-0.000728711437491,-0.00784900990309,0.058460629164,-0.998258643693
313648000000,,3710,,313,640001277,"""map""",,,0.307802587748,0.288912802935,-0.0173163395375,,-0.00074289154711,-0.00788966942883,0.0584481958437,-0.998259023014
313684000000,,3711,,313,680001277,"""map""",,,0.306958556175,0.288863837719,-0.0164913292974,,-0.000695913616088,-0.00787880607863,0.0584235399373,-0.998260582448
313716000000,,3712,,313,712001277,"""map""",,,0.30740249157,0.288792937994,-0.0158955249935,,-0.000718530339398,-0.00787454101512,0.0584245936085,-0.998260540301
313748000000,,3713,,313,744001217,"""map""",,,0.30875980854,0.288699090481,-0.0153896436095,,-0.000715576438007,-0.00792323017404,0.0584315899854,-0.998259697364
313784000000,,3714,,313,776001217,"""map""",,,0.310950815678,0.288581669331,-0.0149976080284,,-0.000794176029941,-0.00790822820088,0.0584465942635,-0.998258938721
313816000000,,3715,,313,808001217,"""map""",,,0.307936042547,0.288606107235,-0.0145752960816,,-0.000763876397129,-0.00781711000712,0.0584293140556,-0.998260708888
313848000000,,3716,,313,840001158,"""map""",,,0.306118607521,0.28859102726,-0.0141449086368,,-0.000784200068462,-0.00774065529465,0.0584365211667,-0.998260835329
313880000000,,3717,,313,872001158,"""map""",,,0.305384784937,0.288533329964,-0.0137442667037,,-0.000698710125341,-0.00768326676278,0.0584348352927,-0.998261425385
313916000000,,3718,,313,912001158,"""map""",,,0.305834442377,0.288412690163,-0.0133267231286,,-0.000794445045373,-0.00765605800861,0.0584215168886,-0.998262352615
313948000000,,3719,,313,944001099,"""map""",,,0.307173967361,0.288295805454,-0.013023648411,,-0.000807379518054,-0.00767750285197,0.0584087042466,-0.998262942671
313980000000,,3720,,313,976001099,"""map""",,,0.309324294329,0.288140922785,-0.0128613049164,,-0.000780275143194,-0.00765097997191,0.0584424217254,-0.998261172504
314016000000,,3721,,314,8001099,"""map""",,,0.306271225214,0.288164496422,-0.0132265174761,,-0.000612881361071,-0.00761665432725,0.0584408622921,-0.998261636119
314048000000,,3722,,314,40001041,"""map""",,,0.304388970137,0.288113325834,-0.0135342041031,,-0.0006404180704,-0.00765657957586,0.0584970440411,-0.998258053637
314080000000,,3723,,314,72001041,"""map""",,,0.303550332785,0.287977218628,-0.0137639297172,,-0.000641857319423,-0.00759763951313,0.0585431105465,-0.998255819854
314116000000,,3724,,314,112001041,"""map""",,,0.30389341712,0.287763386965,-0.0141563471407,,-0.000672396333164,-0.00758927896132,0.0585459343854,-0.998255693413
314148000000,,3725,,314,144000982,"""map""",,,0.305152624846,0.287569880486,-0.0145264808089,,-0.000699647563448,-0.00758153316082,0.0585509077135,-0.998255440532
314180000000,,3726,,314,176000982,"""map""",,,0.307223200798,0.287377387285,-0.0148679492995,,-0.000685800018807,-0.00764334381907,0.0585961734288,-0.998252321665
314216000000,,3727,,314,208000982,"""map""",,,0.30424374342,0.287143528461,-0.015193965286,,-0.000751948509728,-0.00763801125492,0.0586223044749,-0.998250720085
314248000000,,3728,,314,240000924,"""map""",,,0.302466511726,0.286908656359,-0.0155520578846,,-0.000765206327763,-0.00765464872336,0.0586456116821,-0.998249244945
314280000000,,3729,,314,272000924,"""map""",,,0.301726728678,0.286655187607,-0.0159149635583,,-0.000808133551515,-0.00766562863595,0.0587055866476,-0.998245662463
314316000000,,3730,,314,312000924,"""map""",,,0.302180618048,0.286255627871,-0.0163993127644,,-0.000817717679012,-0.00770355059217,0.058712962346,-0.998244861673
314348000000,,3731,,314,344000865,"""map""",,,0.30353051424,0.285884618759,-0.0168137941509,,-0.000795610669152,-0.00765560492999,0.0587440667202,-0.99824342868
314380000000,,3732,,314,376000865,"""map""",,,0.305643707514,0.285476356745,-0.0172160789371,,-0.000857324521356,-0.00767382981998,0.0587571322433,-0.99824250145
314416000000,,3733,,314,408000865,"""map""",,,0.302773237228,0.285478264093,-0.0172845162451,,-0.000799719328337,-0.00764174190955,0.0587843169606,-0.998241194897
314448000000,,3734,,314,440000807,"""map""",,,0.301012396812,0.285424619913,-0.0171674489975,,-0.000813409810113,-0.00762528093103,0.058812302468,-0.998239677611
314480000000,,3735,,314,472000807,"""map""",,,0.300300210714,0.285329282284,-0.0169580169022,,-0.000818622848439,-0.00760035963122,0.0588254101379,-0.998239045408
314516000000,,3736,,314,512000807,"""map""",,,0.300751447678,0.285178214312,-0.016710486263,,-0.00083711872949,-0.00760084234434,0.058820099635,-0.998239298289
314548000000,,3737,,314,544000749,"""map""",,,0.302073538303,0.285041749477,-0.0164309553802,,-0.000819439772901,-0.00759587197967,0.058827601774,-0.998238961114
314580000000,,3738,,314,576000749,"""map""",,,0.30416738987,0.284876346588,-0.0161324795336,,-0.000894531627512,-0.00761700533147,0.0588415945277,-0.998237865296
314616000000,,3739,,314,608000749,"""map""",,,0.301152169704,0.284988939762,-0.0157683845609,,-0.000915725236141,-0.00753826151829,0.0588274331866,-0.998239298289
314648000000,,3740,,314,640000692,"""map""",,,0.299286991358,0.285067588091,-0.0155086116865,,-0.000893050890186,-0.00755104715991,0.0588396979195,-0.998238497499
314680000000,,3741,,314,672000692,"""map""",,,0.298444420099,0.285100460052,-0.0154088540003,,-0.000876715693666,-0.00726790463162,0.0588732046641,-0.99823862394
314716000000,,3742,,314,712000692,"""map""",,,0.298735052347,0.285059928894,-0.0151086682454,,-0.000914285328574,-0.00726017035564,0.0588681470423,-0.998238961114
314748000000,,3743,,314,744000634,"""map""",,,0.299928128719,0.284949809313,-0.0149982003495,,-0.00093266793997,-0.00728302316716,0.0588606027564,-0.998239256142
314780000000,,3744,,314,776000634,"""map""",,,0.301903426647,0.284768760204,-0.0149303581566,,-0.000926939919839,-0.00730192932144,0.0587760983251,-0.99824410303
314816000000,,3745,,314,808000634,"""map""",,,0.298948705196,0.284429162741,-0.0144682023674,,-0.000915598795595,-0.00732009494242,0.05878419052,-0.998243512974
314848000000,,3746,,314,840000577,"""map""",,,0.297082334757,0.284073799849,-0.0140405427665,,-0.000910869128939,-0.00734631291637,0.0587782899612,-0.998243597268
314880000000,,3747,,314,872000577,"""map""",,,0.296231389046,0.28368729353,-0.0136276641861,,-0.000929199715318,-0.00740348709201,0.0587937578546,-0.998242290715
314916000000,,3748,,314,912000577,"""map""",,,0.296464413404,0.283159434795,-0.013147611171,,-0.00097542822269,-0.00740030895621,0.0587982675674,-0.998241995687
314948000000,,3749,,314,944000519,"""map""",,,0.297605872154,0.282684892416,-0.0127725135535,,-0.00102873608352,-0.00739106628404,0.0587644657949,-0.998244018736
314980000000,,3750,,314,976000519,"""map""",,,0.299494385719,0.282184481621,-0.0124320909381,,-0.000991356767977,-0.007375600037,0.0587962023718,-0.998242290715
315016000000,,3751,,315,8000519,"""map""",,,0.296325981617,0.282062113285,-0.0120437284932,,-0.00103251481191,-0.00731054538851,0.058813398286,-0.99824170066
315048000000,,3752,,315,40000462,"""map""",,,0.294257819653,0.281877696514,-0.0118650868535,,-0.00103655629955,-0.00733016803921,0.0588236399702,-0.998240984163
315080000000,,3753,,315,72000462,"""map""",,,0.293243467808,0.281661987305,-0.0118280081078,,-0.0010629583367,-0.00728116014475,0.0588672198116,-0.998238708233
315116000000,,3754,,315,112000462,"""map""",,,0.293292820454,0.281377404928,-0.011876472272,,-0.00110592342676,-0.0071888740223,0.0589214206588,-0.998236179422
315148000000,,3755,,315,144000405,"""map""",,,0.294311732054,0.281144380569,-0.0119152702391,,-0.00110630999238,-0.00717527968802,0.0589139185197,-0.998236685185
315180000000,,3756,,315,176000405,"""map""",,,0.296102195978,0.280861258507,-0.0119384992868,,-0.0011279428502,-0.00716525960406,0.0589183439388,-0.99823647445
315216000000,,3757,,315,208000405,"""map""",,,0.293082594872,0.280922174454,-0.0117041971534,,-0.00112003504775,-0.00711400969482,0.0589053205626,-0.998237612415
315248000000,,3758,,315,240000349,"""map""",,,0.291155219078,0.280919790268,-0.011542852968,,-0.0011440017873,-0.00706808971555,0.0589463715931,-0.998235505073
315280000000,,3759,,315,272000349,"""map""",,,0.290216714144,0.280833303928,-0.0114928642288,,-0.00118439987087,-0.00697475255607,0.0589281220077,-0.9982371488
315316000000,,3760,,315,312000349,"""map""",,,0.290290981531,0.280632674694,-0.0114415930584,,-0.00126812590252,-0.00694715163865,0.0589515978023,-0.998235926541
315348000000,,3761,,315,344000292,"""map""",,,0.291253805161,0.280420780182,-0.0113948453218,,-0.0012105753687,-0.00691620235168,0.0589749050095,-0.998234788576
315380000000,,3762,,315,376000292,"""map""",,,0.292945951223,0.280126839876,-0.0114057101309,,-0.0011940844264,-0.00689221058744,0.058946961649,-0.998236600891
315416000000,,3763,,315,408000292,"""map""",,,0.289831191301,0.280136346817,-0.0111940549687,,-0.00140049005591,-0.00684508250827,0.0589874647704,-0.998234282814
315448000000,,3764,,315,440000236,"""map""",,,0.287842541933,0.280085027218,-0.0109149860218,,-0.00139204010669,-0.00689820416564,0.0589831657918,-0.998234198521
315480000000,,3765,,315,472000236,"""map""",,,0.286835253239,0.279980927706,-0.0106274764985,,-0.00140474606443,-0.006884167948,0.0589804262467,-0.998234409255
315516000000,,3766,,315,512000236,"""map""",,,0.286814004183,0.279755830765,-0.0102281803265,,-0.00142710381511,-0.00690439366084,0.0589483103481,-0.998236179422
315548000000,,3767,,315,544000179,"""map""",,,0.287680983543,0.27952337265,-0.00998824089766,,-0.00139473915135,-0.00687885316455,0.0589360877621,-0.998237106653
315580000000,,3768,,315,576000179,"""map""",,,0.289292573929,0.279240936041,-0.00990927871317,,-0.00141013542804,-0.00692250462263,0.0589062056465,-0.998238581793
315616000000,,3769,,315,608000179,"""map""",,,0.286240935326,0.279187619686,-0.00961021520197,,-0.00141539160103,-0.00689870976319,0.05888074895,-0.998240183373
315648000000,,3770,,315,640000123,"""map""",,,0.284283310175,0.27904266119,-0.00942529086024,,-0.00143749696453,-0.00689114703806,0.0588468207369,-0.998242248569
315680000000,,3771,,315,672000123,"""map""",,,0.283287256956,0.278834760189,-0.00934228952974,,-0.00138782739747,-0.0068952413739,0.058843448989,-0.998242417156
315716000000,,3772,,315,712000123,"""map""",,,0.283286184072,0.278500884771,-0.00948305334896,,-0.00139938847558,-0.00685926014835,0.0588585375608,-0.9982418271
315748000000,,3773,,315,744000067,"""map""",,,0.284166663885,0.278202623129,-0.00983657874167,,-0.00137952627931,-0.00684745557341,0.0588518783587,-0.998242332862
315780000000,,3774,,315,776000067,"""map""",,,0.285794228315,0.277869641781,-0.0102000245824,,-0.00134158489603,-0.00665142004427,0.0589036346887,-0.998240646988
315816000000,,3775,,315,808000067,"""map""",,,0.283096820116,0.278238773346,-0.0101790903136,,-0.00135068252377,-0.00677251929993,0.0589365935242,-0.998237865296
315848000000,,3776,,315,840000012,"""map""",,,0.281435072422,0.278491318226,-0.0101970070973,,-0.00131130962936,-0.00679591722167,0.0589097038349,-0.998239382583
315880000000,,3777,,315,872000012,"""map""",,,0.280719548464,0.278652012348,-0.0103016756475,,-0.00130082823497,-0.00684775125989,0.0589422412019,-0.998237106653
315916000000,,3778,,315,912000012,"""map""",,,0.280999422073,0.278707712889,-0.0104276966304,,-0.00124384602506,-0.0068604456931,0.0589912158399,-0.998234156374
315948000000,,3779,,315,943999956,"""map""",,,0.282045513391,0.278675675392,-0.0104792872444,,-0.0012481130642,-0.00686900051553,0.0590113198866,-0.998232934115
315980000000,,3780,,315,975999956,"""map""",,,0.283792287111,0.278614789248,-0.0104635870084,,-0.00125108375847,-0.00690168605509,0.0589667706678,-0.998235336485
316016000000,,3781,,316,7999956,"""map""",,,0.280938208103,0.278940826654,-0.0104136327282,,-0.0013093023857,-0.00689006867143,0.0590139329913,-0.998232512647
316048000000,,3782,,316,39999901,"""map""",,,0.279087513685,0.279174506664,-0.0103643136099,,-0.00130084239368,-0.00691758364879,0.059014565194,-0.998232386206
316080000000,,3783,,316,71999901,"""map""",,,0.278165698051,0.279281616211,-0.0104227466509,,-0.00132353649597,-0.00688937555333,0.0590494627846,-0.998230447451
316116000000,,3784,,316,111999901,"""map""",,,0.278183490038,0.279316306114,-0.0105891041458,,-0.00130405477379,-0.00686898438119,0.0590975101919,-0.998227750053
316148000000,,3785,,316,143999845,"""map""",,,0.279034584761,0.279298961163,-0.0107577946037,,-0.00131940379991,-0.0068607601481,0.0590748773342,-0.998229140899
316180000000,,3786,,316,175999845,"""map""",,,0.280559509993,0.279234468937,-0.0111153097823,,-0.00130859840162,-0.00666867061766,0.0590856247806,-0.998229773101
316216000000,,3787,,316,207999845,"""map""",,,0.277642458677,0.279532253742,-0.0112797869369,,-0.00129925447824,-0.00666887065055,0.0590294851784,-0.998233144849
316248000000,,3788,,316,239999790,"""map""",,,0.275740295649,0.279729038477,-0.0114631941542,,-0.00129074937592,-0.00665693189717,0.0590122892642,-0.998234240667
316280000000,,3789,,316,279999790,"""map""",,,0.274616479874,0.279854178429,-0.011686665006,,-0.00123088768014,-0.0066476108582,0.0590270406611,-0.998233566318
316316000000,,3790,,316,311999790,"""map""",,,0.274638026953,0.279853880405,-0.0118520697579,,-0.00122621563613,-0.0066450059854,0.0590524552108,-0.998232006884
316348000000,,3791,,316,343999735,"""map""",,,0.275400519371,0.279802709818,-0.0120300641283,,-0.00126020196573,-0.00667487410692,0.0590551947559,-0.998231627563
316380000000,,3792,,316,375999735,"""map""",,,0.276852220297,0.279713392258,-0.0122066838667,,-0.00124370575508,-0.006734655131,0.0590029748106,-0.998234367108
316416000000,,3793,,316,407999735,"""map""",,,0.273929446936,0.280010193586,-0.012593456544,,-0.00131386478205,-0.00681648817646,0.0590374509327,-0.99823166971
316448000000,,3794,,316,439999681,"""map""",,,0.272013753653,0.280239105225,-0.0129713462666,,-0.00133381374156,-0.00680299624586,0.0590776590262,-0.998229309486
316480000000,,3795,,316,471999681,"""map""",,,0.270992606878,0.280423641205,-0.0133024379611,,-0.00132395368392,-0.00673548917761,0.0590561219866,-0.998231121801
316516000000,,3796,,316,511999681,"""map""",,,0.270867884159,0.280602633953,-0.0137118287385,,-0.00137231933285,-0.00667705965151,0.0590865520112,-0.998229604514
316548000000,,3797,,316,543999626,"""map""",,,0.271579742432,0.280702471733,-0.0140661001205,,-0.00135454966176,-0.00670790999217,0.05913725467,-0.9982264435
316580000000,,3798,,316,575999626,"""map""",,,0.272971391678,0.280763655901,-0.0144360084087,,-0.00134530221514,-0.0066988755847,0.0591833633223,-0.998223746102
316616000000,,3799,,316,607999626,"""map""",,,0.269800037146,0.281144052744,-0.0145072732121,,-0.0012738741729,-0.00668059932824,0.0592190195561,-0.998221891641
316648000000,,3800,,316,639999572,"""map""",,,0.267595380545,0.281465440989,-0.0145771140233,,-0.00128338108605,-0.00658990836523,0.059228502597,-0.998221933788
316680000000,,3801,,316,671999572,"""map""",,,0.266288429499,0.281713038683,-0.0146881584078,,-0.00131600587489,-0.00656243602863,0.0592539171467,-0.998220542942
316716000000,,3802,,316,711999572,"""map""",,,0.265845268965,0.281899064779,-0.014919414185,,-0.0013295001104,-0.00655725196626,0.0592815654793,-0.998218857068
316748000000,,3803,,316,743999517,"""map""",,,0.266306042671,0.282007962465,-0.0150566911325,,-0.00133681439961,-0.006569956113,0.0592450663085,-0.99822096441
316780000000,,3804,,316,775999517,"""map""",,,0.267426997423,0.282089054585,-0.0152555443347,,-0.00134178855092,-0.00648730071008,0.0592204946958,-0.998222945312
316816000000,,3805,,316,807999517,"""map""",,,0.26450240612,0.282582074404,-0.0148027632385,,-0.00135351459443,-0.00641078442369,0.0592158163956,-0.998223746102
316848000000,,3806,,316,839999463,"""map""",,,0.262526780367,0.28300884366,-0.0145410504192,,-0.00132937712721,-0.00637305097584,0.0592179658849,-0.998223872543
316880000000,,3807,,316,871999463,"""map""",,,0.261436372995,0.283370673656,-0.0143514759839,,-0.00137338452859,-0.00628891055505,0.0592449820148,-0.998222734578
316916000000,,3808,,316,911999463,"""map""",,,0.261133223772,0.28372246027,-0.014202057384,,-0.00138515831658,-0.00624997246466,0.0592394186308,-0.998223324634
316948000000,,3809,,316,943999409,"""map""",,,0.261719167233,0.283931910992,-0.0140444412827,,-0.00139688057346,-0.00624295550829,0.0592314528764,-0.998223788249
316980000000,,3810,,316,975999409,"""map""",,,0.262971073389,0.28404840827,-0.0139011181891,,-0.00137942239392,-0.00620237286762,0.059271365942,-0.998221723053
317016000000,,3811,,317,7999409,"""map""",,,0.260073512793,0.284377872944,-0.0135807292536,,-0.00134268878126,-0.00612947989312,0.0592959797015,-0.998220711529
317048000000,,3812,,317,39999356,"""map""",,,0.258121162653,0.284608572721,-0.0132401846349,,-0.00132211173493,-0.00610894861563,0.0592910485202,-0.998221175144
317080000000,,3813,,317,71999356,"""map""",,,0.257035404444,0.284788936377,-0.0129092382267,,-0.00122246456661,-0.00607695141971,0.0592409359173,-0.998224504745
317116000000,,3814,,317,111999356,"""map""",,,0.256750702858,0.284919798374,-0.0125158512965,,-0.00129910976308,-0.00604501217571,0.0592234028284,-0.998225600563
317148000000,,3815,,317,143999302,"""map""",,,0.257315993309,0.285002708435,-0.0122139267623,,-0.00129092323167,-0.0060568174092,0.0592264374014,-0.998225431976
317180000000,,3816,,317,175999302,"""map""",,,0.258527249098,0.285062253475,-0.0120117850602,,-0.00137538321118,-0.00602587931749,0.0592709866203,-0.998222776725
317216000000,,3817,,317,207999302,"""map""",,,0.260321140289,0.285101681948,-0.0118604274467,,-0.00136805212908,-0.00596792493124,0.0593237966215,-0.998220037179
317248000000,,3818,,317,239999249,"""map""",,,0.262682050467,0.285107284784,-0.0117006152868,,-0.00139127059743,-0.0059790409979,0.0593349233895,-0.998219278536
317280000000,,3819,,317,271999249,"""map""",,,0.26553234458,0.28507143259,-0.011648055166,,-0.00137871972693,-0.00600766101294,0.0593402760393,-0.998218814921
317316000000,,3820,,317,311999249,"""map""",,,0.264561593533,0.285336136818,-0.0108796097338,,-0.00143802626968,-0.00598725864554,0.0593599586175,-0.998217676956
317348000000,,3821,,317,343999195,"""map""",,,0.263646364212,0.285569697618,-0.0101389670745,,-0.00139209032071,-0.00600882383791,0.05933812655,-0.998218941361
317380000000,,3822,,317,375999195,"""map""",,,0.2635178864,0.285791546106,-0.00927374325693,,-0.00146199465559,-0.00602447036151,0.0593068957353,-0.998220585088
317416000000,,3823,,317,407999195,"""map""",,,0.264078080654,0.285992205143,-0.00857431348413,,-0.00137840181456,-0.00602442805003,0.0593106468048,-0.998220458648
317448000000,,3824,,317,439999142,"""map""",,,0.26524078846,0.286139369011,-0.00802340451628,,-0.00136344972615,-0.00604993858254,0.059312543413,-0.998220247914
317480000000,,3825,,317,471999142,"""map""",,,0.266978293657,0.286259651184,-0.00774899916723,,-0.00122811998221,-0.00602473624886,0.0593249767333,-0.998219784298
317516000000,,3826,,317,511999142,"""map""",,,0.264940500259,0.286638230085,-0.00733204558492,,-0.00128008424761,-0.00601198567473,0.0593332796624,-0.998219320683
317548000000,,3827,,317,543999089,"""map""",,,0.263284891844,0.286943227053,-0.00685800611973,,-0.00127281408088,-0.00602185643372,0.0593412875636,-0.998218814921
317580000000,,3828,,317,575999089,"""map""",,,0.262431651354,0.287191063166,-0.00641316641122,,-0.00126382363125,-0.00602158313775,0.059299730771,-0.998221259438
317616000000,,3829,,317,607999089,"""map""",,,0.262312829494,0.287424623966,-0.00594781944528,,-0.00127333910549,-0.00601898501503,0.0592744005151,-0.998222818871
317648000000,,3830,,317,639999037,"""map""",,,0.262863069773,0.287589371204,-0.00527758803219,,-0.00126471826397,-0.00601241718602,0.0593042826306,-0.998221090851
317680000000,,3831,,317,671999037,"""map""",,,0.26404607296,0.287737131119,-0.00466828653589,,-0.00134647244873,-0.0060146241333,0.0593233330062,-0.998219826445
317716000000,,3832,,317,711999037,"""map""",,,0.261429101229,0.28808632493,-0.0038545159623,,-0.0013347627042,-0.00601185182556,0.0592900791427,-0.998221807347
317748000000,,3833,,317,743998984,"""map""",,,0.25935202837,0.288339346647,-0.00325663783588,,-0.00134234074049,-0.00602361194874,0.0592883511219,-0.998221849494
317780000000,,3834,,317,775998984,"""map""",,,0.258079111576,0.288554221392,-0.00274324999191,,-0.00135875726726,-0.00593628071518,0.0593183175312,-0.998220542942
317816000000,,3835,,317,807998984,"""map""",,,0.257542788982,0.288724064827,-0.00238029705361,,-0.00136952545778,-0.00593042921795,0.0592598598523,-0.99822404113
317848000000,,3836,,317,839998932,"""map""",,,0.257683724165,0.288831681013,-0.00206528208219,,-0.00142444214284,-0.00587860308227,0.0592800481928,-0.998223071753
317880000000,,3837,,317,871998932,"""map""",,,0.258467763662,0.288888692856,-0.00173342903145,,-0.00127811585807,-0.00583952735607,0.0592717874104,-0.998223998983
317912000000,,3838,,317,911998932,"""map""",,,0.255754560232,0.288951426744,-0.0011450862512,,-0.00124636314681,-0.00576493500746,0.0592542964683,-0.998225558417
317948000000,,3839,,317,943998879,"""map""",,,0.253640800714,0.288945198059,-0.000536272476893,,-0.00125671645429,-0.00577730411969,0.0592445605463,-0.998226022032
317980000000,,3840,,317,975998879,"""map""",,,0.252364575863,0.288899987936,5.24893694092e-05,,-0.00121938224904,-0.0056867772989,0.0592480587347,-0.998226401354
318016000000,,3841,,318,7998879,"""map""",,,0.251845061779,0.288836479187,0.000535542960279,,-0.00128120591354,-0.00571045576059,0.059232127226,-0.998227075703
318048000000,,3842,,318,39998827,"""map""",,,0.251951158047,0.288756936789,0.000980903510936,,-0.00126363676925,-0.00571268147639,0.059232970163,-0.998227075703
318080000000,,3843,,318,71998827,"""map""",,,0.252611070871,0.288662612438,0.00137074571103,,-0.00125731507125,-0.00549566307287,0.0592618407542,-0.998226612088
318116000000,,3844,,318,111998827,"""map""",,,0.249602586031,0.288735121489,0.00228479271755,,-0.00121502894057,-0.00553270850635,0.0592477215599,-0.998227244291
318148000000,,3845,,318,143998775,"""map""",,,0.24719427526,0.28879699111,0.00306748203002,,-0.0012601370991,-0.00552131058264,0.0592308206737,-0.998228213668
318180000000,,3846,,318,175998775,"""map""",,,0.245574831963,0.288848847151,0.00379668944515,,-0.001215112905,-0.00555231831543,0.0592894047931,-0.998224673333
318216000000,,3847,,318,207998775,"""map""",,,0.244675800204,0.288863360882,0.00409607309848,,-0.0011768210114,-0.00560382192895,0.0593068535884,-0.998223408927
318248000000,,3848,,318,239998724,"""map""",,,0.244435116649,0.288823157549,0.00436293566599,,-0.00120538406234,-0.00558200632503,0.059328938537,-0.998222144522
318280000000,,3849,,318,271998724,"""map""",,,0.244804725051,0.288764148951,0.00451981788501,,-0.00119496243087,-0.00560295018066,0.0593267890478,-0.998222186669
318316000000,,3850,,318,311998724,"""map""",,,0.241858899593,0.288942933083,0.00452934019268,,-0.00120749733167,-0.00560100599263,0.0592711973546,-0.99822551627
318348000000,,3851,,318,343998672,"""map""",,,0.239585846663,0.289101868868,0.00437390245497,,-0.00121637517018,-0.00559738004657,0.0592578368036,-0.99822631706
318380000000,,3852,,318,375998672,"""map""",,,0.23809094727,0.289250761271,0.00416637118906,,-0.00121750259838,-0.00556383510643,0.0592120653261,-0.998229183046
318416000000,,3853,,318,407998672,"""map""",,,0.237312734127,0.28941065073,0.00394759839401,,-0.00123318781147,-0.00555077090048,0.0592343188621,-0.99822791864
318448000000,,3854,,318,439998621,"""map""",,,0.23715479672,0.289551585913,0.00370589550585,,-0.00120837615932,-0.00552637742408,0.0592379434911,-0.99822791864
318480000000,,3855,,318,471998621,"""map""",,,0.237585037947,0.289674758911,0.00355346617289,,-0.00123383828881,-0.00555565285555,0.0591839112313,-0.998230868919
318516000000,,3856,,318,511998621,"""map""",,,0.234589070082,0.289995372295,0.00375087861903,,-0.00123794694799,-0.00553685931238,0.059156178605,-0.998232639087
318548000000,,3857,,318,543998569,"""map""",,,0.232227146626,0.290222913027,0.00404220866039,,-0.00121855840986,-0.00552453234701,0.0591423122918,-0.998233524171
318580000000,,3858,,318,575998569,"""map""",,,0.230613991618,0.290393918753,0.00434834323823,,-0.00124661174736,-0.00549990805077,0.0591476227947,-0.998233355584
318616000000,,3859,,318,607998569,"""map""",,,0.229675754905,0.290517270565,0.00474011991173,,-0.00122387912021,-0.00550485931765,0.0591326606635,-0.998234240667
318648000000,,3860,,318,639998518,"""map""",,,0.229355990887,0.290610194206,0.00505852652714,,-0.00123230173983,-0.00549299712006,0.0591028206948,-0.998236010835
318680000000,,3861,,318,671998518,"""map""",,,0.229609712958,0.290696889162,0.00531007163227,,-0.00125622583863,-0.00544698675556,0.0591017248767,-0.99823634801
318716000000,,3862,,318,711998518,"""map""",,,0.226666942239,0.290917038918,0.00573228858411,,-0.0012618109546,-0.00536138057933,0.0590986060099,-0.998236938066
318748000000,,3863,,318,743998467,"""map""",,,0.224376887083,0.291083395481,0.00582549860701,,-0.00130984206293,-0.00531545549634,0.0590710841178,-0.998238834674
318780000000,,3864,,318,775998467,"""map""",,,0.222849950194,0.291207253933,0.00598486699164,,-0.00105695257542,-0.00536645367695,0.0590584822101,-0.99823955117
318816000000,,3865,,318,807998467,"""map""",,,0.221999511123,0.291314512491,0.00609087385237,,-0.00107997545605,-0.00539272877964,0.0590902609339,-0.998237528122
318848000000,,3866,,318,839998417,"""map""",,,0.22174474597,0.291396647692,0.00613647373393,,-0.00104443940659,-0.00539758324048,0.0590865520112,-0.998237781003
318880000000,,3867,,318,871998417,"""map""",,,0.222028851509,0.29148286581,0.00613170163706,,-0.00106929979104,-0.00540092765876,0.0590842339346,-0.998237907443
318916000000,,3868,,318,911998417,"""map""",,,0.219359576702,0.291934281588,0.00600584270433,,-0.001176652424,-0.00542157961453,0.0590939277097,-0.998237064506
318948000000,,3869,,318,943998366,"""map""",,,0.217339143157,0.292320877314,0.00596780516207,,-0.00115084966237,-0.00539026878663,0.0590998282685,-0.998236895919
318980000000,,3870,,318,975998366,"""map""",,,0.215996414423,0.2926877141,0.00599372340366,,-0.00116433451362,-0.00535994363522,0.0591470327389,-0.998234198521
319016000000,,3871,,319,7998366,"""map""",,,0.215314432979,0.293045669794,0.00603056931868,,-0.00117381261545,-0.00537264333678,0.0591196794342,-0.998235757954
319048000000,,3872,,319,39998316,"""map""",,,0.215231835842,0.293345153332,0.0061004976742,,-0.00116087501468,-0.00537473273387,0.0590721799359,-0.998238581793
319080000000,,3873,,319,71998316,"""map""",,,0.215701133013,0.293593257666,0.00617632735521,,-0.00110485707856,-0.00533486988235,0.0590616432238,-0.998239509023
319116000000,,3874,,319,111998316,"""map""",,,0.213317796588,0.293920814991,0.00638346467167,,-0.0010505966331,-0.00534853961997,0.059088280032,-0.998237907443
319148000000,,3875,,319,143998266,"""map""",,,0.211471065879,0.294135719538,0.00648159813136,,-0.00102939693294,-0.00526589277813,0.0590870156266,-0.998238413205
319180000000,,3876,,319,175998266,"""map""",,,0.210283651948,0.294326364994,0.00662398943678,,-0.00105491355699,-0.00523910384609,0.0590605052589,-0.998240141226
319216000000,,3877,,319,207998266,"""map""",,,0.209702447057,0.294509917498,0.00677611725405,,-0.00103760980613,-0.0052076996695,0.0591029892822,-0.998237781003
319248000000,,3878,,319,239998215,"""map""",,,0.209677949548,0.294663399458,0.00692150695249,,-0.00100975584299,-0.00520626815838,0.0591056866805,-0.998237696709
319280000000,,3879,,319,271998215,"""map""",,,0.210168227553,0.294811695814,0.00699669495225,,-0.00102975830923,-0.00516109809667,0.0591101963933,-0.998237654562
319316000000,,3880,,319,311998215,"""map""",,,0.208040162921,0.295361101627,0.00719526130706,,-0.000815605397503,-0.00518180290063,0.0591205223711,-0.998237106653
319348000000,,3881,,319,343998166,"""map""",,,0.206429213285,0.29582837224,0.00747878151014,,-0.000845454421236,-0.00517863810036,0.0591432395225,-0.998235715807
319380000000,,3882,,319,375998166,"""map""",,,0.20546105504,0.296277076006,0.00784520618618,,-0.000841155936596,-0.00515135740021,0.0591657037927,-0.998234577842
319416000000,,3883,,319,407998166,"""map""",,,0.205094754696,0.29668840766,0.00821469444782,,-0.000815786826515,-0.00520490892251,0.0591495615498,-0.998235294339
319448000000,,3884,,319,439998116,"""map""",,,0.205256700516,0.297051846981,0.00865452922881,,-0.000854104238712,-0.00515206270138,0.0591828154132,-0.998233566318
319480000000,,3885,,319,471998116,"""map""",,,0.205896168947,0.297411561012,0.00910859089345,,-0.000834426434905,-0.00515275466702,0.059158960297,-0.998234999311
319516000000,,3886,,319,511998116,"""map""",,,0.203743368387,0.29785078764,0.0094316508621,,-0.000853999859407,-0.00515530372818,0.0591907811676,-0.998233018409
319548000000,,3887,,319,543998066,"""map""",,,0.202064231038,0.298156172037,0.00963349454105,,-0.000880751419047,-0.0051783908169,0.0591877887414,-0.998233060556
319580000000,,3888,,319,575998066,"""map""",,,0.201045557857,0.298442095518,0.00977434962988,,-0.000917779730369,-0.00519321630014,0.0591703399461,-0.998233987786
319616000000,,3889,,319,607998066,"""map""",,,0.20060172677,0.298713773489,0.00990678183734,,-0.000939656908197,-0.00511127064356,0.0591366646141,-0.998236390157
319648000000,,3890,,319,639998017,"""map""",,,0.200710818172,0.298998385668,0.0100466525182,,-0.000934136658859,-0.00509929534095,0.0591222925388,-0.99823727524
319680000000,,3891,,319,671998017,"""map""",,,0.201282858849,0.299293160439,0.0101684434339,,-0.000985541655335,-0.00513630784721,0.0591288674471,-0.998236685185
319716000000,,3892,,319,711998017,"""map""",,,0.199255347252,0.299793511629,0.0104977730662,,-0.00102888606703,-0.00507273821658,0.0590704097683,-0.998240436254
319748000000,,3893,,319,743997968,"""map""",,,0.197679802775,0.300207227468,0.0105319470167,,-0.00104743282065,-0.00507662412309,0.0590642563284,-0.998240773429
319780000000,,3894,,319,775997968,"""map""",,,0.196707367897,0.300611555576,0.0105125950649,,-0.00106366100369,-0.00501708873611,0.0590905559618,-0.998239509023
319816000000,,3895,,319,807997968,"""map""",,,0.196300476789,0.300955653191,0.0104395579547,,-0.00105072537855,-0.00504964701195,0.0590935905349,-0.998239171849
319848000000,,3896,,319,839997918,"""map""",,,0.196431323886,0.30123513937,0.0103624919429,,-0.00108667120734,-0.00500314800742,0.0590906824024,-0.998239466877
319880000000,,3897,,319,871997918,"""map""",,,0.197026878595,0.301476478577,0.0103611489758,,-0.00103367747224,-0.00496359845845,0.0590163353616,-0.998244187324
319916000000,,3898,,319,911997918,"""map""",,,0.195016011596,0.301688820124,0.0103385932744,,-0.0010186455353,-0.00498513615659,0.0589932810355,-0.998245409582
319948000000,,3899,,319,943997870,"""map""",,,0.193483188748,0.301812797785,0.0102803148329,,-0.00118101017765,-0.00491942477458,0.0589786982259,-0.9982465054
319980000000,,3900,,319,975997870,"""map""",,,0.19258402288,0.301945418119,0.010371375829,,-0.00117707949012,-0.00492387241955,0.058951682096,-0.998248064834
320016000000,,3901,,320,7997870,"""map""",,,0.192245587707,0.302071809769,0.0103792073205,,-0.00112677228734,-0.00492876441743,0.0589020752553,-0.998250972966
320048000000,,3902,,320,39997821,"""map""",,,0.192400872707,0.302172154188,0.0103502022102,,-0.00114936662013,-0.00496326128366,0.0589102938908,-0.998250340763
320080000000,,3903,,320,71997821,"""map""",,,0.193034484982,0.302267819643,0.0102715045214,,-0.00108381016072,-0.00501700872296,0.0589540001727,-0.998247516925
320116000000,,3904,,320,111997821,"""map""",,,0.191410124302,0.302375644445,0.0106645626947,,-0.00107569755093,-0.0050862092384,0.058929976469,-0.998248612743
320148000000,,3905,,320,143997772,"""map""",,,0.190178081393,0.302430182695,0.0112118395045,,-0.00101957556478,-0.00507052484849,0.0589099988628,-0.998249961442
320180000000,,3906,,320,175997772,"""map""",,,0.189492702484,0.302502512932,0.0116915954277,,-0.000992138295672,-0.00506504938018,0.0588791473697,-0.998251815903
320216000000,,3907,,320,207997772,"""map""",,,0.189326003194,0.30259796977,0.0122055709362,,-0.000989545605944,-0.00505437634934,0.0588828141455,-0.998251605169
320248000000,,3908,,320,239997724,"""map""",,,0.189628154039,0.302695810795,0.0128366015851,,-0.000958360230768,-0.00504379090491,0.0589065849681,-0.998250340763
320280000000,,3909,,320,271997724,"""map""",,,0.190371826291,0.302776128054,0.013463055715,,-0.00102152436262,-0.00500898633376,0.0588881667953,-0.998251563022
320316000000,,3910,,320,311997724,"""map""",,,0.18868689239,0.302606195211,0.014210886322,,-0.00101972110312,-0.00498128877493,0.0588466100027,-0.998254176127
320348000000,,3911,,320,343997676,"""map""",,,0.187397435308,0.302411079407,0.0147889936343,,-0.00104962791413,-0.00496478861301,0.0588254101379,-0.998255398385
320380000000,,3912,,320,375997676,"""map""",,,0.186663135886,0.302205711603,0.0154424533248,,-0.00111617844647,-0.00494554725958,0.0588112487968,-0.998256325616
320416000000,,3913,,320,407997676,"""map""",,,0.186430007219,0.302008152008,0.0159624665976,,-0.00115331031392,-0.00495763698429,0.0588101529787,-0.998256241322
320448000000,,3914,,320,439997627,"""map""",,,0.186649501324,0.301802396774,0.0165198016912,,-0.00116191205765,-0.00491167140082,0.0588118809995,-0.998256367763
320480000000,,3915,,320,471997627,"""map""",,,0.187297821045,0.301599889994,0.0171058457345,,-0.001148064513,-0.00492392921902,0.0587654351724,-0.998259065161
320516000000,,3916,,320,511997627,"""map""",,,0.18522156775,0.301366239786,0.0177403911948,,-0.0011278193731,-0.00488681315664,0.0587519060341,-0.998260034539
320548000000,,3917,,320,543997580,"""map""",,,0.183554977179,0.301183700562,0.018290553242,,-0.00136279167555,-0.00490838740399,0.0587607147254,-0.998259149455
320580000000,,3918,,320,575997580,"""map""",,,0.182437673211,0.301025658846,0.0188688784838,,-0.00137352924375,-0.00487420038295,0.0587348365604,-0.998260835329
320616000000,,3919,,320,607997580,"""map""",,,0.181834131479,0.300861895084,0.0194223970175,,-0.00135350109426,-0.00485683439964,0.058751358125,-0.998259992392
320648000000,,3920,,320,639997532,"""map""",,,0.181701809168,0.300697296858,0.0200661718845,,-0.00136017198549,-0.00485666992815,0.0587504730412,-0.998260034539
320680000000,,3921,,320,671997532,"""map""",,,0.182009086013,0.300531148911,0.0207094717771,,-0.00140868481913,-0.00479003263256,0.0587738223953,-0.998258854427
320716000000,,3922,,320,711997532,"""map""",,,0.179946750402,0.300492107868,0.0215083565563,,-0.00147553037941,-0.00481174747917,0.058711023591,-0.998262310468
320748000000,,3923,,320,743997484,"""map""",,,0.178331270814,0.300474107265,0.0221005678177,,-0.00146287710523,-0.00478032700361,0.0587092112765,-0.998262605496
320780000000,,3924,,320,775997484,"""map""",,,0.17721503973,0.300453782082,0.0225771572441,,-0.00149174160493,-0.00454288960443,0.0586986324175,-0.998264333517
320816000000,,3925,,320,807997484,"""map""",,,0.176584899426,0.300417721272,0.0229061581194,,-0.00146290822146,-0.00451056000818,0.0586523973247,-0.99826724165
320848000000,,3926,,320,839997437,"""map""",,,0.176388084888,0.300379276276,0.0233292039484,,-0.00144539423027,-0.00450732194483,0.0586525659121,-0.99826724165
320880000000,,3927,,320,871997437,"""map""",,,0.176593855023,0.300354838371,0.0237507894635,,-0.00143927783352,-0.00449885882472,0.0586909195443,-0.998265050014
320916000000,,3928,,320,911997437,"""map""",,,0.174470767379,0.300370752811,0.0240185093135,,-0.00147452198313,-0.00454444179384,0.0586870420342,-0.998265050014
320948000000,,3929,,320,943997390,"""map""",,,0.172809287906,0.300361603498,0.0244546867907,,-0.00149753152824,-0.00454075723732,0.0587298632323,-0.998262521203
320980000000,,3930,,320,975997390,"""map""",,,0.171653091908,0.300336539745,0.0248065833002,,-0.00151545118285,-0.00458902789121,0.0587190314922,-0.998262900524
321016000000,,3931,,321,7997390,"""map""",,,0.170950576663,0.300319761038,0.0251428708434,,-0.00151257252017,-0.00462777813178,0.0587271236871,-0.998262226175
321048000000,,3932,,321,39997342,"""map""",,,0.17066912353,0.300315439701,0.0255452971905,,-0.00160272117177,-0.00459809242709,0.0587122037028,-0.998263069112
321080000000,,3933,,321,71997342,"""map""",,,0.170785680413,0.300328820944,0.0260815732181,,-0.00158976644885,-0.00464078175164,0.0587350472947,-0.998261636119
321116000000,,3934,,321,111997342,"""map""",,,0.168794363737,0.300625085831,0.0265389680862,,-0.00160946219799,-0.00464162534715,0.0587381661615,-0.998261383238
321148000000,,3935,,321,143997295,"""map""",,,0.167292743921,0.300862342119,0.0269904453307,,-0.0016080285466,-0.00461303793006,0.0587413693219,-0.998261298944
321180000000,,3936,,321,175997295,"""map""",,,0.166326269507,0.301073074341,0.027463465929,,-0.00157310049835,-0.0046128991418,0.058789753904,-0.998258517252
321216000000,,3937,,321,207997295,"""map""",,,0.16577552259,0.301280945539,0.0279496330768,,-0.00158540606103,-0.00457686292778,0.0587360166722,-0.998261846853
321248000000,,3938,,321,239997249,"""map""",,,0.165660604835,0.301454633474,0.0284157134593,,-0.00157903793563,-0.0045812975665,0.0586895286983,-0.998264586398
321280000000,,3939,,321,271997249,"""map""",,,0.165916353464,0.301613628864,0.0288562271744,,-0.00154680991987,-0.00450992862863,0.0586629340369,-0.998266483006
321316000000,,3940,,321,311997249,"""map""",,,0.164005726576,0.301762610674,0.0292967986315,,-0.00155527320461,-0.00459938959513,0.0586409755288,-0.99826736809
321348000000,,3941,,321,343997202,"""map""",,,0.162496104836,0.301845043898,0.0296325460076,,-0.00157280333014,-0.00454171459639,0.0586588879394,-0.9982665673
321380000000,,3942,,321,375997202,"""map""",,,0.16147223115,0.301869988441,0.0299621522427,,-0.0015590578599,-0.00458787362732,0.0586945020264,-0.998264249224
321416000000,,3943,,321,407997202,"""map""",,,0.160857141018,0.301860183477,0.0303385332227,,-0.00157626908525,-0.00459298179243,0.0586696353858,-0.998265682216
321448000000,,3944,,321,439997156,"""map""",,,0.160633310676,0.301801145077,0.0307108890265,,-0.00159789947352,-0.00461788481764,0.0586282050337,-0.998268000293
321480000000,,3945,,321,471997156,"""map""",,,0.160776302218,0.301701933146,0.0309058204293,,-0.00158944524377,-0.0045901079042,0.0586416077315,-0.998267325943
321516000000,,3946,,321,511997156,"""map""",,,0.159031882882,0.30149564147,0.031081372872,,-0.00159457612866,-0.00451770538072,0.0585954147855,-0.998270360517
321548000000,,3947,,321,543997109,"""map""",,,0.15769700706,0.301316410303,0.0312206987292,,-0.00160879624486,-0.0045269070585,0.0585352290859,-0.998273816558
321580000000,,3948,,321,575997109,"""map""",,,0.156789958477,0.301108896732,0.031319051981,,-0.0015689760341,-0.00446031833057,0.0585744678018,-0.998271835656
321616000000,,3949,,321,607997109,"""map""",,,0.156286850572,0.300889074802,0.0315949209034,,-0.00160643437498,-0.00447376416306,0.0585789353678,-0.998271498481
321648000000,,3950,,321,639997063,"""map""",,,0.156158417463,0.300659000874,0.0317922979593,,-0.00161060641908,-0.00445471625708,0.0585775445218,-0.998271624922
321680000000,,3951,,321,671997063,"""map""",,,0.156355932355,0.300402224064,0.0320065356791,,-0.00157172134151,-0.00445265435422,0.0585686936836,-0.998272214978
321716000000,,3952,,321,711997063,"""map""",,,0.154513269663,0.300041228533,0.0322596393526,,-0.0015916456056,-0.004448826235,0.0585155465076,-0.998275375992
321748000000,,3953,,321,743997017,"""map""",,,0.153059855103,0.299735784531,0.0324936360121,,-0.00160534991681,-0.00442158422434,0.0585136498994,-0.998275586726
321780000000,,3954,,321,775997017,"""map""",,,0.152034685016,0.299431830645,0.0328167676926,,-0.00157771310872,-0.00430126320365,0.0584685106247,-0.998278747739
321816000000,,3955,,321,807997017,"""map""",,,0.151401370764,0.299147963524,0.0330486781895,,-0.00139062917508,-0.00433974327634,0.0583751132084,-0.998284311123
321848000000,,3956,,321,839996972,"""map""",,,0.151113525033,0.298826664686,0.0334818810225,,-0.00140669864889,-0.00436078278555,0.0584080720439,-0.998282288075
321880000000,,3957,,321,871996972,"""map""",,,0.151123076677,0.298486471176,0.0339924804866,,-0.00146305425371,-0.00436189967703,0.0584148155397,-0.998281866606
321916000000,,3958,,321,911996972,"""map""",,,0.149169310927,0.298468112946,0.0347458869219,,-0.00153375987262,-0.00437032147348,0.05841721791,-0.998281571578
321948000000,,3959,,321,943996926,"""map""",,,0.147621691227,0.298481315374,0.0352789275348,,-0.00151522184472,-0.00436630040071,0.0583503730083,-0.998285533382
321980000000,,3960,,321,975996926,"""map""",,,0.146487891674,0.298470437527,0.0358793959022,,-0.00155219154558,-0.00434957172385,0.0583471698478,-0.998285701969
322016000000,,3961,,322,7996926,"""map""",,,0.145745113492,0.298449218273,0.0364933051169,,-0.00158970191149,-0.00439742255561,0.0583346943807,-0.998286207732
322048000000,,3962,,322,39996881,"""map""",,,0.145350515842,0.298381239176,0.0371035672724,,-0.00158898590897,-0.00440367362472,0.0583920562415,-0.998282793837
322080000000,,3963,,322,71996881,"""map""",,,0.145268857479,0.298254966736,0.0377182811499,,-0.00166016288112,-0.0044099368769,0.0583387404781,-0.998285786263
322116000000,,3964,,322,111996881,"""map""",,,0.14335526526,0.298406541348,0.0386387445033,,-0.00160830019621,-0.00432019273626,0.0582919574763,-0.998288989424
322148000000,,3965,,322,143996835,"""map""",,,0.141840547323,0.298529475927,0.0392646081746,,-0.00159947462967,-0.00429084840457,0.0583009769018,-0.998288567955
322180000000,,3966,,322,175996835,"""map""",,,0.140718817711,0.298593699932,0.0396707393229,,-0.00156224282809,-0.0041016251891,0.0582582399975,-0.998291939703
322216000000,,3967,,322,207996835,"""map""",,,0.139978885651,0.298634052277,0.0402956306934,,-0.00158874521095,-0.00408123805054,0.0582343427344,-0.998293330549
322248000000,,3968,,322,239996790,"""map""",,,0.13957978785,0.298636972904,0.0409933440387,,-0.0015704475518,-0.00406849784848,0.0582334997974,-0.998293499136
322280000000,,3969,,322,271996790,"""map""",,,0.139519020915,0.298596709967,0.0418120846152,,-0.00158977822033,-0.00411379410379,0.0582323196856,-0.998293330549
322316000000,,3970,,322,311996790,"""map""",,,0.137674823403,0.298753589392,0.0428007245064,,-0.00162459579774,-0.004157478983,0.0582079588072,-0.998294510661
322348000000,,3971,,322,343996745,"""map""",,,0.136233866215,0.298893213272,0.043735768646,,-0.00160540383515,-0.00415672560808,0.0582028168917,-0.998294847836
322380000000,,3972,,322,375996745,"""map""",,,0.13515304029,0.29901304841,0.0446495339274,,-0.00162927780224,-0.00414375582095,0.058181869908,-0.998296070094
322416000000,,3973,,322,407996745,"""map""",,,0.13440105319,0.299086481333,0.0454978272319,,-0.00170549395696,-0.00410932233962,0.0581560760367,-0.998297587381
322448000000,,3974,,322,439996700,"""map""",,,0.134001791477,0.299115121365,0.0463956743479,,-0.00175475621425,-0.00410789938958,0.0581588998755,-0.998297376646
322480000000,,3975,,322,471996700,"""map""",,,0.133904755116,0.299081474543,0.0473474152386,,-0.00177405436714,-0.00412242474115,0.0581513134428,-0.998297713821
322516000000,,3976,,322,511996700,"""map""",,,0.134166434407,0.298995882273,0.048549413681,,-0.0018047748099,-0.00417028841454,0.0581615972738,-0.998296870884
322548000000,,3977,,322,543996656,"""map""",,,0.134643629193,0.298896670341,0.0495095513761,,-0.00181952398429,-0.00412243618337,0.0581854523901,-0.998295690772
322580000000,,3978,,322,575996656,"""map""",,,0.135334432125,0.298766344786,0.0504292547703,,-0.00183483893073,-0.0041175802408,0.0581744520626,-0.998296322975
322616000000,,3979,,322,607996656,"""map""",,,0.13411025703,0.298772901297,0.051641985774,,-0.00181485202259,-0.00415191090686,0.0581344125565,-0.998298514611
322648000000,,3980,,322,639996611,"""map""",,,0.133222103119,0.298758804798,0.0526530705392,,-0.00181806193316,-0.00412910929718,0.0581323895078,-0.998298683199
322680000000,,3981,,322,671996611,"""map""",,,0.132630184293,0.298715054989,0.0536155998707,,-0.00178529012427,-0.00414946556647,0.0581550223655,-0.998297376646
322716000000,,3982,,322,711996611,"""map""",,,0.132264211774,0.298624902964,0.0546834208071,,-0.00172352712818,-0.00421481170323,0.0582061464927,-0.998294215633
322748000000,,3983,,322,743996567,"""map""",,,0.132264092565,0.298520237207,0.0554415285587,,-0.00173732692834,-0.00422033491601,0.058201889661,-0.998294426367
322780000000,,3984,,322,775996567,"""map""",,,0.132471159101,0.298366069794,0.0559944137931,,-0.00178274443815,-0.00423259339276,0.0582017210736,-0.998294342073
322816000000,,3985,,322,807996567,"""map""",,,0.130854353309,0.298324108124,0.0562820918858,,-0.00177455132129,-0.00425505980328,0.0581693944408,-0.998296154388
322848000000,,3986,,322,839996523,"""map""",,,0.129565045238,0.298251718283,0.0566606707871,,-0.00175507033998,-0.0042553132606,0.0581698159093,-0.998296070094
322880000000,,3987,,322,871996523,"""map""",,,0.128617212176,0.298165738583,0.0570935420692,,-0.00172412788541,-0.00404497225144,0.0581903835714,-0.998295901507
322916000000,,3988,,322,911996523,"""map""",,,0.127808004618,0.298045903444,0.0576536618173,,-0.00174369867573,-0.00410745939953,0.0581732719509,-0.998296575856
322948000000,,3989,,322,943996479,"""map""",,,0.127407610416,0.297903984785,0.0580751299858,,-0.00172793122689,-0.00410036942704,0.0581740305941,-0.998296575856
322980000000,,3990,,322,975996479,"""map""",,,0.127243682742,0.297726750374,0.0585308261216,,-0.00169495049475,-0.00420003832732,0.0581624402108,-0.998296870884
323016000000,,3991,,323,7996479,"""map""",,,0.125526562333,0.29784026742,0.0585041902959,,-0.00164655101309,-0.00427627646097,0.0581805212088,-0.998295564332
323048000000,,3992,,323,39996435,"""map""",,,0.124159649014,0.29790237546,0.0585765242577,,-0.00165146161485,-0.00430109650957,0.0582206450086,-0.998293119815
323080000000,,3993,,323,71996435,"""map""",,,0.123151287436,0.297922760248,0.058820668608,,-0.00166799256373,-0.00430946117727,0.0582278942665,-0.998292614053
323116000000,,3994,,323,111996435,"""map""",,,0.122296519578,0.297840327024,0.0593837983906,,-0.00172043295681,-0.00426728617598,0.0582112462614,-0.998293667724
323148000000,,3995,,323,143996392,"""map""",,,0.121915787458,0.297704577446,0.0596868060529,,-0.0017530069554,-0.0042853489817,0.0581917744174,-0.998294679248
323180000000,,3996,,323,175996392,"""map""",,,0.121732309461,0.297558784485,0.0600275956094,,-0.00183564762338,-0.00427914294058,0.05820551429,-0.998293836311
323216000000,,3997,,323,207996392,"""map""",,,0.120123952627,0.29770731926,0.0601572282612,,-0.00181691030345,-0.00422957997541,0.0581953990463,-0.998294594954
323248000000,,3998,,323,247996348,"""map""",,,0.118589729071,0.297784805298,0.0603589750826,,-0.00183661658931,-0.00420810022919,0.0581986022068,-0.998294510661
323280000000,,3999,,323,271996348,"""map""",,,0.117902182043,0.297797739506,0.060529306531,,-0.00182077834694,-0.00414948277094,0.0582407490553,-0.998292319025
323316000000,,4000,,323,311996348,"""map""",,,0.117039449513,0.29773670435,0.0608252435923,,-0.00177187870073,-0.00393563040246,0.058235817874,-0.998293541283
323348000000,,4001,,323,343996305,"""map""",,,0.116599276662,0.297633528709,0.0612079761922,,-0.00177577555553,-0.00393846321398,0.0582308866928,-0.998293836311
323380000000,,4002,,323,375996305,"""map""",,,0.116347759962,0.29748994112,0.0616089627147,,-0.00174071250566,-0.00394899613948,0.0581934181444,-0.998296070094
323416000000,,4003,,323,407996305,"""map""",,,0.114522181451,0.297724872828,0.0618116036057,,-0.00180394323282,-0.00399679008946,0.0581893299001,-0.998295943654
323448000000,,4004,,323,439996262,"""map""",,,0.113036267459,0.297904223204,0.0621401891112,,-0.001775575358,-0.00400871937627,0.0581930809697,-0.998295732919
323480000000,,4005,,323,471996262,"""map""",,,0.111834667623,0.298003464937,0.0625803768635,,-0.00179042850011,-0.00399294097913,0.0582151237714,-0.998294510661
323516000000,,4006,,323,511996262,"""map""",,,0.110677391291,0.297990113497,0.0634466037154,,-0.00183529843016,-0.00398283890638,0.0582033648007,-0.998295142863
323548000000,,4007,,323,543996219,"""map""",,,0.110033638775,0.297883838415,0.0641616806388,,-0.00183858127453,-0.00398528737486,0.0582000773465,-0.998295311451
323580000000,,4008,,323,575996219,"""map""",,,0.109577909112,0.29771655798,0.0648183599114,,-0.0018421174939,-0.00397347917792,0.0581132126917,-0.99830041122
323616000000,,4009,,323,607996219,"""map""",,,0.107712052763,0.297664135695,0.0650388896465,,-0.00184277299264,-0.00399493628667,0.0581547694844,-0.998297882409
323648000000,,4010,,323,639996176,"""map""",,,0.106151498854,0.297537624836,0.0653294026852,,-0.00190209015443,-0.00391209657361,0.0581497118625,-0.998298388171
323680000000,,4011,,323,671996176,"""map""",,,0.10487356782,0.297365278006,0.0656518489122,,-0.0019338205575,-0.00390222523839,0.0581758850555,-0.998296913031
323716000000,,4012,,323,711996176,"""map""",,,0.103613749146,0.297078698874,0.0660542175174,,-0.00194955944197,-0.00396294139566,0.0581826706981,-0.998296196535
323748000000,,4013,,323,743996133,"""map""",,,0.102814041078,0.29678991437,0.066435419023,,-0.00190718391388,-0.00394441011784,0.0581737355662,-0.998296870884
323780000000,,4014,,323,775996133,"""map""",,,0.10219502449,0.296430408955,0.066805228591,,-0.00197976556146,-0.00397019658051,0.058157087561,-0.998297671674
323816000000,,4015,,323,807996133,"""map""",,,0.100317321718,0.296249985695,0.0670928731561,,-0.0019191652257,-0.00393320062018,0.0581389222693,-0.998298893933
323848000000,,4016,,323,839996091,"""map""",,,0.0987340807915,0.296013355255,0.0675323158503,,-0.00195994345409,-0.00393996864673,0.0581518613518,-0.998298093143
323880000000,,4017,,323,871996091,"""map""",,,0.0973954871297,0.295709490776,0.068108998239,,-0.002020185377,-0.0039680059322,0.0581143085098,-0.998299989751
323916000000,,4018,,323,911996091,"""map""",,,0.096032820642,0.295275300741,0.0688556283712,,-0.00196057977272,-0.00394218382582,0.0581129176638,-0.998300369073
323948000000,,4019,,323,943996048,"""map""",,,0.0951681658626,0.294847875834,0.0693164616823,,-0.00199675913786,-0.00390892181285,0.0581177645514,-0.998300074045
323980000000,,4020,,323,975996048,"""map""",,,0.0944904014468,0.294361233711,0.0697790682316,,-0.00197161837808,-0.00394511558365,0.0581452864434,-0.998298430318
324016000000,,4021,,324,7996048,"""map""",,,0.0928178578615,0.294007092714,0.0697100684047,,-0.00198090657214,-0.00394612900133,0.0580969440082,-0.998301254156
324048000000,,4022,,324,39996006,"""map""",,,0.0913727432489,0.293600171804,0.0695357471704,,-0.00199923510057,-0.00388428846162,0.0581002314624,-0.998301254156
324080000000,,4023,,324,71996006,"""map""",,,0.0901973247528,0.293132483959,0.0695540606976,,-0.00198745530337,-0.00381310811443,0.0580905376872,-0.998302097093
324116000000,,4024,,324,111996006,"""map""",,,0.0890471413732,0.292482823133,0.069607809186,,-0.00196699284378,-0.00382545467151,0.0580145469194,-0.998306522513
324148000000,,4025,,324,143995964,"""map""",,,0.0883612558246,0.291870296001,0.0696574002504,,-0.00194518160272,-0.00383511049804,0.0580269802397,-0.998305806016
324180000000,,4026,,324,175995964,"""map""",,,0.0878738164902,0.291202932596,0.069810256362,,-0.00194615773032,-0.00388373133297,0.0580100793534,-0.998306606806
324216000000,,4027,,324,207995964,"""map""",,,0.0865738764405,0.290484338999,0.069356366992,,-0.00192673363078,-0.0039504066595,0.0579849598317,-0.998307786918
324248000000,,4028,,324,239995922,"""map""",,,0.0854704678059,0.289743632078,0.0690440908074,,-0.0019081173184,-0.00396494328865,0.0579965502151,-0.998307154715
324280000000,,4029,,324,271995922,"""map""",,,0.0845602974296,0.288971811533,0.068766027689,,-0.00188452808949,-0.00398679330151,0.0579425601021,-0.998310231435
324316000000,,4030,,324,311995922,"""map""",,,0.0836438685656,0.287973046303,0.0685968324542,,-0.00192106529125,-0.00396110166926,0.0579502729754,-0.99830976782
324348000000,,4031,,324,343995881,"""map""",,,0.0830893963575,0.287138968706,0.0687271654606,,-0.00192437102004,-0.00395534483781,0.0579573114991,-0.998309388498
324380000000,,4032,,324,375995881,"""map""",,,0.0826516076922,0.286268442869,0.0688757821918,,-0.00196201210703,-0.00394431158312,0.0579562999747,-0.998309472792
324416000000,,4033,,324,407995881,"""map""",,,0.0815474614501,0.285851150751,0.0686868801713,,-0.00193534088982,-0.00395824457391,0.0579205594472,-0.998311495841
324448000000,,4034,,324,439995839,"""map""",,,0.0806248188019,0.285323500633,0.0686632618308,,-0.00192502544864,-0.00395480038614,0.0579522538773,-0.998309725673
324480000000,,4035,,324,471995839,"""map""",,,0.0798806250095,0.284731626511,0.068645387888,,-0.00181389416961,-0.00387982501158,0.0579215709716,-0.998311917309
324516000000,,4036,,324,511995839,"""map""",,,0.0792123377323,0.283914536238,0.0688200891018,,-0.00185216408428,-0.00382380468824,0.057907536071,-0.99831297098
324548000000,,4037,,324,543995798,"""map""",,,0.0788089558482,0.283209294081,0.0690676122904,,-0.00181484519019,-0.00378833465786,0.0578675808586,-0.998315499791
324580000000,,4038,,324,575995798,"""map""",,,0.0785036981106,0.282459467649,0.0693846791983,,-0.00188061995711,-0.00380805279752,0.0578595308105,-0.998315710526
324616000000,,4039,,324,607995798,"""map""",,,0.0776994675398,0.282360255718,0.0691860616207,,-0.00194582532997,-0.00376580099348,0.0578447372667,-0.998316595609
324648000000,,4040,,324,639995756,"""map""",,,0.0770811066031,0.282174825668,0.0691304802895,,-0.00193647877241,-0.0037996078697,0.0578398482323,-0.998316764197
324680000000,,4041,,324,671995756,"""map""",,,0.0765975862741,0.281904667616,0.0691904425621,,-0.00197015204642,-0.00380036000985,0.0578529559022,-0.998315963407
324716000000,,4042,,324,711995756,"""map""",,,0.076178945601,0.281446963549,0.0693078115582,,-0.00192199540305,-0.00384448504374,0.0578139279205,-0.998318155043
324748000000,,4043,,324,743995715,"""map""",,,0.0759651511908,0.280975610018,0.0694812834263,,-0.00196963648839,-0.00386622886631,0.0577852680635,-0.998319588036
324780000000,,4044,,324,775995715,"""map""",,,0.0758182257414,0.280426889658,0.0698728561401,,-0.00192764571492,-0.00388948338997,0.0577622558842,-0.998320936735
324816000000,,4045,,324,807995715,"""map""",,,0.0749986246228,0.280252128839,0.0701291039586,,-0.00192979726215,-0.00397984351669,0.0577453549979,-0.998321568937
324848000000,,4046,,324,839995675,"""map""",,,0.0743428692222,0.280005276203,0.0703724622726,,-0.00192555187266,-0.00394550675908,0.0577542058361,-0.998321231763
324880000000,,4047,,324,871995675,"""map""",,,0.0738277733326,0.279640823603,0.0706566348672,,-0.00194071271969,-0.00399566825889,0.057784846595,-0.998319166567
324916000000,,4048,,324,911995675,"""map""",,,0.0733527690172,0.279014319181,0.0712408050895,,-0.00196257804371,-0.00393071041644,0.0577601063949,-0.998320810294
324948000000,,4049,,324,943995634,"""map""",,,0.0731094554067,0.278408139944,0.0719725340605,,-0.00197982705306,-0.00396824572472,0.0577471673124,-0.998321442497
324980000000,,4050,,324,975995634,"""map""",,,0.0729798823595,0.27771243453,0.0728962272406,,-0.00204428209678,-0.00395384664905,0.0577038403521,-0.998323887014
325016000000,,4051,,325,7995634,"""map""",,,0.0720305815339,0.277489572763,0.0733474269509,,-0.00202756864875,-0.00392650610367,0.057689974039,-0.998324772098
325048000000,,4052,,325,39995593,"""map""",,,0.0712371021509,0.277151405811,0.0737437829375,,-0.00204552386476,-0.00397976128094,0.0576385970306,-0.998327511643
325080000000,,4053,,325,71995593,"""map""",,,0.0705797746778,0.276707857847,0.0741023719311,,-0.00200690088791,-0.00395408528912,0.057589243071,-0.998330588363
325116000000,,4054,,325,111995593,"""map""",,,0.0699702724814,0.276002854109,0.0745277702808,,-0.00205793067866,-0.00396391620617,0.0576007491607,-0.998329787573
325148000000,,4055,,325,143995553,"""map""",,,0.0696193724871,0.275335788727,0.0748519077897,,-0.00211067186194,-0.00395432417614,0.057583974715,-0.99833063051
325180000000,,4056,,325,175995553,"""map""",,,0.0693735927343,0.274597704411,0.0753347948194,,-0.00206771162864,-0.00398057779381,0.0575613418573,-0.998331937062
325216000000,,4057,,325,207995553,"""map""",,,0.0685303732753,0.274429857731,0.075236491859,,-0.00203063968875,-0.00391199746266,0.0575724264785,-0.998331642034
325248000000,,4058,,325,239995513,"""map""",,,0.0678307712078,0.274112462997,0.0752716511488,,-0.00201202913863,-0.00391022013335,0.0575641235493,-0.998332189943
325280000000,,4059,,325,271995513,"""map""",,,0.0672894790769,0.273674964905,0.0753470733762,,-0.00184780509586,-0.00384546429943,0.0575127043941,-0.998335645985
325316000000,,4060,,325,311995513,"""map""",,,0.0667475536466,0.272948116064,0.0755554139614,,-0.00182906933998,-0.00384394520188,0.0574845502993,-0.998337331859
325348000000,,4061,,325,343995473,"""map""",,,0.0663994550705,0.27226549387,0.0758628174663,,-0.00183127200672,-0.00382885679475,0.0574756151675,-0.998337921915
325380000000,,4062,,325,375995473,"""map""",,,0.0661151856184,0.271512359381,0.0762154608965,,-0.00183717849241,-0.00385927430703,0.0574283685503,-0.998340492872
325416000000,,4063,,325,407995473,"""map""",,,0.065330862999,0.271549135447,0.076342754066,,-0.00189070959983,-0.00387410341226,0.057383650744,-0.998342895243
325448000000,,4064,,325,439995433,"""map""",,,0.0646461471915,0.271428138018,0.0766049996018,,-0.00189752570013,-0.00394037850837,0.05739199582,-0.9983421366
325480000000,,4065,,325,471995433,"""map""",,,0.0640739202499,0.271159857512,0.0768477618694,,-0.00189292362647,-0.00390420153046,0.0573220741983,-0.998346309138
325516000000,,4066,,325,511995433,"""map""",,,0.0635449588299,0.270611166954,0.0770961940289,,-0.00188803574449,-0.0039008431181,0.0573231700164,-0.998346309138
325548000000,,4067,,325,543995393,"""map""",,,0.0632186979055,0.270013839006,0.0773525908589,,-0.00189217255646,-0.00391384229278,0.0573420518045,-0.998345129026
