rosbagTimestamp,header,seq,stamp,secs,nsecs,frame_id,pose,position,x,y,z,orientation,x,y,z,w
104268000000,,126,,104,196000000,"""map""",,,-0.00255998596549,-0.00452238181606,0.016276890412,,0.00872750144434,-0.0103605257063,0.0375944831095,-0.999201300106
104268000000,,127,,104,196000000,"""map""",,,-0.00238548498601,-0.00456322124228,0.0162484887987,,0.00873659668486,-0.0103977221934,0.0375648117282,-0.999201974456
104276000000,,128,,104,276000000,"""map""",,,-0.00211804453284,-0.00456044171005,0.0160303395241,,0.00870739616283,-0.0103494014901,0.037518955957,-0.999204418973
104312000000,,129,,104,312000000,"""map""",,,-0.00177881633863,-0.00464299041778,0.0159244854003,,0.00876749279436,-0.0103508511112,0.0374706556686,-0.999205683379
104344000000,,130,,104,344000000,"""map""",,,-0.00149544945452,-0.0047629266046,0.0159030240029,,0.0087329033203,-0.0103111330572,0.0374278766174,-0.999208001455
104376000000,,131,,104,376000000,"""map""",,,-0.00119395111687,-0.00489353435114,0.0157382916659,,0.00876771892208,-0.0103393177743,0.0373997646694,-0.999208465071
104412000000,,132,,104,412000000,"""map""",,,-0.000880813342519,-0.00501031335443,0.0155219482258,,0.00876872320245,-0.0103506809598,0.0373041334701,-0.999211878965
104444000000,,133,,104,444000000,"""map""",,,-0.000755880842917,-0.00514461519197,0.0155238686129,,0.00899270974773,-0.0103836295056,0.037199567139,-0.999213522693
104476000000,,134,,104,476000000,"""map""",,,-0.000777453999035,-0.00528164720163,0.0156732108444,,0.00901914413587,-0.010357084482,0.0372108624944,-0.999213101224
104512000000,,135,,104,512000000,"""map""",,,-0.000730324885808,-0.00552661158144,0.0158783849329,,0.00900661400952,-0.0103301295967,0.0370947479267,-0.999217779524
104544000000,,136,,104,544000000,"""map""",,,-0.000655625713989,-0.00575628969818,0.0159880090505,,0.00904614371984,-0.0103557352066,0.0370166498165,-0.999220097601
104576000000,,137,,104,576000000,"""map""",,,-0.000532437232323,-0.00600422220305,0.0159810315818,,0.0090302630425,-0.0103449777586,0.0369811200232,-0.999221657034
104612000000,,138,,104,612000000,"""map""",,,-0.000364779494703,-0.00624278746545,0.0159666314721,,0.00899410553282,-0.0104100111278,0.0369311338608,-0.999223174321
104644000000,,139,,104,644000000,"""map""",,,-0.000128349201987,-0.00647723814473,0.0159316603094,,0.00899338944798,-0.0104179922757,0.036864036078,-0.999225534544
104676000000,,140,,104,676000000,"""map""",,,0.000185938377399,-0.00670616375282,0.0157977379858,,0.00897112463439,-0.0104380509652,0.036865974833,-0.999225450251
104712000000,,141,,104,712000000,"""map""",,,0.000616736360826,-0.0069741550833,0.015727493912,,0.00887323470978,-0.0104110268504,0.0367924285824,-0.999229369908
104744000000,,142,,104,744000000,"""map""",,,0.000986681203358,-0.0071934228763,0.0157079864293,,0.00886973314631,-0.0104350038797,0.0366786742382,-0.999233289564
104776000000,,143,,104,776000000,"""map""",,,0.00138591241557,-0.00742583721876,0.0157147720456,,0.00883364037978,-0.010450363031,0.0366443245567,-0.99923468041
104812000000,,144,,104,812000000,"""map""",,,0.00176855595782,-0.00765376072377,0.0155087336898,,0.00883689647078,-0.0104403107607,0.0366123350987,-0.999235902669
104844000000,,145,,104,844000000,"""map""",,,0.00204676459543,-0.00776884239167,0.0153115363792,,0.00883574558194,-0.0104179450251,0.0365553104127,-0.999238305039
104876000000,,146,,104,876000000,"""map""",,,0.00222509005107,-0.00777909904718,0.0151605391875,,0.0088669851224,-0.0104221997165,0.0364787717358,-0.999240749557
104912000000,,147,,104,912000000,"""map""",,,0.00246949400753,-0.00779945030808,0.0146688111126,,0.00893579421545,-0.010424655676,0.0364161415189,-0.999242351137
104944000000,,148,,104,944000000,"""map""",,,0.00271419645287,-0.00783078093082,0.014353428036,,0.00887534312234,-0.0104311838277,0.0363267480532,-0.999246102206
104976000000,,149,,104,976000000,"""map""",,,0.00295598153025,-0.00783984642476,0.0140801342204,,0.00890598783247,-0.0103927235113,0.0362830417713,-0.999247830227
105012000000,,150,,105,12000000,"""map""",,,0.00322506902739,-0.00786179769784,0.0137191629037,,0.00894843678828,-0.0104164424735,0.03626420213,-0.999247872374
105044000000,,151,,105,44000000,"""map""",,,0.00328654004261,-0.00770169403404,0.0133115742356,,0.00892762669951,-0.0104299637917,0.0362486920897,-0.999248546724
105076000000,,152,,105,76000000,"""map""",,,0.00319302617572,-0.00737890740857,0.0128520093858,,0.00889560703076,-0.0103857371773,0.0362640756894,-0.999248757458
105112000000,,153,,105,112000000,"""map""",,,0.00311176222749,-0.00703943660483,0.0122901834548,,0.00891398972447,-0.0103800130261,0.0362724629123,-0.999248293843
105144000000,,154,,105,144000000,"""map""",,,0.00311015569605,-0.00677174981683,0.0117645710707,,0.00912532361296,-0.0103674212847,0.0362673209968,-0.999246692262
105176000000,,155,,105,176000000,"""map""",,,0.00319485808723,-0.0065201530233,0.0113162156194,,0.00911405883872,-0.0103509191883,0.0362629798714,-0.999247155878
105212000000,,156,,105,212000000,"""map""",,,0.00330149801448,-0.0062894737348,0.0109799643978,,0.00904796883478,-0.0103453845744,0.0362227717779,-0.99924926322
105244000000,,157,,105,244000000,"""map""",,,0.00315613020211,-0.00583685142919,0.0107385953888,,0.00905810255883,-0.0103566337906,0.0362035106681,-0.999249726835
105276000000,,158,,105,276000000,"""map""",,,0.002782196505,-0.00518412003294,0.0105524882674,,0.00907502455967,-0.0103653054635,0.0361962614102,-0.999249726835
105312000000,,159,,105,312000000,"""map""",,,0.00241326983087,-0.00443619815633,0.0103180753067,,0.00898527659123,-0.0103473998441,0.0361555897014,-0.999252213499
105344000000,,160,,105,344000000,"""map""",,,0.00219915062189,-0.00390669656917,0.0100953551009,,0.00905496175428,-0.010330269167,0.0361050134832,-0.999253646492
105376000000,,161,,105,376000000,"""map""",,,0.00204420601949,-0.00342836650088,0.00989697314799,,0.00905335642856,-0.0102812376884,0.0360717174728,-0.999255332366
105412000000,,162,,105,412000000,"""map""",,,0.00193076417781,-0.00297866691835,0.00968840438873,,0.0090530070707,-0.0102530167513,0.0360028916692,-0.999258071911
105444000000,,163,,105,444000000,"""map""",,,0.00187239656225,-0.00246926746331,0.00957378465682,,0.00904232296808,-0.0102406373082,0.0359824504477,-0.999259041289
105476000000,,164,,105,476000000,"""map""",,,0.00183561746962,-0.00188571808394,0.00949670467526,,0.00901676744874,-0.0102268922084,0.0359591432405,-0.999260263548
105512000000,,165,,105,512000000,"""map""",,,0.00182568491437,-0.00125612365082,0.00940628536046,,0.00900828951138,-0.0102095604694,0.0359074290573,-0.999262413037
105544000000,,166,,105,544000000,"""map""",,,0.00187996774912,-0.00077504105866,0.00928436685354,,0.00905670751461,-0.010196947531,0.0358030734604,-0.999265869078
105576000000,,167,,105,576000000,"""map""",,,0.0019808805082,-0.000345874374034,0.00910551659763,,0.00903596385651,-0.0101292447104,0.0357777010576,-0.999267639246
105612000000,,168,,105,612000000,"""map""",,,0.00214572320692,5.09388519276e-05,0.00883294548839,,0.00905803785683,-0.0101393511461,0.0357388416633,-0.999268735064
105644000000,,169,,105,644000000,"""map""",,,0.00206397217698,0.000459110829979,0.00818982440978,,0.00905540861788,-0.0100357637413,0.0357197491409,-0.999270463085
105676000000,,170,,105,676000000,"""map""",,,0.00179303099867,0.00089891377138,0.00721073942259,,0.00906733506472,-0.010034838939,0.0356819434178,-0.999271685343
105712000000,,171,,105,712000000,"""map""",,,0.00157540547661,0.00146786589175,0.005766664166,,0.00904312141214,-0.00982116655899,0.0356074277896,-0.999276742965
105744000000,,172,,105,744000000,"""map""",,,0.00149744481314,0.00189348252025,0.00477656489238,,0.00904565129318,-0.00989163501957,0.0356025809021,-0.999276195056
105776000000,,173,,105,776000000,"""map""",,,0.00143547588959,0.00225315894932,0.00380577403121,,0.00904062614584,-0.00990324166072,0.0355766605902,-0.999276995846
105812000000,,174,,105,812000000,"""map""",,,0.0013974562753,0.00257481215522,0.00289495964535,,0.00900646727757,-0.00990116741016,0.0355017656404,-0.999279988273
105844000000,,175,,105,844000000,"""map""",,,0.00129810220096,0.00282940641046,0.00209843670018,,0.0090368606295,-0.00988407007185,0.035491313222,-0.999280241154
105876000000,,176,,105,876000000,"""map""",,,0.00114944484085,0.00305486423895,0.00147721124813,,0.00903763503668,-0.00988319820008,0.0354229931806,-0.999282727818
105912000000,,177,,105,912000000,"""map""",,,0.00103190599475,0.00332990731113,0.00100432778709,,0.00908859032958,-0.00995382207716,0.0353826164997,-0.999282980699
105944000000,,178,,105,944000000,"""map""",,,0.00100054044742,0.00349485361949,0.000664606981445,,0.00902314380594,-0.00998578556383,0.0352850886922,-0.999286689622
105976000000,,179,,105,976000000,"""map""",,,0.000999298295937,0.00365153886378,0.000238663749769,,0.00904406737016,-0.0100711352781,0.0352335430965,-0.999287490412
106012000000,,180,,106,12000000,"""map""",,,0.00103562430013,0.00378627283499,-0.000229141878663,,0.0089877537064,-0.0100491216581,0.0351587324404,-0.999290820013
106044000000,,181,,106,44000000,"""map""",,,0.00100056070369,0.00400268100202,-0.000546965165995,,0.00897014994736,-0.0100736849155,0.0351276280662,-0.999291831537
106076000000,,182,,106,76000000,"""map""",,,0.000895509321708,0.00433841813356,-0.000725802907255,,0.00898368571234,-0.0100791033786,0.0350640284718,-0.999293896733
106112000000,,183,,106,112000000,"""map""",,,0.000829300493933,0.00474770041183,-0.00091539719142,,0.00896592398494,-0.0101050086673,0.0349959191646,-0.999296172662
106144000000,,184,,106,144000000,"""map""",,,0.000826614210382,0.00505994306877,-0.000983957434073,,0.00894569814862,-0.0100896125141,0.034984665956,-0.999296889159
106176000000,,185,,106,176000000,"""map""",,,0.000860614294652,0.0053648846224,-0.00112628517672,,0.00897003844755,-0.0100364371854,0.0350055707929,-0.99929646769
106212000000,,186,,106,212000000,"""map""",,,0.000923855404835,0.00567094935104,-0.0012049091747,,0.00893032936617,-0.00998096682903,0.0349605158118,-0.999298954354
106244000000,,187,,106,244000000,"""map""",,,0.000995868584141,0.00618821661919,-0.00107235857286,,0.00894322609602,-0.00995346753326,0.0349381358353,-0.999299923732
106276000000,,188,,106,276000000,"""map""",,,0.00111280370038,0.00705693522468,-0.000692390836775,,0.00887276240989,-0.00990587262835,0.0349083380134,-0.999302073221
106312000000,,189,,106,312000000,"""map""",,,0.00126848195214,0.00773148424923,-0.00036503575393,,0.0089049393473,-0.00990410595923,0.0348190288414,-0.99930489706
106344000000,,190,,106,344000000,"""map""",,,0.00146245362703,0.00837599299848,-7.58407695685e-05,,0.00885665576947,-0.00986527990372,0.0347625520644,-0.999307678752
106376000000,,191,,106,376000000,"""map""",,,0.00170216849074,0.00897122360766,0.000257904990576,,0.00889064481557,-0.0098700356652,0.0347734680982,-0.999306962256
106412000000,,192,,106,412000000,"""map""",,,0.00195317878388,0.0095159355551,0.000624858192168,,0.0088792206324,-0.00981321883228,0.0347172442022,-0.99930957536
106444000000,,193,,106,444000000,"""map""",,,0.00213765981607,0.00983009394258,0.000922061153688,,0.00881206563852,-0.0098379925358,0.0347288767324,-0.999309491067
106476000000,,194,,106,476000000,"""map""",,,0.00226745591499,0.00993577204645,0.00122185982764,,0.00885103616223,-0.00985970425432,0.0347064124622,-0.999309701801
106512000000,,195,,106,512000000,"""map""",,,0.00249823299237,0.0100445784628,0.00157172116451,,0.0088151994872,-0.00976807700566,0.0347154318878,-0.999310629031
106544000000,,196,,106,544000000,"""map""",,,0.00274961069226,0.0101296659559,0.00186011521146,,0.00883290713163,-0.00968938813979,0.0347032514485,-0.999311682703
106576000000,,197,,106,576000000,"""map""",,,0.00307671632618,0.0101981488988,0.00225159036927,,0.00881543594583,-0.00966531175258,0.0346707983752,-0.999313199989
106612000000,,198,,106,612000000,"""map""",,,0.00341367349029,0.0102936299518,0.00260681845248,,0.00879856119556,-0.0095950176005,0.0346726528365,-0.999313958633
106644000000,,199,,106,644000000,"""map""",,,0.00354841002263,0.0102927628905,0.00271043204702,,0.00898741889826,-0.00959672687335,0.0346286515267,-0.999313790045
106676000000,,200,,106,676000000,"""map""",,,0.0034341905266,0.0101207382977,0.00295372121036,,0.00900596083626,-0.00959466171893,0.0346140265702,-0.999314169367
106712000000,,201,,106,712000000,"""map""",,,0.00332019710913,0.010003214702,0.00311684049666,,0.0089471663736,-0.0096124459809,0.0346171875839,-0.999314380101
106744000000,,202,,106,744000000,"""map""",,,0.00324826221913,0.00989517103881,0.00335878459737,,0.00895634537275,-0.00957258012477,0.0345676650369,-0.999316361003
106776000000,,203,,106,776000000,"""map""",,,0.00322309765033,0.00978886149824,0.00359656102955,,0.00897024743253,-0.00959529445673,0.034554009458,-0.99931652959
106812000000,,204,,106,812000000,"""map""",,,0.00321708573028,0.00969546847045,0.00385378859937,,0.00888147771138,-0.00956641256734,0.0345494997452,-0.999317751849
106844000000,,205,,106,844000000,"""map""",,,0.00312908901833,0.00955473259091,0.00417517730966,,0.00883554176241,-0.0095256076679,0.0345316294814,-0.999319184842
106876000000,,206,,106,876000000,"""map""",,,0.0030134874396,0.00935333408415,0.00462691159919,,0.0088104527807,-0.00953648525913,0.034505582729,-0.999320196366
106912000000,,207,,106,912000000,"""map""",,,0.00300481054001,0.00923159904778,0.00488049862906,,0.00878408585221,-0.00955910243519,0.0344745205017,-0.999321334331
106944000000,,208,,106,944000000,"""map""",,,0.00304232980125,0.00915929209441,0.00505986018106,,0.0087671179179,-0.00951183857238,0.0344601484263,-0.999322388002
106976000000,,209,,106,976000000,"""map""",,,0.00311896158382,0.00911031104624,0.00526931602508,,0.00883286665172,-0.00948177504835,0.0344799152983,-0.999321418625
107012000000,,210,,107,12000000,"""map""",,,0.00320235872641,0.0090555716306,0.00562404282391,,0.00883268691023,-0.00944869038965,0.034515613679,-0.999320533541
107044000000,,211,,107,44000000,"""map""",,,0.00328618800268,0.00900845043361,0.00599075900391,,0.00887364874906,-0.00944172788668,0.0344995135828,-0.999320702128
107076000000,,212,,107,76000000,"""map""",,,0.00339767499827,0.00897247437388,0.00622124178335,,0.00884164478248,-0.00937697322579,0.0344403815544,-0.999323694555
107112000000,,213,,107,112000000,"""map""",,,0.00358993257396,0.00893069338053,0.00625164341182,,0.0088604480186,-0.00933347588771,0.0344319100378,-0.999324242464
107144000000,,214,,107,144000000,"""map""",,,0.00354424444959,0.0087176412344,0.00603099912405,,0.00890586618181,-0.00906996622271,0.0344063269008,-0.999327150596
107176000000,,215,,107,176000000,"""map""",,,0.00338576710783,0.00836293306202,0.00587173830718,,0.00892944894875,-0.0090865006701,0.0343853377702,-0.999327487771
107212000000,,216,,107,212000000,"""map""",,,0.0032653962262,0.00802764669061,0.00571872247383,,0.00893074988799,-0.00911834691012,0.0343312633636,-0.999329047204
107244000000,,217,,107,244000000,"""map""",,,0.0032034937758,0.0077057313174,0.00550674181432,,0.00894345906643,-0.00913477305781,0.0343273015598,-0.999328878617
107276000000,,218,,107,276000000,"""map""",,,0.00318793882616,0.00742167094722,0.00526932440698,,0.00895047443817,-0.00915618705248,0.0343261214481,-0.999328710029
107312000000,,219,,107,312000000,"""map""",,,0.00321600190364,0.0070893666707,0.00504719652236,,0.00899324189285,-0.00917397803366,0.0342350842553,-0.999331323134
107344000000,,220,,107,344000000,"""map""",,,0.0034677865915,0.00683801621199,0.00482978951186,,0.00902606291766,-0.00923742041085,0.0341814313171,-0.999332208218
107376000000,,221,,107,376000000,"""map""",,,0.00391482049599,0.00658595841378,0.00454397965223,,0.00899800435297,-0.00925290472671,0.0341782703035,-0.999332418952
107412000000,,222,,107,412000000,"""map""",,,0.00435059331357,0.00638398807496,0.00421420158818,,0.00899558425335,-0.00923050955218,0.0341663005985,-0.999333093302
107444000000,,223,,107,444000000,"""map""",,,0.00476917391643,0.00622228858992,0.00388059555553,,0.0089306460026,-0.00922665756072,0.0341562696486,-0.999334020532
107476000000,,224,,107,476000000,"""map""",,,0.00518677290529,0.00609919894487,0.00359830236994,,0.00890310748227,-0.00922466431113,0.0341475452509,-0.999334568441
107512000000,,225,,107,512000000,"""map""",,,0.00572068523616,0.00601356942207,0.00308535736986,,0.00888701609128,-0.00923383571643,0.0341267247078,-0.999335411378
107544000000,,226,,107,544000000,"""map""",,,0.00607631448656,0.00584281422198,0.00280788796954,,0.00896339498881,-0.0091904314595,0.0340831027195,-0.999336633637
107576000000,,227,,107,576000000,"""map""",,,0.00636983010918,0.00555226951838,0.00259624887258,,0.00890334015428,-0.00917470494332,0.0340989077877,-0.999336675784
107612000000,,228,,107,612000000,"""map""",,,0.00668030418456,0.00530358077958,0.00223909970373,,0.00893273382535,-0.00920293918505,0.0340555386806,-0.999337645161
107644000000,,229,,107,644000000,"""map""",,,0.00700336741284,0.0050627165474,0.00183289777488,,0.00885799708058,-0.00923956069079,0.0339907168276,-0.999340173972
107676000000,,230,,107,676000000,"""map""",,,0.00735244853422,0.00484777754173,0.00129916984588,,0.00886724625587,-0.00923734477084,0.03396808397,-0.999340890469
107712000000,,231,,107,712000000,"""map""",,,0.00779275875539,0.0046109627001,0.000587506685406,,0.00884515424848,-0.00922676375102,0.0339058752216,-0.999343334986
107744000000,,232,,107,744000000,"""map""",,,0.00804089941084,0.00444093113765,3.78165859729e-05,,0.00894346850213,-0.00930902371854,0.0338578278143,-0.999343334986
107776000000,,233,,107,776000000,"""map""",,,0.0081794494763,0.00426351791248,-0.000392362591811,,0.00889361680636,-0.00926889847819,0.0338285357545,-0.9993451473
107812000000,,234,,107,812000000,"""map""",,,0.00835396721959,0.00410401728004,-0.000850274576806,,0.00894587454594,-0.00928302597628,0.0337444949386,-0.999347338937
107844000000,,235,,107,844000000,"""map""",,,0.00855288747698,0.00398561917245,-0.00135268527083,,0.00898045189866,-0.00925467713751,0.0336790830297,-0.999349530573
107876000000,,236,,107,876000000,"""map""",,,0.00881569739431,0.00389161286876,-0.00203069718555,,0.00899165295872,-0.00925400093578,0.0336713701564,-0.999349741307
107912000000,,237,,107,912000000,"""map""",,,0.00906601641327,0.00381491100416,-0.00255396938883,,0.00899267594588,-0.00922330261601,0.0336467142501,-0.999350794978
107944000000,,238,,107,944000000,"""map""",,,0.00921240355819,0.00372775504366,-0.00298091722652,,0.00906821537409,-0.00924778424476,0.0336208782319,-0.999350752831
107976000000,,239,,107,976000000,"""map""",,,0.00926003046334,0.00358867598698,-0.00322608393617,,0.00909679019652,-0.0092656065171,0.0336452391104,-0.999349488426
108012000000,,240,,108,12000000,"""map""",,,0.00933054182678,0.00348017737269,-0.00348002905957,,0.0090919528887,-0.00917905892063,0.0336347023982,-0.999350752831
108044000000,,241,,108,44000000,"""map""",,,0.00942573044449,0.0033854751382,-0.00382933299989,,0.00908937128619,-0.00919548181161,0.0335959272976,-0.999351932943
108076000000,,242,,108,76000000,"""map""",,,0.00953793525696,0.00333965406753,-0.00416050106287,,0.00909458289938,-0.00919892742452,0.0335560985258,-0.999353155202
108112000000,,243,,108,112000000,"""map""",,,0.00975656230003,0.00331836403348,-0.00454440899193,,0.0091068211619,-0.00916152354217,0.0335371324439,-0.999353998139
108144000000,,244,,108,144000000,"""map""",,,0.00958622526377,0.00344627606682,-0.00472543854266,,0.00908651490083,-0.00918327596698,0.0335157639917,-0.999354714635
108176000000,,245,,108,176000000,"""map""",,,0.00904211588204,0.00368957384489,-0.00473933247849,,0.00912051447078,-0.00914564518261,0.0335235190119,-0.999354546048
108212000000,,246,,108,212000000,"""map""",,,0.0085856905207,0.0039595826529,-0.00485033867881,,0.00904534357025,-0.00911057441542,0.0334875256032,-0.999356737684
108244000000,,247,,108,244000000,"""map""",,,0.00814117491245,0.00432020472363,-0.00494318874553,,0.00925385603541,-0.00912117024478,0.0334216079322,-0.999356906271
108276000000,,248,,108,276000000,"""map""",,,0.00792794395238,0.00454762717709,-0.0050360406749,,0.009254303573,-0.0091675215141,0.0334043698711,-0.999357032712
108312000000,,249,,108,312000000,"""map""",,,0.00763300294057,0.00495252758265,-0.00528559880331,,0.00922621672176,-0.00920495574609,0.0333850666145,-0.999357622768
108344000000,,250,,108,344000000,"""map""",,,0.00739526096731,0.0052134944126,-0.00537344580516,,0.00924623685295,-0.00919317795796,0.0333040603717,-0.999360235872
108376000000,,251,,108,376000000,"""map""",,,0.00715844053775,0.00541481608525,-0.00531047955155,,0.00924392228252,-0.00914057518478,0.0333204554957,-0.999360193725
108412000000,,252,,108,412000000,"""map""",,,0.00694292876869,0.00561071559787,-0.00525363953784,,0.00930999319381,-0.00919820000551,0.0332898568837,-0.999360109432
108444000000,,253,,108,444000000,"""map""",,,0.00676300842315,0.00577730871737,-0.0053762733005,,0.00927674732033,-0.00917525095904,0.0332650745368,-0.999361458131
108476000000,,254,,108,476000000,"""map""",,,0.00665604835376,0.00593315158039,-0.0054835844785,,0.00925838408455,-0.00920343967888,0.0332775078571,-0.999360910222
108512000000,,255,,108,512000000,"""map""",,,0.00659522553906,0.0061111273244,-0.00559757836163,,0.00920293233465,-0.00919363888766,0.0332239813595,-0.999363270445
108544000000,,256,,108,544000000,"""map""",,,0.00652890186757,0.00624152040109,-0.00512987747788,,0.00913423029366,-0.00918019013545,0.0331621097859,-0.999366136431
108576000000,,257,,108,576000000,"""map""",,,0.00642667897046,0.0063800662756,-0.00413081049919,,0.00913275068049,-0.00919215772846,0.0331402777184,-0.999366726487
108612000000,,258,,108,612000000,"""map""",,,0.00632770173252,0.00654059788212,-0.00314421928488,,0.00907078456716,-0.00917618773345,0.0330548039096,-0.999370266822
108644000000,,259,,108,644000000,"""map""",,,0.0062664966099,0.00667976262048,-0.00221538310871,,0.00901785337835,-0.00921706492359,0.0329320722867,-0.999374397213
108676000000,,260,,108,676000000,"""map""",,,0.00624917028472,0.00684261973947,-0.00136256078258,,0.00903609577121,-0.00918754429748,0.032930049238,-0.999374650094
108712000000,,261,,108,712000000,"""map""",,,0.00625118799508,0.00701445154846,-0.000599960214458,,0.00897845921501,-0.00914534287209,0.0328981019268,-0.999376588849
108744000000,,262,,108,744000000,"""map""",,,0.00626001227647,0.00707390345633,7.06190476194e-05,,0.00898140830079,-0.00911647742574,0.0328389277515,-0.999378780486
108776000000,,263,,108,776000000,"""map""",,,0.0061610462144,0.00690541649237,0.000661705387756,,0.00898080410164,-0.00915063578466,0.0328180229146,-0.99937911766
108812000000,,264,,108,812000000,"""map""",,,0.00609821453691,0.00671860575676,0.00139260583092,,0.00899712810805,-0.00889012215761,0.0327815658907,-0.999382531555
108844000000,,265,,108,844000000,"""map""",,,0.00607669306919,0.00661245221272,0.00183627463412,,0.00899918486603,-0.00888968673621,0.0328021756996,-0.999381815059
108876000000,,266,,108,876000000,"""map""",,,0.00609473278746,0.00653144996613,0.00217874138616,,0.00900471789524,-0.00889861534439,0.032778151996,-0.999382489408
108912000000,,267,,108,912000000,"""map""",,,0.00616739923134,0.00645490875468,0.00249832798727,,0.00894852915686,-0.00890711097241,0.0328266630186,-0.999381351443
108944000000,,268,,108,944000000,"""map""",,,0.00600592559204,0.00627027545124,0.00281451107003,,0.00892886164346,-0.00891740871456,0.0328487479672,-0.999380677094
108976000000,,269,,108,976000000,"""map""",,,0.00564793590456,0.00600023986772,0.00316611002199,,0.00895137658884,-0.00892383021486,0.032833785836,-0.999380887828
109012000000,,270,,109,12000000,"""map""",,,0.00526585942134,0.00572799239308,0.00363393872976,,0.00895601621883,-0.00888231340951,0.0328270423402,-0.999381477884
109044000000,,271,,109,44000000,"""map""",,,0.00501585612074,0.00556519301608,0.00395159237087,,0.00900432446378,-0.00893323465102,0.0328033136645,-0.999381351443
109076000000,,272,,109,76000000,"""map""",,,0.00482009071857,0.00543454987928,0.00420785602182,,0.0089924912653,-0.00892354924916,0.0328036086925,-0.999381562178
109112000000,,273,,109,112000000,"""map""",,,0.00467710290104,0.00534744095057,0.00439184391871,,0.00905833277158,-0.00898379662564,0.0327953057633,-0.999380677094
109144000000,,274,,109,144000000,"""map""",,,0.00453444803134,0.00524879759178,0.00443279882893,,0.0089825989184,-0.00897106687798,0.0328003633851,-0.999381351443
109176000000,,275,,109,176000000,"""map""",,,0.00441327504814,0.00515887094662,0.00433664629236,,0.0089694136946,-0.0089947651063,0.032780090751,-0.999381899352
109212000000,,276,,109,212000000,"""map""",,,0.00431970506907,0.00508949533105,0.00426310114563,,0.00895025619626,-0.00892913368215,0.0327332656023,-0.999384133135
109244000000,,277,,109,244000000,"""map""",,,0.00429936684668,0.00510297575966,0.00425391737372,,0.0090415933625,-0.00892612577367,0.0327312847004,-0.999383500933
109276000000,,278,,109,276000000,"""map""",,,0.0043290858157,0.00516826845706,0.00427741697058,,0.00903896776613,-0.00893377869882,0.0327252998479,-0.999383585226
109312000000,,279,,109,312000000,"""map""",,,0.00440884754062,0.00530739407986,0.00419637700543,,0.00898100813211,-0.00888135705368,0.0327317904626,-0.999384428163
109344000000,,280,,109,344000000,"""map""",,,0.00443930318579,0.00542527064681,0.00429961783811,,0.0089252160536,-0.00884582217982,0.032679654811,-0.999386914827
109376000000,,281,,109,376000000,"""map""",,,0.00444868206978,0.00550539791584,0.00460520898923,,0.00890169014272,-0.00881730990369,0.0326438721366,-0.999388558554
109412000000,,282,,109,412000000,"""map""",,,0.00451681762934,0.00562312360853,0.00489634741098,,0.00893410375742,-0.00885638788077,0.0325908514012,-0.999389654372
109444000000,,283,,109,444000000,"""map""",,,0.00459383288398,0.00572251528502,0.00500444322824,,0.00885322772375,-0.00887386188339,0.0325746248645,-0.999390708044
109476000000,,284,,109,476000000,"""map""",,,0.0046729571186,0.00584590435028,0.00510221580043,,0.00891483563518,-0.00889519501856,0.0325665326696,-0.999390286575
109512000000,,285,,109,512000000,"""map""",,,0.00477527314797,0.00600133277476,0.00520741101354,,0.00888740399972,-0.00886726150015,0.0325137648152,-0.999392478211
109544000000,,286,,109,544000000,"""map""",,,0.00493138562888,0.00607714056969,0.005463746842,,0.00896492564175,-0.00889341452001,0.0325401487424,-0.999390708044
109576000000,,287,,109,576000000,"""map""",,,0.00515564717352,0.00608458416536,0.00575423147529,,0.00896006342243,-0.0088652560006,0.0325253130517,-0.999391466687
109612000000,,288,,109,612000000,"""map""",,,0.00547447334975,0.0061770863831,0.00600901478902,,0.00900837686114,-0.00881827413889,0.0325103930674,-0.999391888155
109644000000,,289,,109,644000000,"""map""",,,0.00577429588884,0.00631675031036,0.00610734522343,,0.0090267379052,-0.00878694503638,0.0324616291636,-0.999393616176
109676000000,,290,,109,676000000,"""map""",,,0.00610294705257,0.00649944227189,0.00613966956735,,0.00900759143363,-0.00878788011813,0.0324427052287,-0.999394332673
109712000000,,291,,109,712000000,"""map""",,,0.00642502121627,0.00671388674527,0.00604572379962,,0.00904685480385,-0.00857275375414,0.0324222640071,-0.999396566456
109744000000,,292,,109,744000000,"""map""",,,0.00679446337745,0.0067887105979,0.00618466362357,,0.0090614928077,-0.00856503968725,0.0324229805036,-0.999396524309
109776000000,,293,,109,776000000,"""map""",,,0.00715070357546,0.00677936756983,0.00643057981506,,0.00906977989062,-0.00856655438078,0.0324331800409,-0.99939610284
109812000000,,294,,109,812000000,"""map""",,,0.00759220262989,0.00684063788503,0.00668902834877,,0.00907760101216,-0.00860827951385,0.0323748066557,-0.999397493686
109844000000,,295,,109,844000000,"""map""",,,0.00798241887242,0.00692835683003,0.0068012480624,,0.00907910356377,-0.0086220104138,0.0323801593055,-0.999397198658
109876000000,,296,,109,876000000,"""map""",,,0.00839535519481,0.00707462010905,0.0069382940419,,0.00908528062894,-0.00867681720425,0.0323412999111,-0.999397957302
109912000000,,297,,109,912000000,"""map""",,,0.00879620946944,0.0072864042595,0.00705365184695,,0.00907123410096,-0.00872382915321,0.0322641711784,-0.999400148938
109944000000,,298,,109,944000000,"""map""",,,0.00891583971679,0.00732881063595,0.00722666224465,,0.00908636988213,-0.00872202626414,0.032261768808,-0.999400106791
109980000000,,299,,109,980000000,"""map""",,,0.00873178057373,0.00723260408267,0.00745715619996,,0.0091142281464,-0.0087344906801,0.032214480044,-0.999401286903
110012000000,,300,,110,12000000,"""map""",,,0.0086006494239,0.00721241952851,0.00760651007295,,0.00903934703632,-0.00871379590865,0.0321340217102,-0.999404700797
110044000000,,301,,110,44000000,"""map""",,,0.0084590408951,0.00722563639283,0.00775054050609,,0.00901252591791,-0.00872032990494,0.0321231478232,-0.999405290853
110076000000,,302,,110,76000000,"""map""",,,0.00834965053946,0.00729537708685,0.00789724104106,,0.0089860306247,-0.00874100629888,0.0321324622768,-0.999404995825
110112000000,,303,,110,112000000,"""map""",,,0.00826653651893,0.00743459211662,0.00806123111397,,0.00905584238263,-0.00873678030559,0.032096215987,-0.999405585881
110144000000,,304,,110,144000000,"""map""",,,0.00813692528754,0.0072344657965,0.00823693163693,,0.00899994926127,-0.0087489236811,0.0320976911267,-0.999405965203
110176000000,,305,,110,176000000,"""map""",,,0.00794020015746,0.00683996453881,0.00844372715801,,0.00900109374989,-0.0087073550964,0.0321185959636,-0.999405628028
110212000000,,306,,110,212000000,"""map""",,,0.00774834724143,0.00646179961041,0.00868137646466,,0.00902680084765,-0.00867029600842,0.0320599696973,-0.99940760893
110244000000,,307,,110,244000000,"""map""",,,0.00763802602887,0.00623988499865,0.00881336815655,,0.00908224957494,-0.00861639090945,0.0319777833427,-0.999410222035
110276000000,,308,,110,276000000,"""map""",,,0.00753028411418,0.00604703556746,0.0088570760563,,0.00904137754512,-0.00860107723894,0.031969353973,-0.999410980678
110312000000,,309,,110,312000000,"""map""",,,0.00742636760697,0.00590605102479,0.00893602892756,,0.00906337245836,-0.00855023939334,0.0318802133884,-0.999414057398
110344000000,,310,,110,344000000,"""map""",,,0.00727779045701,0.00565041135997,0.00876185018569,,0.00907305300089,-0.00854457597231,0.0318336411208,-0.999415532537
110380000000,,311,,110,380000000,"""map""",,,0.0071321381256,0.00532909668982,0.00831088144332,,0.00908631081892,-0.00851000897109,0.0317799460358,-0.999417386999
110412000000,,312,,110,412000000,"""map""",,,0.0069973077625,0.00505493022501,0.00745222624391,,0.00904843771847,-0.00845089822185,0.0317195917488,-0.999420168691
110444000000,,313,,110,444000000,"""map""",,,0.00697050336748,0.00494795665145,0.00700697954744,,0.00902069523456,-0.00837473687038,0.0316704906702,-0.999422571061
110476000000,,314,,110,476000000,"""map""",,,0.00696370471269,0.00491485837847,0.00654256949201,,0.00903504100928,-0.00840659457834,0.0316760540542,-0.999421981005
110512000000,,315,,110,512000000,"""map""",,,0.00697815557942,0.00490715540946,0.00611128704622,,0.00903709503018,-0.00845147107325,0.0316718815162,-0.999421770271
110544000000,,316,,110,544000000,"""map""",,,0.00720495358109,0.00481782248244,0.0055991448462,,0.00901096297571,-0.0084607114611,0.0316698584675,-0.999422023152
110576000000,,317,,110,576000000,"""map""",,,0.0076009426266,0.00470346212387,0.00496896076947,,0.00897644964586,-0.00848101866882,0.031617975697,-0.999423751173
110612000000,,318,,110,612000000,"""map""",,,0.00810029916465,0.00467169936746,0.00406440859661,,0.00903283307419,-0.00848770799929,0.0315952163988,-0.99942391976
110644000000,,319,,110,644000000,"""map""",,,0.00852340366691,0.00469319149852,0.00342756090686,,0.00903877423636,-0.00851798941923,0.0315221337635,-0.999425942809
110676000000,,320,,110,676000000,"""map""",,,0.0089197428897,0.00474695954472,0.00287130009383,,0.0090597343498,-0.00853233255978,0.0315396247056,-0.999425057725
110712000000,,321,,110,712000000,"""map""",,,0.00927582476288,0.00483167544007,0.00227444199845,,0.00908568977029,-0.00852357963892,0.0315313217765,-0.999425184166
110744000000,,322,,110,744000000,"""map""",,,0.00949025899172,0.00483351619914,0.00170582602732,,0.00908832285761,-0.00857597057943,0.0314598828682,-0.999426912187
110776000000,,323,,110,776000000,"""map""",,,0.00963222328573,0.00475694704801,0.00109553872608,,0.00905513104137,-0.00855779592404,0.031452422876,-0.999427628683
110812000000,,324,,110,812000000,"""map""",,,0.00975377112627,0.00476625841111,0.000583913992159,,0.00910503599694,-0.00857575924838,0.0314356484303,-0.999427544389
110844000000,,325,,110,844000000,"""map""",,,0.00990204047412,0.00480871228501,0.000130814340082,,0.00907318874337,-0.00853951695109,0.0314284413192,-0.999428345179
110876000000,,326,,110,876000000,"""map""",,,0.010093732737,0.00491457339376,-0.000172187763383,,0.00912328313338,-0.0085453092822,0.0314163030269,-0.999428260886
110912000000,,327,,110,912000000,"""map""",,,0.0102894371375,0.00504971155897,-0.000462763244286,,0.0090481099691,-0.00851099547076,0.0313888232816,-0.999430115347
110944000000,,328,,110,944000000,"""map""",,,0.0103518255055,0.00526583753526,-0.000713613582775,,0.00909867040283,-0.00856394242862,0.0313907620367,-0.999429103823
110976000000,,329,,110,976000000,"""map""",,,0.0103051299229,0.00555032817647,-0.000883248751052,,0.00910141817979,-0.00855896481996,0.0313757999055,-0.999429567438
111012000000,,330,,111,12000000,"""map""",,,0.0103282341734,0.00597609952092,-0.00114203896374,,0.00906227836898,-0.00851006908386,0.0314033639444,-0.999429483144
111044000000,,331,,111,44000000,"""map""",,,0.0104064233601,0.0063562495634,-0.00136991555337,,0.00910491663575,-0.00848019340965,0.031378160129,-0.999430157494
111076000000,,332,,111,76000000,"""map""",,,0.0105193387717,0.006756615825,-0.00170205719769,,0.00911175837812,-0.0084904000675,0.0313571709984,-0.999430663256
111112000000,,333,,111,112000000,"""map""",,,0.0106298811734,0.00720133306459,-0.00204069679603,,0.00910177708654,-0.00845958452681,0.0313382892103,-0.999431590487
111144000000,,334,,111,144000000,"""map""",,,0.0106647545472,0.00751598598436,-0.0021938579157,,0.00898856013531,-0.00840886472531,0.0313245914845,-0.999433487095
111176000000,,335,,111,176000000,"""map""",,,0.0106360577047,0.00773020461202,-0.00225648819469,,0.00902825668376,-0.00839388335224,0.0313235378133,-0.999433276361
111212000000,,336,,111,212000000,"""map""",,,0.0106314364821,0.00804043468088,-0.00229085981846,,0.00896898457054,-0.00831833559962,0.0313399329374,-0.999433992857
111244000000,,337,,111,244000000,"""map""",,,0.0106573915109,0.00830715242773,-0.00240094237961,,0.00895401675937,-0.00839172025991,0.0313072691298,-0.999434540766
111276000000,,338,,111,276000000,"""map""",,,0.0106914592907,0.00859247241169,-0.00251815957017,,0.00898101965664,-0.00832711710541,0.0312864485866,-0.999435467997
111312000000,,339,,111,312000000,"""map""",,,0.0107485353947,0.0089264055714,-0.00259910570458,,0.00890063026421,-0.00831634681578,0.0312641950506,-0.99943690099
111344000000,,340,,111,344000000,"""map""",,,0.0106537491083,0.00922269839793,-0.00250209495425,,0.00886462954985,-0.0082348170918,0.0312789885944,-0.999437448899
111376000000,,341,,111,376000000,"""map""",,,0.0104483785108,0.00955653842539,-0.00238491664641,,0.00908495981486,-0.00826037285809,0.0312449760877,-0.999436395227
111412000000,,342,,111,412000000,"""map""",,,0.010316834785,0.00986526720226,-0.00223357463256,,0.00912063946819,-0.00825413672971,0.0312327535016,-0.999436479521
111444000000,,343,,111,444000000,"""map""",,,0.0101762134582,0.010180558078,-0.0019794201944,,0.00899688154487,-0.00823549098862,0.0312032928545,-0.99943862901
111480000000,,344,,111,480000000,"""map""",,,0.0100757209584,0.0105162421241,-0.00171866838355,,0.00902911293568,-0.0082746076269,0.0311952428064,-0.999438333982
111512000000,,345,,111,512000000,"""map""",,,0.00997802894562,0.0108727635816,-0.00146883528214,,0.00905474044216,-0.00831947599291,0.0311579006986,-0.999438839745
111544000000,,346,,111,544000000,"""map""",,,0.00982291158289,0.0111030172557,-0.00100892968476,,0.0090493120392,-0.00836132585843,0.0311580271392,-0.999438544717
111576000000,,347,,111,576000000,"""map""",,,0.00957878027111,0.0112106632441,-0.000438500166638,,0.00901775112902,-0.00836133590123,0.0311610617123,-0.999438713304
111612000000,,348,,111,612000000,"""map""",,,0.00930651836097,0.0114076668397,0.000111987188575,,0.00892535850758,-0.00835042132861,0.0311687745856,-0.999439429801
111644000000,,349,,111,644000000,"""map""",,,0.00910537224263,0.0116215236485,0.000364153587725,,0.00894277237943,-0.00835821654053,0.0311445822945,-0.999439935563
111676000000,,350,,111,676000000,"""map""",,,0.00889028515667,0.0118778152391,0.000615674303845,,0.00898119283326,-0.00836559522305,0.0311614831808,-0.999439050479
111712000000,,351,,111,712000000,"""map""",,,0.00866793561727,0.0121987415478,0.00080659071682,,0.00901153230802,-0.00839767654803,0.0311055543128,-0.999440272738
111744000000,,352,,111,744000000,"""map""",,,0.00832448340952,0.0124576436356,0.000845182687044,,0.00892460428891,-0.0084503510331,0.0310835536579,-0.999441199968
111776000000,,353,,111,776000000,"""map""",,,0.0078660454601,0.0126452306286,0.000752048625145,,0.00897287049762,-0.00845718260919,0.0310678750302,-0.999441284262
111812000000,,354,,111,812000000,"""map""",,,0.0073156831786,0.0129373148084,0.000714529247489,,0.008921528742,-0.00843299194393,0.0310133791551,-0.999443602339
111844000000,,355,,111,844000000,"""map""",,,0.00691989436746,0.0132119413465,0.000768271100242,,0.00895464163579,-0.00844765250292,0.0309765428095,-0.999444360982
111876000000,,356,,111,876000000,"""map""",,,0.00652120355517,0.0135074788705,0.000850792159326,,0.00890770402004,-0.00839648806041,0.0309850564729,-0.999444951038
111912000000,,357,,111,912000000,"""map""",,,0.00616754917428,0.0138099854812,0.00104715535417,,0.00894212717045,-0.00834366385936,0.03094885233,-0.999446173296
111944000000,,358,,111,944000000,"""map""",,,0.00582183571532,0.0141362724826,0.00113263493404,,0.00900735684772,-0.00812153990432,0.0308636314023,-0.999450050806
111976000000,,359,,111,976000000,"""map""",,,0.00550838699564,0.0144967539236,0.00127240060829,,0.00902114199527,-0.00811471030387,0.0308737887928,-0.999449671485
112012000000,,360,,112,12000000,"""map""",,,0.00511060655117,0.0149710318074,0.00120325549506,,0.00907983498034,-0.00813976969223,0.0309204453541,-0.999447521995
112044000000,,361,,112,44000000,"""map""",,,0.00493824435398,0.0151482475922,0.00118350167759,,0.00913515448885,-0.00812213736883,0.0308942300144,-0.999447943464
112076000000,,362,,112,76000000,"""map""",,,0.00487476307899,0.0151475751773,0.0014222082682,,0.00911653912313,-0.00809535135908,0.030943583974,-0.999446805499
112112000000,,363,,112,112000000,"""map""",,,0.00476507749408,0.0151980603114,0.00176735641435,,0.00909375418286,-0.00815041683404,0.0309287061364,-0.999447016233
112144000000,,364,,112,144000000,"""map""",,,0.00461870338768,0.0153246978298,0.00216429005377,,0.00906206390984,-0.00825734318292,0.0309765849564,-0.999444908891
112176000000,,365,,112,176000000,"""map""",,,0.00445496663451,0.015506207943,0.00263979379088,,0.00905081605196,-0.00828590285882,0.030966933328,-0.999445119625
112212000000,,366,,112,212000000,"""map""",,,0.00426064105704,0.0157984420657,0.00328146433458,,0.00902865471218,-0.00829986927075,0.0309250815075,-0.999446510471
112244000000,,367,,112,244000000,"""map""",,,0.00411009415984,0.0158490221947,0.00386492814869,,0.00904826476822,-0.00838613604943,0.0309040502301,-0.999446299737
112280000000,,368,,112,276000000,"""map""",,,0.00396970566362,0.0157299302518,0.00448013516143,,0.00905005485683,-0.00837738909664,0.0308927127278,-0.999446679058
112312000000,,369,,112,312000000,"""map""",,,0.00381920533255,0.0156596321613,0.00493286084384,,0.00899727765939,-0.00831707312863,0.0308800265264,-0.999447985611
112344000000,,370,,112,344000000,"""map""",,,0.00364417675883,0.0156403016299,0.00533093698323,,0.00907408551636,-0.00830481185308,0.0309005941885,-0.999446805499
112376000000,,371,,112,376000000,"""map""",,,0.00343163264915,0.0156647544354,0.0056291250512,,0.00903618455124,-0.00831839145242,0.0308569722003,-0.999448364932
112412000000,,372,,112,412000000,"""map""",,,0.00315196975134,0.0157426334918,0.00595362111926,,0.00911780636856,-0.00838036263089,0.0308248984486,-0.999448154198
112444000000,,373,,112,444000000,"""map""",,,0.00298293703236,0.015720307827,0.00627201935276,,0.00909650360618,-0.00832476715108,0.030809472702,-0.999449250016
112476000000,,374,,112,476000000,"""map""",,,0.00288016023114,0.0156588647515,0.00657932786271,,0.00907659876915,-0.00836805295231,0.0308167641068,-0.999448870695
112512000000,,375,,112,512000000,"""map""",,,0.00274252146482,0.0156621802598,0.00676254788414,,0.00907905223846,-0.00839872822303,0.0307472218068,-0.999450725156
112544000000,,376,,112,544000000,"""map""",,,0.00260795443319,0.0157336425036,0.0069170105271,,0.00908028989054,-0.00845289523749,0.0306958447984,-0.999451778827
112576000000,,377,,112,576000000,"""map""",,,0.00243124668486,0.015848679468,0.00708208885044,,0.00909937111476,-0.00843146959482,0.0307152744956,-0.999451230918
112612000000,,378,,112,612000000,"""map""",,,0.00219112890773,0.0160935111344,0.007182253059,,0.00914413804434,-0.00850991107433,0.0307044427555,-0.999450514422
112644000000,,379,,112,644000000,"""map""",,,0.0020652753301,0.0161597784609,0.00724134221673,,0.00909996730334,-0.00849440846329,0.0306858138485,-0.999451525946
112676000000,,380,,112,676000000,"""map""",,,0.00199964642525,0.0161140672863,0.00741265015677,,0.00910543270827,-0.00849453673541,0.0306265553795,-0.999453380407
112712000000,,381,,112,712000000,"""map""",,,0.00188229198102,0.0161410458386,0.00761650176719,,0.00915540102816,-0.0085573086011,0.0305847878526,-0.999453675435
112744000000,,382,,112,744000000,"""map""",,,0.00176002050284,0.0162215977907,0.00785323418677,,0.00913974086034,-0.00856489237908,0.0305948609494,-0.999453380407
112776000000,,383,,112,776000000,"""map""",,,0.00162816699594,0.0163378790021,0.00798140373081,,0.0091360696805,-0.00856980820803,0.0305820483074,-0.999453801876
112812000000,,384,,112,812000000,"""map""",,,0.00143968861084,0.0165238343179,0.00812390539795,,0.00910144376012,-0.00851739825206,0.0305180272446,-0.999456541421
112844000000,,385,,112,844000000,"""map""",,,0.00140462222043,0.0165955331177,0.0080634644255,,0.00927651518339,-0.0085208345373,0.0304882715695,-0.999455782778
112876000000,,386,,112,876000000,"""map""",,,0.00146200868767,0.016586786136,0.00805524736643,,0.00931615721671,-0.00855082831735,0.0304540483285,-0.999456204246
112912000000,,387,,112,912000000,"""map""",,,0.00144449202344,0.0166400466114,0.00812695454806,,0.00926668961702,-0.00857782242716,0.0304569986079,-0.999456372834
112944000000,,388,,112,944000000,"""map""",,,0.00138034415431,0.0167338047177,0.00810819026083,,0.00921822022674,-0.00861033923528,0.0304715814175,-0.999456035659
112976000000,,389,,112,976000000,"""map""",,,0.00128259300254,0.0168694164604,0.00798463448882,,0.00920875212655,-0.00859875235045,0.0304999040997,-0.999455361309
113012000000,,390,,113,12000000,"""map""",,,0.00109976436943,0.017073540017,0.00782988406718,,0.00917724632832,-0.00859425156917,0.0304848998216,-0.999456119953
113044000000,,391,,113,44000000,"""map""",,,0.000976087292656,0.0169987753034,0.0078121102415,,0.00923421184824,-0.00863315432454,0.0304023341454,-0.999457847973
113076000000,,392,,113,76000000,"""map""",,,0.000887412461452,0.0167216584086,0.00780576420948,,0.00922607281435,-0.00865315769629,0.0303849696438,-0.999458269442
113112000000,,393,,113,112000000,"""map""",,,0.000741401454434,0.0165539234877,0.00777625432238,,0.00916010976545,-0.00863617969859,0.0303666357647,-0.999459575994
113144000000,,394,,113,144000000,"""map""",,,0.000540613778867,0.0164491925389,0.00764277996495,,0.00913937612958,-0.00862876055674,0.0303096110787,-0.999461556896
113176000000,,395,,113,176000000,"""map""",,,0.000323984771967,0.0164388101548,0.00746638374403,,0.00913374259001,-0.00865931210341,0.0302949861222,-0.99946176763
113212000000,,396,,113,212000000,"""map""",,,4.23282108386e-05,0.0164974872023,0.00724508007988,,0.00914070665702,-0.00865535495062,0.0302960397934,-0.999461725483
113244000000,,397,,113,244000000,"""map""",,,-9.55270515988e-05,0.016411608085,0.00705446302891,,0.00910393324358,-0.00865413034595,0.030226623934,-0.999464127854
113276000000,,398,,113,276000000,"""map""",,,-0.000177299094503,0.0162192098796,0.00679006660357,,0.00909934113041,-0.00867156407703,0.030210186663,-0.999464549322
113312000000,,399,,113,312000000,"""map""",,,-0.000324363354594,0.0160914193839,0.00657520769164,,0.00903415312665,-0.00863047353391,0.0301132910583,-0.999468384685
113344000000,,400,,113,344000000,"""map""",,,-0.000557621417101,0.0160360839218,0.00637082429603,,0.00904056411918,-0.00865270791039,0.0301311613221,-0.999467626042
113376000000,,401,,113,376000000,"""map""",,,-0.000909485388547,0.0160386972129,0.00610227510333,,0.00898585045103,-0.00862174888931,0.0300949571792,-0.99946952265
113412000000,,402,,113,412000000,"""map""",,,-0.00124624418095,0.0161074697971,0.0058554741554,,0.00898642352881,-0.00863140037356,0.0300931870116,-0.999469438357
113444000000,,403,,113,444000000,"""map""",,,-0.00151696929242,0.0160040333867,0.00580463977531,,0.00896643026161,-0.00863264882989,0.0300670138186,-0.999470407734
113476000000,,404,,113,476000000,"""map""",,,-0.00172464945354,0.0157762337476,0.00581722194329,,0.00899132095968,-0.00860639231051,0.030081933803,-0.999469986266
113512000000,,405,,113,512000000,"""map""",,,-0.00198430498131,0.0156399831176,0.00591541174799,,0.00896185839868,-0.00859477749928,0.0300490171143,-0.999471377112
113544000000,,406,,113,544000000,"""map""",,,-0.002257226035,0.0155640942976,0.00600091274828,,0.00897801877221,-0.00857734745194,0.0299590757396,-0.99947407451
113576000000,,407,,113,576000000,"""map""",,,-0.00256835343316,0.015549310483,0.00598672498018,,0.00904975523966,-0.00853953656336,0.0299546081737,-0.999473821629
113612000000,,408,,113,612000000,"""map""",,,-0.00296502304263,0.0156058305874,0.00599260628223,,0.00914367138323,-0.0085273247198,0.02996535562,-0.999472767958
113644000000,,409,,113,644000000,"""map""",,,-0.00327533809468,0.0155342062935,0.00597505830228,,0.00908512980166,-0.00849732630936,0.0299377494343,-0.999474411685
113676000000,,410,,113,676000000,"""map""",,,-0.00356036028825,0.0153823308647,0.00601335382089,,0.00910488422301,-0.00853779051492,0.0299572212783,-0.999473315867
113712000000,,411,,113,712000000,"""map""",,,-0.00388559163548,0.0153066040948,0.00595758948475,,0.00916713888431,-0.00861860464798,0.0299548610548,-0.999472135755
113744000000,,412,,113,744000000,"""map""",,,-0.00422718655318,0.0153350606561,0.00582007691264,,0.00912087882854,-0.00861827267981,0.029984827464,-0.999471587846
113776000000,,413,,113,776000000,"""map""",,,-0.0045869150199,0.0154096679762,0.00562144769356,,0.00910751041619,-0.00863269739755,0.0299492976708,-0.999472725811
113812000000,,414,,113,812000000,"""map""",,,-0.00504741584882,0.015569918789,0.00532858399674,,0.00911659590202,-0.00857341501515,0.0299153694577,-0.999474116657
113844000000,,415,,113,844000000,"""map""",,,-0.00525671662763,0.0155787253752,0.00517100002617,,0.00909305157761,-0.00860806635123,0.0299050856267,-0.999474369538
113876000000,,416,,113,876000000,"""map""",,,-0.00535072386265,0.0154613303021,0.00517733208835,,0.00907396325345,-0.00854650799784,0.029876046448,-0.999475928971
113912000000,,417,,113,912000000,"""map""",,,-0.00547381024808,0.0154322227463,0.0050714276731,,0.009080855251,-0.00855887052462,0.029826818929,-0.999477193377
113944000000,,418,,113,944000000,"""map""",,,-0.005643050652,0.0154723282903,0.00487129809335,,0.00908534549557,-0.008508437581,0.0297789401091,-0.999479047838
113976000000,,419,,113,976000000,"""map""",,,-0.00587199628353,0.0155832087621,0.00454748468474,,0.00911869038224,-0.00851114932322,0.0297791508433,-0.999478668516
114012000000,,420,,114,12000000,"""map""",,,-0.00623024487868,0.0157836843282,0.00410964945331,,0.00911640831973,-0.00850837903227,0.0297801202208,-0.999478710663
114044000000,,421,,114,44000000,"""map""",,,-0.00621580705047,0.0159601587802,0.00397896859795,,0.00914873577572,-0.00861424187293,0.0298088643715,-0.999476687615
114076000000,,422,,114,76000000,"""map""",,,-0.00591263361275,0.0161513555795,0.00391558464617,,0.00913513569975,-0.00859944419262,0.0297985383936,-0.999477235524
114112000000,,423,,114,112000000,"""map""",,,-0.00564634054899,0.0163879133761,0.00382735254243,,0.00914859455908,-0.00853526555238,0.0297647366211,-0.999478668516
114144000000,,424,,114,144000000,"""map""",,,-0.00543339597061,0.0166587010026,0.00372424256057,,0.00906873710598,-0.00853021817916,0.0297609855516,-0.9994795536
114176000000,,425,,114,176000000,"""map""",,,-0.0052581820637,0.0169973429292,0.00349947949871,,0.0091013520578,-0.00853460947741,0.0297585410344,-0.999479300719
114212000000,,426,,114,212000000,"""map""",,,-0.00511852419004,0.0174718797207,0.00311298831366,,0.00919799700402,-0.00848304980529,0.0297245706745,-0.999479806481
114244000000,,427,,114,244000000,"""map""",,,-0.00498253107071,0.0178474970162,0.00289857224561,,0.00931586198297,-0.00856102410922,0.0297108729487,-0.999478499929
114276000000,,428,,114,276000000,"""map""",,,-0.00480672297999,0.0182436592877,0.00267133582383,,0.00931836136518,-0.00863147433634,0.0297465291826,-0.999476814055
114312000000,,429,,114,312000000,"""map""",,,-0.00470200879499,0.0186567474157,0.00241992715746,,0.0092859246937,-0.00861498246797,0.0296903474335,-0.999478963544
114344000000,,430,,114,344000000,"""map""",,,-0.00464738160372,0.019113233313,0.00212472048588,,0.00927621484594,-0.00867719675226,0.0297064475296,-0.999478036314
114376000000,,431,,114,376000000,"""map""",,,-0.00466620968655,0.0197032727301,0.00169181113597,,0.00924875699731,-0.00867684294922,0.0297107043613,-0.999478162754
114412000000,,432,,114,412000000,"""map""",,,-0.00471809133887,0.0201967693865,0.00136022572406,,0.0092605247555,-0.00866153353867,0.029703286516,-0.999478415635
114444000000,,433,,114,444000000,"""map""",,,-0.00471380027011,0.0204540081322,0.00122689118143,,0.00922797915665,-0.00860136924169,0.0296811594205,-0.999479806481
114476000000,,434,,114,476000000,"""map""",,,-0.00464757811278,0.0205194614828,0.00126646051649,,0.00919298272266,-0.00861802125986,0.029666829492,-0.999480480831
114512000000,,435,,114,512000000,"""map""",,,-0.00460491050035,0.020645249635,0.00128930923529,,0.00920119411413,-0.00862629323743,0.0296369473764,-0.999481197327
114544000000,,436,,114,544000000,"""map""",,,-0.00460300548002,0.0208192188293,0.00130352145061,,0.00922470470872,-0.00860640068637,0.0295609566086,-0.99948343111
114576000000,,437,,114,576000000,"""map""",,,-0.00466822274029,0.0210416726768,0.00128542864695,,0.00923498800468,-0.00857610158863,0.0295416954988,-0.999484147607
114612000000,,438,,114,612000000,"""map""",,,-0.00479534873739,0.0214171577245,0.00130645022728,,0.00919892244427,-0.00857022181514,0.0295452358341,-0.999484400488
114644000000,,439,,114,644000000,"""map""",,,-0.00477108824998,0.0215420126915,0.0013904288644,,0.00920464830355,-0.00858897142105,0.0295433392259,-0.999484274047
114676000000,,440,,114,676000000,"""map""",,,-0.00462823500857,0.0214686915278,0.00147936772555,,0.00916411353084,-0.00859285292354,0.0295102960967,-0.999485538453
114712000000,,441,,114,712000000,"""map""",,,-0.00443462375551,0.021411024034,0.00157317717094,,0.00920462801215,-0.00858983596651,0.0294922572455,-0.999485791334
114744000000,,442,,114,744000000,"""map""",,,-0.00434124469757,0.0214245580137,0.00162884907331,,0.00917405090573,-0.00860999621591,0.0295034683072,-0.999485538453
114776000000,,443,,114,776000000,"""map""",,,-0.0042781746015,0.0214734748006,0.00165732530877,,0.00918706991906,-0.00860127749821,0.029471816024,-0.999486423537
114812000000,,444,,114,812000000,"""map""",,,-0.00420559057966,0.0216322056949,0.00159106880892,,0.00918889270852,-0.00852637207343,0.0293854149845,-0.999489542403
114844000000,,445,,114,844000000,"""map""",,,-0.00418042577803,0.0216316338629,0.00163714832161,,0.00912565399651,-0.00855925056654,0.0293277580958,-0.999491565452
114876000000,,446,,114,876000000,"""map""",,,-0.00414513470605,0.0214040521532,0.00198076758534,,0.00912472353486,-0.00852716687492,0.0293280109769,-0.999491902627
114912000000,,447,,114,912000000,"""map""",,,-0.00414109276608,0.0212219245732,0.00222052610479,,0.00912621423267,-0.00856420761627,0.0292922704493,-0.999492576977
114944000000,,448,,114,944000000,"""map""",,,-0.00418279878795,0.0211314857006,0.0023091326002,,0.00915388302133,-0.00852835443646,0.0292625569211,-0.99949346206
114976000000,,449,,114,976000000,"""map""",,,-0.00426472024992,0.0211121924222,0.00234543764964,,0.00912507855208,-0.00853743154642,0.0292424107275,-0.999494304997
115012000000,,450,,115,12000000,"""map""",,,-0.00438087340444,0.0211838949472,0.00218904297799,,0.00921384952858,-0.00848189204289,0.029226984981,-0.999494389291
115044000000,,451,,115,44000000,"""map""",,,-0.00445971405134,0.0210334099829,0.00201212661341,,0.00931879069504,-0.00845589850914,0.0291807077413,-0.999494979347
115076000000,,452,,115,76000000,"""map""",,,-0.0045205745846,0.0206843726337,0.00160271406639,,0.00930436914654,-0.00840319988429,0.0291686115958,-0.999495864431
115112000000,,453,,115,112000000,"""map""",,,-0.00464393291622,0.0203974023461,0.00101917958818,,0.00926557680027,-0.0083843946108,0.0291872405028,-0.999495864431
115144000000,,454,,115,144000000,"""map""",,,-0.00478094210848,0.0202872678638,0.000679501972627,,0.00918701606247,-0.00839355792836,0.0291453043886,-0.999497761039
115176000000,,455,,115,176000000,"""map""",,,-0.00494798645377,0.0202582795173,0.000378872908186,,0.0092124749404,-0.00844498939009,0.0291385608928,-0.999497255277
115212000000,,456,,115,212000000,"""map""",,,-0.00515617197379,0.0203078929335,5.3579780797e-05,,0.00917967283845,-0.00848131338806,0.0291207749227,-0.999497761039
115244000000,,457,,115,244000000,"""map""",,,-0.00530801201239,0.0201553981751,-4.14231908508e-05,,0.0091650436838,-0.00847077823998,0.0291343040611,-0.999497634598
115276000000,,458,,115,276000000,"""map""",,,-0.0054670679383,0.0197294652462,3.10950272251e-05,,0.00921808878537,-0.00852373509659,0.0291651134074,-0.999495822284
115312000000,,459,,115,312000000,"""map""",,,-0.00564080383629,0.0194835159928,0.000150671490701,,0.00917140719938,-0.00844899556329,0.0291983672708,-0.999495864431
115344000000,,460,,115,344000000,"""map""",,,-0.00584831135347,0.0193571541458,0.0001437090541,,0.00921884384781,-0.00845296226497,0.0291767459375,-0.999496075165
115376000000,,461,,115,376000000,"""map""",,,-0.00608640955761,0.019335385412,0.000158721726621,,0.00914756673574,-0.00842873856959,0.0291648183794,-0.99949721313
115412000000,,462,,115,412000000,"""map""",,,-0.00634999573231,0.0193875357509,0.000210756697925,,0.00910690251787,-0.0084675153989,0.0291431970461,-0.999497929626
115444000000,,463,,115,444000000,"""map""",,,-0.00649572210386,0.0192848704755,0.000583587097935,,0.0090701378713,-0.00845140155565,0.0291033682743,-0.999499573353
115476000000,,464,,115,476000000,"""map""",,,-0.00654592411593,0.0190978161991,0.00107112899423,,0.00910031322442,-0.0084290483942,0.0291397410046,-0.999498435388
115512000000,,465,,115,512000000,"""map""",,,-0.00669607147574,0.0190244521946,0.00155931257177,,0.0090174781829,-0.00844753441766,0.0291249474607,-0.999499404766
115544000000,,466,,115,544000000,"""map""",,,-0.00684021133929,0.019057104364,0.00189033034258,,0.00901876786,-0.00845504552936,0.0291337140052,-0.999499067591
115576000000,,467,,115,576000000,"""map""",,,-0.00702875386924,0.0191757734865,0.00229157134891,,0.00900361575927,-0.00846826546051,0.0291501512761,-0.999498646123
115612000000,,468,,115,612000000,"""map""",,,-0.00726638548076,0.0193814337254,0.00270233396441,,0.00904763184521,-0.00844488025692,0.0291768302312,-0.999497676745
115644000000,,469,,115,644000000,"""map""",,,-0.00762900477275,0.0193181205541,0.00369257549755,,0.0090196242354,-0.00838769064664,0.0291641440298,-0.999498730416
115676000000,,470,,115,676000000,"""map""",,,-0.00794757623225,0.0191544163972,0.00434125261381,,0.00924427062169,-0.00838550454641,0.029159929345,-0.999496875955
115712000000,,471,,115,712000000,"""map""",,,-0.00828091707081,0.0190484672785,0.0051480056718,,0.0091933602333,-0.00842375902645,0.0291695388265,-0.999496707368
115744000000,,472,,115,744000000,"""map""",,,-0.00864108558744,0.0189995393157,0.00596306007355,,0.00919143238541,-0.00840760719341,0.0291450936543,-0.999497634598
115776000000,,473,,115,776000000,"""map""",,,-0.00900844763964,0.0190081540495,0.00677873846143,,0.00918607990029,-0.00844637686105,0.0291658299038,-0.999496707368
115812000000,,474,,115,812000000,"""map""",,,-0.00941926240921,0.0191063769162,0.00759363081306,,0.00913447517961,-0.00849151204048,0.0291504041572,-0.999497297424
115844000000,,475,,115,844000000,"""map""",,,-0.00975673180073,0.01904845424,0.00887174811214,,0.00913245630853,-0.0085363468413,0.0291719833437,-0.999496201605
115876000000,,476,,115,876000000,"""map""",,,-0.0100249629468,0.0188478790224,0.0105003956705,,0.00910699870653,-0.00851831548108,0.0291832786991,-0.999496370193
115912000000,,477,,115,912000000,"""map""",,,-0.0103993099183,0.0187478605658,0.0122776059434,,0.00910327017158,-0.00855462484702,0.0291812135035,-0.999496075165
115944000000,,478,,115,944000000,"""map""",,,-0.0107481237501,0.0187790114433,0.0133867803961,,0.00904433317519,-0.00856490067262,0.0292006853475,-0.999495990871
115976000000,,479,,115,976000000,"""map""",,,-0.0111355660483,0.018905537203,0.0143132079393,,0.00906061163398,-0.00856772395583,0.0291831522585,-0.999496328046
116012000000,,480,,116,12000000,"""map""",,,-0.0115822134539,0.0191032234579,0.0149932606146,,0.00908051439248,-0.00837374285918,0.0291793590422,-0.999497929626
116044000000,,481,,116,44000000,"""map""",,,-0.0120691703632,0.0191335808486,0.0156271010637,,0.00911792350716,-0.00840511740127,0.0292039306548,-0.99949653878
116076000000,,482,,116,76000000,"""map""",,,-0.0126059073955,0.0190031845123,0.0161112379283,,0.00912881147047,-0.00845378952035,0.0292172912058,-0.999495653696
116112000000,,483,,116,112000000,"""map""",,,-0.0133038330823,0.0189732052386,0.016916224733,,0.00910345937965,-0.00855171453304,0.0291673893372,-0.999496496633
116144000000,,484,,116,144000000,"""map""",,,-0.0138631816953,0.0190340876579,0.0173714272678,,0.00906925142924,-0.00859384213971,0.0291736270708,-0.999496328046
116176000000,,485,,116,176000000,"""map""",,,-0.014421351254,0.0191501956433,0.0176407583058,,0.00907345971386,-0.00859400395644,0.0291690752111,-0.99949641234
116212000000,,486,,116,212000000,"""map""",,,-0.0150030506775,0.0193482358009,0.0177151914686,,0.00906300422908,-0.0086445595334,0.0291656191695,-0.999496159459
116244000000,,487,,116,244000000,"""map""",,,-0.0154117885977,0.0193529203534,0.0177093185484,,0.00909481376039,-0.00868508584793,0.0292328855398,-0.999493546354
116276000000,,488,,116,276000000,"""map""",,,-0.0157471895218,0.019157987088,0.0177868977189,,0.00910421861973,-0.00874618871489,0.0292407670004,-0.99949266127
116312000000,,489,,116,312000000,"""map""",,,-0.0160573758185,0.0191032532603,0.0178311001509,,0.00904714170288,-0.00877520768443,0.0292596487886,-0.999492408389
