rosbagTimestamp,header,seq,stamp,secs,nsecs,frame_id,pose,position,x,y,z,orientation,x,y,z,w
104116000000,,86,,104,116000000,"""map""",,,-0.00484072696418,-0.00635558320209,0.0189580451697,,0.0111120990926,-0.00612798236291,0.031861963803,-0.999411739321
104148000000,,87,,104,148000000,"""map""",,,-0.00513114407659,-0.00641900114715,0.0181824304163,,0.0110574529047,-0.00611186267508,0.031740117264,-0.999416333328
104180000000,,88,,104,180000000,"""map""",,,-0.00531602511182,-0.00653420109302,0.0173259750009,,0.0110112306535,-0.00610134868274,0.0316390069744,-0.999420084397
104216000000,,89,,104,216000000,"""map""",,,-0.00546475453302,-0.00673702498898,0.0162887200713,,0.0109904483059,-0.00605605399148,0.0316366467509,-0.999420674453
104248000000,,90,,104,248000000,"""map""",,,-0.0058558313176,-0.0067026768811,0.015784246847,,0.0109778592398,-0.00605067401212,0.0315262641546,-0.999424341229
104280000000,,91,,104,280000000,"""map""",,,-0.00624236743897,-0.00662898831069,0.0154142836109,,0.0110014649323,-0.00598759911305,0.0313978005604,-0.999428555914
104316000000,,92,,104,316000000,"""map""",,,-0.00651651760563,-0.00659943930805,0.0150468209758,,0.0110052296667,-0.00601374547029,0.0313789609191,-0.999428935235
104348000000,,93,,104,348000000,"""map""",,,-0.00667594838887,-0.00662309117615,0.0147340958938,,0.0110527632446,-0.00594163106004,0.0313060468712,-0.999431126871
104380000000,,94,,104,380000000,"""map""",,,-0.00673983665183,-0.00666957860813,0.0144630102441,,0.0110522586349,-0.00589533422867,0.0311901851846,-0.999435046528
104416000000,,95,,104,416000000,"""map""",,,-0.00670153461397,-0.00680283736438,0.0140950484201,,0.0110051669403,-0.00588811575768,0.0311820929897,-0.999435805172
104448000000,,96,,104,448000000,"""map""",,,-0.00665371725336,-0.00671567255631,0.0137710394338,,0.0110257288401,-0.00592346033533,0.0311200528287,-0.999437322458
104480000000,,97,,104,480000000,"""map""",,,-0.00655624875799,-0.00662639038637,0.0133250588551,,0.0110074731632,-0.00588226129701,0.0310274562025,-0.999440652059
104516000000,,98,,104,516000000,"""map""",,,-0.00640350440517,-0.00663717091084,0.0129846166819,,0.0110609300197,-0.00586516795112,0.0309794087952,-0.99944157929
104548000000,,99,,104,548000000,"""map""",,,-0.0061846463941,-0.00672396458685,0.0127242058516,,0.0110284784281,-0.00582007065858,0.0309056096635,-0.999444571716
104580000000,,100,,104,580000000,"""map""",,,-0.00589933851734,-0.006850393489,0.0124202165753,,0.0110762416734,-0.00586353426683,0.0307831730685,-0.999447564142
104616000000,,101,,104,616000000,"""map""",,,-0.00546210305765,-0.00703525030985,0.0119895255193,,0.0110677082537,-0.00585352307322,0.0307377387658,-0.999449081429
104648000000,,102,,104,648000000,"""map""",,,-0.00526178441942,-0.00696552731097,0.0119891688228,,0.0112941413741,-0.0058827342966,0.0306051869273,-0.999450472275
104680000000,,103,,104,680000000,"""map""",,,-0.00502953212708,-0.00687397178262,0.0120935058221,,0.0112894563239,-0.00580476805985,0.0305227055447,-0.999453464701
104716000000,,104,,104,716000000,"""map""",,,-0.00472310185432,-0.00687073124573,0.0122993402183,,0.0113231912541,-0.00584430147448,0.0304314576177,-0.999455698484
104748000000,,105,,104,748000000,"""map""",,,-0.00435424316674,-0.00693702558056,0.012451521121,,0.0113624059332,-0.00585769528195,0.03034931341,-0.999457595092
104780000000,,106,,104,780000000,"""map""",,,-0.00390899274498,-0.00705590005964,0.0125030195341,,0.011349136426,-0.00587076854289,0.0302534293296,-0.999460587518
104816000000,,107,,104,816000000,"""map""",,,-0.00325694144703,-0.00723436195403,0.0125504937023,,0.011318467679,-0.00591669444906,0.0302199647319,-0.999461683337
104848000000,,108,,104,848000000,"""map""",,,-0.00285394955426,-0.00718771154061,0.0126003613696,,0.0113229168057,-0.00592786731518,0.0301235327425,-0.999464549322
104880000000,,109,,104,880000000,"""map""",,,-0.00243563344702,-0.00710057560354,0.0126145128161,,0.0112824240563,-0.00595094551356,0.0300494385828,-0.999466993839
104916000000,,110,,104,916000000,"""map""",,,-0.00194694800302,-0.00704759173095,0.0126917269081,,0.0112144365799,-0.00592081644377,0.030008218965,-0.999469269769
104948000000,,111,,104,948000000,"""map""",,,-0.00139698968269,-0.007037517149,0.0127501981333,,0.0112182857725,-0.00594443514255,0.0298638660088,-0.999473358014
104980000000,,112,,104,980000000,"""map""",,,-0.000781793380156,-0.00707585411146,0.01277015917,,0.0111594471256,-0.00596342921252,0.0297679819285,-0.999476771908
105016000000,,113,,105,16000000,"""map""",,,1.22717319755e-05,-0.00716684712097,0.0128343841061,,0.0111910686219,-0.00595459203913,0.0297379733723,-0.999477361964
105048000000,,114,,105,48000000,"""map""",,,0.000284613459371,-0.00704587763175,0.0129329105839,,0.0111984821867,-0.00592583109556,0.0296667873452,-0.999479595747
105080000000,,115,,105,80000000,"""map""",,,0.000484188145492,-0.00689681340009,0.0130545711145,,0.0112780343633,-0.00592889859588,0.0295048170064,-0.99948343111
105116000000,,116,,105,116000000,"""map""",,,0.000748955528252,-0.00678224489093,0.0130799300969,,0.0113062334037,-0.00592572292963,0.0294858930714,-0.999483726138
105148000000,,117,,105,148000000,"""map""",,,0.00110213574953,-0.00670923758298,0.0131593132392,,0.0112498241275,-0.00592906405519,0.0293693991821,-0.999487772236
105180000000,,118,,105,180000000,"""map""",,,0.00149150379002,-0.00664006406441,0.0132282199338,,0.0112991659041,-0.0058807008758,0.029295684344,-0.999489668844
105216000000,,119,,105,216000000,"""map""",,,0.00206170137972,-0.00660627102479,0.0131964543834,,0.0113270027451,-0.00590893909966,0.029268162452,-0.999489963872
105248000000,,120,,105,248000000,"""map""",,,0.00215941970237,-0.00640673097223,0.012512806803,,0.0113243239506,-0.00592037785313,0.0292156053319,-0.999491439012
105280000000,,121,,105,280000000,"""map""",,,0.00221437285654,-0.00619095377624,0.0115878125653,,0.0113300911542,-0.00585994091873,0.0292150574228,-0.99949173404
105316000000,,122,,105,316000000,"""map""",,,0.00233623641543,-0.00603257026523,0.0107182972133,,0.0112929224082,-0.0058665044672,0.0292167011499,-0.999492113361
105348000000,,123,,105,348000000,"""map""",,,0.00255105062388,-0.00588573422283,0.00983984768391,,0.0115041028147,-0.00584355583746,0.0291987044456,-0.99949038534
105380000000,,124,,105,380000000,"""map""",,,0.00288463686593,-0.00576586369425,0.00901856925339,,0.0115085048555,-0.00583560160762,0.0291609830162,-0.999491439012
105416000000,,125,,105,416000000,"""map""",,,0.0033790837042,-0.00565923331305,0.00813569221646,,0.011422883862,-0.00582892363704,0.0291126827278,-0.999493883529
105448000000,,126,,105,448000000,"""map""",,,0.00342600094154,-0.00570084480569,0.00780260330066,,0.0114301620959,-0.00584057724065,0.0290717581379,-0.9994949372
105480000000,,127,,105,480000000,"""map""",,,0.0034253122285,-0.00578295392916,0.00755898095667,,0.0113472682998,-0.0058305754313,0.0290015414883,-0.999497971773
105516000000,,128,,105,516000000,"""map""",,,0.00352235464379,-0.00589656597003,0.0072679175064,,0.0113411555251,-0.00583567141334,0.028990203986,-0.999498351095
105548000000,,129,,105,548000000,"""map""",,,0.00371681456454,-0.00604641437531,0.00695031834766,,0.0114000926244,-0.00582120055632,0.0289175428192,-0.999499868381
105580000000,,130,,105,580000000,"""map""",,,0.00399406533688,-0.00622814428061,0.00666786683723,,0.0113684531828,-0.00573633030358,0.0288137351313,-0.999503703745
105616000000,,131,,105,616000000,"""map""",,,0.00443308241665,-0.00647341087461,0.00629010749981,,0.011398234541,-0.00574827037405,0.0287779946038,-0.9995042938
105648000000,,132,,105,648000000,"""map""",,,0.00443043000996,-0.00648451270536,0.00606905389577,,0.0113516955299,-0.00574285154057,0.0287393037969,-0.999505979674
105680000000,,133,,105,680000000,"""map""",,,0.00435239356011,-0.00645614229143,0.00588470511138,,0.0113204446296,-0.00565828026704,0.0286583818477,-0.999509182835
105716000000,,134,,105,716000000,"""map""",,,0.00433886097744,-0.00649240193889,0.00572149688378,,0.0113215713992,-0.00570646267596,0.0286218826769,-0.999509941478
105748000000,,135,,105,748000000,"""map""",,,0.00442931335419,-0.00654015736654,0.00545912468806,,0.0113551377421,-0.00568834710437,0.0285073275426,-0.999512976051
105780000000,,136,,105,780000000,"""map""",,,0.00461242021993,-0.00663501257077,0.00512430164963,,0.0113475872,-0.00565398787394,0.0284502607098,-0.999514830513
105816000000,,137,,105,816000000,"""map""",,,0.0049852496013,-0.00679511157796,0.00461273267865,,0.0113472230249,-0.00562537872487,0.0284117384902,-0.999516094918
105848000000,,138,,105,848000000,"""map""",,,0.00481634121388,-0.00680017331615,0.00430559273809,,0.0113391848306,-0.00551803597007,0.0283724576274,-0.999517865086
105880000000,,139,,105,880000000,"""map""",,,0.00460877967998,-0.0067711379379,0.00410480936989,,0.011318334653,-0.00552120159352,0.0282826426932,-0.999520688924
105916000000,,140,,105,916000000,"""map""",,,0.0045309481211,-0.00672785937786,0.00388117530383,,0.0113210221731,-0.00529651345139,0.0282277253496,-0.99952342847
105948000000,,141,,105,948000000,"""map""",,,0.00458061788231,-0.006718988996,0.0037666130811,,0.0113237462425,-0.00536313543581,0.0281975060592,-0.999523892085
105980000000,,142,,105,980000000,"""map""",,,0.00468658236787,-0.00677970191464,0.00367644242942,,0.0113216889494,-0.00535086543454,0.0281395541425,-0.999525620106
106016000000,,143,,106,16000000,"""map""",,,0.00490699987859,-0.00691333413124,0.00353077566251,,0.0112808200065,-0.00536828624168,0.0280679045001,-0.999527980329
106048000000,,144,,106,48000000,"""map""",,,0.00474639795721,-0.00687803234905,0.00345581560396,,0.0113103563863,-0.00534833168454,0.0280352828393,-0.999528654679
106080000000,,145,,106,80000000,"""map""",,,0.00455870339647,-0.00679628644139,0.00343810697086,,0.011370719893,-0.00538855558309,0.0279148692931,-0.999531141343
106116000000,,146,,106,116000000,"""map""",,,0.00446711760014,-0.00674816220999,0.00350347277708,,0.0113662905226,-0.0054098384245,0.0278948916869,-0.999531647105
106148000000,,147,,106,148000000,"""map""",,,0.00448356615379,-0.00677255634218,0.00360994343646,,0.0113132918484,-0.00545275346518,0.0277685354351,-0.999535524615
106180000000,,148,,106,180000000,"""map""",,,0.00457015214488,-0.00682358862832,0.00362985790707,,0.0113123912888,-0.00549936755036,0.0276439072041,-0.999538769922
106216000000,,149,,106,216000000,"""map""",,,0.0047819330357,-0.00694685056806,0.00370978377759,,0.0112730600473,-0.00549637150212,0.0276166803399,-0.999539950034
106248000000,,150,,106,248000000,"""map""",,,0.00461984984577,-0.00709247216582,0.00429821573198,,0.0112576198128,-0.00551784927271,0.027564081073,-0.999541467321
106280000000,,151,,106,280000000,"""map""",,,0.00440169544891,-0.0072385892272,0.00488374289125,,0.0112544317988,-0.00552730794747,0.0274241956828,-0.999545302684
106316000000,,152,,106,316000000,"""map""",,,0.0042928350158,-0.00739412941039,0.00542400730774,,0.0112708842163,-0.0055363517392,0.0273972216997,-0.999545808446
106348000000,,153,,106,348000000,"""map""",,,0.00427822442725,-0.00756539031863,0.00587958609685,,0.0112269092482,-0.00552116833703,0.0273660751787,-0.999547199292
106380000000,,154,,106,380000000,"""map""",,,0.00434764288366,-0.00774593930691,0.00632105255499,,0.0112718503011,-0.00545385257596,0.0273348443639,-0.999547915789
106416000000,,155,,106,416000000,"""map""",,,0.00453159725294,-0.00797353684902,0.00701155047864,,0.0112054430022,-0.00540702973217,0.0273077439403,-0.999549643809
106448000000,,156,,106,448000000,"""map""",,,0.00436143483967,-0.0079524628818,0.00748720858246,,0.0112139128723,-0.0053760152493,0.0272641219521,-0.999550950362
106480000000,,157,,106,480000000,"""map""",,,0.00415989523754,-0.00788932293653,0.00792652834207,,0.0111504574992,-0.00528603897172,0.0271499461395,-0.999555207193
106516000000,,158,,106,516000000,"""map""",,,0.00408344250172,-0.00783953536302,0.00826870091259,,0.0111646333283,-0.00531630040895,0.0271158914859,-0.999555797249
106548000000,,159,,106,548000000,"""map""",,,0.00410713348538,-0.00781694520265,0.00852776691318,,0.0111091703805,-0.00527173834845,0.0270416708857,-0.999558705382
106580000000,,160,,106,580000000,"""map""",,,0.00423349766061,-0.00784130953252,0.00861066393554,,0.0111592263486,-0.00527990166618,0.026999018275,-0.999559211144
106616000000,,161,,106,616000000,"""map""",,,0.00448312656954,-0.00793578755111,0.00857884995639,,0.011111101233,-0.00520845222124,0.0269546376435,-0.999561360633
106648000000,,162,,106,648000000,"""map""",,,0.00441239122301,-0.00801003165543,0.00864196848124,,0.0110609971912,-0.00524045945996,0.0269537104128,-0.999561782102
106680000000,,163,,106,680000000,"""map""",,,0.00432724505663,-0.00810419674963,0.0087772468105,,0.0110717963333,-0.00516161159675,0.0269194871718,-0.999563046507
106716000000,,164,,106,716000000,"""map""",,,0.00435673305765,-0.00824585650116,0.00887577235699,,0.0110492168178,-0.00515243477903,0.0269267785766,-0.999563088654
106748000000,,165,,106,748000000,"""map""",,,0.00450051296502,-0.00841542799026,0.00874241720885,,0.0110659892879,-0.00506836827986,0.0268973179295,-0.999564142325
106780000000,,166,,106,780000000,"""map""",,,0.00477115670219,-0.00862471852452,0.00869228504598,,0.0110737133564,-0.00502086680596,0.0268665507301,-0.999565069556
106816000000,,167,,106,816000000,"""map""",,,0.00518838502467,-0.0088718906045,0.00875628646463,,0.0110317653883,-0.00496807919528,0.0268387759569,-0.999566544696
106848000000,,168,,106,848000000,"""map""",,,0.00517898751423,-0.00870013888925,0.00885930005461,,0.0112227617349,-0.00496508676904,0.0267759350058,-0.999566165374
106880000000,,169,,106,880000000,"""map""",,,0.00506257964298,-0.0084747299552,0.00911459047347,,0.0112249826763,-0.00500828432531,0.0267281404796,-0.999567176898
106916000000,,170,,106,916000000,"""map""",,,0.00497470702976,-0.00829751230776,0.00933536235243,,0.0111970393157,-0.00497590105768,0.0267339988916,-0.99956755622
106948000000,,171,,106,948000000,"""map""",,,0.00497167324647,-0.00817064661533,0.0095379780978,,0.0112155961121,-0.0049336208539,0.0266631921861,-0.999569410681
106980000000,,172,,106,980000000,"""map""",,,0.00505518633872,-0.00809570401907,0.00985226873308,,0.0111612428119,-0.00491214011987,0.0266366396715,-0.999570843674
107016000000,,173,,107,16000000,"""map""",,,0.005236226134,-0.00805556867272,0.0103032151237,,0.0111546856842,-0.00492574630795,0.026611730884,-0.999571475877
107048000000,,174,,107,48000000,"""map""",,,0.00545249367133,-0.00804396811873,0.0106362821534,,0.0111002777248,-0.0048836011058,0.0265553805476,-0.999573793954
107080000000,,175,,107,80000000,"""map""",,,0.0057854312472,-0.00805014465004,0.010885771364,,0.0110861262618,-0.00492374005211,0.0264914016315,-0.999575479828
107116000000,,176,,107,116000000,"""map""",,,0.00620289565995,-0.00806515011936,0.0110896369442,,0.0110790584329,-0.00492239036514,0.0264827615276,-0.999575774855
107148000000,,177,,107,148000000,"""map""",,,0.00630073063076,-0.00785845518112,0.0112802218646,,0.0110686797715,-0.00487831002995,0.0264471474406,-0.999577081408
107180000000,,178,,107,180000000,"""map""",,,0.00608060555533,-0.00739542767406,0.0115173812956,,0.0111516596722,-0.00483726887767,0.0264578105933,-0.999576027737
107216000000,,179,,107,216000000,"""map""",,,0.00598473520949,-0.00709833437577,0.0116777447984,,0.0111478427482,-0.00480673216883,0.0264729834587,-0.999575859149
107248000000,,180,,107,248000000,"""map""",,,0.00595587538555,-0.00685044471174,0.0117580285296,,0.0111969309851,-0.00479461725479,0.0264388866583,-0.999576238471
107280000000,,181,,107,280000000,"""map""",,,0.00601454079151,-0.00665391329676,0.0117179891095,,0.0111960060594,-0.004689105583,0.0263280825935,-0.999579652366
107316000000,,182,,107,316000000,"""map""",,,0.00615403847769,-0.00649586040527,0.0115535454825,,0.0111932852827,-0.00467920732977,0.0263445620113,-0.999579357338
107348000000,,183,,107,348000000,"""map""",,,0.00580656388775,-0.0063231899403,0.0111193396151,,0.0112277600877,-0.00440385011465,0.0263150592174,-0.999580958918
107380000000,,184,,107,380000000,"""map""",,,0.00509271631017,-0.00611808942631,0.0107501968741,,0.0112969971524,-0.00443260842404,0.026237256135,-0.99958213903
107416000000,,185,,107,416000000,"""map""",,,0.00437163375318,-0.00593529874459,0.0104577532038,,0.0112803784524,-0.00444089917012,0.026203875831,-0.999583150554
107448000000,,186,,107,448000000,"""map""",,,0.0039414120838,-0.00584596488625,0.0102901495993,,0.0113003488147,-0.00444617608726,0.0261846990149,-0.999583361288
107480000000,,187,,107,480000000,"""map""",,,0.00361983431503,-0.00577508797869,0.0101473620161,,0.0113378219728,-0.0044776775638,0.0261095933309,-0.999584794281
107516000000,,188,,107,516000000,"""map""",,,0.00339362514205,-0.00574691733345,0.00998847186565,,0.0113599141654,-0.00447001408136,0.0260691745031,-0.999585679365
107548000000,,189,,107,548000000,"""map""",,,0.00306727015413,-0.00554434675723,0.0100382165983,,0.0113984653609,-0.00452439932101,0.0260027510699,-0.999586690889
107580000000,,190,,107,580000000,"""map""",,,0.00265102018602,-0.00520292948931,0.0102109210566,,0.011399358018,-0.00453033840466,0.0260013602239,-0.999586648742
107616000000,,191,,107,616000000,"""map""",,,0.00224816426635,-0.0048082312569,0.0102871675044,,0.0113616909185,-0.00446992320222,0.0259756506463,-0.999587997442
107648000000,,192,,107,648000000,"""map""",,,0.00201444746926,-0.00451617687941,0.0102524766698,,0.0113204996181,-0.00447488665218,0.0259412166711,-0.999589388288
107680000000,,193,,107,680000000,"""map""",,,0.00185504020192,-0.00424365093932,0.010199806653,,0.0112475088497,-0.00445415468325,0.0258874794392,-0.999591706364
107716000000,,194,,107,716000000,"""map""",,,0.00178304954898,-0.00397417554632,0.0100045083091,,0.0112850386427,-0.00446294822806,0.0258886174041,-0.999591158455
107748000000,,195,,107,748000000,"""map""",,,0.00164686504286,-0.00376817164943,0.0097628608346,,0.0113656280268,-0.00440780895496,0.0258295275225,-0.999592085686
107780000000,,196,,107,780000000,"""map""",,,0.00146118202247,-0.00364530994557,0.00954644475132,,0.0112920294219,-0.00441523964191,0.0257798363881,-0.999594150881
107816000000,,197,,107,816000000,"""map""",,,0.00134338717908,-0.00351442047395,0.00908202677965,,0.0113422582579,-0.00440546124378,0.0257778554862,-0.999593687266
107848000000,,198,,107,848000000,"""map""",,,0.00133525882848,-0.00344041408971,0.0086883623153,,0.0112718032151,-0.00443514579603,0.0256977343272,-0.999596426811
107880000000,,199,,107,880000000,"""map""",,,0.00140357448254,-0.00338150653988,0.00826661381871,,0.0112868582011,-0.00444144609133,0.0256187089863,-0.999598239126
107916000000,,200,,107,916000000,"""map""",,,0.00152638577856,-0.00333669735119,0.00766002060845,,0.0112634334437,-0.00441427355712,0.0255907234788,-0.999599334944
107948000000,,201,,107,948000000,"""map""",,,0.00154003023636,-0.00324960774742,0.00689023733139,,0.0113584828189,-0.00449598147913,0.0255200853607,-0.999599672119
107980000000,,202,,107,980000000,"""map""",,,0.00143597612623,-0.0031312815845,0.00601322902367,,0.0113617656633,-0.0044218273919,0.025425971448,-0.999602411664
108016000000,,203,,108,16000000,"""map""",,,0.00143952271901,-0.00302034011111,0.00481503689662,,0.011371294473,-0.00446138648976,0.0253933919341,-0.999602959573
108048000000,,204,,108,48000000,"""map""",,,0.0015128479572,-0.00292330095544,0.00399570213631,,0.0114079181088,-0.00443088600088,0.025313017894,-0.999604687594
108080000000,,205,,108,80000000,"""map""",,,0.00163729710039,-0.00283336197026,0.00322959548794,,0.0114644120079,-0.00444038352977,0.0252604607739,-0.999605319796
108116000000,,206,,108,116000000,"""map""",,,0.0018460911233,-0.0027756227646,0.00251493300311,,0.0114222786596,-0.00439791893353,0.0252578898162,-0.999606036293
108148000000,,207,,108,148000000,"""map""",,,0.00176094204653,-0.00267421221361,0.00177273887675,,0.0114992453904,-0.0044215211687,0.0252160801424,-0.999606120586
108180000000,,208,,108,180000000,"""map""",,,0.00140250707045,-0.00258353585377,0.000915524957236,,0.0114912002814,-0.00440171774753,0.0251998957526,-0.999606710642
108216000000,,209,,108,216000000,"""map""",,,0.00107329466846,-0.0024811567273,-6.35916512692e-05,,0.0115247346849,-0.00434446125383,0.0252056698708,-0.999606415614
108248000000,,210,,108,248000000,"""map""",,,0.00089750054758,-0.00241820304655,-0.000746581121348,,0.011523697148,-0.00435606711296,0.0251504996461,-0.99960780646
108280000000,,211,,108,280000000,"""map""",,,0.00078985420987,-0.00233300076798,-0.00136641273275,,0.01156970636,-0.00432909115428,0.0250706735151,-0.999609408041
108316000000,,212,,108,316000000,"""map""",,,0.000790101126768,-0.00225806375965,-0.00185721670277,,0.0115425223013,-0.00431514515724,0.0250683554384,-0.999609787362
108348000000,,213,,108,348000000,"""map""",,,0.000435968628153,-0.00199470249936,-0.00226860865951,,0.0115231752515,-0.00433283399199,0.0250308868901,-0.999610925327
108380000000,,214,,108,380000000,"""map""",,,-0.000290788098937,-0.00157919176854,-0.00261064991355,,0.0115314380094,-0.00426344118155,0.0249970008239,-0.999611936851
108416000000,,215,,108,416000000,"""map""",,,-0.00101237709168,-0.00106966868043,-0.00313801015727,,0.0116063428374,-0.0042651685438,0.0249781190357,-0.999611515383
108448000000,,216,,108,448000000,"""map""",,,-0.00145927502308,-0.000671784393489,-0.00333765964024,,0.0116939937943,-0.00425827489989,0.0248971549397,-0.999612569054
108480000000,,217,,108,480000000,"""map""",,,-0.00179733859841,-0.000286880094791,-0.00331496377476,,0.0116400316695,-0.00430550669982,0.0248373064149,-0.999614507809
108516000000,,218,,108,516000000,"""map""",,,-0.00206015794538,9.8947675724e-05,-0.00334868021309,,0.0116689230049,-0.00433753863396,0.0248279076676,-0.999614212781
108548000000,,219,,108,548000000,"""map""",,,-0.00234727538191,0.000377392658265,-0.00318471388891,,0.0116901271502,-0.00432337432941,0.0247261651753,-0.999616573005
108580000000,,220,,108,580000000,"""map""",,,-0.00264887465164,0.000559292500839,-0.00289431517012,,0.011701098831,-0.00427779745183,0.0246992333391,-0.999617289501
108616000000,,221,,108,616000000,"""map""",,,-0.00295324902982,0.000752263294999,-0.00257135904394,,0.0117532199946,-0.00432333580456,0.02467702195,-0.999617078767
108648000000,,222,,108,648000000,"""map""",,,-0.00310886395164,0.00085762218805,-0.002404010389,,0.0117192193417,-0.00429884321721,0.0246328941996,-0.9996186382
108680000000,,223,,108,676000000,"""map""",,,-0.00316994474269,0.000942261773162,-0.00235386425629,,0.0117114373212,-0.00434477340392,0.0245808428417,-0.999619860459
108716000000,,224,,108,716000000,"""map""",,,-0.00315405102447,0.0010021465132,-0.00228898366913,,0.0116442944281,-0.00431573192039,0.0245610759697,-0.999621251305
108748000000,,225,,108,748000000,"""map""",,,-0.00318093877286,0.00103854003828,-0.00196465221234,,0.0115746036263,-0.00430210235398,0.0244804069017,-0.999624117291
108780000000,,226,,108,780000000,"""map""",,,-0.00326862209477,0.00106459856033,-0.00136691960506,,0.0114908397283,-0.00429169965566,0.0244173552163,-0.999626646102
108816000000,,227,,108,816000000,"""map""",,,-0.0033349939622,0.00110594602302,-0.000662250211462,,0.0115085535878,-0.00429659494626,0.0243532920066,-0.999627994801
108848000000,,228,,108,848000000,"""map""",,,-0.00330951344222,0.0011127833277,-9.70980909187e-05,,0.0114545598528,-0.00433716227577,0.0242187171193,-0.999631661577
108880000000,,229,,108,880000000,"""map""",,,-0.00322989816777,0.00113684358075,0.000426377722761,,0.0114390508004,-0.004283496496,0.0241714705021,-0.99963322101
108916000000,,230,,108,916000000,"""map""",,,-0.00310509721749,0.00115778576583,0.00097099354025,,0.0113863053366,-0.00426909017634,0.0241498913157,-0.999634401122
108948000000,,231,,108,948000000,"""map""",,,-0.00296349078417,0.00122659816407,0.00150079710875,,0.0114142625266,-0.00425720278943,0.0240894948817,-0.99963562338
108980000000,,232,,108,980000000,"""map""",,,-0.00286464695819,0.00136270350777,0.00195727497339,,0.011402491702,-0.00406275962091,0.0240274125739,-0.999638025751
109016000000,,233,,109,16000000,"""map""",,,-0.00264532375149,0.00150669307914,0.00245367106982,,0.0114335460268,-0.00403122982696,0.0240111017435,-0.999638236485
109048000000,,234,,109,48000000,"""map""",,,-0.00243019801565,0.00162590877153,0.00270018610172,,0.0114394110242,-0.00403119031429,0.0240180981204,-0.999637983604
109080000000,,235,,109,80000000,"""map""",,,-0.00216471496969,0.00173702789471,0.00286099803634,,0.0114191900858,-0.00402980835864,0.0240342825102,-0.999637815016
109116000000,,236,,109,116000000,"""map""",,,-0.00183063047007,0.00182327709626,0.00294710020535,,0.0113967159374,-0.00403836614452,0.0240216384556,-0.999638320779
109148000000,,237,,109,148000000,"""map""",,,-0.00161277607549,0.00199181726202,0.00318577582948,,0.0113790949327,-0.0040583723974,0.0240255581125,-0.999638362926
109180000000,,238,,109,180000000,"""map""",,,-0.00148492434528,0.00223848386668,0.00357714830898,,0.0114069319384,-0.00403970233133,0.0240046532757,-0.999638615807
109216000000,,239,,109,216000000,"""map""",,,-0.0012648049742,0.00254533602856,0.00403606845066,,0.0114183026971,-0.00402530885329,0.0239773842647,-0.999639248009
109248000000,,240,,109,248000000,"""map""",,,-0.00103846821003,0.00279596331529,0.00435120565817,,0.011474530215,-0.00407544812722,0.0239289153889,-0.99963950089
109280000000,,241,,109,280000000,"""map""",,,-0.000756656401791,0.00303937750868,0.00473567936569,,0.011495222342,-0.00412638720346,0.0239063246781,-0.999639669478
109316000000,,242,,109,316000000,"""map""",,,-0.000418781826738,0.003290978726,0.00497886072844,,0.0115395835464,-0.00413029994565,0.0239030372239,-0.999639163716
109348000000,,243,,109,348000000,"""map""",,,-0.000191108279978,0.00351310498081,0.00502832140774,,0.0114699059155,-0.00412039774116,0.0238909832252,-0.999640343827
109380000000,,244,,109,380000000,"""map""",,,-4.60849551018e-05,0.0037265245337,0.0049368776381,,0.0114907478613,-0.00413740629944,0.0238151188979,-0.99964177682
109416000000,,245,,109,416000000,"""map""",,,0.000216673215618,0.00399534869939,0.00479658739641,,0.0114449009805,-0.00407859992124,0.0238001146199,-0.999642956932
109448000000,,246,,109,448000000,"""map""",,,0.000494256964885,0.00425207754597,0.00466576451436,,0.0115399819658,-0.00407449159132,0.0237828765588,-0.999642240436
109480000000,,247,,109,480000000,"""map""",,,0.000831629615277,0.00453571276739,0.00454948330298,,0.0114852341975,-0.00403758445219,0.0237728877557,-0.999643294107
109516000000,,248,,109,516000000,"""map""",,,0.00123217748478,0.00487095816061,0.00436538085341,,0.0114830649518,-0.00402967006429,0.0237593586173,-0.999643673428
109548000000,,249,,109,548000000,"""map""",,,0.00147673103493,0.00517587736249,0.00433093262836,,0.0114291271932,-0.00399446855544,0.023689900611,-0.999646033652
109580000000,,250,,109,580000000,"""map""",,,0.00161141972058,0.00543113611639,0.00448342924938,,0.0114173767835,-0.00399777379032,0.0235986105371,-0.999648309582
109616000000,,251,,109,616000000,"""map""",,,0.00186486833263,0.00574188027531,0.00459262356162,,0.011440173948,-0.0040012749422,0.0235772420849,-0.99964860461
109648000000,,252,,109,648000000,"""map""",,,0.00211271340959,0.00597626343369,0.00453592510894,,0.0113600172276,-0.00401713401104,0.0235456740954,-0.999650164043
109680000000,,253,,109,680000000,"""map""",,,0.00238462164998,0.00621755653992,0.00449543772265,,0.0113797752092,-0.00400875041018,0.0234668594887,-0.999651849917
109716000000,,254,,109,716000000,"""map""",,,0.00269868550822,0.0064794132486,0.00445293355733,,0.0113944966424,-0.00400711820762,0.0234626448038,-0.999651765623
109748000000,,255,,109,748000000,"""map""",,,0.00281848711893,0.00681062601507,0.00444452650845,,0.0114720481608,-0.00403047019587,0.0234747409494,-0.999650543365
109780000000,,256,,109,780000000,"""map""",,,0.00279102823697,0.00721546309069,0.00437071872875,,0.0114974218807,-0.00395265394263,0.0234257663114,-0.999651639183
109816000000,,257,,109,816000000,"""map""",,,0.00286795431748,0.00776145746931,0.00423906557262,,0.0115130376173,-0.00394904874072,0.023407221698,-0.999651976358
109848000000,,258,,109,848000000,"""map""",,,0.00302355852909,0.0082264887169,0.004018812906,,0.0115261304699,-0.00390416794469,0.0233520514733,-0.999653198616
109880000000,,259,,109,880000000,"""map""",,,0.00324558815919,0.00870952568948,0.00375384441577,,0.0115466283263,-0.00390076458667,0.0232936359413,-0.999654378728
109916000000,,260,,109,916000000,"""map""",,,0.00350208254531,0.0091965701431,0.00334368343465,,0.01156343537,-0.00368191740505,0.0232977241856,-0.999654926637
109948000000,,261,,109,948000000,"""map""",,,0.00375596806407,0.00950528867543,0.00322011997923,,0.0115810175205,-0.00366819037405,0.0232840264598,-0.999655137371
109980000000,,262,,109,980000000,"""map""",,,0.00395690370351,0.00969192944467,0.00321116112173,,0.0116026395123,-0.00366686999231,0.0232315114866,-0.999656064602
110016000000,,263,,110,16000000,"""map""",,,0.00426508719102,0.00996745470911,0.00318785128184,,0.0116004640106,-0.00370220584425,0.0232147791877,-0.99965635963
110048000000,,264,,110,48000000,"""map""",,,0.00459371274337,0.0102134691551,0.00315146776848,,0.0116034080338,-0.00371092332717,0.0232062233775,-0.99965648607
110080000000,,265,,110,80000000,"""map""",,,0.00497195776552,0.0105098439381,0.00309527595527,,0.0116135147163,-0.00375264541448,0.0231047337663,-0.999658593413
110116000000,,266,,110,116000000,"""map""",,,0.0053624426946,0.0108530689031,0.00295760342851,,0.0115909348715,-0.00380479785897,0.0230601845474,-0.999659647084
110148000000,,267,,110,148000000,"""map""",,,0.00557593302801,0.0112305711955,0.00289860460907,,0.0116144669717,-0.00380290158006,0.0230548318976,-0.999659520643
110180000000,,268,,110,180000000,"""map""",,,0.0056218537502,0.0116621349007,0.00291331484914,,0.0115724426125,-0.00376733227409,0.0229313416315,-0.999662976685
110216000000,,269,,110,216000000,"""map""",,,0.0057193771936,0.0122170951217,0.00290644541383,,0.0115876925276,-0.00379025291569,0.0229028503619,-0.999663398154
110248000000,,270,,110,248000000,"""map""",,,0.00580766797066,0.0126629108563,0.00286839390174,,0.0115547998758,-0.0038027254194,0.0228835471053,-0.999664156797
110280000000,,271,,110,280000000,"""map""",,,0.00594427995384,0.0131380511448,0.00283148162998,,0.0115602809418,-0.00384450545862,0.0228710294913,-0.999664198944
110316000000,,272,,110,316000000,"""map""",,,0.00613689888269,0.0136242778972,0.00281061814167,,0.011606114981,-0.00382098290734,0.0228364269287,-0.999664578265
110348000000,,273,,110,348000000,"""map""",,,0.00615734001622,0.0138995759189,0.00300817983225,,0.0115558354371,-0.00383564968135,0.0228236142867,-0.999665336909
110380000000,,274,,110,380000000,"""map""",,,0.00603967765346,0.0140182506293,0.00327053852379,,0.0116128943674,-0.00381628320446,0.0228285033211,-0.999664746853
110416000000,,275,,110,416000000,"""map""",,,0.00598592171445,0.01423817873,0.00353458127938,,0.0115918081015,-0.00375643961866,0.0227640186429,-0.999666685608
110448000000,,276,,110,448000000,"""map""",,,0.00600823713467,0.0144565701485,0.00359939155169,,0.0116528127013,-0.00370197436585,0.0226678395346,-0.999668287188
110480000000,,277,,110,480000000,"""map""",,,0.00605353619903,0.014681356959,0.00371975405142,,0.011619505825,-0.00364325228135,0.0226113206108,-0.999670183796
110516000000,,278,,110,516000000,"""map""",,,0.00612720986828,0.0149340322241,0.00389830069616,,0.0116433309775,-0.00364252887021,0.0225350769618,-0.999671658936
110548000000,,279,,110,548000000,"""map""",,,0.00615183915943,0.0150525290519,0.0040344465524,,0.0116553313048,-0.00362974619204,0.0224903170087,-0.999672501873
110580000000,,280,,110,580000000,"""map""",,,0.00617055734619,0.0150905987248,0.00383260007948,,0.0116454090147,-0.00362296252506,0.0223793443566,-0.999675157124
110616000000,,281,,110,616000000,"""map""",,,0.00626784050837,0.01524071116,0.00338847259991,,0.0116358462899,-0.00353568232869,0.0223574279953,-0.999676084355
110648000000,,282,,110,648000000,"""map""",,,0.00644734408706,0.0154609829187,0.00310507556424,,0.0116199137933,-0.00345082590539,0.0223034378824,-0.999677812376
110680000000,,283,,110,680000000,"""map""",,,0.006658884231,0.015732171014,0.00272882147692,,0.0116021380307,-0.00353127403176,0.022303269295,-0.999677728082
110716000000,,284,,110,716000000,"""map""",,,0.00691256392747,0.0160139147192,0.00244044046849,,0.011630569702,-0.00353574324406,0.0222812686401,-0.999677896669
110748000000,,285,,110,748000000,"""map""",,,0.00704077258706,0.0161979310215,0.00219804467633,,0.0116061100419,-0.00354477188927,0.0222677395017,-0.999678444578
110780000000,,286,,110,780000000,"""map""",,,0.00704588927329,0.0163354836404,0.00201494968496,,0.011599886467,-0.00357923385264,0.0221989136981,-0.999679919718
110816000000,,287,,110,816000000,"""map""",,,0.00714106019586,0.0166118387133,0.00183028832544,,0.0116297142527,-0.00356074356922,0.0221765758684,-0.999680088306
110848000000,,288,,110,848000000,"""map""",,,0.00730051938444,0.0168688073754,0.00176408072002,,0.0116366128357,-0.00358396812911,0.0220923243182,-0.999681816326
110880000000,,289,,110,880000000,"""map""",,,0.00747485132888,0.0171510707587,0.00169512385037,,0.0116647991992,-0.00358062206446,0.0221193825949,-0.999680889096
110916000000,,290,,110,916000000,"""map""",,,0.00765536865219,0.0174624416977,0.00164773873985,,0.0116835568517,-0.00357851505131,0.0220840635359,-0.999681479152
110948000000,,291,,110,948000000,"""map""",,,0.00765911396593,0.0175851713866,0.00163861282635,,0.0116870836868,-0.0036245463246,0.0220012871254,-0.999683080732
110980000000,,292,,110,980000000,"""map""",,,0.00752914045006,0.017550656572,0.00185294135008,,0.0116992374549,-0.00363807315807,0.0219497836765,-0.999684007962
111016000000,,293,,111,16000000,"""map""",,,0.00744028203189,0.0176097750664,0.00207913853228,,0.0117011350509,-0.00361379953678,0.0219596881859,-0.999683881522
111048000000,,294,,111,48000000,"""map""",,,0.00744571862742,0.0177100170404,0.00218451372348,,0.0116727646243,-0.00357617194995,0.0219466226629,-0.999684640165
111080000000,,295,,111,80000000,"""map""",,,0.00752917444333,0.0178792569786,0.00228425720707,,0.0117378614196,-0.00356721080556,0.0219088590866,-0.999684724459
111116000000,,296,,111,116000000,"""map""",,,0.00764472549781,0.0180878154933,0.00237845629454,,0.0116390313404,-0.0035369793321,0.0218816743693,-0.999686621067
111148000000,,297,,111,148000000,"""map""",,,0.00758772902191,0.0180582925677,0.00259339530021,,0.0116880609668,-0.00358611761838,0.0218726970906,-0.999686073158
111180000000,,298,,111,180000000,"""map""",,,0.00738674448803,0.0178226102144,0.00290059437975,,0.0116399121437,-0.00353109095638,0.0218914102913,-0.999686410333
111216000000,,299,,111,216000000,"""map""",,,0.00727631524205,0.0176682062447,0.00321376742795,,0.0116386852753,-0.00352737215555,0.0218691146085,-0.999686873948
111248000000,,300,,111,248000000,"""map""",,,0.00728324102238,0.0176343824714,0.00343836494721,,0.0116733392043,-0.00349458059032,0.0218328261719,-0.999687421857
111280000000,,301,,111,280000000,"""map""",,,0.00735330255702,0.0176553279161,0.00348875415511,,0.0116888347566,-0.00352319830046,0.0218039134338,-0.999687759032
111316000000,,302,,111,316000000,"""map""",,,0.00744748301804,0.0177583154291,0.00355425220914,,0.0116588653839,-0.0034716767416,0.0217763493949,-0.99968885485
111348000000,,303,,111,348000000,"""map""",,,0.00741642713547,0.01771495305,0.00381897995248,,0.0115377544391,-0.00342083908122,0.0217503447894,-0.999691004339
111380000000,,304,,111,380000000,"""map""",,,0.00726796453819,0.0175586398691,0.00425452226773,,0.0115001097301,-0.00337171133165,0.0217494597056,-0.999691636542
111416000000,,305,,111,416000000,"""map""",,,0.00717436010018,0.0174545291811,0.00467266235501,,0.0115191215807,-0.00331854604571,0.0217358462735,-0.99969193157
111448000000,,306,,111,448000000,"""map""",,,0.0071531496942,0.0174200292677,0.00500699086115,,0.0114867366667,-0.00339954471528,0.0217044890182,-0.999692690213
111480000000,,307,,111,480000000,"""map""",,,0.00717986328527,0.017437402159,0.00536172278225,,0.0114452259722,-0.00330614861607,0.0216469164231,-0.999694713262
111516000000,,308,,111,516000000,"""map""",,,0.00724486587569,0.0175338163972,0.00582411373034,,0.0114080297321,-0.00333218384392,0.0216437975563,-0.99969513473
111548000000,,309,,111,548000000,"""map""",,,0.00711171841249,0.0175748839974,0.00646962318569,,0.0113883086289,-0.00324203864967,0.0216456941645,-0.999695598346
111580000000,,310,,111,580000000,"""map""",,,0.00686878571287,0.0175625495613,0.0072079882957,,0.0116245022022,-0.00323414665229,0.0215928841633,-0.999694038912
111616000000,,311,,111,616000000,"""map""",,,0.00664219353348,0.0176377426833,0.00811889581382,,0.0116331172814,-0.00325608013567,0.0215786385285,-0.9996942075
111648000000,,312,,111,648000000,"""map""",,,0.00649567041546,0.0177365392447,0.00899768620729,,0.0115086263569,-0.00323692538084,0.0215411278334,-0.99969648343
111680000000,,313,,111,680000000,"""map""",,,0.00641076685861,0.0178763009608,0.00963430572301,,0.0115961413244,-0.00334039885739,0.0214852411122,-0.999696399136
111716000000,,314,,111,716000000,"""map""",,,0.00635255035013,0.0180597640574,0.0101360892877,,0.0115760162042,-0.00332053583794,0.0214847774969,-0.999696694164
111748000000,,315,,111,748000000,"""map""",,,0.00610754033551,0.018023872748,0.0106613459066,,0.0115571538432,-0.00334672121393,0.0214710376243,-0.999697115632
111780000000,,316,,111,780000000,"""map""",,,0.00565828057006,0.0177817996591,0.0111280791461,,0.011446111056,-0.00332500537951,0.0214738614631,-0.999698422185
111816000000,,317,,111,816000000,"""map""",,,0.00518839946017,0.0175803825259,0.0114765297621,,0.0114295572228,-0.00334432509974,0.0214748308407,-0.999698464331
111848000000,,318,,111,848000000,"""map""",,,0.00486541120335,0.0175110306591,0.0117571940646,,0.0114633922518,-0.00336875150336,0.0214446115503,-0.999698675066
111880000000,,319,,111,880000000,"""map""",,,0.00455663958564,0.0175058562309,0.0119914580137,,0.0114934449304,-0.00336009756998,0.0214023382612,-0.999699222975
111916000000,,320,,111,916000000,"""map""",,,0.00427754269913,0.0175886992365,0.0122512029484,,0.01151029906,-0.00338343177753,0.0213958054997,-0.999699096534
111948000000,,321,,111,948000000,"""map""",,,0.00391545752063,0.0175330955535,0.0124489711598,,0.0114262766833,-0.00342190131351,0.0213652911814,-0.999700613821
111980000000,,322,,111,980000000,"""map""",,,0.0034812502563,0.0173323340714,0.0126784807071,,0.0113977903528,-0.0034259042763,0.0213272325772,-0.999701751786
112016000000,,323,,112,16000000,"""map""",,,0.00298989121802,0.0171875488013,0.0132164638489,,0.011440165387,-0.00339132772618,0.0212805760159,-0.999702383988
112048000000,,324,,112,48000000,"""map""",,,0.00265749404207,0.0171413701028,0.0134474374354,,0.0114399905434,-0.00342511731562,0.0212442875793,-0.999703016191
112080000000,,325,,112,80000000,"""map""",,,0.00233325059526,0.0171398725361,0.013575986959,,0.0114303846839,-0.00316338044728,0.0212056810661,-0.999704786359
112116000000,,326,,112,116000000,"""map""",,,0.00209075096063,0.0171666517854,0.0136774219573,,0.011456382704,-0.0031571782751,0.0211959872909,-0.999704786359
112148000000,,327,,112,148000000,"""map""",,,0.00184337969404,0.0171114131808,0.0138232614845,,0.0114880633047,-0.00317332117663,0.0211024212872,-0.999706303645
112180000000,,328,,112,180000000,"""map""",,,0.00157421012409,0.0169955473393,0.0138693284243,,0.0115621143297,-0.00317432051792,0.0211345793326,-0.999704744212
112216000000,,329,,112,216000000,"""map""",,,0.00126334279776,0.0169229861349,0.0138242542744,,0.0115627116295,-0.00319079532587,0.0211454532196,-0.999704491331
112248000000,,330,,112,248000000,"""map""",,,0.00105825753417,0.0169297065586,0.0138242077082,,0.011606384655,-0.00317889707298,0.0211012411755,-0.999704954946
112280000000,,331,,112,280000000,"""map""",,,0.00086638785433,0.0169873572886,0.013920747675,,0.0115796569675,-0.00315494580922,0.0211339049831,-0.999704659918
112316000000,,332,,112,316000000,"""map""",,,0.000660315330606,0.0170913618058,0.0140233198181,,0.0115833467924,-0.00320516443777,0.0211227360682,-0.999704702065
112348000000,,333,,112,348000000,"""map""",,,0.000435437774286,0.0172539558262,0.0140976598486,,0.0114658216224,-0.00322291484643,0.0211769790622,-0.999704828506
112380000000,,334,,112,380000000,"""map""",,,0.000236703344854,0.0174780990928,0.0141077814624,,0.0114476625869,-0.00326688355833,0.0211268664594,-0.999705966471
112416000000,,335,,112,416000000,"""map""",,,3.06450856442e-05,0.0178173203021,0.0141705684364,,0.0114744222137,-0.00330255790214,0.0211162876004,-0.999705755736
112448000000,,336,,112,448000000,"""map""",,,-0.000322796433466,0.0178818423301,0.0143174771219,,0.0114881265249,-0.00338816341982,0.0210879649182,-0.999705924324
112480000000,,337,,112,480000000,"""map""",,,-0.000695043127052,0.017924355343,0.0145766641945,,0.011365346499,-0.00320647592915,0.0210662171444,-0.999708368841
112516000000,,338,,112,516000000,"""map""",,,-0.0010437888559,0.018004084006,0.0148529857397,,0.0113697623692,-0.00319747132082,0.021051002132,-0.999708663869
112548000000,,339,,112,548000000,"""map""",,,-0.00137946964242,0.0181199125946,0.0151611473411,,0.0114497607097,-0.00319810121865,0.0210639833614,-0.999707483757
112580000000,,340,,112,580000000,"""map""",,,-0.0017241804162,0.0182690192014,0.0153498472646,,0.01132027703,-0.00312774825031,0.0210116791224,-0.999710307596
112616000000,,341,,112,616000000,"""map""",,,-0.0021412097849,0.0184794832021,0.0155906910077,,0.0113215463745,-0.00314851117083,0.0209716396163,-0.999711066239
112648000000,,342,,112,648000000,"""map""",,,-0.00241305143572,0.0184670779854,0.0158703811467,,0.0113718542359,-0.00314470050304,0.0209477002063,-0.999710981945
112680000000,,343,,112,680000000,"""map""",,,-0.00266034132801,0.0184664167464,0.0160645954311,,0.011456371838,-0.00322929449635,0.0209547808769,-0.999709548953
112716000000,,344,,112,716000000,"""map""",,,-0.0029234457761,0.0185350030661,0.0161386430264,,0.0114480573843,-0.00325893788957,0.0208633643625,-0.999711529855
112748000000,,345,,112,748000000,"""map""",,,-0.00326019548811,0.0186766125262,0.0166668277234,,0.0107353350782,-0.00323720657935,0.0206020960485,-0.999724890405
112780000000,,346,,112,780000000,"""map""",,,-0.00376101606525,0.0188201609999,0.0181634668261,,0.00763005488481,-0.00215264090343,0.0200342515586,-0.999767922338
112816000000,,347,,112,816000000,"""map""",,,-0.004621301312,0.0189748704433,0.0215367265046,,0.00593650725449,-0.00114570231385,0.0197786730692,-0.999786129776
112848000000,,348,,112,848000000,"""map""",,,-0.00530609767884,0.01883354038,0.0256361570209,,0.000461906163667,0.00271275844376,0.0190751578738,-0.999814283871
112880000000,,349,,112,880000000,"""map""",,,-0.0060846619308,0.0185602325946,0.0307123214006,,-0.00689992675344,0.00907194681075,0.0182591948867,-0.999768343806
112916000000,,350,,112,916000000,"""map""",,,-0.00703700771555,0.0181920845062,0.0364737212658,,-0.0100244251689,0.0120459709342,0.0180128465571,-0.999714943749
112948000000,,351,,112,948000000,"""map""",,,-0.00809840019792,0.0176851954311,0.0428223460913,,-0.0188174653743,0.0208448975397,0.0174671291626,-0.999453043233
112980000000,,352,,112,980000000,"""map""",,,-0.00928577966988,0.0169906336814,0.0496529042721,,-0.0268709693168,0.0290836187714,0.0170486531037,-0.999070307701
113016000000,,353,,113,16000000,"""map""",,,-0.0109967654571,0.0157908629626,0.0589665435255,,-0.0317254371544,0.0340508944601,0.0168960393653,-0.998773551741
113048000000,,354,,113,48000000,"""map""",,,-0.0122665045783,0.0143114915118,0.0663041621447,,-0.0421672372135,0.0447686931566,0.016699972226,-0.997967366823
113080000000,,355,,113,80000000,"""map""",,,-0.0137168820947,0.0124958381057,0.0740721598268,,-0.054853654124,0.057812289791,0.0166982020584,-0.996679527719
113116000000,,356,,113,116000000,"""map""",,,-0.015815872699,0.0100804651156,0.0823689252138,,-0.0597993242021,0.0628791725591,0.0168091325637,-0.99608626868
113148000000,,357,,113,148000000,"""map""",,,-0.0191623568535,0.00644553778693,0.0909777507186,,-0.0716961123325,0.0747816666483,0.0173111436763,-0.994468546193
113180000000,,358,,113,180000000,"""map""",,,-0.023987326771,0.00133417092729,0.1002131477,,-0.0817347327575,0.0841935639299,0.0183113726851,-0.992922768377
113216000000,,359,,113,216000000,"""map""",,,-0.0323668904603,-0.0074015581049,0.113178513944,,-0.0845332639893,0.0863183114399,0.0187949234781,-0.992496874473
113248000000,,360,,113,248000000,"""map""",,,-0.0407760851085,-0.0166837479919,0.124726884067,,-0.0899722035779,0.089625949272,0.0201388178897,-0.991698866044
113280000000,,361,,113,280000000,"""map""",,,-0.0508595481515,-0.0278069674969,0.137639760971,,-0.0939224622295,0.0917389151738,0.0218999661016,-0.991101898081
113316000000,,362,,113,316000000,"""map""",,,-0.0627187713981,-0.040624614805,0.152034401894,,-0.0948075685211,0.09217749388,0.0225407667864,-0.9909625606
113348000000,,363,,113,348000000,"""map""",,,-0.0762584581971,-0.0551490224898,0.167627587914,,-0.0960812401915,0.0916475244249,0.0243250114712,-0.990846825354
113380000000,,364,,113,380000000,"""map""",,,-0.0912981033325,-0.071283839643,0.184551030397,,-0.0963192594148,0.0893460587188,0.0260434649255,-0.99099025108
113416000000,,365,,113,416000000,"""map""",,,-0.112060956657,-0.0936263948679,0.207558587193,,-0.0963038797663,0.0884278856728,0.0267170980053,-0.991056126604
113448000000,,366,,113,448000000,"""map""",,,-0.128764092922,-0.111989505589,0.226981252432,,-0.0958939828961,0.0871760798202,0.028340847491,-0.991161746606
113480000000,,367,,113,480000000,"""map""",,,-0.146422699094,-0.131439477205,0.247649386525,,-0.0957692861764,0.0874163642719,0.0296704119742,-0.991113699199
113516000000,,368,,113,516000000,"""map""",,,-0.165447622538,-0.152323588729,0.269713491201,,-0.0958872960351,0.0875149049209,0.0301557329348,-0.991078928049
113548000000,,369,,113,548000000,"""map""",,,-0.185798227787,-0.174563243985,0.293149262667,,-0.0961592442946,0.0875499964528,0.031663325706,-0.991002473666
113580000000,,370,,113,580000000,"""map""",,,-0.207388967276,-0.198131948709,0.317920804024,,-0.0959844777774,0.0873891686887,0.0330459109245,-0.990988480912
113616000000,,371,,113,616000000,"""map""",,,-0.236036106944,-0.229302406311,0.350845336914,,-0.0957174211866,0.0871590189077,0.0336006898915,-0.99101591851
113648000000,,372,,113,648000000,"""map""",,,-0.259372621775,-0.25493657589,0.378170460463,,-0.0946858869474,0.0864141899226,0.0347304783127,-0.991141263238
113680000000,,373,,113,680000000,"""map""",,,-0.28352111578,-0.28149586916,0.406785786152,,-0.0938203404979,0.0858086006249,0.035822123836,-0.991237315906
113716000000,,374,,113,716000000,"""map""",,,-0.308711856604,-0.30909883976,0.436982005835,,-0.0935770827177,0.0857494969138,0.0361694560145,-0.991252868093
113748000000,,375,,113,748000000,"""map""",,,-0.334839522839,-0.33771020174,0.468676388264,,-0.092762723945,0.0857640560158,0.0369766524572,-0.991298302395
113780000000,,376,,113,780000000,"""map""",,,-0.361829280853,-0.367237329483,0.501837193966,,-0.0916953780555,0.0851351176933,0.0378444139212,-0.991419053116
113816000000,,377,,113,816000000,"""map""",,,-0.396671980619,-0.405273616314,0.545121014118,,-0.0912420705898,0.0848074967396,0.0381042070954,-0.991479070229
113848000000,,378,,113,848000000,"""map""",,,-0.42537894845,-0.436266750097,0.58061927557,,-0.0901370964549,0.0844601642318,0.0386491236998,-0.991588694182
113880000000,,379,,113,880000000,"""map""",,,-0.454778015614,-0.467874109745,0.617385625839,,-0.0889713872296,0.0842025533094,0.0391977492269,-0.991694272037
113916000000,,380,,113,916000000,"""map""",,,-0.484828323126,-0.500135540962,0.655596971512,,-0.0885115618197,0.0839623090289,0.0394304419775,-0.991746576276
113948000000,,381,,113,948000000,"""map""",,,-0.515481293201,-0.532967984676,0.695262014866,,-0.087720390399,0.0837041398255,0.0398058439572,-0.991823747156
113980000000,,382,,113,980000000,"""map""",,,-0.546708285809,-0.566385865211,0.736489653587,,-0.0866009353644,0.0836815943896,0.0401093434133,-0.991911791922
114016000000,,383,,114,16000000,"""map""",,,-0.586458683014,-0.608883440495,0.790165662766,,-0.0862513693205,0.0836099132193,0.0402080934794,-0.991944287142
114048000000,,384,,114,48000000,"""map""",,,-0.618991613388,-0.643765032291,0.834795296192,,-0.0854272784947,0.0832518903115,0.04046860315,-0.992035113601
114080000000,,385,,114,80000000,"""map""",,,-0.652013659477,-0.67915391922,0.880886614323,,-0.0843796491808,0.0832156712691,0.0406709923166,-0.992119491592
114116000000,,386,,114,116000000,"""map""",,,-0.685430288315,-0.714871287346,0.928352296352,,-0.0840320600876,0.0832009871259,0.0407436956303,-0.992147266365
114148000000,,387,,114,148000000,"""map""",,,-0.719231247902,-0.750885725021,0.977184295654,,-0.0831404423369,0.0831155039509,0.0409004397599,-0.992223088545
114180000000,,388,,114,180000000,"""map""",,,-0.753416478634,-0.787168502808,1.02733504772,,-0.0822589498263,0.0830239310965,0.0410739583352,-0.992297056264
114216000000,,389,,114,216000000,"""map""",,,-0.796634018421,-0.832871854305,1.09196400642,,-0.0817761831129,0.0830534400643,0.0411402553279,-0.992331743121
114248000000,,390,,114,248000000,"""map""",,,-0.831987202168,-0.869789659977,1.14526081085,,-0.0809138799127,0.0829083176812,0.0412728493133,-0.992409124735
114280000000,,391,,114,280000000,"""map""",,,-0.867695450783,-0.90690600872,1.19993054867,,-0.0791358150919,0.0820420997632,0.0413702085334,-0.992620364739
114316000000,,392,,114,316000000,"""map""",,,-0.903586387634,-0.944155395031,1.25588321686,,-0.0781125037687,0.0813797794903,0.0413912819576,-0.992755066067
114348000000,,393,,114,348000000,"""map""",,,-0.939600169659,-0.981472432613,1.31315755844,,-0.0747209471983,0.0786562392735,0.0415251403485,-0.993229892463
114380000000,,394,,114,380000000,"""map""",,,-0.975665092468,-1.01875185966,1.37169206142,,-0.0698455369045,0.0743702207167,0.0417171613903,-0.993906602262
114416000000,,395,,114,416000000,"""map""",,,-1.0207182169,-1.06523299217,1.44682097435,,-0.0679450191074,0.0726255524165,0.0417935736267,-0.994164161654
114448000000,,396,,114,448000000,"""map""",,,-1.05773186684,-1.10263431072,1.50856697559,,-0.0631898944375,0.0679326496659,0.0419861004307,-0.994801169122
114480000000,,397,,114,480000000,"""map""",,,-1.09478187561,-1.13986313343,1.57181274891,,-0.0580173607154,0.0627794583839,0.0422269275231,-0.995444414324
114516000000,,398,,114,516000000,"""map""",,,-1.13143086433,-1.1767206192,1.63653957844,,-0.0561506996793,0.0610174864974,0.0423056156892,-0.995657719524
114548000000,,399,,114,548000000,"""map""",,,-1.16760063171,-1.21311342716,1.7026706934,,-0.051886917207,0.05677600333,0.0425488030051,-0.996129427053
114580000000,,400,,114,580000000,"""map""",,,-1.20324790478,-1.2490209341,1.77025365829,,-0.0477653831473,0.0526924732154,0.0427764802808,-0.996550136895
114616000000,,401,,114,616000000,"""map""",,,-1.24697244167,-1.29315495491,1.85664474964,,-0.0464011920647,0.0513982096813,0.0428753989343,-0.996677968286
114648000000,,402,,114,648000000,"""map""",,,-1.28258883953,-1.32838916779,1.92652237415,,-0.0433727735643,0.048916328134,0.0470411934411,-0.996751303803
114680000000,,403,,114,680000000,"""map""",,,-1.31784963608,-1.36316621304,1.99544978142,,-0.041602053408,0.0475384468989,0.0471563386312,-0.996888028179
114716000000,,404,,114,716000000,"""map""",,,-1.35227847099,-1.39731132984,2.06214904785,,-0.0413053023867,0.0475509595738,0.0471410393252,-0.996900461499
114748000000,,405,,114,748000000,"""map""",,,-1.38595676422,-1.43087530136,2.12601518631,,-0.041155182227,0.0484661714745,0.0468896755207,-0.996874499041
114780000000,,406,,114,780000000,"""map""",,,-1.41895353794,-1.4638787508,2.18691158295,,-0.040875003149,0.0493321390633,0.0467433416626,-0.996850391043
114816000000,,407,,114,816000000,"""map""",,,-1.45929479599,-1.5043566227,2.25947737694,,-0.0404676900781,0.0494157327275,0.0466910795705,-0.996865311028
114848000000,,408,,114,848000000,"""map""",,,-1.49246799946,-1.53705179691,2.31598162651,,-0.0386754068697,0.0486887144079,0.0465903064557,-0.996976958029
114880000000,,409,,114,880000000,"""map""",,,-1.52539849281,-1.56948947906,2.37084126472,,-0.0358710345951,0.0465908602916,0.0464637816165,-0.997187945153
114916000000,,410,,114,916000000,"""map""",,,-1.55758559704,-1.6013276577,2.42398357391,,-0.0347497575324,0.0455987363193,0.0464272824457,-0.997275189129
114948000000,,411,,114,948000000,"""map""",,,-1.58905863762,-1.6325609684,2.47544360161,,-0.0317518768933,0.0429049642899,0.0463591731385,-0.997497808783
114980000000,,412,,114,980000000,"""map""",,,-1.61979043484,-1.66319513321,2.52529430389,,-0.0283578511102,0.0397134765045,0.0461761293754,-0.997740701071
115016000000,,413,,115,16000000,"""map""",,,-1.65714025497,-1.70059239864,2.58529281616,,-0.0268659995284,0.0382181017095,0.0460928472027,-0.997844213731
115048000000,,414,,115,48000000,"""map""",,,-1.68778944016,-1.73040127754,2.63242149353,,-0.0244075508057,0.0356927909629,0.045915830439,-0.998009092203
115080000000,,415,,115,80000000,"""map""",,,-1.71806752682,-1.75968790054,2.67811989784,,-0.0217807109352,0.0332083771474,0.0457268439703,-0.998164276899
115116000000,,416,,115,116000000,"""map""",,,-1.74746072292,-1.78828501701,2.72221136093,,-0.0208880479277,0.0323743206499,0.0456284732258,-0.998215274586
115148000000,,417,,115,148000000,"""map""",,,-1.77601337433,-1.81621754169,2.76468873024,,-0.0188713877395,0.0304689373613,0.0454329118487,-0.998324266336
115180000000,,418,,115,180000000,"""map""",,,-1.80374073982,-1.84346592426,2.80566334724,,-0.01701687438,0.0286750825364,0.0452671904404,-0.998418338102
115216000000,,419,,115,216000000,"""map""",,,-1.83727550507,-1.87658011913,2.85476112366,,-0.0163546762671,0.0280563009458,0.0451940235114,-0.998450285413
115248000000,,420,,115,248000000,"""map""",,,-1.86471712589,-1.90260314941,2.89375090599,,-0.0148134931161,0.0265800278929,0.0450514828697,-0.998521176412
115280000000,,421,,115,280000000,"""map""",,,-1.89177489281,-1.92806100845,2.93141460419,,-0.0134040294035,0.0249410759072,0.0449570317822,-0.998587641992
115316000000,,422,,115,316000000,"""map""",,,-1.91803061962,-1.95297181606,2.96480894089,,-0.0129229777869,0.0230085171209,0.0450154051674,-0.998637670301
115348000000,,423,,115,348000000,"""map""",,,-1.94366574287,-1.97753286362,2.99105334282,,-0.0119155822498,0.0111920069655,0.0453617258216,-0.998836898454
115380000000,,424,,115,380000000,"""map""",,,-1.96872615814,-2.00184249878,3.0094268322,,-0.0109336300736,-0.0137278186159,0.0464253858375,-0.998767566888
115416000000,,425,,115,416000000,"""map""",,,-1.99898886681,-2.03184533119,3.02294397354,,-0.0100134734914,-0.0271066652774,0.04684006868,-0.998484382213
115448000000,,426,,115,448000000,"""map""",,,-2.02311515808,-2.05585432053,3.02980923653,,0.0126025583467,-0.0709769076435,0.0451869428408,-0.996374300243
115480000000,,427,,115,480000000,"""map""",,,-2.04536509514,-2.07913589478,3.03462719917,,0.0638991057135,-0.111124459809,0.0396082595314,-0.990958893824
115516000000,,428,,115,516000000,"""map""",,,-2.06434440613,-2.10072088242,3.03850603104,,0.0832542424679,-0.119534476205,0.0369005352488,-0.988644821107
115548000000,,429,,115,548000000,"""map""",,,-2.07948493958,-2.11975860596,3.04257750511,,0.0957339835809,-0.113369850286,0.0322393045377,-0.988404289042
115580000000,,430,,115,580000000,"""map""",,,-2.08996605873,-2.13507962227,3.05240416527,,0.0715874067198,-0.0831132961624,0.0295141314599,-0.993527280626
115616000000,,431,,115,616000000,"""map""",,,-2.0966231823,-2.14882588387,3.08124232292,,0.0618507958762,-0.0712125789909,0.0289197766022,-0.995121527317
115648000000,,432,,115,648000000,"""map""",,,-2.10047006607,-2.15723991394,3.11790013313,,0.0361622966479,-0.0314720366364,0.0277125222734,-0.998465795453
115680000000,,433,,115,680000000,"""map""",,,-2.10377264023,-2.16453790665,3.16007804871,,0.00485518392246,0.0148241253172,0.0269040192784,-0.999516389946
115716000000,,434,,115,716000000,"""map""",,,-2.10702228546,-2.17152953148,3.20154905319,,-0.0127124299124,0.0400267751029,0.0263516426819,-0.99877022214
115748000000,,435,,115,748000000,"""map""",,,-2.11063075066,-2.17867612839,3.23904895782,,-0.0441661092914,0.0862126904497,0.0252561196485,-0.99497679504
115780000000,,436,,115,780000000,"""map""",,,-2.11500644684,-2.18630051613,3.27168655396,,-0.0722068922945,0.128771029179,0.0241869383955,-0.988746310718
115816000000,,437,,115,816000000,"""map""",,,-2.12259221077,-2.19705510139,3.30664134026,,-0.0809632188081,0.142252096436,0.023816762625,-0.986226224205
115848000000,,438,,115,848000000,"""map""",,,-2.13268208504,-2.20725774765,3.33116889,,-0.0871078552678,0.152545025924,0.0235222404476,-0.984169205117
115880000000,,439,,115,880000000,"""map""",,,-2.14539647102,-2.21879220009,3.35346698761,,-0.0788350979863,0.140938547756,0.0239688284544,-0.986583460893
115916000000,,440,,115,916000000,"""map""",,,-2.16000366211,-2.23146772385,3.37417626381,,-0.0719573223652,0.129808049753,0.0243189001782,-0.988625644291
115948000000,,441,,115,948000000,"""map""",,,-2.1762008667,-2.24509382248,3.39404392242,,-0.0553273112735,0.102243391795,0.0252119918981,-0.992899587611
115980000000,,442,,115,980000000,"""map""",,,-2.19350671768,-2.25940513611,3.41335177422,,-0.0385994417851,0.0736482051951,0.0263270289223,-0.996189233431
116016000000,,443,,116,16000000,"""map""",,,-2.21597218513,-2.27779388428,3.43683743477,,-0.0311052711387,0.0603246670527,0.026940855624,-0.997330232914
116048000000,,444,,116,48000000,"""map""",,,-2.23441147804,-2.29190611839,3.45615386963,,-0.0193617709317,0.0393383313572,0.0282031958838,-0.998640199112
116080000000,,445,,116,80000000,"""map""",,,-2.25263118744,-2.30573296547,3.47528147697,,-0.00864150005909,0.0202840216854,0.0298655940296,-0.999310713325
116116000000,,446,,116,116000000,"""map""",,,-2.27029395103,-2.31939053535,3.49363160133,,-0.00571977910446,0.0151946593359,0.0304335649601,-0.999404953678
116148000000,,447,,116,148000000,"""map""",,,-2.28727269173,-2.33278727531,3.51111221313,,-0.00058159292368,0.00661739568372,0.0319172183214,-0.999468511126
116180000000,,448,,116,180000000,"""map""",,,-2.3074760437,-2.34911060333,3.53178596497,,0.00220395290108,0.00280344271842,0.0332601433555,-0.999440399178
116216000000,,449,,116,216000000,"""map""",,,-2.32281756401,-2.3618209362,3.54747390747,,0.00290617255416,0.00212658789488,0.0339292245756,-0.99941776632
116248000000,,450,,116,248000000,"""map""",,,-2.3388543129,-2.37397146225,3.56292963028,,0.00347374078473,0.00251884696761,0.0351742846275,-0.99937203699
116280000000,,451,,116,280000000,"""map""",,,-2.354596138,-2.38577508926,3.57783913612,,0.00334177752031,0.0041268020865,0.0363692320765,-0.999324326757
116316000000,,452,,116,316000000,"""map""",,,-2.36969590187,-2.39734601974,3.59096264839,,0.00405450995155,0.00352616183306,0.0366686011414,-0.999313073549
116348000000,,453,,116,348000000,"""map""",,,-2.38427042961,-2.40879368782,3.60011935234,,0.0163226097593,-0.0110875747305,0.0365764681306,-0.999136056785
116380000000,,454,,116,380000000,"""map""",,,-2.39818906784,-2.42003917694,3.6049387455,,0.0443339841403,-0.037758356642,0.0351836412279,-0.997682791301
116416000000,,455,,116,416000000,"""map""",,,-2.41406393051,-2.43319201469,3.60619878769,,0.0586547773046,-0.0504886489157,0.0343285659653,-0.996409619302
