rosbagTimestamp,header,seq,stamp,secs,nsecs,frame_id,pose,position,x,y,z,orientation,x,y,z,w
107344000000,,191,,107,252000000,"""map""",,,0.00092190480791,0.00673645269126,0.00773186702281,,0.00877664544143,-0.00896142078556,0.0338054392816,-0.99934969916
107344000000,,192,,107,252000000,"""map""",,,0.00067543372279,0.00666808476672,0.00767163280398,,0.0088143261337,-0.00898057775269,0.033723252927,-0.999352059384
107344000000,,193,,107,344000000,"""map""",,,0.000862353248522,0.00658210041001,0.00739961815998,,0.00885339933891,-0.00902192995407,0.0336662703878,-0.999353239495
107376000000,,194,,107,376000000,"""map""",,,0.00118541403208,0.00649740127847,0.00703852763399,,0.00880764487039,-0.00902715627647,0.0336797995261,-0.999353113055
107412000000,,195,,107,412000000,"""map""",,,0.00149139587302,0.0064477394335,0.0066778534092,,0.00880136324071,-0.00898553669573,0.0336720866529,-0.999353829551
107444000000,,196,,107,444000000,"""map""",,,0.00178867939394,0.00643013091758,0.00625051790848,,0.00874607016659,-0.00899003623195,0.0336596533326,-0.999354630341
107476000000,,197,,107,476000000,"""map""",,,0.00208574836142,0.00643961085007,0.00574721163139,,0.0087030672308,-0.00901196574349,0.0336286332521,-0.999355894747
107512000000,,198,,107,512000000,"""map""",,,0.00247943005525,0.00650414265692,0.00501703238115,,0.00873021706581,-0.00902431277389,0.0336226905464,-0.999355768306
107544000000,,199,,107,544000000,"""map""",,,0.0024861257989,0.00649984460324,0.00476860720664,,0.00878494450164,-0.00895890374614,0.03357329444,-0.999357538474
107576000000,,200,,107,576000000,"""map""",,,0.00243087112904,0.00646221078932,0.00466680712998,,0.0087281000613,-0.00893337743942,0.0335773826843,-0.999358086383
107612000000,,201,,107,612000000,"""map""",,,0.00240820250474,0.00645000627264,0.00454060127959,,0.00875284423322,-0.00898233230048,0.0335449296109,-0.999358592145
107644000000,,202,,107,644000000,"""map""",,,0.00241512665525,0.00642694253474,0.00432728044689,,0.00870075369191,-0.00900393354816,0.033480360639,-0.999360952369
107676000000,,203,,107,676000000,"""map""",,,0.00246018311009,0.00641601858661,0.00406638393179,,0.00869092914422,-0.00898608605562,0.0334336619308,-0.99936280683
107712000000,,204,,107,712000000,"""map""",,,0.0025398186408,0.00642031710595,0.00376296718605,,0.00870203735979,-0.00897462749437,0.033390503558,-0.999364239823
107744000000,,205,,107,744000000,"""map""",,,0.0025561680086,0.00637605180964,0.00329524208792,,0.00877351047117,-0.00906215995444,0.0333344061026,-0.999364703438
107776000000,,206,,107,776000000,"""map""",,,0.0025618346408,0.0063230805099,0.00269481842406,,0.00877063172618,-0.00898361230521,0.0332713544172,-0.99936748513
107812000000,,207,,107,812000000,"""map""",,,0.00261776801199,0.00627686176449,0.00194322294556,,0.0087913800764,-0.00905506677155,0.0332121802419,-0.999368665242
107844000000,,208,,107,844000000,"""map""",,,0.00269314087927,0.00627341028303,0.00114542606752,,0.00882754617289,-0.00898959939572,0.0331667037924,-0.999370477556
107876000000,,209,,107,876000000,"""map""",,,0.00277803000063,0.00629857275635,0.000345236243447,,0.00883669880453,-0.00901256134555,0.0331380439354,-0.999371151906
107912000000,,210,,107,912000000,"""map""",,,0.00293878023513,0.00632475176826,-0.000549012387637,,0.00884763908097,-0.00897024142331,0.0331093840784,-0.999372332018
107944000000,,211,,107,944000000,"""map""",,,0.00299249403179,0.00627266662195,-0.00100531731732,,0.0089032833188,-0.00899099229967,0.0330950120031,-0.999372121283
107976000000,,212,,107,976000000,"""map""",,,0.0030461223796,0.0061681154184,-0.00140339019708,,0.00891569192054,-0.00900003117547,0.0331089204631,-0.999371531228
108012000000,,213,,108,12000000,"""map""",,,0.00311200018041,0.0061023007147,-0.00185209722258,,0.00894058618016,-0.00894080699065,0.0330872569829,-0.999372542752
108044000000,,214,,108,44000000,"""map""",,,0.00319544319063,0.00604739831761,-0.00227422360331,,0.00892460518862,-0.00893888874246,0.0330143007882,-0.99937511371
108076000000,,215,,108,76000000,"""map""",,,0.00328968395479,0.0060449866578,-0.00275149988011,,0.00895231742064,-0.0089334129243,0.0329944496225,-0.999375577325
108112000000,,216,,108,112000000,"""map""",,,0.00348622188903,0.00607151724398,-0.00348696485162,,0.00891690348937,-0.00891885913247,0.032955632375,-0.999377221052
108144000000,,217,,108,144000000,"""map""",,,0.00353851728141,0.00614611897618,-0.00391041580588,,0.00892736269519,-0.00893824779794,0.0329480880891,-0.999377263199
108176000000,,218,,108,176000000,"""map""",,,0.00353991356678,0.00622872961685,-0.00422740355134,,0.00896553164933,-0.00891591683921,0.0329528928299,-0.999376926024
108212000000,,219,,108,212000000,"""map""",,,0.00359030487016,0.00635652383789,-0.00465480191633,,0.00900413272186,-0.0088876746718,0.0329167308339,-0.999378106136
108244000000,,220,,108,244000000,"""map""",,,0.00368438148871,0.00651279836893,-0.00500005530193,,0.00905971630157,-0.00891564458508,0.0328370732902,-0.999379960597
108276000000,,221,,108,276000000,"""map""",,,0.00381555873901,0.00669243745506,-0.00526998471469,,0.00909563744523,-0.00897898190384,0.0328441118139,-0.999378822632
108312000000,,222,,108,312000000,"""map""",,,0.00400209240615,0.00696023227647,-0.00558098731562,,0.00904704514894,-0.00899860877849,0.0328107315099,-0.999380171332
108344000000,,223,,108,344000000,"""map""",,,0.00408788723871,0.00695112766698,-0.00550714181736,,0.009079259752,-0.00898743598954,0.0327252155542,-0.999382742289
108376000000,,224,,108,376000000,"""map""",,,0.00417026365176,0.00688946992159,-0.00540382694453,,0.00908901967487,-0.00893707284649,0.0327413999441,-0.999382573702
108412000000,,225,,108,412000000,"""map""",,,0.00424724817276,0.00684174709022,-0.00531478505582,,0.0091330808248,-0.00899872389516,0.0327075560247,-0.999382784436
108444000000,,226,,108,444000000,"""map""",,,0.00434561539441,0.00677792401984,-0.00513681676239,,0.00909222520715,-0.00898535759221,0.0326784325524,-0.999384175282
108476000000,,227,,108,476000000,"""map""",,,0.00449515786022,0.00672124512494,-0.0050158854574,,0.00908409326804,-0.0090156139926,0.032689390733,-0.99938366952
108512000000,,228,,108,512000000,"""map""",,,0.00472754938528,0.00665324227884,-0.00496715586632,,0.00899476539699,-0.00898872588016,0.0326305537325,-0.999386619799
108544000000,,229,,108,544000000,"""map""",,,0.00484094116837,0.00661419797689,-0.004245034419,,0.00894528071887,-0.00900724842969,0.0325690193336,-0.999388895729
108576000000,,230,,108,576000000,"""map""",,,0.00492888176814,0.00660425750539,-0.00339177250862,,0.00893822724157,-0.00901224066267,0.0325578082719,-0.999389317198
108612000000,,231,,108,612000000,"""map""",,,0.00500893220305,0.00662184972316,-0.00261730118655,,0.00888156415564,-0.0089958790652,0.0324675718693,-0.99939289968
108644000000,,232,,108,644000000,"""map""",,,0.0051199006848,0.00662799598649,-0.00190809578635,,0.00881314041402,-0.00902935384978,0.0323520052107,-0.999396945777
108676000000,,233,,108,676000000,"""map""",,,0.0052553541027,0.00666707009077,-0.00118390074931,,0.00883606173989,-0.00899741836669,0.0323492235187,-0.999397114365
108712000000,,234,,108,712000000,"""map""",,,0.00544571923092,0.00673546548933,-0.000207450153539,,0.00875717789854,-0.00896692059944,0.0323012604051,-0.999399558882
108744000000,,235,,108,744000000,"""map""",,,0.00564294634387,0.00679127778858,0.000603834865615,,0.00878931572458,-0.00896601753942,0.0322597879061,-0.9994006547
108776000000,,236,,108,772000000,"""map""",,,0.00580880977213,0.00685751438141,0.00128965824842,,0.00879489272193,-0.00898445107482,0.0322421283766,-0.999401034022
108812000000,,237,,108,812000000,"""map""",,,0.00601643603295,0.00692923273891,0.00195920513943,,0.00881732816543,-0.0087295625909,0.0322181889666,-0.999403900007
108844000000,,238,,108,844000000,"""map""",,,0.00622713053599,0.00702390633523,0.00252697756514,,0.00880719896631,-0.00873000855158,0.0322267869237,-0.999403647126
108876000000,,239,,108,876000000,"""map""",,,0.00646239798516,0.00713072204962,0.00308008096181,,0.00883407514263,-0.00873148271632,0.032236438552,-0.999403099217
108912000000,,240,,108,912000000,"""map""",,,0.00680968724191,0.00725680263713,0.00375485070981,,0.00876636813025,-0.0087411179569,0.0322725584012,-0.999402467014
108944000000,,241,,108,944000000,"""map""",,,0.00669398205355,0.00715161021799,0.00412875087932,,0.00874461498773,-0.00876256421768,0.0322932525038,-0.999401834812
108976000000,,242,,108,976000000,"""map""",,,0.00649124383926,0.00700849946588,0.0044498546049,,0.00877939160805,-0.00875594432635,0.0322777003167,-0.999402045546
109012000000,,243,,109,12000000,"""map""",,,0.00632678158581,0.00691074458882,0.00473315548152,,0.00878334657169,-0.00871259654732,0.0322577227105,-0.99940305707
109044000000,,244,,109,44000000,"""map""",,,0.00620526494458,0.00685495045036,0.0049425214529,,0.00883508137549,-0.00877146692782,0.0322421705234,-0.999402593455
109076000000,,245,,109,76000000,"""map""",,,0.00613114330918,0.00682630669326,0.00514090247452,,0.00883644147827,-0.008780256313,0.0322513163896,-0.999402214133
109112000000,,246,,109,112000000,"""map""",,,0.00610880320892,0.0068412697874,0.00540251005441,,0.00888056390113,-0.00881803970477,0.0322475231732,-0.999401624077
109144000000,,247,,109,144000000,"""map""",,,0.00603416841477,0.00667949253693,0.00553700793535,,0.00881131847347,-0.00883313960299,0.0322178939387,-0.999403014923
109176000000,,248,,109,176000000,"""map""",,,0.00599251035601,0.00650563370436,0.00558419059962,,0.00881181675243,-0.00884280398288,0.0322105182402,-0.999403225658
109212000000,,249,,109,212000000,"""map""",,,0.00599199999124,0.0063677742146,0.00559561513364,,0.00878802805141,-0.00877259335791,0.0321722067549,-0.99940520656
109244000000,,250,,109,244000000,"""map""",,,0.00603661639616,0.00630369968712,0.00565376738086,,0.0088574210342,-0.00876876374924,0.0321628501545,-0.999404953678
109276000000,,251,,109,276000000,"""map""",,,0.00612924387679,0.00629821512848,0.00575682055205,,0.00882282418754,-0.0087286105259,0.0321688771539,-0.999405417294
109312000000,,252,,109,312000000,"""map""",,,0.00631422456354,0.00639813439921,0.00591776380315,,0.00878691909847,-0.00873247610756,0.0321593098193,-0.999406049497
109344000000,,253,,109,344000000,"""map""",,,0.00634241197258,0.0064323535189,0.00628919573501,,0.00874802187642,-0.00865836445786,0.0320930128266,-0.999409126216
109376000000,,254,,109,376000000,"""map""",,,0.00639380374923,0.00645482772961,0.00688340142369,,0.0087178649394,-0.00865987470879,0.0320563450684,-0.999410559209
109412000000,,255,,109,412000000,"""map""",,,0.00647621368989,0.00649846484885,0.00740495417267,,0.00872984388201,-0.00865173771484,0.0320278116519,-0.999411444293
109444000000,,256,,109,444000000,"""map""",,,0.00658036163077,0.00654859654605,0.0078047583811,,0.00867035154481,-0.00871536571155,0.0320034929203,-0.99941216079
109476000000,,257,,109,476000000,"""map""",,,0.00668774405494,0.00662667583674,0.00808435399085,,0.00873205017493,-0.00873587055818,0.0319809865032,-0.99941216079
109512000000,,258,,109,512000000,"""map""",,,0.00685373693705,0.00677435100079,0.00847461167723,,0.00870917903607,-0.00870380196292,0.0319375752493,-0.999414099545
109544000000,,259,,109,544000000,"""map""",,,0.0070391674526,0.00676078395918,0.00889641419053,,0.00877349241779,-0.00870516654206,0.0319670358964,-0.999412540111
109576000000,,260,,109,576000000,"""map""",,,0.00727182766423,0.0067413575016,0.00927595794201,,0.0087708373284,-0.00869790263408,0.0319400619133,-0.999413467342
109612000000,,261,,109,612000000,"""map""",,,0.00753691699356,0.00679074134678,0.00965336337686,,0.00881835231533,-0.00865249498957,0.031922065209,-0.999414015251
109644000000,,262,,109,644000000,"""map""",,,0.00792745687068,0.00693093193695,0.00987431872636,,0.00882308853142,-0.00861310089312,0.0318763358784,-0.999415743272
109676000000,,263,,109,676000000,"""map""",,,0.00818315520883,0.00705062225461,0.00996911339462,,0.00884104270816,-0.00862394881898,0.0318628488868,-0.999415996153
109712000000,,264,,109,712000000,"""map""",,,0.00861922092736,0.00728800240904,0.00996300578117,,0.00885582695005,-0.00841298285107,0.0318615001877,-0.999417682027
109744000000,,265,,109,744000000,"""map""",,,0.00850443635136,0.00738542946056,0.0100936936215,,0.00888228778287,-0.00838964878758,0.0318513006503,-0.999417934908
109776000000,,266,,109,776000000,"""map""",,,0.00826092809439,0.00751694012433,0.0103739481419,,0.00890087485175,-0.00837766692011,0.0318451050636,-0.999418145642
109812000000,,267,,109,812000000,"""map""",,,0.00806532707065,0.00768093578517,0.0105879399925,,0.00889117251552,-0.00841912558961,0.0317917471534,-0.999419578635
109844000000,,268,,109,844000000,"""map""",,,0.00794448610395,0.00787444785237,0.0106765599921,,0.0089072024355,-0.00844510685797,0.0317951189013,-0.999419072873
109876000000,,269,,109,876000000,"""map""",,,0.00788189657032,0.00812060199678,0.0106777306646,,0.00890106443025,-0.00848325144339,0.0317527613185,-0.999420126544
109912000000,,270,,109,912000000,"""map""",,,0.00782715529203,0.00850774627179,0.0104117039591,,0.00887452269936,-0.0085175850729,0.0316849470393,-0.999422276033
109944000000,,271,,109,940000000,"""map""",,,0.00769855314866,0.00887423101813,0.0104218414053,,0.00892338972704,-0.00851337921667,0.0316860428573,-0.999421770271
109976000000,,272,,109,976000000,"""map""",,,0.00753092207015,0.00929957069457,0.0103740198538,,0.00892148904411,-0.00850047977032,0.0316240026963,-0.999423877613
110012000000,,273,,110,12000000,"""map""",,,0.00737857678905,0.00973762013018,0.0102283991873,,0.00889173168154,-0.00848491478276,0.0315512993826,-0.999426617159
110044000000,,274,,110,44000000,"""map""",,,0.00721539743245,0.0101808030158,0.0099821165204,,0.00884477441236,-0.00850022371998,0.0315438393905,-0.999427080774
110076000000,,275,,110,76000000,"""map""",,,0.00708501739427,0.0106555232778,0.00979457888752,,0.0088415128472,-0.00854460348713,0.0315750280584,-0.999425816368
110112000000,,276,,110,112000000,"""map""",,,0.00697785336524,0.0112700434402,0.00951497815549,,0.00890314118123,-0.00855827313214,0.0315339348811,-0.999426448571
110144000000,,277,,110,144000000,"""map""",,,0.006789221894,0.011234077625,0.00931651610881,,0.00884628401245,-0.00852502955843,0.0315251683366,-0.999427460096
110176000000,,278,,110,176000000,"""map""",,,0.00660141371191,0.0110948421061,0.00911582075059,,0.00887162076125,-0.0085030066056,0.0315451880896,-0.999426827893
110212000000,,279,,110,212000000,"""map""",,,0.00645357556641,0.0110289752483,0.00897496379912,,0.00889017282437,-0.00845502813967,0.0314614423016,-0.999429736025
110244000000,,280,,110,244000000,"""map""",,,0.00634312536567,0.0110239200294,0.0088483709842,,0.00894044561821,-0.00841293578572,0.0314009194272,-0.999431506193
110276000000,,281,,110,276000000,"""map""",,,0.00623559532687,0.0110398875549,0.00869001355022,,0.00890697101884,-0.00838979794791,0.0314030267696,-0.999431927661
110312000000,,282,,110,312000000,"""map""",,,0.00611018715426,0.0111218271777,0.00855139363557,,0.00890816998144,-0.00834765463908,0.0312938664319,-0.999435720878
110344000000,,283,,110,344000000,"""map""",,,0.00606710836291,0.0110321743414,0.008406101726,,0.0089622367325,-0.00831411208615,0.0312601068063,-0.999436521668
110376000000,,284,,110,376000000,"""map""",,,0.00609653163701,0.0109698399901,0.00819652620703,,0.00895228100068,-0.00830658477837,0.0312073810988,-0.999438333982
110412000000,,285,,110,412000000,"""map""",,,0.00613583624363,0.0109841190279,0.00784071255475,,0.00892681738947,-0.0081349038715,0.0311593336915,-0.999441452849
110444000000,,286,,110,444000000,"""map""",,,0.00624719867483,0.0110939126462,0.0076331878081,,0.00890312341082,-0.00816506080595,0.0311148687663,-0.999442843695
110476000000,,287,,110,476000000,"""map""",,,0.00637036375701,0.0112706404179,0.00746568571776,,0.00890469336034,-0.00823254188226,0.0311196313602,-0.999442127199
110512000000,,288,,110,512000000,"""map""",,,0.00654679443687,0.011513617821,0.00728830369189,,0.00889264876651,-0.00825914426099,0.0311213172341,-0.999441958611
110544000000,,289,,110,544000000,"""map""",,,0.00696964748204,0.0114965215325,0.00696373684332,,0.0088751219337,-0.00827758647066,0.0310995694603,-0.999442632961
110576000000,,290,,110,576000000,"""map""",,,0.00746150687337,0.011473685503,0.0065444400534,,0.00886013918181,-0.00830018858252,0.0310440620608,-0.999444360982
110612000000,,291,,110,612000000,"""map""",,,0.00794917624444,0.0115391723812,0.006185492035,,0.0089041256744,-0.00829603481303,0.0310224828744,-0.999444613863
110644000000,,292,,110,644000000,"""map""",,,0.00845884624869,0.0116441072896,0.00584933627397,,0.00890559171795,-0.00832787399943,0.0309499902949,-0.999446552618
110676000000,,293,,110,676000000,"""map""",,,0.00893792323768,0.0117842676118,0.00554081518203,,0.00894768359858,-0.00834680812127,0.0309777650681,-0.999445161772
110712000000,,294,,110,712000000,"""map""",,,0.00947727821767,0.0120076378807,0.00514203682542,,0.00895346568109,-0.00832756538901,0.0309605270071,-0.999445793975
110744000000,,295,,110,744000000,"""map""",,,0.00969207566231,0.0120788710192,0.00480843987316,,0.00897461310929,-0.00839015979754,0.0308860535258,-0.999447437702
110776000000,,296,,110,776000000,"""map""",,,0.00986684113741,0.0121535677463,0.00451878085732,,0.00892273394019,-0.00837416673547,0.0308824710436,-0.999448154198
110812000000,,297,,110,812000000,"""map""",,,0.0100426524878,0.0122922910377,0.00427312031388,,0.00897201179674,-0.00835476704324,0.0308625355843,-0.99944853352
110844000000,,298,,110,844000000,"""map""",,,0.0102435480803,0.0124648651108,0.0041234921664,,0.00895291686656,-0.00835482081751,0.0308669188565,-0.99944853352
110876000000,,299,,110,876000000,"""map""",,,0.0104863457382,0.0127015653998,0.00395047292113,,0.00901102370586,-0.00834631950182,0.0308399027266,-0.999448912841
110912000000,,300,,110,912000000,"""map""",,,0.0107887377962,0.0130447465926,0.00369246467017,,0.00891470708524,-0.0083258024242,0.0308172277221,-0.999450598715
110944000000,,301,,110,944000000,"""map""",,,0.010829067789,0.0129752326757,0.00363986403681,,0.0089879975325,-0.00836356233731,0.0308037407306,-0.999450092953
110976000000,,302,,110,976000000,"""map""",,,0.0108198793605,0.0128523064777,0.00363626657054,,0.00895114363258,-0.00833658220099,0.0307922767878,-0.999451020184
111012000000,,303,,111,12000000,"""map""",,,0.0108775161207,0.012822364457,0.00366918439977,,0.00894653425319,-0.00832188700667,0.0308121279535,-0.999450556569
111044000000,,304,,111,44000000,"""map""",,,0.0109860831872,0.0128608839586,0.0038248077035,,0.00896153805793,-0.00830206002195,0.0307764717196,-0.999451652387
111076000000,,305,,111,76000000,"""map""",,,0.0111295552924,0.0129513060674,0.00399045646191,,0.00896937053936,-0.00829551565359,0.0307540917431,-0.999452368883
111112000000,,306,,111,112000000,"""map""",,,0.0113088125363,0.0131631726399,0.00416939565912,,0.00893156508378,-0.00823427074681,0.0307589386306,-0.999453001086
111144000000,,307,,111,144000000,"""map""",,,0.0113241821527,0.0131273688748,0.00425853021443,,0.00888313672906,-0.00819800896072,0.0307256426203,-0.999454771253
111176000000,,308,,111,176000000,"""map""",,,0.0113073373213,0.0130781047046,0.00429172441363,,0.00884955048582,-0.00821004631056,0.0307466317509,-0.999454349785
111212000000,,309,,111,212000000,"""map""",,,0.011327967979,0.0130856521428,0.00433963211253,,0.00882038219131,-0.00811917511215,0.0307292672493,-0.999455867071
111244000000,,310,,111,244000000,"""map""",,,0.0113711906597,0.0131298685446,0.00433114636689,,0.0087991580221,-0.00820868507848,0.0307012817419,-0.999456204246
111276000000,,311,,111,276000000,"""map""",,,0.0114237628877,0.0132137825713,0.00435021147132,,0.00880710068626,-0.00812700781995,0.030677047304,-0.999457510799
111312000000,,312,,111,312000000,"""map""",,,0.0115076396614,0.0134188849479,0.00448396755382,,0.00871557870182,-0.00812846594039,0.0306686179343,-0.999458606617
111344000000,,313,,111,344000000,"""map""",,,0.0114820692688,0.01338759996,0.00451105320826,,0.00867720358466,-0.00805571957436,0.0306695873118,-0.9994594917
111376000000,,314,,111,376000000,"""map""",,,0.0114717744291,0.0133240157738,0.00454917736351,,0.00891475231901,-0.00805246912215,0.0306347740149,-0.999458480176
111412000000,,315,,111,412000000,"""map""",,,0.0114785991609,0.0133366249502,0.00467103533447,,0.00893772152827,-0.00806983444691,0.0306313601202,-0.999458185148
111444000000,,316,,111,444000000,"""map""",,,0.011469672434,0.0133812408894,0.00490426737815,,0.00882599175575,-0.00806560506829,0.0306127312132,-0.999459871022
111476000000,,317,,111,476000000,"""map""",,,0.0114952195436,0.0134692229331,0.00517659634352,,0.0088593929274,-0.00811326809139,0.0305764427766,-0.999460250344
111512000000,,318,,111,512000000,"""map""",,,0.0115285264328,0.0136437769979,0.0055177686736,,0.00887649643957,-0.00813383069091,0.0305585725128,-0.999460503225
111544000000,,319,,111,544000000,"""map""",,,0.0113005926833,0.0134716788307,0.00590577023104,,0.00885150337898,-0.00817018101008,0.0305566337578,-0.999460503225
111576000000,,320,,111,576000000,"""map""",,,0.0109889572486,0.0132553409785,0.00628264667466,,0.00880354800327,-0.00816967804671,0.0305770749793,-0.999460292491
111612000000,,321,,111,612000000,"""map""",,,0.0107131507248,0.0131048569456,0.00661764573306,,0.00874687656463,-0.00815739328992,0.0305872323698,-0.999460587518
111644000000,,322,,111,644000000,"""map""",,,0.010458599776,0.0130318924785,0.00694375950843,,0.00874573285803,-0.00818345236943,0.0305711322737,-0.9994608404
111676000000,,323,,111,676000000,"""map""",,,0.0101972818375,0.0130236092955,0.00720694847405,,0.00877827771603,-0.00818697599414,0.0305731553224,-0.999460503225
111712000000,,324,,111,712000000,"""map""",,,0.00987201929092,0.0131281437352,0.00742012634873,,0.00879244533388,-0.00820570399155,0.0305221997826,-0.999461725483
111744000000,,325,,111,744000000,"""map""",,,0.00941748358309,0.0131377773359,0.0074510127306,,0.00872458734373,-0.00825877238914,0.0305163835175,-0.999462062658
111776000000,,326,,111,776000000,"""map""",,,0.00891972240061,0.0131380641833,0.00746303237975,,0.00875265407849,-0.00828669642554,0.0304915168768,-0.999462399833
111812000000,,327,,111,812000000,"""map""",,,0.0084453523159,0.0132036777213,0.00764494761825,,0.00876509449874,-0.00824118126592,0.0304416993019,-0.999464170001
111844000000,,328,,111,844000000,"""map""",,,0.00801712740213,0.0133154895157,0.00791028048843,,0.0087453813599,-0.00824931324104,0.0304121122142,-0.999465181525
111876000000,,329,,111,876000000,"""map""",,,0.00759116653353,0.0134605793282,0.00820413045585,,0.00871396191331,-0.00821735568127,0.0304005639778,-0.999466024462
111912000000,,330,,111,912000000,"""map""",,,0.0071251699701,0.0136697599664,0.00857186131179,,0.00875907167704,-0.00815567298645,0.0303845481753,-0.999466698812
111944000000,,331,,111,944000000,"""map""",,,0.00678893877193,0.0137027902529,0.00882115215063,,0.0088154857071,-0.00792827446034,0.0302947332411,-0.999470702762
111976000000,,332,,111,976000000,"""map""",,,0.00648652017117,0.0137362126261,0.00920335575938,,0.00881483428311,-0.00792896407992,0.0303121398896,-0.999470154853
112012000000,,333,,112,12000000,"""map""",,,0.00618475675583,0.0138080185279,0.00949399452657,,0.0088591481958,-0.00795366168039,0.030347079627,-0.999468511126
112044000000,,334,,112,44000000,"""map""",,,0.00590720307082,0.0139292515814,0.00977172609419,,0.00892247807507,-0.00793031994074,0.0303412212151,-0.999468300392
112076000000,,335,,112,76000000,"""map""",,,0.00563224870712,0.0140946032479,0.0101372180507,,0.0088979115661,-0.00790409949725,0.0304001003624,-0.999466993839
112112000000,,336,,112,112000000,"""map""",,,0.00525151658803,0.0143592031673,0.010575434193,,0.008893855467,-0.0079620851232,0.0303705975685,-0.999467415308
112144000000,,337,,112,144000000,"""map""",,,0.00492219394073,0.0146336369216,0.0109294950962,,0.00885678665519,-0.0080847581356,0.0304376532044,-0.999464760056
112176000000,,338,,112,176000000,"""map""",,,0.00460681505501,0.0149586806074,0.0111820949242,,0.00885286584583,-0.00810103192284,0.0304235340102,-0.999465139378
112212000000,,339,,112,212000000,"""map""",,,0.00430331192911,0.0153110502288,0.0112922992557,,0.00881837572968,-0.00810285954849,0.0303952956217,-0.999466235196
112244000000,,340,,112,244000000,"""map""",,,0.00402674078941,0.0154602508992,0.0115949595347,,0.00883984938436,-0.00818847181625,0.030372114855,-0.999466066609
112276000000,,341,,112,276000000,"""map""",,,0.00377794820815,0.0154232066125,0.0118803149089,,0.00882458430208,-0.00815852386679,0.0303667622053,-0.999466614518
112312000000,,342,,112,312000000,"""map""",,,0.00346110318787,0.0154394423589,0.012054534629,,0.00879681870738,-0.00811119694834,0.030367942317,-0.999467204574
112344000000,,343,,112,344000000,"""map""",,,0.00318624754436,0.0155009366572,0.0121895298362,,0.00885561749174,-0.00808973236922,0.0303695438973,-0.999466783105
112376000000,,344,,112,376000000,"""map""",,,0.00289131957106,0.0156050221995,0.0122159551829,,0.00884165486644,-0.00811979377356,0.0303389874321,-0.999467583895
112412000000,,345,,112,412000000,"""map""",,,0.0025895065628,0.0157344192266,0.0123252021149,,0.00891794424308,-0.00816482410036,0.0303129406797,-0.999467331014
112444000000,,346,,112,444000000,"""map""",,,0.00243869470432,0.0155233675614,0.0126423947513,,0.00889340267649,-0.00812515757742,0.0302861774309,-0.99946872186
112476000000,,347,,112,476000000,"""map""",,,0.00243723043241,0.01504945755,0.0130599699914,,0.00889294198345,-0.00819162945485,0.0303139943509,-0.999467288867
112512000000,,348,,112,512000000,"""map""",,,0.00238632876426,0.0145917516202,0.0133507000282,,0.00887149146015,-0.00818880339341,0.0302286469827,-0.999470112706
112544000000,,349,,112,544000000,"""map""",,,0.00233037699945,0.0143301449716,0.0133805302903,,0.00889389152231,-0.00825464434405,0.0301611698782,-0.999471419259
112576000000,,350,,112,576000000,"""map""",,,0.00223325192928,0.0141346612945,0.0133778378367,,0.00890101750896,-0.00825229939053,0.0301807681628,-0.999470787056
112612000000,,351,,112,612000000,"""map""",,,0.00211733439937,0.0140331508592,0.0133967557922,,0.00891738057014,-0.008309231016,0.0301813160718,-0.999470154853
112644000000,,352,,112,644000000,"""map""",,,0.00213883677498,0.0139265889302,0.0136102624238,,0.00887422740389,-0.00830308554039,0.0301323835807,-0.999472051461
112676000000,,353,,112,676000000,"""map""",,,0.00228041876107,0.0138253811747,0.0139496074989,,0.00889512744572,-0.00829905477467,0.030086949278,-0.999473231573
112712000000,,354,,112,712000000,"""map""",,,0.0023721663747,0.013799042441,0.0143893742934,,0.00890655934621,-0.00835623662647,0.0300496071702,-0.999473821629
112744000000,,355,,112,744000000,"""map""",,,0.00243169255555,0.0138338208199,0.0146553004161,,0.00891476542816,-0.0083812712371,0.0300632206023,-0.999473105132
112776000000,,356,,112,776000000,"""map""",,,0.0024689657148,0.0139011032879,0.0148124881089,,0.00888033104134,-0.00835076918417,0.0300265106972,-0.99947474886
112812000000,,357,,112,812000000,"""map""",,,0.00247870176099,0.0140011478215,0.0148959895596,,0.00887109353463,-0.00833999352328,0.0299892528831,-0.999476097559
112844000000,,358,,112,844000000,"""map""",,,0.00257763755508,0.0140397856012,0.0145874852315,,0.00904973192307,-0.00835194713508,0.0299556618449,-0.999475381062
112876000000,,359,,112,876000000,"""map""",,,0.00274290936068,0.0140159213915,0.0143062248826,,0.00909050393644,-0.00838566177391,0.0299155801919,-0.999475928971
112912000000,,360,,112,912000000,"""map""",,,0.00284265074879,0.0140640931204,0.0141086131334,,0.00904920597238,-0.00839645463927,0.029933914071,-0.999475718237
112944000000,,361,,112,944000000,"""map""",,,0.00286955363117,0.0141530632973,0.0138843497261,,0.00898519731894,-0.00841981792568,0.0299414583569,-0.999475844678
112976000000,,362,,112,976000000,"""map""",,,0.00286348536611,0.0142764011398,0.0135468374938,,0.00899466220872,-0.00841152392803,0.029970371095,-0.999474917447
113012000000,,363,,113,12000000,"""map""",,,0.00280364137143,0.0144192287698,0.0132445516065,,0.00897703373368,-0.00841241351877,0.0299401518046,-0.999476055412
113044000000,,364,,113,44000000,"""map""",,,0.00275065028109,0.0144157996401,0.0132499551401,,0.00900661363909,-0.0084673538497,0.0298668584351,-0.999477446258
113076000000,,365,,113,76000000,"""map""",,,0.00271151564084,0.0142925595865,0.0134772825986,,0.00896702801422,-0.00841525559107,0.0298491567587,-0.999478794957
113112000000,,366,,113,112000000,"""map""",,,0.00258315331303,0.0142659163103,0.0137761672959,,0.00895083872647,-0.00845954365589,0.0298213819855,-0.99947942716
113144000000,,367,,113,144000000,"""map""",,,0.00242246547714,0.0143053475767,0.0140105830505,,0.00891600419154,-0.00844091886475,0.0297755683612,-0.999481239474
113176000000,,368,,113,176000000,"""map""",,,0.00226140324958,0.0144280530512,0.0142291411757,,0.00891894119715,-0.00847055873886,0.0297988334216,-0.999480312244
113212000000,,369,,113,212000000,"""map""",,,0.002085135784,0.0145832840353,0.0145600968972,,0.00893836852767,-0.00847874681374,0.0297626714255,-0.999481070887
113244000000,,370,,113,244000000,"""map""",,,0.0019797233399,0.0145966121927,0.0150492265821,,0.00888616907956,-0.00846733086238,0.0297157198363,-0.999483093936
113276000000,,371,,113,276000000,"""map""",,,0.00191304995678,0.0144986361265,0.0155811477453,,0.00888262203536,-0.00848514066353,0.0296910217831,-0.999483683991
113312000000,,372,,113,312000000,"""map""",,,0.00173796643503,0.0144552197307,0.0162021741271,,0.00882574152942,-0.0084447475602,0.0296030613102,-0.999487097886
113344000000,,373,,113,344000000,"""map""",,,0.0015075863339,0.014492305927,0.0165613759309,,0.00884463484208,-0.00845578246125,0.0296044521562,-0.999486802858
113376000000,,374,,113,376000000,"""map""",,,0.00125184969511,0.0145720858127,0.0169387999922,,0.0087791971059,-0.00843452544713,0.0295871298015,-0.999488109411
113412000000,,375,,113,412000000,"""map""",,,0.000942456477787,0.0147048868239,0.017290642485,,0.00880206164774,-0.00843603100335,0.0295784054039,-0.999488151557
113444000000,,376,,113,444000000,"""map""",,,0.000681313918903,0.014663242735,0.0177057906985,,0.00878009146079,-0.0084488645438,0.0295765087957,-0.999488277998
113476000000,,377,,113,476000000,"""map""",,,0.000467689416837,0.0144950598478,0.0181652754545,,0.00880664207175,-0.00844398399842,0.0295860339834,-0.999487772236
113512000000,,378,,113,512000000,"""map""",,,0.000140676449519,0.0144047606736,0.0187750607729,,0.00874990736138,-0.00842192649259,0.0295418219393,-0.999489753138
113544000000,,379,,113,540000000,"""map""",,,-0.0001355833665,0.0143847083673,0.0191983729601,,0.00877185174161,-0.00839861233977,0.0294531028232,-0.999492408389
113576000000,,380,,113,576000000,"""map""",,,-0.000444492849056,0.01442643255,0.0194435808808,,0.00895595248921,-0.00833628042297,0.0294543250818,-0.999491270424
113612000000,,381,,113,612000000,"""map""",,,-0.000748602731619,0.014520787634,0.0196773577482,,0.00894853859514,-0.00833846810783,0.0294681492481,-0.999490933249
113644000000,,382,,113,644000000,"""map""",,,-0.000987915904261,0.0144875068218,0.0197742544115,,0.00887782787251,-0.00831225556687,0.0294549151377,-0.999492113361
113676000000,,383,,113,676000000,"""map""",,,-0.00114926462993,0.0143735241145,0.0198542326689,,0.00891370817611,-0.00835036142164,0.0294318608116,-0.999492239802
113712000000,,384,,113,712000000,"""map""",,,-0.00141241203528,0.0143363345414,0.0197699852288,,0.00897416564887,-0.00844209490176,0.0294677699265,-0.999489795285
113744000000,,385,,113,744000000,"""map""",,,-0.00164250400849,0.0144148701802,0.0195565447211,,0.00890324024073,-0.00843978884353,0.0294757356809,-0.9994902589
113776000000,,386,,113,776000000,"""map""",,,-0.00189800502267,0.0145209133625,0.019293917343,,0.00892915748622,-0.00845209747256,0.0294576968297,-0.999490427487
113812000000,,387,,113,812000000,"""map""",,,-0.00215322198346,0.0146810505539,0.0190350785851,,0.00891591755178,-0.00838611977104,0.0294234314419,-0.999492155508
113844000000,,388,,113,844000000,"""map""",,,-0.00230016652495,0.0146858831868,0.0188585873693,,0.00888872009577,-0.00843452499438,0.0294073313457,-0.999492408389
113876000000,,389,,113,876000000,"""map""",,,-0.00233513396233,0.0146210901439,0.0187815036625,,0.00888043109895,-0.00836057100178,0.0293810317123,-0.999493925676
113912000000,,390,,113,912000000,"""map""",,,-0.00243322458118,0.0146211031824,0.0183997936547,,0.00888869358935,-0.00836203257958,0.0293381262205,-0.999495105787
113944000000,,391,,113,944000000,"""map""",,,-0.00256493804045,0.0147004146129,0.0179598107934,,0.00890693337891,-0.00833270685178,0.029295684344,-0.99949641234
113976000000,,392,,113,976000000,"""map""",,,-0.00275504705496,0.0148411486298,0.0173337906599,,0.00891890040855,-0.00833877077077,0.029298466036,-0.999496159459
114012000000,,393,,114,12000000,"""map""",,,-0.00299249100499,0.0150178736076,0.0165944807231,,0.0089125967382,-0.00833322590833,0.0292805114786,-0.999496749515
114044000000,,394,,114,44000000,"""map""",,,-0.00309914257377,0.0151356719434,0.0157553255558,,0.00896342501432,-0.00844224350645,0.0293138496358,-0.999494431438
114076000000,,395,,114,76000000,"""map""",,,-0.00307330256328,0.0152041632682,0.0148655446246,,0.00895332890963,-0.00836920626954,0.0293089184545,-0.999495316522
114112000000,,396,,114,112000000,"""map""",,,-0.003058985807,0.015364991501,0.0137989725918,,0.00894514326314,-0.00835484862044,0.0292536217892,-0.999497086689
114144000000,,397,,114,144000000,"""map""",,,-0.00307770073414,0.0155415041372,0.0129996351898,,0.00887722983177,-0.00833708277713,0.0292650435852,-0.999497550305
114176000000,,398,,114,176000000,"""map""",,,-0.00311869825236,0.0157886240631,0.0121517656371,,0.00888934071223,-0.00836840290698,0.029252863146,-0.999497508158
114212000000,,399,,114,212000000,"""map""",,,-0.00320007558912,0.016078973189,0.0112670781091,,0.00910822454597,-0.00828081440889,0.0292137930174,-0.999497466011
114244000000,,400,,114,244000000,"""map""",,,-0.003236183431,0.0161581262946,0.0106621226296,,0.00910156600245,-0.00839899746483,0.0291894321389,-0.99949721313
114276000000,,401,,114,276000000,"""map""",,,-0.00322031066753,0.0160798914731,0.0102027449757,,0.0091000852857,-0.00843507284167,0.029241989259,-0.999495400815
114312000000,,402,,114,312000000,"""map""",,,-0.00327665847726,0.0160533264279,0.00968969427049,,0.00906287311698,-0.00843335317617,0.0291857653631,-0.99949733957
114344000000,,403,,114,344000000,"""map""",,,-0.00337011157535,0.0161096509546,0.00917693600059,,0.00905525116401,-0.00847592672036,0.0291996738231,-0.999496665221
114376000000,,404,,114,376000000,"""map""",,,-0.00350625952706,0.0161988660693,0.00864471774548,,0.00903370210598,-0.00847506814296,0.0291971871591,-0.999496960249
114412000000,,405,,114,412000000,"""map""",,,-0.0036643971689,0.0163303222507,0.00810720678419,,0.00905034478105,-0.00845544621254,0.0292048157387,-0.999496749515
114444000000,,406,,114,444000000,"""map""",,,-0.00375955272466,0.0162973534316,0.00781432166696,,0.0089962120109,-0.00839108970354,0.0291655348758,-0.999498941151
114476000000,,407,,114,476000000,"""map""",,,-0.00378631567582,0.0161363258958,0.00767778232694,,0.0089744926368,-0.00842911990802,0.0291396988577,-0.999499573353
114512000000,,408,,114,512000000,"""map""",,,-0.00384027510881,0.0160306226462,0.00750745739788,,0.00895662212608,-0.0084165854188,0.0291295836141,-0.999500163409
114544000000,,409,,114,544000000,"""map""",,,-0.00392752652988,0.016008650884,0.00743055576459,,0.00898258863893,-0.00839315166813,0.0290452477702,-0.999502481486
114576000000,,410,,114,576000000,"""map""",,,-0.00406965240836,0.0160478837788,0.00735575612634,,0.00898490924688,-0.00834459596737,0.0290385042744,-0.999503071542
114612000000,,411,,114,612000000,"""map""",,,-0.00423457752913,0.0161661766469,0.00733174756169,,0.00896547948797,-0.00834154565095,0.0290381249528,-0.999503282276
114644000000,,412,,114,644000000,"""map""",,,-0.00433790171519,0.0161564592272,0.00785956624895,,0.00893860749701,-0.00836693064841,0.0290315078976,-0.999503577304
114676000000,,413,,114,676000000,"""map""",,,-0.00433897599578,0.0159830283374,0.00883092544973,,0.00892142407458,-0.0083844551969,0.0290234578495,-0.999503788038
114712000000,,414,,114,712000000,"""map""",,,-0.00438205571845,0.0158380623907,0.0099281584844,,0.00892669450918,-0.00841183539901,0.0289892346085,-0.999504546681
114744000000,,415,,114,744000000,"""map""",,,-0.0044621899724,0.0157778672874,0.0106855519116,,0.0089445521577,-0.00839722700908,0.0290106452076,-0.999503872332
114776000000,,416,,114,776000000,"""map""",,,-0.00455020694062,0.0157536044717,0.0113852676004,,0.00893886177751,-0.00841973266475,0.0289625978003,-0.999505052444
114812000000,,417,,114,812000000,"""map""",,,-0.00463184108958,0.0158013366163,0.012000198476,,0.00894365869802,-0.00834444645719,0.0288957107517,-0.999507623401
114844000000,,418,,114,844000000,"""map""",,,-0.00464175501838,0.0156922191381,0.0123862540349,,0.00888411588184,-0.00837373442158,0.0288370844854,-0.999509604303
114876000000,,419,,114,876000000,"""map""",,,-0.00457522971556,0.0154858129099,0.0124390460551,,0.00886541227116,-0.00834195927864,0.0288451766803,-0.999509772891
114912000000,,420,,114,912000000,"""map""",,,-0.00453913072124,0.0153108788654,0.012476648204,,0.0088685867438,-0.0083539524031,0.0287999952587,-0.999510953002
114944000000,,421,,114,944000000,"""map""",,,-0.00455634249374,0.01521809306,0.012475120835,,0.00891870154869,-0.00834040394057,0.0287730212757,-0.999511374471
114976000000,,422,,114,976000000,"""map""",,,-0.00461267540231,0.0151949943975,0.0124292857945,,0.00890606463523,-0.00832525686124,0.0287529593758,-0.999512217408
115012000000,,423,,115,12000000,"""map""",,,-0.00470273243263,0.015254387632,0.0122398510575,,0.00908375443146,-0.00828573365404,0.0287254374837,-0.999511753793
115044000000,,424,,115,44000000,"""map""",,,-0.00475436029956,0.0151267712936,0.0120227215812,,0.0090848749861,-0.00825871254391,0.0286990957034,-0.99951272317
115076000000,,425,,115,76000000,"""map""",,,-0.00479964725673,0.0148290172219,0.0116254854947,,0.00905653711622,-0.00815638464669,0.0286739340348,-0.999514535485
115112000000,,426,,115,112000000,"""map""",,,-0.00489567918703,0.0145999127999,0.0111474199221,,0.00903223497172,-0.00819808026874,0.028682236964,-0.999514156163
115144000000,,427,,115,144000000,"""map""",,,-0.00501369591802,0.0145194549114,0.0108081344515,,0.00896098901703,-0.00823732359451,0.0286319136268,-0.999515926331
115176000000,,428,,115,176000000,"""map""",,,-0.00516254175454,0.0145143065602,0.0103990789503,,0.00898341356882,-0.00826235771123,0.0286508375618,-0.999514956953
115212000000,,429,,115,212000000,"""map""",,,-0.00535303307697,0.0145754516125,0.00996512640268,,0.0089086239244,-0.00827263765274,0.028639668647,-0.999515926331
115244000000,,430,,115,244000000,"""map""",,,-0.00548630487174,0.0143976602703,0.00932572409511,,0.00894359784439,-0.00827896237594,0.0286476765482,-0.999515336275
115276000000,,431,,115,276000000,"""map""",,,-0.00559499673545,0.0139796128497,0.00851717963815,,0.008976719361,-0.00833180462522,0.0286884746975,-0.99951339752
115312000000,,432,,115,312000000,"""map""",,,-0.00578270480037,0.0135747343302,0.00758597766981,,0.00894285111666,-0.00825440650658,0.0287103489119,-0.999513692548
115344000000,,433,,115,344000000,"""map""",,,-0.00597579497844,0.0133825587109,0.00687719741836,,0.00894942686879,-0.00824103194096,0.0286780222791,-0.999514661925
115376000000,,434,,115,376000000,"""map""",,,-0.00619429303333,0.0132885435596,0.00625257520005,,0.00889663246687,-0.00823946085955,0.0286917200049,-0.999514788366
115412000000,,435,,115,412000000,"""map""",,,-0.0064413738437,0.0132638690993,0.00569387804717,,0.00884198064018,-0.00828443076489,0.0286612056866,-0.99951579989
115444000000,,436,,115,444000000,"""map""",,,-0.0065718232654,0.0131386881694,0.00541410408914,,0.00883365616427,-0.00825268544167,0.0286229363481,-0.999517232883
115476000000,,437,,115,476000000,"""map""",,,-0.00660633621737,0.0129785202444,0.00532446149737,,0.0088708616858,-0.00823874234634,0.0286526498763,-0.999516179212
115512000000,,438,,115,512000000,"""map""",,,-0.00673443917185,0.0129170818254,0.00527192046866,,0.00876345867418,-0.00825762512229,0.0286255494527,-0.999517738645
115544000000,,439,,115,544000000,"""map""",,,-0.00685786409304,0.0129489665851,0.00523321051151,,0.00879014538776,-0.00826002236835,0.0286537035475,-0.999516642827
115576000000,,440,,115,576000000,"""map""",,,-0.00703167216852,0.0130606014282,0.00524103362113,,0.00877854107209,-0.00827956609661,0.0286717423987,-0.999516052771
115612000000,,441,,115,612000000,"""map""",,,-0.00724958721548,0.0132530611008,0.00521116377786,,0.00882721140076,-0.00824661522535,0.0286996857593,-0.999515083394
115644000000,,442,,115,644000000,"""map""",,,-0.00737694837153,0.0133447349072,0.00553913554177,,0.00878735597844,-0.00819389114365,0.028669424322,-0.999516769268
115676000000,,443,,115,676000000,"""map""",,,-0.00740475347266,0.0133412480354,0.00590717140585,,0.00900478753633,-0.00820181351639,0.0286681177697,-0.999514788366
115712000000,,444,,115,712000000,"""map""",,,-0.00748731940985,0.0133950151503,0.00648004515097,,0.00895468781622,-0.00822499193701,0.0286757042024,-0.999514872659
115744000000,,445,,115,744000000,"""map""",,,-0.00760438665748,0.0134793613106,0.00693613709882,,0.00894399926843,-0.0082332833828,0.0286529027574,-0.999515504862
115776000000,,446,,115,776000000,"""map""",,,-0.00774004496634,0.0136111332104,0.00735836476088,,0.00894953816281,-0.00824735989513,0.0286566538269,-0.999515209834
115812000000,,447,,115,812000000,"""map""",,,-0.00793455820531,0.0138183590025,0.00768382893875,,0.00890599151621,-0.00833003857349,0.0286488566599,-0.999515167687
115844000000,,448,,115,844000000,"""map""",,,-0.00794923212379,0.0138870589435,0.00818146951497,,0.00889439609088,-0.0083496814127,0.0286671062454,-0.999514619778
115876000000,,449,,115,876000000,"""map""",,,-0.00780549831688,0.0138241313398,0.00868402887136,,0.00884310384958,-0.00832221173085,0.0287099274434,-0.999514029722
115912000000,,450,,115,912000000,"""map""",,,-0.00770233292133,0.0138749638572,0.00918275304139,,0.00887998195101,-0.00838851570001,0.0287076093668,-0.999513228932
115944000000,,451,,115,944000000,"""map""",,,-0.0076961228624,0.0140084726736,0.00941871013492,,0.00883170728412,-0.00839079893556,0.0286949653122,-0.999513987576
115976000000,,452,,115,976000000,"""map""",,,-0.00774777447805,0.0142271025106,0.00963246636093,,0.00882913725243,-0.00839797219335,0.0286786966287,-0.999514409044
116012000000,,453,,116,12000000,"""map""",,,-0.00784995499998,0.0144999278709,0.00985907949507,,0.00885282017988,-0.00838807523664,0.0286751141466,-0.999514366897
116044000000,,454,,116,44000000,"""map""",,,-0.00808282289654,0.0146263921633,0.0100376084447,,0.00890956391437,-0.00840008091461,0.0287011187521,-0.999513060345
116076000000,,455,,116,76000000,"""map""",,,-0.00842449162155,0.014598316513,0.0101201534271,,0.00892353606798,-0.00845658356006,0.028716460205,-0.999511964527
116112000000,,456,,116,112000000,"""map""",,,-0.00888436008245,0.014684740454,0.0101276831701,,0.00887893258092,-0.00846802142861,0.0286571174423,-0.999513987576
116144000000,,457,,116,144000000,"""map""",,,-0.009257982485,0.0148209417239,0.0100107537583,,0.00884193393497,-0.00852191700955,0.0286649567561,-0.999513650401
116176000000,,458,,116,176000000,"""map""",,,-0.00963321141899,0.0150075890124,0.00981944426894,,0.00885392513525,-0.00846221425966,0.0286820262297,-0.999513608254
116212000000,,459,,116,212000000,"""map""",,,-0.0100624980405,0.0152637688443,0.00937595032156,,0.00882539732672,-0.00850844111038,0.0286684549445,-0.999513776841
116244000000,,460,,116,244000000,"""map""",,,-0.010343240574,0.0154160428792,0.00886999163777,,0.00887748164273,-0.00831006244902,0.0287320123921,-0.999513186785
116276000000,,461,,116,276000000,"""map""",,,-0.0105163101107,0.0154756391421,0.00827020499855,,0.00888540027001,-0.00836312372609,0.0287334453849,-0.999512681023
116312000000,,462,,116,312000000,"""map""",,,-0.0107829524204,0.0156454425305,0.00756456563249,,0.00887562792226,-0.00843699879625,0.0287429284258,-0.999511880233
116344000000,,463,,116,344000000,"""map""",,,-0.0110135842115,0.0158423259854,0.00692627858371,,0.00886480694528,-0.00850398571722,0.0287856653302,-0.999510194359
116376000000,,464,,116,376000000,"""map""",,,-0.0112738190219,0.0160950757563,0.00630806479603,,0.00888020079358,-0.00854993792402,0.0288023976291,-0.999509140688
116412000000,,465,,116,412000000,"""map""",,,-0.0115834362805,0.0163849052042,0.00574738904834,,0.00889001437239,-0.00865509172832,0.028845260974,-0.999506906905
116444000000,,466,,116,444000000,"""map""",,,-0.0116968806833,0.0165614932775,0.00526444241405,,0.00884876762046,-0.00867722883572,0.0288793999213,-0.999506063968
116476000000,,467,,116,476000000,"""map""",,,-0.0116998972371,0.016628805548,0.00492019299418,,0.00882073413448,-0.00873504433853,0.0288820551728,-0.99950576894
116512000000,,468,,116,512000000,"""map""",,,-0.011780560948,0.0167899038643,0.00451864721254,,0.00871319449545,-0.00866246020083,0.0288764074951,-0.999507539108
116544000000,,469,,116,544000000,"""map""",,,-0.0118911135942,0.0169696845114,0.00423553306609,,0.00873992505369,-0.00866750704927,0.0288545754275,-0.999507876283
116576000000,,470,,116,576000000,"""map""",,,-0.0120227457955,0.0172097422183,0.00391776580364,,0.00870246161616,-0.00868128527503,0.0288591272872,-0.999507960576
116612000000,,471,,116,612000000,"""map""",,,-0.0122022898868,0.0175227541476,0.0035849371925,,0.00869648667046,-0.00869285521487,0.0288130186349,-0.999509224982
116644000000,,472,,116,644000000,"""map""",,,-0.0125251412392,0.0177047681063,0.00329739926383,,0.00854728897761,-0.00860946420712,0.0288053900553,-0.999511458765
116676000000,,473,,116,676000000,"""map""",,,-0.0129470573738,0.0177976451814,0.00305038387887,,0.00852219458606,-0.00865833468959,0.0287913130079,-0.999511627352
116712000000,,474,,116,712000000,"""map""",,,-0.0135169150308,0.0179397985339,0.00275764241815,,0.00858615602237,-0.0086661967515,0.028787393351,-0.999511163737
116744000000,,475,,116,744000000,"""map""",,,-0.0140069210902,0.0180767197162,0.00253660324961,,0.00846290652114,-0.00850801462307,0.0288027348039,-0.999513102492
116776000000,,476,,116,776000000,"""map""",,,-0.0145190833136,0.018288558349,0.00232983496971,,0.00851054369122,-0.00853205212014,0.0288257048363,-0.999511795939
116812000000,,477,,116,812000000,"""map""",,,-0.015079241246,0.0185398701578,0.00212384224869,,0.0085665356666,-0.00856127185283,0.0287961177486,-0.999511964527
116844000000,,478,,116,844000000,"""map""",,,-0.0154326912016,0.0185352005064,0.00197183340788,,0.00860051571335,-0.00860871293196,0.0288135665439,-0.999510784415
116876000000,,479,,116,876000000,"""map""",,,-0.0156182171777,0.0183033738285,0.00198809430003,,0.00861140443552,-0.0086325360908,0.0288152945647,-0.999510405093
116912000000,,480,,116,912000000,"""map""",,,-0.0159362424165,0.0181082934141,0.00199711928144,,0.00865515030341,-0.00864953173415,0.0287833051067,-0.999510784415
116944000000,,481,,116,944000000,"""map""",,,-0.0162550266832,0.0180479306728,0.00194279954303,,0.00866572143092,-0.00867339853314,0.0286848500686,-0.999513313226
116976000000,,482,,116,976000000,"""map""",,,-0.0166223682463,0.0180127099156,0.00190404173918,,0.00869288527865,-0.00863749711688,0.0286942066689,-0.999513144639
117012000000,,483,,117,12000000,"""map""",,,-0.0170396305621,0.0179992672056,0.00181152997538,,0.00867636699647,-0.00865198971615,0.0287135520724,-0.99951259673
117044000000,,484,,117,44000000,"""map""",,,-0.0172166675329,0.0177505705506,0.00189121766016,,0.00865758017508,-0.00864179531083,0.0286688342661,-0.999514156163
117076000000,,485,,117,76000000,"""map""",,,-0.0171823520213,0.017281902954,0.00217717629857,,0.00867960237676,-0.0086576828823,0.0286534085196,-0.999514240457
117112000000,,486,,117,112000000,"""map""",,,-0.0172923114151,0.0168112404644,0.00250879768282,,0.00870729235718,-0.00873909397052,0.0286784437476,-0.999512554583
117144000000,,487,,117,144000000,"""map""",,,-0.0174566600472,0.0164968594909,0.00264187087305,,0.00870503801913,-0.00868376122553,0.0286793288314,-0.999513102492
117176000000,,488,,117,176000000,"""map""",,,-0.0180431716144,0.0159681271762,0.0063267974183,,0.0079114383584,-0.00778048003291,0.0286647460218,-0.999527516714
117212000000,,489,,117,212000000,"""map""",,,-0.0195784494281,0.0146745210513,0.0168755501509,,-0.00251005144716,0.00182526031854,0.0283779788646,-0.999592507154
117244000000,,490,,117,244000000,"""map""",,,-0.022721182555,0.0120896957815,0.0361221060157,,-0.0219944497871,0.0210708444073,0.027854262125,-0.999147857903
117276000000,,491,,117,276000000,"""map""",,,-0.0251046512276,0.0101566007361,0.0483879856765,,-0.0325531816675,0.0324472791495,0.0276194620319,-0.998561300212
117312000000,,492,,117,312000000,"""map""",,,-0.0300210006535,0.00617813318968,0.0675457119942,,-0.0501177566488,0.0528201467208,0.0273127594153,-0.996971563233
117344000000,,493,,117,344000000,"""map""",,,-0.0345406122506,0.00183701049536,0.080399081111,,-0.0610804515842,0.0655814597336,0.0271189682058,-0.995606763984
117376000000,,494,,117,376000000,"""map""",,,-0.0401945747435,-0.00360376900062,0.0927765220404,,-0.0647610803823,0.0691256647806,0.0270683498408,-0.995135688659
117412000000,,495,,117,412000000,"""map""",,,-0.0473417080939,-0.0102905174717,0.106103725731,,-0.0704936837355,0.0726919838346,0.0271943689178,-0.994488313065
117444000000,,496,,117,444000000,"""map""",,,-0.056062694639,-0.018393361941,0.121208794415,,-0.0752989902378,0.0732510649905,0.0279238887187,-0.994074810335
117476000000,,497,,117,476000000,"""map""",,,-0.066336683929,-0.0279365889728,0.138179823756,,-0.0769113271472,0.0732874179645,0.0283737220329,-0.993935936469
117512000000,,498,,117,512000000,"""map""",,,-0.081330485642,-0.0418288558722,0.161845445633,,-0.0787222629703,0.0733248954031,0.0293088763076,-0.993764230208
117544000000,,499,,117,544000000,"""map""",,,-0.0935465991497,-0.0539951622486,0.183045625687,,-0.0797494172299,0.0722821784197,0.0303560569057,-0.993727309569
117576000000,,500,,117,576000000,"""map""",,,-0.10664010793,-0.0673292279243,0.205633997917,,-0.0800461847148,0.0712005523218,0.0309189280676,-0.993764103767
117612000000,,501,,117,612000000,"""map""",,,-0.121006861329,-0.0818910226226,0.229318499565,,-0.0804513519184,0.069032234931,0.0319828409646,-0.993850715541
117644000000,,502,,117,644000000,"""map""",,,-0.136569261551,-0.0976375862956,0.254250645638,,-0.0808278635456,0.0689976817592,0.0329216620151,-0.993791920687
117676000000,,503,,117,676000000,"""map""",,,-0.153245821595,-0.114563249052,0.280500054359,,-0.0811827913765,0.069452584549,0.0333246701806,-0.993717910821
117712000000,,504,,117,712000000,"""map""",,,-0.175663113594,-0.137361109257,0.315278679132,,-0.0820574794117,0.0702275030912,0.0341817684919,-0.993562473244
117744000000,,505,,117,744000000,"""map""",,,-0.19315302372,-0.155652627349,0.344079464674,,-0.0824609854368,0.0701327859517,0.035319101199,-0.99349592337
117776000000,,506,,117,776000000,"""map""",,,-0.211187794805,-0.174669668078,0.374073058367,,-0.0823162663299,0.069896645062,0.0357438149914,-0.993509368215
117812000000,,507,,117,812000000,"""map""",,,-0.230323627591,-0.194783210754,0.405452728271,,-0.0821111777894,0.0695507373152,0.0364013058282,-0.99352681701
117844000000,,508,,117,844000000,"""map""",,,-0.250525563955,-0.215959116817,0.438240975142,,-0.0821549927311,0.0700020214029,0.0372113682566,-0.993461489395
117876000000,,509,,117,876000000,"""map""",,,-0.271653145552,-0.238130897284,0.472423404455,,-0.0821173839128,0.0702286166899,0.0376083494227,-0.993433630328
117912000000,,510,,117,912000000,"""map""",,,-0.299281209707,-0.267145484686,0.517000794411,,-0.0817897053366,0.0699888406346,0.0382326706897,-0.993453734375
117944000000,,511,,117,944000000,"""map""",,,-0.321385502815,-0.290659576654,0.553464651108,,-0.08134583646,0.0698180293357,0.0387844572304,-0.993480792652
117976000000,,512,,117,976000000,"""map""",,,-0.344061344862,-0.314815938473,0.591168940067,,-0.0811169955362,0.0699695097191,0.0390493501733,-0.993478474575
118012000000,,513,,118,12000000,"""map""",,,-0.367562025785,-0.339789330959,0.630355119705,,-0.0808188395102,0.0701096993569,0.0394807231678,-0.993475819324
118044000000,,514,,118,44000000,"""map""",,,-0.391856074333,-0.365570664406,0.670961976051,,-0.0805735609862,0.0698413026279,0.0398860494099,-0.993498536475
118076000000,,515,,118,76000000,"""map""",,,-0.416888237,-0.392070353031,0.712992429733,,-0.0803802663193,0.0699118867454,0.0401014198058,-0.993500559524
118112000000,,516,,118,112000000,"""map""",,,-0.449141412973,-0.426131248474,0.767447352409,,-0.0800081896601,0.0701387253646,0.040384857362,-0.993503046188
118144000000,,517,,118,144000000,"""map""",,,-0.475326061249,-0.453967005014,0.811900675297,,-0.0796800487856,0.0701014109157,0.0407625774184,-0.993516701767
118176000000,,518,,118,176000000,"""map""",,,-0.502035140991,-0.482332855463,0.857504606247,,-0.079527313875,0.0701014056473,0.0409045280042,-0.993523023794
118212000000,,519,,118,212000000,"""map""",,,-0.52931624651,-0.511223912239,0.904633581638,,-0.0791924877859,0.0702801724931,0.0411981650978,-0.993525004696
118244000000,,520,,118,244000000,"""map""",,,-0.557126879692,-0.540645539761,0.953322291374,,-0.0788487492847,0.0702935639957,0.0413472806478,-0.993545235183
118276000000,,521,,118,276000000,"""map""",,,-0.58542907238,-0.570562541485,1.00351250172,,-0.0786819778271,0.0702949090728,0.0414341453026,-0.993554718224
118312000000,,522,,118,312000000,"""map""",,,-0.621526122093,-0.608629047871,1.06836211681,,-0.0783550371499,0.0703454612542,0.0415927438935,-0.993570354705
118344000000,,523,,118,344000000,"""map""",,,-0.650637626648,-0.639661669731,1.12141132355,,-0.0778848149685,0.0705587562471,0.0417239470329,-0.993586749829
118376000000,,524,,118,376000000,"""map""",,,-0.679851830006,-0.670781433582,1.17104506493,,-0.0776882572136,0.0698633813204,0.0417727530835,-0.993649211458
118412000000,,525,,118,412000000,"""map""",,,-0.709098756313,-0.701795578003,1.21300768852,,-0.0771369283613,0.0621962433004,0.0419359035341,-0.994194633825
118444000000,,526,,118,444000000,"""map""",,,-0.738366365433,-0.732752501965,1.24645197392,,-0.0765642666183,0.050811696607,0.0422128083288,-0.994873956729
118476000000,,527,,118,476000000,"""map""",,,-0.767589628696,-0.7636500597,1.2712597847,,-0.0758394778011,0.0407663324392,0.0424755096356,-0.995380519702
118512000000,,528,,118,512000000,"""map""",,,-0.803930878639,-0.80214625597,1.2898722887,,-0.0718158907125,0.0204025517943,0.0426736841173,-0.996295780664
118544000000,,529,,118,544000000,"""map""",,,-0.833036363125,-0.833443164825,1.29691433907,,-0.0605576403433,0.000388146133005,0.042146553483,-0.997274472633
118576000000,,530,,118,576000000,"""map""",,,-0.860955536366,-0.865044414997,1.30671775341,,-0.0474412210341,-0.00821457750837,0.0417663046157,-0.997966692473
118612000000,,531,,118,612000000,"""map""",,,-0.886836588383,-0.896454572678,1.32612645626,,-0.0317910477791,-0.00951933593696,0.041753702708,-0.998576683812
118644000000,,532,,118,644000000,"""map""",,,-0.91064864397,-0.927190840244,1.3589297533,,-0.0204458399004,-0.00827154490103,0.0422710552735,-0.998862734472
118676000000,,533,,118,676000000,"""map""",,,-0.932596743107,-0.956911504269,1.40592825413,,-0.0157405989892,-0.00690954940579,0.0425191737706,-0.998947744666
118712000000,,534,,118,712000000,"""map""",,,-0.957609176636,-0.992242217064,1.48385250568,,-0.00905809235139,-0.00381649492652,0.0431560547985,-0.999020026511
118744000000,,535,,118,744000000,"""map""",,,-0.976807832718,-1.01955521107,1.55959665775,,-0.0126090404003,0.00533810975669,0.0436651044348,-0.998952422966
118776000000,,536,,118,776000000,"""map""",,,-0.995467364788,-1.04592454433,1.64121413231,,-0.0174366708206,0.0131375776857,0.0436646829663,-0.998807690688
118812000000,,537,,118,812000000,"""map""",,,-1.013864398,-1.07156181335,1.72412085533,,-0.0305035004113,0.0368057384254,0.0431810900265,-0.997923028338
118844000000,,538,,118,844000000,"""map""",,,-1.03224182129,-1.09677791595,1.80528247356,,-0.0405504299393,0.0563559222336,0.0428344743443,-0.996666883665
118876000000,,539,,118,876000000,"""map""",,,-1.05081784725,-1.12172186375,1.88264501095,,-0.0452281268973,0.0641399525623,0.0428005882781,-0.995996327305
118912000000,,540,,118,912000000,"""map""",,,-1.07453048229,-1.1526260376,1.97308003902,,-0.0503993529146,0.0730135737553,0.0454791890884,-0.995017930364
118944000000,,541,,118,944000000,"""map""",,,-1.09518170357,-1.17886400223,2.03832507133,,-0.0544998145378,0.0799931498207,0.045684064919,-0.994255451727
118976000000,,542,,118,976000000,"""map""",,,-1.11660075188,-1.20544326305,2.09946298599,,-0.0556140178447,0.0810028631875,0.0457578640508,-0.99410856996
119012000000,,543,,119,12000000,"""map""",,,-1.13854885101,-1.23185312748,2.15818285942,,-0.057686423167,0.0812927044306,0.0459811159073,-0.993956546278
119044000000,,544,,119,44000000,"""map""",,,-1.16110312939,-1.25816035271,2.21511125565,,-0.0587887818923,0.0818054340136,0.0461155222072,-0.993843634871
119076000000,,545,,119,76000000,"""map""",,,-1.18418991566,-1.28443646431,2.27051091194,,-0.0593150129549,0.0817131363666,0.0461384922397,-0.993818894671
119112000000,,546,,119,112000000,"""map""",,,-1.21376502514,-1.31725609303,2.33753347397,,-0.0604130628235,0.0801018959338,0.0461382815054,-0.993883927258
119144000000,,547,,119,144000000,"""map""",,,-1.23852431774,-1.34399056435,2.39243197441,,-0.0613542994153,0.0787024598784,0.0461143420955,-0.993939223923
119176000000,,548,,119,176000000,"""map""",,,-1.26382470131,-1.37087678909,2.44649934769,,-0.0617506865743,0.0784655880043,0.0460438304179,-0.993936652965
119212000000,,549,,119,212000000,"""map""",,,-1.28943669796,-1.39776587486,2.49848628044,,-0.0624406877778,0.0778453187617,0.0459737823557,-0.993945503803
119244000000,,550,,119,244000000,"""map""",,,-1.31540966034,-1.42466843128,2.54851293564,,-0.0629971256184,0.076889118063,0.0458169539324,-0.993992076071
119276000000,,551,,119,276000000,"""map""",,,-1.34171569347,-1.45156991482,2.59664916992,,-0.0632007166286,0.0767983436295,0.045678796563,-0.993992581833
119312000000,,552,,119,312000000,"""map""",,,-1.37501597404,-1.48524177074,2.65427780151,,-0.0632089616059,0.076605411162,0.0454591271885,-0.994017027005
119344000000,,553,,119,344000000,"""map""",,,-1.40214622021,-1.51264894009,2.70007705688,,-0.0622250776717,0.075004723905,0.0452320399687,-0.994211492564
119376000000,,554,,119,376000000,"""map""",,,-1.42961108685,-1.54015922546,2.74453949928,,-0.0608787084498,0.0733807518312,0.0451724021781,-0.994418728619
119412000000,,555,,119,412000000,"""map""",,,-1.45732951164,-1.56763339043,2.7872364521,,-0.0579501880231,0.0702816828649,0.0451336270775,-0.994819207973
119444000000,,556,,119,444000000,"""map""",,,-1.48522400856,-1.59502542019,2.828302145,,-0.0535452002729,0.0647056225383,0.0450913537884,-0.995446058051
119476000000,,557,,119,476000000,"""map""",,,-1.51322197914,-1.62229824066,2.86780953407,,-0.0512512092116,0.0616909019282,0.0450715447696,-0.995759124842
119512000000,,558,,119,512000000,"""map""",,,-1.54827833176,-1.65617477894,2.9149916172,,-0.0464779393356,0.0558621109879,0.0450785411465,-0.996336873841
119544000000,,559,,119,544000000,"""map""",,,-1.57666110992,-1.68328583241,2.95275330544,,-0.0421904102423,0.0507331490401,0.0450670772037,-0.99680242793
