rosbagTimestamp,header,seq,stamp,secs,nsecs,frame_id,pose,position,x,y,z,orientation,x,y,z,w
111256000000,,373,,111,256000000,"""map""",,,0.000636140466668,0.0183905269951,0.00746688200161,,0.00902921752078,-0.00818760150853,0.0309651631604,-0.999446215443
111288000000,,374,,111,288000000,"""map""",,,0.000678713025991,0.0184307899326,0.00764749385417,,0.00905546451185,-0.00816088299959,0.0309393692891,-0.999446974086
111324000000,,375,,111,324000000,"""map""",,,0.000719001982361,0.0185543224216,0.00794195290655,,0.00895985874886,-0.00807683913789,0.0309300969824,-0.999448744254
111356000000,,376,,111,356000000,"""map""",,,0.00067742948886,0.0184217933565,0.00834731478244,,0.00892934813485,-0.00806885650832,0.0308943143081,-0.999450219394
111388000000,,377,,111,388000000,"""map""",,,0.000608135247603,0.0182682890445,0.00870638061315,,0.00890726631432,-0.00807756592407,0.0309220047875,-0.999449502897
111424000000,,378,,111,424000000,"""map""",,,0.000579814484809,0.0181717053056,0.00917765125632,,0.00885259106813,-0.00799945225567,0.0308876129591,-0.999451694533
111456000000,,379,,111,456000000,"""map""",,,0.000557044171728,0.0181456711143,0.00941852200776,,0.00883449842211,-0.00803007041823,0.030867635353,-0.999452200296
111488000000,,380,,111,488000000,"""map""",,,0.000566054950468,0.0181791819632,0.00964085292071,,0.00882066067332,-0.00798691509112,0.0308375003563,-0.999453591142
111524000000,,381,,111,524000000,"""map""",,,0.000563028967008,0.0183019302785,0.00985004100949,,0.00878553098698,-0.00798866710763,0.030840914251,-0.999453801876
111556000000,,382,,111,556000000,"""map""",,,0.000410724198446,0.0183002445847,0.0101247737184,,0.00895525992676,-0.00794690258536,0.0308280173154,-0.999453043233
111588000000,,383,,111,588000000,"""map""",,,0.00025866314536,0.0182833839208,0.0103011531755,,0.00898312825441,-0.00791574548644,0.0307985145214,-0.999453970463
111624000000,,384,,111,624000000,"""map""",,,7.52686319174e-05,0.0183634404093,0.0105864070356,,0.00898057511851,-0.00795132067815,0.0308065645695,-0.999453422554
111656000000,,385,,111,656000000,"""map""",,,-5.46060982742e-05,0.0184715948999,0.0108682010323,,0.00887315313258,-0.00795438838426,0.0307883992778,-0.999454897694
111688000000,,386,,111,688000000,"""map""",,,-0.000164685567142,0.018623592332,0.0110571002588,,0.00891928434,-0.00799756108048,0.0307425856534,-0.99945561419
111724000000,,387,,111,724000000,"""map""",,,-0.000267451425316,0.018831608817,0.0112858479843,,0.00891093831733,-0.00801471842866,0.0307219336977,-0.999456119953
111756000000,,388,,111,756000000,"""map""",,,-0.000567579059862,0.0186609178782,0.0114691248164,,0.00889586398659,-0.0080355602922,0.0307208800264,-0.999456162099
111788000000,,389,,111,788000000,"""map""",,,-0.000932737020776,0.0184302851558,0.0115784611553,,0.00881731341507,-0.00802679181324,0.0307447351427,-0.999456162099
111824000000,,390,,111,824000000,"""map""",,,-0.00134437344968,0.0182450860739,0.011679392308,,0.00881857596836,-0.00800872715536,0.0307390453181,-0.999456457127
111856000000,,391,,111,856000000,"""map""",,,-0.00166632409673,0.0181959755719,0.0117416372523,,0.00883680373948,-0.00804223727497,0.0307497506177,-0.999455698484
111888000000,,392,,111,888000000,"""map""",,,-0.00199894676916,0.0182155948132,0.0117651242763,,0.00883255295816,-0.00805979724079,0.030722945222,-0.999456457127
111924000000,,393,,111,924000000,"""map""",,,-0.00232690619305,0.0183259956539,0.0118441767991,,0.00882573689903,-0.00807635975865,0.0306722847101,-0.99945789012
111956000000,,394,,111,956000000,"""map""",,,-0.00268118246458,0.0181819573045,0.0118512967601,,0.00881257018651,-0.00813916097073,0.0306746027868,-0.999457510799
111988000000,,395,,111,988000000,"""map""",,,-0.00303943781182,0.0179890524596,0.0118621587753,,0.00880740944073,-0.00816442444616,0.0306513377264,-0.999458016561
112024000000,,396,,112,24000000,"""map""",,,-0.00347570911981,0.0178652517498,0.0117187751457,,0.00878985778903,-0.00810458789855,0.0305994549559,-0.999460250344
112056000000,,397,,112,56000000,"""map""",,,-0.00379994139075,0.0178327523172,0.0116574866697,,0.008774662389,-0.00809977539934,0.0305676762321,-0.999461430455
112088000000,,398,,112,88000000,"""map""",,,-0.00412988755852,0.0178472623229,0.01167009864,,0.00876402835634,-0.00808979962308,0.0305400700463,-0.999462399833
112124000000,,399,,112,124000000,"""map""",,,-0.00442789960653,0.0178933292627,0.0116326734424,,0.00882787457566,-0.00802770908342,0.0305111151614,-0.999463200623
112156000000,,400,,112,156000000,"""map""",,,-0.00464575132355,0.0177850835025,0.0117639154196,,0.00886638263649,-0.00780447533683,0.0304414464208,-0.999466783105
112188000000,,401,,112,188000000,"""map""",,,-0.00484548695385,0.0176805909723,0.0118821458891,,0.00888234168062,-0.00782321105156,0.0304624355514,-0.999465855875
112224000000,,402,,112,224000000,"""map""",,,-0.00510399788618,0.0176245868206,0.0119072310627,,0.00891063254689,-0.00784064424757,0.0304782406196,-0.999464970791
112256000000,,403,,112,256000000,"""map""",,,-0.00530269695446,0.0176517553627,0.011834311299,,0.00896270456663,-0.00779564104457,0.0305129696227,-0.999463790679
112288000000,,404,,112,288000000,"""map""",,,-0.00552357174456,0.0177284423262,0.0115825748071,,0.00893005277747,-0.00779823422821,0.0305285639567,-0.999463622092
112324000000,,405,,112,324000000,"""map""",,,-0.00577924400568,0.017862778157,0.0113938283175,,0.00891132533571,-0.0078979692299,0.0305202188807,-0.999463284917
112356000000,,406,,112,356000000,"""map""",,,-0.00606757635251,0.0180610604584,0.0113148894161,,0.00889033060752,-0.00797056618864,0.0305669597357,-0.999461388309
112388000000,,407,,112,388000000,"""map""",,,-0.00634355610237,0.0183223262429,0.0113638602197,,0.00887675956926,-0.00800589817163,0.030541545186,-0.999462020511
112424000000,,408,,112,424000000,"""map""",,,-0.00669686635956,0.0186887197196,0.0113195506856,,0.00885586810908,-0.0080299322062,0.0304832560945,-0.999463832826
112456000000,,409,,112,456000000,"""map""",,,-0.00702509796247,0.0187010504305,0.0113889044151,,0.00886454945438,-0.00806772961519,0.0304822024233,-0.999463453504
112488000000,,410,,112,488000000,"""map""",,,-0.00736302370206,0.0187479797751,0.0113821160048,,0.00882879736115,-0.00802649126999,0.0304872178983,-0.99946391712
112524000000,,411,,112,524000000,"""map""",,,-0.00770872784778,0.0188443269581,0.0112200034782,,0.00884323907757,-0.00799933701038,0.0304963637644,-0.999463790679
112556000000,,412,,112,556000000,"""map""",,,-0.00816951878369,0.0190205834806,0.0110966442153,,0.00887208044589,-0.00798120489285,0.030462814873,-0.99946471791
112588000000,,413,,112,588000000,"""map""",,,-0.00845713727176,0.0191530771554,0.0110970055684,,0.00888775792108,-0.00802401802377,0.0304470940985,-0.999464675763
112624000000,,414,,112,624000000,"""map""",,,-0.0089514227584,0.0194048900157,0.0112258316949,,0.00894651828349,-0.00801440747217,0.0304054530122,-0.9994655187
112656000000,,415,,112,656000000,"""map""",,,-0.00912449602038,0.0193339008838,0.0115052182227,,0.00893839468423,-0.00802236116694,0.0304055794527,-0.999465476553
112688000000,,416,,112,688000000,"""map""",,,-0.00931549351662,0.0193481575698,0.0117419175804,,0.00893979137482,-0.0080938047673,0.0304163690459,-0.999464549322
112724000000,,417,,112,724000000,"""map""",,,-0.00952694099396,0.0194277949631,0.0120314396918,,0.00891033702504,-0.00809377871363,0.0303153851969,-0.99946792107
112756000000,,418,,112,756000000,"""map""",,,-0.00975682493299,0.0195734035224,0.0123673453927,,0.00896452289034,-0.0081351647786,0.0302697823068,-0.999468511126
112788000000,,419,,112,788000000,"""map""",,,-0.0100159142166,0.0197645742446,0.012650674209,,0.0089764524241,-0.00816363036496,0.0302807826343,-0.999467878923
112824000000,,420,,112,824000000,"""map""",,,-0.0103649832308,0.0201073419303,0.0130077796057,,0.00901265496177,-0.00817033331907,0.0302580233361,-0.999468131804
112856000000,,421,,112,856000000,"""map""",,,-0.0102574387565,0.0201496593654,0.0136502804235,,0.00894368489574,-0.00817809167308,0.0302234629203,-0.999469733385
112888000000,,422,,112,888000000,"""map""",,,-0.0101985372603,0.0202779620886,0.0142575474456,,0.00900411191082,-0.00818347564487,0.0301729709958,-0.999470660615
112924000000,,423,,112,924000000,"""map""",,,-0.0102062607184,0.0204623714089,0.014871311374,,0.00898978124146,-0.00822124523035,0.0301689670452,-0.999470618468
112956000000,,424,,112,956000000,"""map""",,,-0.0102203832939,0.0206911209971,0.0153300212696,,0.00899107684546,-0.00826258643197,0.0301618442278,-0.999470492028
112988000000,,425,,112,988000000,"""map""",,,-0.0102618196979,0.0209429487586,0.01575784944,,0.00895327495014,-0.0082264403645,0.0301254714975,-0.999472220049
113024000000,,426,,113,24000000,"""map""",,,-0.0103646563366,0.0213024802506,0.0162056945264,,0.00895304458304,-0.00822628482452,0.0300948728855,-0.999473147279
113056000000,,427,,113,56000000,"""map""",,,-0.0102905072272,0.021146396175,0.0163948051631,,0.00915760505315,-0.00822173090693,0.0300443388141,-0.999472767958
113088000000,,428,,113,88000000,"""map""",,,-0.0103032952175,0.0210693776608,0.0166419763118,,0.00915851536746,-0.00827426279653,0.0300105791885,-0.99947340016
113124000000,,429,,113,124000000,"""map""",,,-0.0103796776384,0.0210473835468,0.0167651511729,,0.00910454418767,-0.00825325473282,0.0300214530754,-0.999473737335
113156000000,,430,,113,156000000,"""map""",,,-0.0105015039444,0.0210875421762,0.0165785793215,,0.00907155123129,-0.00829475740132,0.0300386068427,-0.999473189426
113188000000,,431,,113,188000000,"""map""",,,-0.0106525886804,0.0211714003235,0.0162480752915,,0.00907538988723,-0.00829535601828,0.0300525995965,-0.999472767958
113224000000,,432,,113,224000000,"""map""",,,-0.0109281558543,0.0213238354772,0.0156053164974,,0.00905656226438,-0.00828844903885,0.0300226331872,-0.999473905923
113256000000,,433,,113,256000000,"""map""",,,-0.0109586622566,0.0208918862045,0.015186493285,,0.00907937103574,-0.00833725434856,0.0299541867052,-0.999475338915
113288000000,,434,,113,288000000,"""map""",,,-0.0110620949417,0.0205690953881,0.0147695029154,,0.00902387479035,-0.00828442792492,0.029930879498,-0.999476898349
113324000000,,435,,113,324000000,"""map""",,,-0.0112218214199,0.020357331261,0.0144023764879,,0.00901547945916,-0.0083412671072,0.0298867938944,-0.999477909873
113356000000,,436,,113,356000000,"""map""",,,-0.0114421546459,0.0202188175172,0.0141234686598,,0.00897554480571,-0.00832868942159,0.0298588505338,-0.999479132132
113388000000,,437,,113,388000000,"""map""",,,-0.0116626685485,0.0201790630817,0.0138313369825,,0.00899053568652,-0.00833274233086,0.0298732226092,-0.999478584223
113424000000,,438,,113,424000000,"""map""",,,-0.0119732907042,0.0201967656612,0.0136013515294,,0.00894178596207,-0.00832950655184,0.0298290527119,-0.99948035439
113456000000,,439,,113,456000000,"""map""",,,-0.0119570344687,0.0198788307607,0.0138109298423,,0.00893700486721,-0.00835584971099,0.0297897718491,-0.999481365915
113488000000,,440,,113,488000000,"""map""",,,-0.0120241865516,0.0196424517781,0.0139161245897,,0.0089301725091,-0.00834795437972,0.0297587939155,-0.999482335292
113524000000,,441,,113,524000000,"""map""",,,-0.0121689243242,0.0194812603295,0.0142785003409,,0.00885339296955,-0.00834508164394,0.0296953207616,-0.999485032691
113556000000,,442,,113,556000000,"""map""",,,-0.0124045396224,0.0193969793618,0.0145486658439,,0.00882887605722,-0.00829960976305,0.029648748494,-0.999486929299
113588000000,,443,,113,588000000,"""map""",,,-0.0126707842574,0.0193733908236,0.0147642502561,,0.00883518767126,-0.00829987305738,0.029640951327,-0.999487140033
113624000000,,444,,113,624000000,"""map""",,,-0.0130958426744,0.0194231308997,0.0150757487863,,0.00885040819888,-0.00831767853683,0.0296559556051,-0.99948638139
113656000000,,445,,113,656000000,"""map""",,,-0.0132098002359,0.0189255587757,0.0152354696766,,0.00881546879074,-0.0083128655643,0.0296461775363,-0.999487055739
113688000000,,446,,113,688000000,"""map""",,,-0.0133811729029,0.0185267217457,0.0154113443568,,0.00885486372581,-0.00833709129705,0.029662109045,-0.999486044215
113724000000,,447,,113,724000000,"""map""",,,-0.0136031005532,0.0182435289025,0.0156116513535,,0.00881985183661,-0.00828046408379,0.0295646233844,-0.999489710991
113756000000,,448,,113,756000000,"""map""",,,-0.0138531923294,0.0180127210915,0.0157838407904,,0.00877864388735,-0.00826430358678,0.0295297257938,-0.999491228277
113788000000,,449,,113,788000000,"""map""",,,-0.0141424844041,0.0178686212748,0.0157036818564,,0.00896375107617,-0.00823043377839,0.0295323810453,-0.999489753138
113824000000,,450,,113,824000000,"""map""",,,-0.0145270004869,0.0177854057401,0.0154286958277,,0.00896448568257,-0.00822427408234,0.0295295993533,-0.999489921725
113856000000,,451,,113,856000000,"""map""",,,-0.014573934488,0.0174301490188,0.0151189323515,,0.00891344638409,-0.00821375000603,0.0295253003747,-0.999490596075
113888000000,,452,,113,888000000,"""map""",,,-0.0146778998896,0.0171799492091,0.0149280950427,,0.00893934125965,-0.00824667632593,0.0294976520421,-0.999490933249
113924000000,,453,,113,924000000,"""map""",,,-0.0148401875049,0.0170266125351,0.0145174367353,,0.00892447696344,-0.00831462457784,0.0295531594416,-0.99948878376
113956000000,,454,,113,956000000,"""map""",,,-0.0150277037174,0.0169777572155,0.0140621513128,,0.00893567744728,-0.0083295762135,0.0295271969829,-0.999489373816
113988000000,,455,,113,988000000,"""map""",,,-0.0152535950765,0.0169651508331,0.0136033874005,,0.00896439531792,-0.00832375725249,0.0295284192415,-0.999489078788
114024000000,,456,,114,24000000,"""map""",,,-0.015536846593,0.0170511435717,0.0130745498464,,0.00894270728642,-0.00825067282676,0.0294876210922,-0.999491101837
114056000000,,457,,114,56000000,"""map""",,,-0.0154788112268,0.0165088381618,0.0133396368474,,0.00891946731247,-0.00831844226325,0.0294662104931,-0.999491439012
114088000000,,458,,114,88000000,"""map""",,,-0.0154506219551,0.016069021076,0.0136022940278,,0.00889378438535,-0.00824890360578,0.0294297113223,-0.999493293473
114124000000,,459,,114,124000000,"""map""",,,-0.0154751064256,0.0157428290695,0.0138146374375,,0.0089175644687,-0.00824527103311,0.0294013464933,-0.999493925676
114156000000,,460,,114,156000000,"""map""",,,-0.0155633762479,0.0155109884217,0.0139049189165,,0.00892920613619,-0.00821221744949,0.0293558700437,-0.999495400815
114188000000,,461,,114,188000000,"""map""",,,-0.0157240405679,0.0153599744663,0.0138713466004,,0.00893181228492,-0.00823399193553,0.0293723494615,-0.999494684319
114224000000,,462,,114,224000000,"""map""",,,-0.0159928817302,0.0152599085122,0.0139210298657,,0.00892442123411,-0.00823119793698,0.0293430574018,-0.999495653696
114256000000,,463,,114,256000000,"""map""",,,-0.0155742671341,0.0152036091313,0.0142839383334,,0.00896546187191,-0.00833921226312,0.0293797673068,-0.99949333562
114288000000,,464,,114,288000000,"""map""",,,-0.0152058014646,0.0152317658067,0.0145331704989,,0.00895519979342,-0.00825514837755,0.0293734874264,-0.999494304997
114324000000,,465,,114,324000000,"""map""",,,-0.0148873366416,0.0153059102595,0.014850853011,,0.00892769697855,-0.00828707134316,0.029310730769,-0.999496117312
114356000000,,466,,114,356000000,"""map""",,,-0.0146232172847,0.0154304727912,0.0149585446343,,0.00887518916698,-0.00824292194311,0.0293236277046,-0.999496623074
114388000000,,467,,114,388000000,"""map""",,,-0.0144110191613,0.0156237194315,0.0148671092466,,0.00889489495893,-0.00827321680148,0.0293235012641,-0.999496159459
114424000000,,468,,114,424000000,"""map""",,,-0.0142386155203,0.0159206558019,0.0145671041682,,0.00910124446809,-0.0081987579522,0.0292730093395,-0.99949641234
114456000000,,469,,114,456000000,"""map""",,,-0.0139525048435,0.0157663170248,0.0146654536948,,0.00910250747414,-0.00832380246569,0.0292779826677,-0.999495232228
114488000000,,470,,114,488000000,"""map""",,,-0.0137471901253,0.0156721286476,0.0146032357588,,0.00911808489173,-0.00834491256264,0.0293157462439,-0.999493799235
114524000000,,471,,114,524000000,"""map""",,,-0.0136037711054,0.0156336314976,0.0145384902135,,0.00906396529247,-0.00836526726788,0.0292669823402,-0.999495527256
114556000000,,472,,114,556000000,"""map""",,,-0.0135283581913,0.0156641285866,0.0144302034751,,0.00903264466872,-0.00838703767918,0.0292925654773,-0.999494895053
114588000000,,473,,114,588000000,"""map""",,,-0.0135079473257,0.0157288238406,0.0142819778994,,0.0090328994637,-0.00838567257816,0.0292671509276,-0.999495695843
114624000000,,474,,114,624000000,"""map""",,,-0.0135380625725,0.0158693287522,0.0141040021554,,0.00904664110616,-0.00837279099483,0.0292902474006,-0.9994949372
114656000000,,475,,114,656000000,"""map""",,,-0.0133984219283,0.0157892052084,0.0143245300278,,0.00898014270173,-0.0083259947192,0.0292484377269,-0.99949721313
114688000000,,476,,114,688000000,"""map""",,,-0.013302792795,0.015775764361,0.0145214674994,,0.00898828225011,-0.00835645378152,0.029231157519,-0.999497381717
114724000000,,477,,114,724000000,"""map""",,,-0.0132329501212,0.0158152785152,0.0146339228377,,0.00895125893961,-0.00832412840406,0.0292032984521,-0.999498772563
114756000000,,478,,114,756000000,"""map""",,,-0.0132254008204,0.015902498737,0.0146114397794,,0.00898958392507,-0.00829291569929,0.0291216600065,-0.99950109064
114788000000,,479,,114,788000000,"""map""",,,-0.0132763767615,0.0160451419652,0.014538211748,,0.00896758557505,-0.00823734672589,0.0291237252021,-0.999501638549
114824000000,,480,,114,824000000,"""map""",,,-0.0133966291323,0.0163262132555,0.0144521808252,,0.00899308186654,-0.00825934203014,0.0291341776205,-0.999500964199
114856000000,,481,,114,856000000,"""map""",,,-0.0131679121405,0.0162012316287,0.0144499326125,,0.00893247443085,-0.00829598898245,0.0290930001496,-0.999502355045
114888000000,,482,,114,888000000,"""map""",,,-0.0129631254822,0.0161143094301,0.0144432680681,,0.00895214338546,-0.00830890481009,0.0291008816102,-0.99950189143
114924000000,,483,,114,924000000,"""map""",,,-0.01281598676,0.016067950055,0.0143795348704,,0.00894736257871,-0.00834639420547,0.0290565431256,-0.999502902954
114956000000,,484,,114,956000000,"""map""",,,-0.0127263572067,0.0160668641329,0.0142278121784,,0.00896840503079,-0.00832039949868,0.0290822105563,-0.999502186458
114988000000,,485,,114,988000000,"""map""",,,-0.0126515515149,0.0161020830274,0.0140433982015,,0.00894359467515,-0.00831737844633,0.0290024265721,-0.999504757416
115024000000,,486,,115,24000000,"""map""",,,-0.0125799067318,0.0162363182753,0.0137852858752,,0.00897141163632,-0.00829587692699,0.0289755368828,-0.999505516059
115056000000,,487,,115,56000000,"""map""",,,-0.0123780500144,0.0160010550171,0.0133352717385,,0.00890445451448,-0.00830377841153,0.0289043508556,-0.999508087017
115088000000,,488,,115,88000000,"""map""",,,-0.0122017981485,0.0158629305661,0.0128018651158,,0.00889728160654,-0.00827860493032,0.028915941239,-0.99950804487
115124000000,,489,,115,124000000,"""map""",,,-0.0120772570372,0.0157617889345,0.0122335916385,,0.00889503401472,-0.00825687359953,0.0288440808622,-0.999510278653
115156000000,,490,,115,156000000,"""map""",,,-0.0120035838336,0.0157063826919,0.0116359461099,,0.0089297370877,-0.00828826205336,0.0288344292339,-0.999509983625
115188000000,,491,,115,188000000,"""map""",,,-0.0119761452079,0.0157214980572,0.0110553205013,,0.00893386184007,-0.00823379289045,0.0288304674302,-0.999510489387
115224000000,,492,,115,224000000,"""map""",,,-0.0119925895706,0.0158460568637,0.0102362995967,,0.00912044865492,-0.00823575922203,0.028776814492,-0.999510362947
115256000000,,493,,115,256000000,"""map""",,,-0.0119388727471,0.0158043857664,0.00995088461787,,0.00912801117426,-0.00817830010242,0.0287611358644,-0.999511205884
115288000000,,494,,115,288000000,"""map""",,,-0.0119428811595,0.0158216953278,0.00960405357182,,0.00907127398406,-0.00809848808889,0.0287353841399,-0.999513102492
115324000000,,495,,115,324000000,"""map""",,,-0.0119654247537,0.0159247238189,0.00913821905851,,0.00905882551722,-0.00813655393708,0.0287178089041,-0.99951339752
115356000000,,496,,115,356000000,"""map""",,,-0.012036931701,0.0160944052041,0.00866867043078,,0.00899038804907,-0.00818382973602,0.0286961875708,-0.999514282603
115388000000,,497,,115,388000000,"""map""",,,-0.0121436920017,0.0163256004453,0.00812195800245,,0.00901364755298,-0.00821937167123,0.0286995171719,-0.999513650401
115424000000,,498,,115,424000000,"""map""",,,-0.0123437102884,0.0166882015765,0.00745454384014,,0.00891664262986,-0.00818414875967,0.0287087894785,-0.999514577631
115456000000,,499,,115,456000000,"""map""",,,-0.0123747307807,0.0163684524596,0.00659065460786,,0.00901790269716,-0.00824427424368,0.028749840509,-0.999511964527
115488000000,,500,,115,488000000,"""map""",,,-0.0124772610143,0.0161086749285,0.00580356409773,,0.00898943134853,-0.00824225103032,0.0287593235499,-0.999512006674
115524000000,,501,,115,524000000,"""map""",,,-0.0126140788198,0.0159403663129,0.0051186257042,,0.00899347752831,-0.00820699906049,0.0287524957604,-0.999512428142
115556000000,,502,,115,556000000,"""map""",,,-0.0127934869379,0.0158855058253,0.00452861608937,,0.00893641044847,-0.00815922322048,0.0287506834459,-0.99951339752
115588000000,,503,,115,588000000,"""map""",,,-0.0129970889539,0.015916114673,0.0040935119614,,0.00892865061274,-0.00818755335246,0.0287566261516,-0.999513018198
115624000000,,504,,115,624000000,"""map""",,,-0.0133026763797,0.0160349551588,0.00368226342835,,0.00888519533919,-0.00822837971633,0.0287262382738,-0.999513987576
115656000000,,505,,115,656000000,"""map""",,,-0.0133724035695,0.0156980678439,0.00382108637132,,0.0088965403118,-0.00816418522987,0.0286891069003,-0.999515462715
115688000000,,506,,115,688000000,"""map""",,,-0.0135028306395,0.0154948271811,0.0039491802454,,0.00890302726332,-0.00819575556547,0.0287050805559,-0.999514746219
115724000000,,507,,115,724000000,"""map""",,,-0.0136800855398,0.0153890196234,0.00396530656144,,0.00883577221183,-0.00816402084069,0.0287003601088,-0.999515673449
115756000000,,508,,115,756000000,"""map""",,,-0.0138690043241,0.0153596140444,0.00396811636165,,0.00883179777225,-0.00821972395138,0.0287042797657,-0.99951512554
115788000000,,509,,115,788000000,"""map""",,,-0.0141063705087,0.0154175115749,0.00401083705947,,0.00886087518761,-0.00817803145742,0.0287124141075,-0.9995149991
115824000000,,510,,115,824000000,"""map""",,,-0.0144570060074,0.0156181622297,0.00387660856359,,0.00885920260804,-0.0081774965958,0.0287406946429,-0.99951419831
115856000000,,511,,115,856000000,"""map""",,,-0.0147890774533,0.0153547972441,0.0044548609294,,0.00880527717651,-0.00812029527578,0.0287031839477,-0.999516221359
115888000000,,512,,115,888000000,"""map""",,,-0.0151360174641,0.0151724712923,0.00492645427585,,0.00902685902594,-0.00814917634198,0.0286957661023,-0.99951419831
115924000000,,513,,115,924000000,"""map""",,,-0.0154946083203,0.0150557020679,0.00536533584818,,0.00895211866946,-0.0080902729931,0.0287222764701,-0.999514661925
115956000000,,514,,115,956000000,"""map""",,,-0.0158791262656,0.0149840814993,0.00582690350711,,0.00897906190671,-0.00816790135537,0.0287027203323,-0.99951432475
115988000000,,515,,115,988000000,"""map""",,,-0.0162692405283,0.0149726616219,0.00621461495757,,0.00898435409386,-0.00819065262755,0.0286947967248,-0.99951432475
116024000000,,516,,116,24000000,"""map""",,,-0.0168069656938,0.0150804417208,0.00670460192487,,0.00892541911426,-0.00825232978648,0.0286938273473,-0.999514366897
116056000000,,517,,116,56000000,"""map""",,,-0.0167947467417,0.0148483319208,0.00733503559604,,0.00891675552909,-0.00826849814486,0.0287080729821,-0.999513861135
116088000000,,518,,116,88000000,"""map""",,,-0.0168224256486,0.0147106489167,0.00787613447756,,0.00887164354277,-0.00824653210469,0.0287430548664,-0.999513439667
116124000000,,519,,116,124000000,"""map""",,,-0.016902314499,0.0146674765274,0.00834886170924,,0.00890796352774,-0.00832357265424,0.0287318438047,-0.999512849611
116156000000,,520,,116,156000000,"""map""",,,-0.0170443300158,0.0147139113396,0.0086970385164,,0.0088562930555,-0.00831356779912,0.0287316330704,-0.99951339752
116188000000,,521,,116,188000000,"""map""",,,-0.0172411948442,0.0148475402966,0.0089369090274,,0.00887305416569,-0.00832113200597,0.0287066399893,-0.999513861135
116224000000,,522,,116,224000000,"""map""",,,-0.0175519250333,0.0151042062789,0.00912907253951,,0.00888915699889,-0.0081020657554,0.0287274605324,-0.999514956953
116256000000,,523,,116,256000000,"""map""",,,-0.0179569944739,0.0146905481815,0.00918508227915,,0.00893314398539,-0.00819457660616,0.028754013047,-0.999513018198
116288000000,,524,,116,288000000,"""map""",,,-0.0183810926974,0.0143708819523,0.00913292635232,,0.00894310335978,-0.00823180062868,0.028757890557,-0.999512512436
116324000000,,525,,116,324000000,"""map""",,,-0.0188145171851,0.0141558432952,0.00895707122982,,0.00890111970683,-0.0083022544778,0.0286972833889,-0.999514029722
116356000000,,526,,116,356000000,"""map""",,,-0.0192573368549,0.0140155572444,0.00873329956084,,0.0088665870734,-0.00835928694289,0.0287119504922,-0.99951352396
116388000000,,527,,116,388000000,"""map""",,,-0.019702853635,0.0139437709004,0.0084552494809,,0.00888804381172,-0.00837659740267,0.0287330660633,-0.999512554583
116424000000,,528,,116,424000000,"""map""",,,-0.0203123409301,0.013965992257,0.00795748177916,,0.00886007764905,-0.00841000709424,0.0287241730782,-0.999512765317
116456000000,,529,,116,456000000,"""map""",,,-0.0204818025231,0.0136700756848,0.0077900425531,,0.00886592175823,-0.00849687024671,0.0287899643088,-0.999510110065
116488000000,,530,,116,488000000,"""map""",,,-0.0207076631486,0.0134524814785,0.00764446984977,,0.00885212558006,-0.00850004805324,0.0287658563114,-0.999510868709
116524000000,,531,,116,524000000,"""map""",,,-0.0209666993469,0.0133211249486,0.0074564809911,,0.00884299146484,-0.0085472842366,0.0288299195211,-0.999508677073
116556000000,,532,,116,556000000,"""map""",,,-0.0212431401014,0.0132541535422,0.0072260457091,,0.00881113013489,-0.0085684442183,0.0288312260735,-0.999508803513
116588000000,,533,,116,588000000,"""map""",,,-0.0215576272458,0.0132584413514,0.00691969320178,,0.00880539929536,-0.00863193204535,0.0288618668323,-0.999507412667
116624000000,,534,,116,624000000,"""map""",,,-0.0220129434019,0.0133413961157,0.00648078508675,,0.00879854310617,-0.00866106942943,0.0289005576393,-0.999506063968
116652000000,,535,,116,652000000,"""map""",,,-0.0219507478178,0.0132387438789,0.00625759596005,,0.00880691987977,-0.00868282633542,0.0289242441681,-0.999505136737
116688000000,,536,,116,688000000,"""map""",,,-0.0219905078411,0.0131980190054,0.00615200819448,,0.0087560996451,-0.00870938447333,0.02894013353,-0.999504841709
116724000000,,537,,116,724000000,"""map""",,,-0.0220761466771,0.0132129909471,0.00613626278937,,0.00874726756771,-0.00867031929157,0.0289203666581,-0.999505811087
116756000000,,538,,116,756000000,"""map""",,,-0.022211458534,0.0132709136233,0.00616877712309,,0.00873415068592,-0.0086609956107,0.0289071325476,-0.999506485437
116788000000,,539,,116,788000000,"""map""",,,-0.0223718546331,0.0134000750259,0.00610131304711,,0.00870318360539,-0.00863194294478,0.0289032971844,-0.999507033346
116824000000,,540,,116,824000000,"""map""",,,-0.0226514432579,0.0136537728831,0.00590506382287,,0.00870382115364,-0.00866511243739,0.0288752273833,-0.999507623401
116856000000,,541,,116,856000000,"""map""",,,-0.0225959122181,0.0135384760797,0.00603217305616,,0.00867064479809,-0.00866773232777,0.0288464410858,-0.999508677073
116888000000,,542,,116,888000000,"""map""",,,-0.0226239431649,0.0134775107726,0.00616993615404,,0.00866125011243,-0.00871326266767,0.0288313103672,-0.999508803513
116924000000,,543,,116,924000000,"""map""",,,-0.0227171629667,0.0134309669957,0.00629150960594,,0.00866778815734,-0.00866890441166,0.0288307203113,-0.999509140688
116956000000,,544,,116,956000000,"""map""",,,-0.0228409636766,0.0134432986379,0.00652485340834,,0.00872568490398,-0.00871066915669,0.0288619089792,-0.99950737052
116988000000,,545,,116,988000000,"""map""",,,-0.0230495203286,0.0135095492005,0.00679578399286,,0.00875545091187,-0.00871574542162,0.0288717291949,-0.999506822611
117024000000,,546,,117,24000000,"""map""",,,-0.023395203054,0.0136579060927,0.00709036877379,,0.00876016311167,-0.00872046489627,0.0288430693379,-0.999507581255
117056000000,,547,,117,56000000,"""map""",,,-0.0233153551817,0.0133360791951,0.00739907100797,,0.00875322496713,-0.00870865691285,0.0288463989389,-0.999507623401
117088000000,,548,,117,88000000,"""map""",,,-0.0233007632196,0.013085803017,0.0077210990712,,0.00876199506641,-0.00875997373156,0.0288455981488,-0.999507159786
117124000000,,549,,117,124000000,"""map""",,,-0.0233796201646,0.0128963552415,0.00793755054474,,0.0087759370662,-0.00871556877992,0.0288098997681,-0.999508382045
117156000000,,550,,117,156000000,"""map""",,,-0.0235148891807,0.0127905905247,0.00802581105381,,0.00877492936834,-0.00873446518079,0.0287122455201,-0.999511037296
117192000000,,551,,117,188000000,"""map""",,,-0.0237253159285,0.0126951960847,0.00809649098665,,0.00878037286509,-0.00863239476548,0.0287256060711,-0.999511500911
117224000000,,552,,117,224000000,"""map""",,,-0.0240688491613,0.012614316307,0.00817818380892,,0.00875078541729,-0.00868687387859,0.0287297786091,-0.999511205884
117256000000,,553,,117,256000000,"""map""",,,-0.0240102782845,0.0124065158889,0.00884741917253,,0.00870134679613,-0.0086308584506,0.028672206014,-0.999513734694
117288000000,,554,,117,288000000,"""map""",,,-0.0240403730422,0.0122320875525,0.00952509045601,,0.00872050390474,-0.00864161770189,0.0286717423987,-0.99951352396
117324000000,,555,,117,324000000,"""map""",,,-0.0241861082613,0.0121083082631,0.0101203806698,,0.00874122885606,-0.00869367772378,0.0286669798048,-0.999513060345
117356000000,,556,,117,356000000,"""map""",,,-0.0243742857128,0.0120327584445,0.0103093311191,,0.00889788472013,-0.00867161386916,0.0286784016008,-0.999511500911
117388000000,,557,,117,388000000,"""map""",,,-0.0245830714703,0.0119947753847,0.0104317506775,,0.0089015417927,-0.00865492420077,0.0286937430536,-0.999511163737
117424000000,,558,,117,424000000,"""map""",,,-0.0248961895704,0.011950371787,0.0104733835906,,0.00884407151899,-0.00861879422648,0.0286727117762,-0.999512638876
117456000000,,559,,117,456000000,"""map""",,,-0.0252061337233,0.0119459992275,0.0105195799842,,0.00886991700371,-0.0086733320015,0.0286771371953,-0.999511753793
117488000000,,560,,117,488000000,"""map""",,,-0.0255753267556,0.0119662694633,0.0104371141642,,0.00888480595417,-0.00868484673454,0.02868055109,-0.999511458765
117524000000,,561,,117,524000000,"""map""",,,-0.0259571783245,0.0120419338346,0.0103276679292,,0.00886296666837,-0.0087109468033,0.0286116409927,-0.999513355373
117556000000,,562,,117,556000000,"""map""",,,-0.0260033458471,0.011920648627,0.01043985039,,0.00881834997441,-0.00867840052017,0.0285911997712,-0.999514661925
117588000000,,563,,117,588000000,"""map""",,,-0.0260051228106,0.0117957703769,0.010635856539,,0.00882267851543,-0.00869505057299,0.0285462712307,-0.999515757743
117624000000,,564,,117,624000000,"""map""",,,-0.0260849222541,0.0117284590378,0.0107494844124,,0.00882532830817,-0.008727804133,0.0284996146694,-0.999516727121
117656000000,,565,,117,656000000,"""map""",,,-0.0262381639332,0.0117155779153,0.0108080441132,,0.00880976862498,-0.00875542703449,0.0285049673191,-0.999516516386
117688000000,,566,,117,688000000,"""map""",,,-0.0264421179891,0.0117509094998,0.0107952812687,,0.00881320433143,-0.0087480282072,0.0284852847409,-0.999517064295
117724000000,,567,,117,724000000,"""map""",,,-0.0267365463078,0.0118244588375,0.0107557205483,,0.00885286573779,-0.00873866906783,0.0285066531931,-0.999516263505
117756000000,,568,,117,756000000,"""map""",,,-0.0267272889614,0.0117231151089,0.0108090229332,,0.00880879381962,-0.00871854738445,0.0284500921224,-0.999518370848
117788000000,,569,,117,788000000,"""map""",,,-0.0266930926591,0.0115885036066,0.0109181934968,,0.00878284520581,-0.00869112755133,0.0284644641977,-0.999518497288
117824000000,,570,,117,824000000,"""map""",,,-0.0267969761044,0.0114807197824,0.0110220424831,,0.00874388076077,-0.00868432315307,0.0283601928945,-0.999521869036
117856000000,,571,,117,856000000,"""map""",,,-0.0269412249327,0.0114240255207,0.0111285736784,,0.00880243551066,-0.00868904267659,0.0283726262148,-0.999520899659
117888000000,,572,,117,888000000,"""map""",,,-0.0271373018622,0.0113923326135,0.0111146457493,,0.00882556250821,-0.00866756204031,0.0283200690947,-0.999522374798
117924000000,,573,,117,924000000,"""map""",,,-0.0273917689919,0.0113792140037,0.0110764587298,,0.0088106511981,-0.0085631055729,0.0283207855911,-0.99952342847
117956000000,,574,,117,956000000,"""map""",,,-0.0274928435683,0.0111865866929,0.0115187941119,,0.00881655957711,-0.00859341450766,0.0283497826229,-0.999522248358
117988000000,,575,,117,988000000,"""map""",,,-0.0275871362537,0.01097960677,0.0119252828881,,0.00878514696292,-0.00855338821362,0.0283330081772,-0.999523344176
118024000000,,576,,118,24000000,"""map""",,,-0.0278321411461,0.0107531407848,0.0123572200537,,0.0089987328987,-0.00861338405697,0.0283084365645,-0.999521616155
118056000000,,577,,118,56000000,"""map""",,,-0.0281313415617,0.0105988876894,0.0125317191705,,0.0089551336097,-0.00864559052598,0.028376756606,-0.999519803841
118088000000,,578,,118,88000000,"""map""",,,-0.0284758489579,0.0104722706601,0.0125776650384,,0.00889087901046,-0.00859395709688,0.0283850595351,-0.999520604631
118124000000,,579,,118,124000000,"""map""",,,-0.028874585405,0.0103556634858,0.0124538261443,,0.00893415110574,-0.00862024310671,0.0283545873636,-0.999520815365
118156000000,,580,,118,156000000,"""map""",,,-0.0286644790322,0.0101028326899,0.0126365525648,,0.00898070771234,-0.00859896012125,0.0283661356001,-0.999520309603
118188000000,,581,,118,188000000,"""map""",,,-0.0283658653498,0.0098295994103,0.0129196774215,,0.00892620537524,-0.00854908710509,0.0283671049777,-0.999521194687
118224000000,,582,,118,224000000,"""map""",,,-0.028145885095,0.00954338908195,0.0132819535211,,0.00898596116883,-0.0085837363009,0.0283754500537,-0.999520098869
118256000000,,583,,118,256000000,"""map""",,,-0.0280934870243,0.009312113747,0.0134588815272,,0.00897936666876,-0.00860497551374,0.0283220499966,-0.999521489715
118288000000,,584,,118,288000000,"""map""",,,-0.0281269811094,0.0091141872108,0.013464037329,,0.00897100285511,-0.00863642658075,0.0283396252324,-0.999520773218
118324000000,,585,,118,324000000,"""map""",,,-0.0282585769892,0.00893313903362,0.0134316403419,,0.00897882152768,-0.00869419103864,0.0283285827581,-0.999520604631
118356000000,,586,,118,356000000,"""map""",,,-0.0282558053732,0.00867095217109,0.0133207645267,,0.00896863883467,-0.00868203326776,0.0283691280264,-0.999519593106
118388000000,,587,,118,388000000,"""map""",,,-0.028259633109,0.00841821730137,0.0131141468883,,0.00893267173695,-0.00865618937796,0.0283462422876,-0.999520815365
118424000000,,588,,118,424000000,"""map""",,,-0.0283445548266,0.0081724151969,0.0127773564309,,0.00890448911894,-0.00866510561785,0.0284224859366,-0.999518834463
118456000000,,589,,118,456000000,"""map""",,,-0.0284669324756,0.00799928233027,0.0125483740121,,0.00886864922321,-0.00860711872626,0.0283620473558,-0.99952127898
118488000000,,590,,118,488000000,"""map""",,,-0.0286311563104,0.0078273974359,0.0123962666839,,0.00885997895998,-0.00859768164969,0.0283652505163,-0.999521447568
118524000000,,591,,118,524000000,"""map""",,,-0.0288903806359,0.00763806747273,0.0122713278979,,0.00886626591977,-0.00868289022967,0.0283577062304,-0.999520815365
118556000000,,592,,118,556000000,"""map""",,,-0.0286953058094,0.00746657233685,0.0125902136788,,0.00880973908309,-0.00840212769152,0.0282812097004,-0.999525915134
118588000000,,593,,118,588000000,"""map""",,,-0.028571980074,0.007286476437,0.013625189662,,0.00809127410423,-0.00760898409473,0.0281783292432,-0.99954121444
118624000000,,594,,118,624000000,"""map""",,,-0.0288220960647,0.00693410122767,0.0164095275104,,0.00554506081539,-0.00542623207714,0.0279070721262,-0.999580495303
118656000000,,595,,118,656000000,"""map""",,,-0.0293320901692,0.00650946469977,0.0199732314795,,0.00102736865701,-0.00111834353502,0.0274789865858,-0.999621251305
118688000000,,596,,118,688000000,"""map""",,,-0.0300619117916,0.00596890272573,0.0244663413614,,-0.00186590842265,0.0017197811418,0.0272287185994,-0.999626056046
118724000000,,597,,118,724000000,"""map""",,,-0.0309818834066,0.00531844282523,0.0296291168779,,-0.00925702922183,0.00934209580315,0.0266898711412,-0.999557230242
118756000000,,598,,118,756000000,"""map""",,,-0.0317135639489,0.00443926313892,0.0349988751113,,-0.0162314868323,0.0167807935413,0.0262587510277,-0.999382531555
118788000000,,599,,118,788000000,"""map""",,,-0.0325835011899,0.00333047797903,0.0408738479018,,-0.0205586208746,0.0212579359554,0.0260133299289,-0.999224101551
118824000000,,600,,118,824000000,"""map""",,,-0.0340869165957,0.00163108878769,0.0489114969969,,-0.0300078698952,0.0310556590708,0.0256017659532,-0.998739033472
118856000000,,601,,118,856000000,"""map""",,,-0.0356305092573,-4.57193600596e-05,0.055955529213,,-0.0406075870751,0.0421263815238,0.0252373643009,-0.997967661851
118888000000,,602,,118,888000000,"""map""",,,-0.037740137428,-0.00219673570246,0.0635200291872,,-0.046414734127,0.0480549401461,0.0251424074512,-0.997448876292
118924000000,,603,,118,924000000,"""map""",,,-0.0409733057022,-0.00533355027437,0.0715973749757,,-0.0591186730958,0.0611643653834,0.0254531561653,-0.996050233124
118956000000,,604,,118,956000000,"""map""",,,-0.0452082939446,-0.00941385515034,0.0803175121546,,-0.0673015072772,0.0692466217084,0.0261199193087,-0.994984002151
118988000000,,605,,118,988000000,"""map""",,,-0.0508734844625,-0.0147910676897,0.0902134776115,,-0.0708104433146,0.0723709358137,0.026644563279,-0.994504118134
119024000000,,606,,119,24000000,"""map""",,,-0.060245424509,-0.0236160606146,0.104356393218,,-0.0765846479328,0.0761946538828,0.0279413796608,-0.99375470502
119056000000,,607,,119,56000000,"""map""",,,-0.0695525109768,-0.0324282869697,0.117188848555,,-0.0808227871553,0.0776603741099,0.0295482282603,-0.993259015935
119088000000,,608,,119,88000000,"""map""",,,-0.0804553925991,-0.0427863448858,0.131475776434,,-0.0824625748339,0.0782569719702,0.0304234918633,-0.993050936944
119124000000,,609,,119,124000000,"""map""",,,-0.0929204449058,-0.0546903349459,0.147029966116,,-0.0846561072354,0.0789070663643,0.0323027355448,-0.992755571829
119156000000,,610,,119,156000000,"""map""",,,-0.109000697732,-0.0708752349019,0.167483896017,,-0.0853605094902,0.0777702479805,0.0339234083105,-0.992730831629
119188000000,,611,,119,188000000,"""map""",,,-0.119485914707,-0.0815631747246,0.180601984262,,-0.0856123023365,0.0766649182316,0.0347850584815,-0.992765392045
119224000000,,612,,119,224000000,"""map""",,,-0.138686686754,-0.101114273071,0.204186186194,,-0.085772100137,0.0747573116968,0.0366110285464,-0.99283139401
119256000000,,613,,119,256000000,"""map""",,,-0.155524551868,-0.118229463696,0.224621921778,,-0.0858094310495,0.0747855718173,0.0379133240185,-0.992777151016
119288000000,,614,,119,288000000,"""map""",,,-0.173584118485,-0.136626839638,0.246283724904,,-0.0859897365845,0.0751202480875,0.0385922676012,-0.992710179674
119324000000,,615,,119,324000000,"""map""",,,-0.1927934587,-0.156239256263,0.26921787858,,-0.0867279876978,0.0756405967012,0.0400971629741,-0.992546734195
119356000000,,616,,119,356000000,"""map""",,,-0.212112769485,-0.176024392247,0.293317586184,,-0.0872609648902,0.0757031860883,0.0413307590832,-0.992444612381
119388000000,,617,,119,388000000,"""map""",,,-0.232230111957,-0.196716159582,0.318719416857,,-0.0873500159128,0.0757126322507,0.0420003039186,-0.992407944623
119424000000,,618,,119,424000000,"""map""",,,-0.258898139,-0.224218562245,0.352282643318,,-0.0870656010765,0.0752792019632,0.0432932849372,-0.99241038914
119456000000,,619,,119,456000000,"""map""",,,-0.281401515007,-0.247451245785,0.380675971508,,-0.0865723545327,0.0749626916432,0.0443094876017,-0.992432684823
119488000000,,620,,119,488000000,"""map""",,,-0.304838448763,-0.271712779999,0.410532146692,,-0.0864501872825,0.0749681226598,0.0448109929521,-0.992420335796
119524000000,,621,,119,524000000,"""map""",,,-0.329161196947,-0.296943157911,0.441765159369,,-0.0861242683372,0.0748785158257,0.0457195104186,-0.992414013769
119556000000,,622,,119,556000000,"""map""",,,-0.353917241096,-0.322576671839,0.474183112383,,-0.0855668532165,0.0745098803908,0.0465516999425,-0.99245131373
119588000000,,623,,119,588000000,"""map""",,,-0.37937361002,-0.348898142576,0.50784188509,,-0.0852241163615,0.0742975537876,0.0469201476921,-0.992479383531
119624000000,,624,,119,624000000,"""map""",,,-0.412318736315,-0.382963061333,0.551982104778,,-0.0846375609757,0.0741886018793,0.0476065091201,-0.992505050962
119656000000,,625,,119,656000000,"""map""",,,-0.439493864775,-0.411070197821,0.588958442211,,-0.0843068372896,0.0739732604594,0.0481104589878,-0.992524986421
119688000000,,626,,119,688000000,"""map""",,,-0.467368394136,-0.439898252487,0.627346456051,,-0.0840985534912,0.0737694955934,0.0483675126169,-0.992545259055
119724000000,,627,,119,724000000,"""map""",,,-0.495896339417,-0.469405919313,0.667149484158,,-0.083540426484,0.0735908430051,0.0489031147677,-0.992579398003
119756000000,,628,,119,756000000,"""map""",,,-0.524969220161,-0.499462991953,0.708382487297,,-0.0831231687324,0.0734640797727,0.0492495197156,-0.992606751307
119788000000,,629,,119,788000000,"""map""",,,-0.554562091827,-0.530078113079,0.750983655453,,-0.0828795448015,0.0733848377706,0.0494209730954,-0.992624452984
119824000000,,630,,119,824000000,"""map""",,,-0.592262685299,-0.569110870361,0.806010782719,,-0.0824624632106,0.0732346122438,0.0497943941732,-0.992651595554
119856000000,,631,,119,856000000,"""map""",,,-0.622936725616,-0.60092574358,0.851538002491,,-0.0819562848284,0.0732319622607,0.0500564211304,-0.992680550439
119888000000,,632,,119,888000000,"""map""",,,-0.654042720795,-0.633201181889,0.898593842983,,-0.081738029349,0.0732694604435,0.050141094149,-0.992691466473
119924000000,,633,,119,924000000,"""map""",,,-0.685586035252,-0.66593170166,0.94712638855,,-0.0812509876116,0.0732410989072,0.0504005080016,-0.992720421358
119956000000,,634,,119,956000000,"""map""",,,-0.717656373978,-0.69926160574,0.996815443039,,-0.0808017031943,0.0733053929368,0.0505445659298,-0.992745035117
119988000000,,635,,119,988000000,"""map""",,,-0.750137627125,-0.732999145985,1.04792940617,,-0.0805444440993,0.0733219408432,0.0505691796894,-0.992763495437
120024000000,,636,,120,24000000,"""map""",,,-0.791230618954,-0.775589823723,1.11380290985,,-0.0802067487318,0.0732467762194,0.0507051875695,-0.992789415749
120056000000,,637,,120,56000000,"""map""",,,-0.824467778206,-0.810019493103,1.16801679134,,-0.0799061287616,0.0731652507142,0.0507392422231,-0.992817907018
120088000000,,638,,120,88000000,"""map""",,,-0.85800331831,-0.844702839851,1.22353732586,,-0.0797142203309,0.0732207087229,0.0507812204842,-0.992827095031
120124000000,,639,,120,124000000,"""map""",,,-0.891763567924,-0.879607617855,1.28045940399,,-0.0793656507471,0.0732951446672,0.0508188154731,-0.992847662693
120156000000,,640,,120,156000000,"""map""",,,-0.926370203495,-0.91503661871,1.33935248852,,-0.0790245480703,0.0732244199505,0.050925109825,-0.992874636676
120188000000,,641,,120,188000000,"""map""",,,-0.961353838444,-0.950776398182,1.39977657795,,-0.0786607891576,0.0731000656739,0.0509844104409,-0.992909576414
120224000000,,642,,120,224000000,"""map""",,,-1.00524890423,-0.995649755001,1.4771116972,,-0.0769149886547,0.0720019548899,0.051011932333,-0.993125157544
120256000000,,643,,120,256000000,"""map""",,,-1.0404613018,-1.03166639805,1.54054701328,,-0.0738451167531,0.069696396659,0.0511474765978,-0.993515605949
120288000000,,644,,120,288000000,"""map""",,,-1.07569611073,-1.0677267313,1.60512208939,,-0.071904399259,0.0680882862883,0.0511958611799,-0.993766969753
120324000000,,645,,120,324000000,"""map""",,,-1.11087024212,-1.10378372669,1.67092263699,,-0.0674794541527,0.0642664734502,0.0513749852861,-0.994322380923
120356000000,,646,,120,356000000,"""map""",,,-1.14651322365,-1.13999712467,1.7384698391,,-0.0627962310186,0.0600085060906,0.0514891610987,-0.994889213888
120388000000,,647,,120,388000000,"""map""",,,-1.18206822872,-1.17605364323,1.80753982067,,-0.060377077482,0.0578314720401,0.0515758571661,-0.995163379138
120428000000,,648,,120,428000000,"""map""",,,-1.22601234913,-1.22065627575,1.89525902271,,-0.0556767756546,0.0537592234513,0.0517242983665,-0.995657930258
120456000000,,649,,120,456000000,"""map""",,,-1.26064503193,-1.2558836937,1.9651954174,,-0.0510278387244,0.051110096387,0.0652740465474,-0.995250328086
120488000000,,650,,120,488000000,"""map""",,,-1.29474318027,-1.2905870676,2.03341054916,,-0.0501217349779,0.050282162882,0.0653029171387,-0.995336686979
120524000000,,651,,120,524000000,"""map""",,,-1.32830631733,-1.32477807999,2.09909749031,,-0.0490750717077,0.049316672384,0.0650647031509,-0.9954527594
120556000000,,652,,120,556000000,"""map""",,,-1.36229300499,-1.35892045498,2.16242623329,,-0.0490318957599,0.0493821545514,0.0644137450756,-0.995493936871
120588000000,,653,,120,588000000,"""map""",,,-1.39596760273,-1.39271831512,2.22294187546,,-0.0490304490405,0.0494418060686,0.0639060441385,-0.99552377684
120624000000,,654,,120,624000000,"""map""",,,-1.43725836277,-1.43432879448,2.29485821724,,-0.0482205849163,0.0490213826113,0.0627853172897,-0.995655401448
120656000000,,655,,120,656000000,"""map""",,,-1.46972823143,-1.46714627743,2.35022449493,,-0.0461796219662,0.0476045970362,0.0616478581421,-0.995891929561
120688000000,,656,,120,688000000,"""map""",,,-1.50169348717,-1.49958586693,2.40276670456,,-0.0447882921821,0.0465060174508,0.0610571279134,-0.996043826803
120724000000,,657,,120,724000000,"""map""",,,-1.53324604034,-1.53170776367,2.44845533371,,-0.0414763325693,0.0394404535827,0.0599019670894,-0.996562064453
120756000000,,658,,120,756000000,"""map""",,,-1.56570494175,-1.56393492222,2.48755335808,,-0.0380193068789,0.0284440025613,0.0591430709351,-0.997119667258
120788000000,,659,,120,788000000,"""map""",,,-1.59813594818,-1.59599888325,2.51837229729,,-0.0351055852644,0.0208185306524,0.0586829959367,-0.997442006356
120824000000,,660,,120,824000000,"""map""",,,-1.63806569576,-1.63569951057,2.54429936409,,-0.023539350751,0.00154656938648,0.0573570560826,-0.998074967727
120856000000,,661,,120,856000000,"""map""",,,-1.66949927807,-1.66710686684,2.55518889427,,-0.00859506872001,-0.0151773554204,0.0558540994647,-0.9982866292
120888000000,,662,,120,888000000,"""map""",,,-1.69967186451,-1.69774925709,2.56213879585,,0.000818659068387,-0.0233951005278,0.0548885151653,-0.998218098424
120924000000,,663,,120,924000000,"""map""",,,-1.7272797823,-1.72680854797,2.57468175888,,0.00747384730433,-0.0249126840778,0.0532469797095,-0.99824262789
120956000000,,664,,120,956000000,"""map""",,,-1.75288796425,-1.75389885902,2.60250282288,,0.00444311550166,-0.0184958283676,0.0525043100919,-0.99843949582
120988000000,,665,,120,988000000,"""map""",,,-1.77618324757,-1.77919399738,2.64524769783,,0.00406886334069,-0.0154034390183,0.0522482258403,-0.998507099365
121024000000,,666,,121,24000000,"""map""",,,-1.80242025852,-1.80872559547,2.71475243568,,0.000793098321854,-0.0051001367962,0.0519243694564,-0.998637670301
121056000000,,667,,121,56000000,"""map""",,,-1.82198905945,-1.83123838902,2.77394795418,,-0.00940754240911,0.0113886899262,0.0516165288749,-0.998557759877
121088000000,,668,,121,88000000,"""map""",,,-1.84104084969,-1.85320878029,2.82949829102,,-0.0172235602202,0.0230725411473,0.0512717255072,-0.998269601873
121124000000,,669,,121,124000000,"""map""",,,-1.85989868641,-1.8749011755,2.87906861305,,-0.0358094270978,0.0518308877464,0.0502478099695,-0.996747932055
121156000000,,670,,121,156000000,"""map""",,,-1.88011753559,-1.8968681097,2.91979980469,,-0.0520232723048,0.0796453685147,0.0490910897121,-0.994253639413
121188000000,,671,,121,188000000,"""map""",,,-1.90104818344,-1.91901373863,2.95498371124,,-0.0572577923518,0.0885656357324,0.0485901322707,-0.993235455847
121224000000,,672,,121,224000000,"""map""",,,-1.9282027483,-1.94693875313,2.99475908279,,-0.0592251387517,0.0941825620385,0.047945411929,-0.992634568227
121256000000,,673,,121,256000000,"""map""",,,-1.95088946819,-1.96952068806,3.02496027946,,-0.0526059577538,0.0882382627208,0.0477936411275,-0.993560492342
121288000000,,674,,121,288000000,"""map""",,,-1.97426855564,-1.99228417873,3.05436134338,,-0.047689883489,0.081551509788,0.0478439644647,-0.994377213973
121324000000,,675,,121,324000000,"""map""",,,-1.99810123444,-2.0150539875,3.08337306976,,-0.0358931939593,0.061335644825,0.0480318972622,-0.996314493865
121356000000,,676,,121,356000000,"""map""",,,-2.02278637886,-2.03726911545,3.11395549774,,-0.0265449472269,0.0451544074494,0.0482001896283,-0.997463374808
121388000000,,677,,121,384000000,"""map""",,,-2.04744243622,-2.05908489227,3.14455914497,,-0.0219270843059,0.0374002895294,0.0482847783532,-0.997892303285
121424000000,,678,,121,424000000,"""map""",,,-2.07749867439,-2.08582377434,3.18128585815,,-0.0138519107917,0.0221616282251,0.0486930127279,-0.998471822452
121456000000,,679,,121,456000000,"""map""",,,-2.10084104538,-2.10669851303,3.20927071571,,-0.00932771314994,0.0127233823308,0.049058299464,-0.998671303486
121488000000,,680,,121,488000000,"""map""",,,-2.12345004082,-2.12705421448,3.23625063896,,-0.00760291042105,0.00943934294717,0.0492918351516,-0.998710879377
121524000000,,681,,121,524000000,"""map""",,,-2.145216465,-2.14689850807,3.26218152046,,-0.00520572784319,0.00550602673185,0.0496449414484,-0.998738190535
121556000000,,682,,121,556000000,"""map""",,,-2.16707873344,-2.16584849358,3.28756976128,,-0.00429075676399,0.00362100683309,0.0499690085666,-0.998735029521
121588000000,,683,,121,588000000,"""map""",,,-2.18843793869,-2.18420624733,3.31217265129,,-0.00405755238601,0.00327487709504,0.0501296723531,-0.998729128963
121624000000,,684,,121,624000000,"""map""",,,-2.2140250206,-2.20649123192,3.34175944328,,-0.00380441985442,0.00488684707168,0.0503740397808,-0.998711258699
121656000000,,685,,121,656000000,"""map""",,,-2.23363494873,-2.22381949425,3.36454248428,,-0.00370651659428,0.0062028403519,0.0507091915201,-0.998687319289
121688000000,,686,,121,684000000,"""map""",,,-2.2526242733,-2.24073290825,3.38624405861,,-0.00380991351503,0.00620895082176,0.050893415395,-0.998677583367
121724000000,,687,,121,724000000,"""map""",,,-2.271058321,-2.25721979141,3.40706753731,,-0.00403773073139,0.00675200736719,0.0512385980843,-0.998655498418
121756000000,,688,,121,756000000,"""map""",,,-2.28981351852,-2.27294969559,3.42864131927,,-0.00418749305445,0.0080301302223,0.0516238624265,-0.998625532009
121788000000,,689,,121,788000000,"""map""",,,-2.3082253933,-2.28819727898,3.4497525692,,-0.00419914056652,0.00794845703851,0.0517083668578,-0.998621780939
121824000000,,690,,121,824000000,"""map""",,,-2.33052182198,-2.30678701401,3.47476673126,,-0.00410322150098,0.0066935551213,0.0520507257082,-0.998613562304
121856000000,,691,,121,856000000,"""map""",,,-2.34778046608,-2.32130718231,3.49386930466,,-0.00401417138393,0.00697410866418,0.0521853427424,-0.998605048641
121888000000,,692,,121,888000000,"""map""",,,-2.36445116997,-2.33553552628,3.5123565197,,-0.00399515311245,0.00707116577695,0.0522226848502,-0.998602435536
121924000000,,693,,121,924000000,"""map""",,,-2.38059806824,-2.34950709343,3.53000807762,,-0.00392019848205,0.00547836961177,0.0523678385964,-0.998605132934
121956000000,,694,,121,956000000,"""map""",,,-2.39720749855,-2.36269450188,3.54781246185,,-0.00364882689148,0.00399250342776,0.0524416377282,-0.998609389766
121988000000,,695,,121,988000000,"""map""",,,-2.41355800629,-2.375446558,3.56518769264,,-0.00344439390118,0.00420597889269,0.052528207355,-0.998604669319
122024000000,,696,,122,24000000,"""map""",,,-2.43310022354,-2.39113688469,3.5859568119,,-0.00306761918547,0.00395746823226,0.0526541421384,-0.998600286047
122056000000,,697,,122,56000000,"""map""",,,-2.44817829132,-2.40346050262,3.60154128075,,-0.00266369140376,0.00170084129885,0.0528738536596,-0.998596197802
122088000000,,698,,122,88000000,"""map""",,,-2.46282792091,-2.41559481621,3.61643338203,,-0.0024407116084,0.00129055284154,0.0529220275075,-0.99859489125
122120000000,,699,,122,124000000,"""map""",,,-2.47693824768,-2.42752957344,3.63074350357,,-0.00204298447598,0.00215733949502,0.0530223791538,-0.998588948544
122156000000,,700,,122,156000000,"""map""",,,-2.49102544785,-2.43865394592,3.64527773857,,-0.00169769493783,0.000970099650963,0.053075189155,-0.998588653516
122188000000,,701,,122,188000000,"""map""",,,-2.50484585762,-2.44940185547,3.65932846069,,-0.00142708335907,-0.000118521918255,0.0531293057085,-0.998586630468
122224000000,,702,,122,224000000,"""map""",,,-2.5215036869,-2.46256399155,3.67606496811,,-0.000957573599353,9.59888712572e-05,0.0532022619032,-0.998583300867
122256000000,,703,,122,256000000,"""map""",,,-2.53422188759,-2.47293758392,3.68877649307,,-0.000791279077216,0.000637505343476,0.0531911351352,-0.998583890923
122288000000,,704,,122,288000000,"""map""",,,-2.54649853706,-2.48314809799,3.70060443878,,-0.000696665149139,-0.000615026600675,0.0532512365412,-0.998580687762
122324000000,,705,,122,324000000,"""map""",,,-2.5584321022,-2.49321174622,3.71175003052,,-0.000610994137148,-0.00211039198052,0.0533367946437,-0.998574197147
122356000000,,706,,122,356000000,"""map""",,,-2.56994748116,-2.50312399864,3.72262430191,,-0.000521671331224,-0.000787561084125,0.0532869349219,-0.998578791154
122388000000,,707,,122,388000000,"""map""",,,-2.5809867382,-2.51292037964,3.73303484917,,-0.000404794909899,-0.000650068762341,0.0532706240915,-0.998579844825
122424000000,,708,,122,424000000,"""map""",,,-2.59431552887,-2.52501559258,3.74516534805,,-0.000222983828947,-0.00296194946299,0.0533250778198,-0.998572848448
122456000000,,709,,122,456000000,"""map""",,,-2.60568380356,-2.53347206116,3.75553250313,,0.000144604931742,-0.00288338502087,0.0533319477561,-0.998572722008
122488000000,,710,,122,488000000,"""map""",,,-2.61661481857,-2.54184532166,3.76572751999,,0.000340265255145,-0.00170216871879,0.0532637963021,-0.998579001888
122524000000,,711,,122,524000000,"""map""",,,-2.6271147728,-2.55015206337,3.77530741692,,0.000680970664976,-0.00254725106238,0.0532745437484,-0.99857643093
122556000000,,712,,122,556000000,"""map""",,,-2.63737487793,-2.55837488174,3.78431272507,,0.000933125957675,-0.0049149843736,0.0532945213546,-0.998566315687
122588000000,,713,,122,588000000,"""map""",,,-2.64740157127,-2.56646680832,3.79300618172,,0.000961235765362,-0.00449611170631,0.0532852069011,-0.998568802351
122624000000,,714,,122,624000000,"""map""",,,-2.65928602219,-2.57645392418,3.80366277695,,0.000978778403238,-0.00292261476416,0.0531716211444,-0.998580645615
122656000000,,715,,122,656000000,"""map""",,,-2.66874480247,-2.58307433128,3.81300425529,,0.000990663485246,-0.00587801961183,0.0532309639071,-0.998564461225
122688000000,,716,,122,688000000,"""map""",,,-2.67804455757,-2.58971309662,3.82165956497,,0.000995723247337,-0.00704489182671,0.0532303738512,-0.998556959086
122724000000,,717,,122,724000000,"""map""",,,-2.68702673912,-2.59634399414,3.83020496368,,0.001065907299,-0.00466364328887,0.0531547202581,-0.998574871497
122756000000,,718,,122,756000000,"""map""",,,-2.69556522369,-2.60296916962,3.83819961548,,0.00123628560484,-0.00486075455046,0.0530710587638,-0.998578201098
122788000000,,719,,122,788000000,"""map""",,,-2.70384764671,-2.60957098007,3.84519815445,,0.00129517726455,-0.00698209038825,0.0531274091003,-0.998562564617
122824000000,,720,,122,824000000,"""map""",,,-2.71402812004,-2.61779260635,3.85356020927,,0.00134842091729,-0.00815577178871,0.053064610296,-0.99855691694
122856000000,,721,,122,856000000,"""map""",,,-2.72228527069,-2.62318491936,3.8622572422,,0.00140570424668,-0.00499119163797,0.0528910495738,-0.998586841202
122888000000,,722,,122,888000000,"""map""",,,-2.73011279106,-2.62863469124,3.87017869949,,0.00144713558659,-0.00569695214082,0.0528614624862,-0.998584565272
122924000000,,723,,122,924000000,"""map""",,,-2.73782491684,-2.63411927223,3.87731385231,,0.00148170670371,-0.0099284501271,0.0530005470863,-0.998544020004
122956000000,,724,,122,952000000,"""map""",,,-2.74539875984,-2.63960790634,3.8843729496,,0.0015452661269,-0.00738153714501,0.0528766353516,-0.998572595567
122988000000,,725,,122,988000000,"""map""",,,-2.75253033638,-2.64512324333,3.89132261276,,0.00155275476578,-0.00554015944355,0.052809495422,-0.998588063461
123024000000,,726,,123,24000000,"""map""",,,-2.76099443436,-2.65211939812,3.89874505997,,0.00150123419474,-0.00909425105469,0.0529258207239,-0.998555947562
123056000000,,727,,123,56000000,"""map""",,,-2.76741957664,-2.65648436546,3.90488910675,,0.00172671193174,-0.0108163930168,0.0530214519231,-0.998533314704
123088000000,,728,,123,88000000,"""map""",,,-2.7736055851,-2.66090965271,3.91074609756,,0.00449128869097,-0.0092932609001,0.0528823251762,-0.998547433899
123124000000,,729,,123,124000000,"""map""",,,-2.77927279472,-2.66534876823,3.91625666618,,0.00918873655115,-0.0109829677342,0.0527175731454,-0.998506846484
123156000000,,730,,123,156000000,"""map""",,,-2.7847635746,-2.66972875595,3.92086267471,,0.00849402494343,-0.0162443285737,0.0527951233466,-0.998437135596
123188000000,,731,,123,188000000,"""map""",,,-2.79024720192,-2.67399597168,3.92551755905,,0.00726545385823,-0.0157782881499,0.0527753986215,-0.998455343035
123224000000,,732,,123,224000000,"""map""",,,-2.79654574394,-2.67928218842,3.93217229843,,0.00460030118537,-0.00822454886003,0.0525530739956,-0.998573733532
123256000000,,733,,123,256000000,"""map""",,,-2.80079460144,-2.68232750893,3.93841171265,,0.00233655674408,-0.0102184020056,0.052662023599,-0.998557422702
123288000000,,734,,123,288000000,"""map""",,,-2.80524301529,-2.68552350998,3.94365143776,,0.00154275443815,-0.0123647849252,0.0527399109751,-0.998530533012
123324000000,,735,,123,324000000,"""map""",,,-2.80975818634,-2.68883395195,3.94889426231,,0.000157226513464,-0.00826163611109,0.0527770844955,-0.998572174099
123356000000,,736,,123,356000000,"""map""",,,-2.81386160851,-2.69232726097,3.95426368713,,-0.000344963558619,-0.00421721382664,0.0527385201291,-0.99859944311
123388000000,,737,,123,388000000,"""map""",,,-2.81781148911,-2.69602847099,3.95829248428,,-0.000470742102285,-0.00713588555556,0.0528290515597,-0.998578032511
123424000000,,738,,123,424000000,"""map""",,,-2.82323455811,-2.70081710815,3.96243405342,,-0.000510867219157,-0.0117692980295,0.0529286445627,-0.998528847138
123456000000,,739,,123,456000000,"""map""",,,-2.82752513885,-2.70347285271,3.9678299427,,-0.000299864948987,-0.004974219135,0.0527082586918,-0.998597504355
123488000000,,740,,123,488000000,"""map""",,,-2.83131575584,-2.70633506775,3.97372221947,,-0.0061789048109,-0.00448278984482,0.0530031601909,-0.998565177722
123524000000,,741,,123,524000000,"""map""",,,-2.83508014679,-2.7098865509,3.98228096962,,-0.063837961173,-0.0174652062126,0.0551986738235,-0.996279469833
123556000000,,742,,123,556000000,"""map""",,,-2.83894944191,-2.71573352814,3.99635195732,,-0.153635399139,-0.0193374377121,0.0579296210196,-0.986238573232
123588000000,,743,,123,588000000,"""map""",,,-2.84229922295,-2.72533869743,4.0135178566,,-0.181914285495,-0.0170703850725,0.0585650269078,-0.981420429804
123624000000,,744,,123,624000000,"""map""",,,-2.84601020813,-2.74227786064,4.03096723557,,-0.242965075576,-0.0194496536963,0.0594389418116,-0.968016931187
