rosbagTimestamp,header,seq,stamp,secs,nsecs,frame_id,pose,position,x,y,z,orientation,x,y,z,w
108384000000,,245,,108,380000000,"""map""",,,-0.000986593542621,-0.00131128099747,-0.00186923949514,,0.0115682098176,-0.00420657981456,0.0250558378244,-0.999610250978
108416000000,,246,,108,416000000,"""map""",,,-0.00173444976099,-0.000819616951048,-0.00233409251086,,0.0116132927868,-0.0041767684925,0.025004755844,-0.999611178208
108448000000,,247,,108,448000000,"""map""",,,-0.00220724847168,-0.000432466040365,-0.00263747340068,,0.0116850840164,-0.00418293576181,0.024909040351,-0.999612737642
108480000000,,248,,108,480000000,"""map""",,,-0.00257499190047,-5.5481948948e-05,-0.00296172499657,,0.0117040204637,-0.00423099831564,0.0249030554985,-0.999612484761
108516000000,,249,,108,516000000,"""map""",,,-0.00287127122283,0.00032501044916,-0.00331450579688,,0.0116646325874,-0.00426045929202,0.0248545444759,-0.9996139599
108548000000,,250,,108,548000000,"""map""",,,-0.00317660719156,0.000594402372371,-0.00344860134646,,0.0117000659039,-0.00424005659535,0.024751031816,-0.99961623583
108580000000,,251,,108,580000000,"""map""",,,-0.00355053599924,0.00080173346214,-0.00344157847576,,0.0117109819377,-0.00418513398338,0.0247570588153,-0.999616193683
108616000000,,252,,108,616000000,"""map""",,,-0.0038013192825,0.000946243060753,-0.00344171072356,,0.0117586404745,-0.00423876749447,0.0247025629402,-0.999616741592
108648000000,,253,,108,648000000,"""map""",,,-0.00397394504398,0.00104600866325,-0.00337438704446,,0.0117257145662,-0.00422199041459,0.024652534631,-0.999618469613
108680000000,,254,,108,680000000,"""map""",,,-0.00405675405636,0.00112751300912,-0.00334570417181,,0.0117122542457,-0.00424607700924,0.0246595731547,-0.999618258879
108716000000,,255,,108,716000000,"""map""",,,-0.00406886357814,0.00118541484699,-0.00329606141895,,0.0116262536013,-0.00421670987545,0.024570727598,-0.999621630627
108748000000,,256,,108,748000000,"""map""",,,-0.00411779200658,0.00121103657875,-0.00295559037477,,0.0115847228212,-0.00421966706956,0.0244884990966,-0.999624117291
108780000000,,257,,108,780000000,"""map""",,,-0.00421456154436,0.00122311746236,-0.00239643198438,,0.0115717001035,-0.00423632231872,0.0244700387769,-0.999624623053
108816000000,,258,,108,816000000,"""map""",,,-0.00430040527135,0.00125040079001,-0.00200700480491,,0.0115151703137,-0.00421838521268,0.0243619742574,-0.999627994801
108848000000,,259,,108,848000000,"""map""",,,-0.00429665716365,0.00124866748229,-0.00165758002549,,0.01144706397,-0.00425125679107,0.0242286216287,-0.999631872311
108880000000,,260,,108,880000000,"""map""",,,-0.00424385489896,0.00126607436687,-0.00123238307424,,0.0114693649212,-0.00421866805755,0.0242178320355,-0.999632040898
108916000000,,261,,108,916000000,"""map""",,,-0.00415034545586,0.00128209462855,-0.000808525248431,,0.0113905997053,-0.00418950046274,0.0241632518666,-0.999634358975
108948000000,,262,,108,948000000,"""map""",,,-0.00402305461466,0.00134369754232,-0.000357033335604,,0.0114206787257,-0.00418712114144,0.0240974606361,-0.999635665527
108980000000,,263,,108,980000000,"""map""",,,-0.00392374908552,0.00147079199087,0.000148699531564,,0.0114263616355,-0.00420520641999,0.0240718774991,-0.999636129143
109016000000,,264,,109,16000000,"""map""",,,-0.00371334748343,0.00160649418831,0.000885113608092,,0.0114465328538,-0.00394973066356,0.0240330602516,-0.999637857163
109048000000,,265,,109,48000000,"""map""",,,-0.00351226585917,0.00172112346627,0.00145201128908,,0.0114361034844,-0.00394997893484,0.0240270753991,-0.999638110044
109080000000,,266,,109,80000000,"""map""",,,-0.0032663193997,0.00182951148599,0.00194947968703,,0.0114628249157,-0.00395114686352,0.0240299413848,-0.99963777287
109116000000,,267,,109,116000000,"""map""",,,-0.00295690982603,0.00191454065498,0.00246213981882,,0.0114001528812,-0.0039617161736,0.024052405655,-0.99963789931
109148000000,,268,,109,148000000,"""map""",,,-0.0027474432718,0.00207936088555,0.00318916514516,,0.0113739339194,-0.00398375337775,0.0240581797733,-0.999637941457
109180000000,,269,,109,180000000,"""map""",,,-0.00261374213733,0.00232024840079,0.00410305056721,,0.0114112552831,-0.00397855713231,0.0240355890625,-0.999638110044
109216000000,,270,,109,216000000,"""map""",,,-0.00239611067809,0.00262238108553,0.0053101410158,,0.0114199928516,-0.0039386519693,0.0240005650314,-0.999638995128
109248000000,,271,,109,248000000,"""map""",,,-0.00217859214172,0.00287100346759,0.00600568205118,,0.0114773132241,-0.00400065854454,0.0239707250626,-0.999638826541
109280000000,,272,,109,280000000,"""map""",,,-0.0019111278234,0.00311364396475,0.00660511478782,,0.0114740837218,-0.00400071386228,0.0239765413277,-0.999638657953
109316000000,,273,,109,316000000,"""map""",,,-0.00159283471294,0.00336586777121,0.00706383725628,,0.011530606597,-0.00405234243461,0.0239542456449,-0.999638362926
109348000000,,274,,109,348000000,"""map""",,,-0.0013689249754,0.00358619587496,0.00725181307644,,0.0114696359122,-0.00405084227023,0.0239224669211,-0.999639880212
109380000000,,275,,109,380000000,"""map""",,,-0.00121408700943,0.0037958167959,0.00744348578155,,0.0114713181642,-0.00408258642042,0.0238938070641,-0.999640385974
109416000000,,276,,109,416000000,"""map""",,,-0.000948976085056,0.00406208680943,0.00771928345785,,0.0114524890596,-0.00401417945111,0.0238425143495,-0.999642113995
109448000000,,277,,109,448000000,"""map""",,,-0.000676676165313,0.00431820005178,0.0079208817333,,0.0115272427516,-0.00401114520728,0.0238195864639,-0.99964177682
109480000000,,278,,109,480000000,"""map""",,,-0.000350318907294,0.00460230512545,0.00809162016958,,0.0115205473296,-0.00398997892825,0.0238152874853,-0.999642029701
109516000000,,279,,109,516000000,"""map""",,,3.3740849176e-05,0.00493906345218,0.00834473408759,,0.0114668380859,-0.00396914356784,0.0238015054659,-0.999643083373
109548000000,,280,,109,548000000,"""map""",,,0.000277085579,0.00524327950552,0.00878421869129,,0.0114312987437,-0.00390920581017,0.0237218057753,-0.99964565433
109580000000,,281,,109,580000000,"""map""",,,0.000424017285695,0.00549582019448,0.00930878333747,,0.0114046757649,-0.00389856834073,0.0236740112491,-0.999647087323
109616000000,,282,,109,616000000,"""map""",,,0.000682939891703,0.00580514641479,0.00989836081862,,0.0114327482002,-0.00391006521075,0.0236255423733,-0.99964793026
109648000000,,283,,109,648000000,"""map""",,,0.000927969464101,0.0060400380753,0.0102951731533,,0.0113576062962,-0.00395894172559,0.0235902654611,-0.9996494054
109680000000,,284,,109,680000000,"""map""",,,0.00119142106269,0.00628283433616,0.0105983605608,,0.0114203777709,-0.00397838558146,0.0235609734014,-0.999649278959
109716000000,,285,,109,716000000,"""map""",,,0.00149188062642,0.00654696673155,0.0107921725139,,0.0113986280214,-0.00394542608738,0.0235034851,-0.999651049127
109748000000,,286,,109,748000000,"""map""",,,0.00161310017575,0.0068778321147,0.010801455006,,0.0114640801015,-0.0039444349779,0.023518784406,-0.999649911162
109780000000,,287,,109,780000000,"""map""",,,0.00160158320796,0.0072802756913,0.0106606800109,,0.0114634577769,-0.00393419526934,0.0234845190182,-0.999650711952
109816000000,,288,,109,816000000,"""map""",,,0.00169130566064,0.00782527867705,0.0104796867818,,0.0115143497672,-0.00388248536676,0.0234520659449,-0.999651133421
109848000000,,289,,109,848000000,"""map""",,,0.00185005902313,0.00829075090587,0.0103006400168,,0.0115273290209,-0.00383831876224,0.0233972750418,-0.99965248212
109880000000,,290,,109,880000000,"""map""",,,0.00206951471046,0.00877521373332,0.0101430844516,,0.0115403817024,-0.0038453292978,0.0233757380022,-0.999652777148
109916000000,,291,,109,916000000,"""map""",,,0.00231835315935,0.00926438998431,0.00976939965039,,0.0115589325719,-0.00362449462886,0.0233457294461,-0.999654125847
109948000000,,292,,109,948000000,"""map""",,,0.00257763988338,0.0095730451867,0.00968077871948,,0.0115872980595,-0.00360161876828,0.0233325796293,-0.999654125847
109980000000,,293,,109,980000000,"""map""",,,0.00279524084181,0.00975796580315,0.00975197926164,,0.0115858051391,-0.00359839519292,0.02333350686,-0.999654125847
110016000000,,294,,110,16000000,"""map""",,,0.00311504071578,0.0100329760462,0.00976072065532,,0.0115974426083,-0.00363508567091,0.0232561252461,-0.999655643133
110048000000,,295,,110,48000000,"""map""",,,0.00344636826776,0.0102796442807,0.00960650388151,,0.0116136154736,-0.00366450515898,0.0232486231071,-0.99965555884
110080000000,,296,,110,80000000,"""map""",,,0.00382194668055,0.0105775333941,0.00938122998923,,0.0115976714526,-0.00370387755948,0.0232101008876,-0.99965648607
110116000000,,297,,110,116000000,"""map""",,,0.0042048082687,0.0109232086688,0.00906958710402,,0.011591534147,-0.00374288413851,0.0231204966876,-0.999658509119
110148000000,,298,,110,148000000,"""map""",,,0.00442350609228,0.0113008245826,0.00894617475569,,0.0116289984148,-0.00374462434237,0.0231121094648,-0.999658298385
110180000000,,299,,110,180000000,"""map""",,,0.0044858623296,0.0117305731401,0.00889922678471,,0.0116043319717,-0.00370299906111,0.0230190070764,-0.999660869343
110216000000,,300,,110,216000000,"""map""",,,0.00459484895691,0.0122847091407,0.00893856398761,,0.0115881034594,-0.00372976296846,0.0229667871311,-0.999662091601
110248000000,,301,,110,248000000,"""map""",,,0.00468567805365,0.0127309765667,0.00907321460545,,0.0115476648754,-0.00373956079365,0.0229417097562,-0.999663145272
110280000000,,302,,110,280000000,"""map""",,,0.00481962878257,0.0132072092965,0.00918040052056,,0.0115360293817,-0.00378040010204,0.0229621509778,-0.999662681657
110316000000,,303,,110,316000000,"""map""",,,0.00500480877236,0.0136954477057,0.00930472649634,,0.0116105473148,-0.00378138166263,0.0229051684386,-0.999663103126
110348000000,,304,,110,348000000,"""map""",,,0.00503046158701,0.0139709915966,0.00967508926988,,0.0115474185797,-0.00376856177669,0.0228952639292,-0.999664156797
110372000000,,305,,110,380000000,"""map""",,,0.00492899306118,0.0140884285793,0.0101355863735,,0.0115736121875,-0.00374579918577,0.0229093831234,-0.999663524594
110416000000,,306,,110,416000000,"""map""",,,0.00488666351885,0.0143083287403,0.010823154822,,0.011602109384,-0.00370110311147,0.0228315800411,-0.999665210468
110448000000,,307,,110,448000000,"""map""",,,0.00491189677268,0.0145277278498,0.0111589310691,,0.0116472503051,-0.00365306986288,0.0227408800231,-0.999666896342
110480000000,,308,,110,480000000,"""map""",,,0.00495526427403,0.014754335396,0.0113394474611,,0.0116148900865,-0.00362950253057,0.022736454604,-0.999667444251
110516000000,,309,,110,516000000,"""map""",,,0.00502256536856,0.0150094982237,0.011411071755,,0.0116432480009,-0.00358555818482,0.022622953141,-0.999669846621
110548000000,,310,,110,548000000,"""map""",,,0.00505277886987,0.0151286069304,0.0114224459976,,0.0116756358783,-0.00355050451921,0.0225697216713,-0.999670815999
110580000000,,311,,110,580000000,"""map""",,,0.00508721545339,0.0151656763628,0.0113133518025,,0.0116668110526,-0.00354171854765,0.0225110111113,-0.999672291139
110616000000,,312,,110,616000000,"""map""",,,0.00519571220502,0.0153159266338,0.0110955219716,,0.0116417320314,-0.00336760761155,0.0224506146774,-0.999674524922
110648000000,,313,,110,648000000,"""map""",,,0.00537809636444,0.0155373578891,0.0110341617838,,0.0116198252191,-0.0033955190327,0.022394517222,-0.999675915768
110680000000,,314,,110,680000000,"""map""",,,0.00558764813468,0.0158104598522,0.0108703253791,,0.0116347791185,-0.00345066851325,0.0223916933832,-0.99967562074
110716000000,,315,,110,716000000,"""map""",,,0.00583507446572,0.0160946976393,0.0106070730835,,0.0116233793838,-0.00348832705167,0.0223704513715,-0.999676126502
110748000000,,316,,110,748000000,"""map""",,,0.00596883939579,0.0162793789059,0.0104083037004,,0.0115949964448,-0.00350200469183,0.0223504316185,-0.999676842998
110780000000,,317,,110,780000000,"""map""",,,0.00598978437483,0.0164159331471,0.0102622611448,,0.0115772378043,-0.00351305408086,0.0222962307713,-0.999678275991
110816000000,,318,,110,816000000,"""map""",,,0.00609674444422,0.0166922733188,0.0100562283769,,0.0116259868908,-0.00350771624835,0.0222577928455,-0.999678528872
110848000000,,319,,110,848000000,"""map""",,,0.00625967280939,0.0169501043856,0.0101266140118,,0.0116288156687,-0.00353173369582,0.0221759858125,-0.999680256893
110880000000,,320,,110,880000000,"""map""",,,0.00643279962242,0.0172340106219,0.0101771047339,,0.0116638532,-0.00353958321709,0.0222109676968,-0.999678992487
110916000000,,321,,110,916000000,"""map""",,,0.00660789804533,0.0175476595759,0.0101924389601,,0.0116779839188,-0.00352247587713,0.0221654069535,-0.999679961865
110948000000,,322,,110,948000000,"""map""",,,0.00661764573306,0.0176711734384,0.010176484473,,0.0116921192474,-0.00357076003118,0.0220938837516,-0.999681184124
110980000000,,323,,110,980000000,"""map""",,,0.00650372495875,0.0176360104233,0.0101282177493,,0.0116468541906,-0.003556279296,0.0220800174384,-0.999682069207
111016000000,,324,,111,16000000,"""map""",,,0.00642739096656,0.0176953468472,0.00978579744697,,0.0116885700217,-0.00354565861945,0.0220585646925,-0.999682111354
111048000000,,325,,111,48000000,"""map""",,,0.0064372587949,0.0177967250347,0.00941472034901,,0.011672523597,-0.00352541924181,0.0220465949876,-0.999682617116
111080000000,,326,,111,80000000,"""map""",,,0.00652049062774,0.0179678555578,0.00922555755824,,0.0117295058069,-0.0035142783151,0.0220151534386,-0.99968270141
111116000000,,327,,111,116000000,"""map""",,,0.00663169194013,0.0181792937219,0.00904921628535,,0.0116306589348,-0.00349096781515,0.0219832061274,-0.999684640165
111148000000,,328,,111,148000000,"""map""",,,0.00658116023988,0.0181512925774,0.00901816599071,,0.0116934198728,-0.00353197900365,0.0219674010592,-0.999684092256
111180000000,,329,,111,180000000,"""map""",,,0.00639601005241,0.0179160200059,0.00909665320069,,0.0116639664696,-0.00349716768242,0.0219437566772,-0.999685061634
111216000000,,330,,111,216000000,"""map""",,,0.00629792083055,0.0177631378174,0.00914323329926,,0.0116566263326,-0.00347992567011,0.0219534504524,-0.99968497734
111248000000,,331,,111,248000000,"""map""",,,0.00630936957896,0.0177313238382,0.00916476361454,,0.0116693589613,-0.003458177567,0.0219072575064,-0.999685988864
111280000000,,332,,111,280000000,"""map""",,,0.0063795177266,0.017755066976,0.00914342701435,,0.0116762101291,-0.00345090229655,0.0218797777612,-0.999686494627
111316000000,,333,,111,316000000,"""map""",,,0.00646992446855,0.0178614445031,0.00914243515581,,0.0116359885355,-0.00338888617242,0.0218733714402,-0.999687337563
111348000000,,334,,111,348000000,"""map""",,,0.00644548097625,0.0178197026253,0.00918579753488,,0.0115658719846,-0.00336664317312,0.0218240174806,-0.999689234172
111380000000,,335,,111,380000000,"""map""",,,0.00631273305044,0.017663564533,0.00917849875987,,0.0115570586835,-0.00336411370366,0.0218343434585,-0.999689192025
111416000000,,336,,111,416000000,"""map""",,,0.00623153010383,0.0175607018173,0.00917175412178,,0.0115200866777,-0.00327225069607,0.0218138179432,-0.99969032999
111448000000,,337,,111,448000000,"""map""",,,0.00621510436758,0.0175279974937,0.00912871677428,,0.0114984169414,-0.00336108143548,0.0217742420525,-0.999691215074
111480000000,,338,,111,480000000,"""map""",,,0.00624251877889,0.0175476353616,0.00901476386935,,0.0115051278392,-0.00327901328962,0.021743769881,-0.999692015864
111516000000,,339,,111,516000000,"""map""",,,0.00630201539025,0.0176472496241,0.00899684242904,,0.0114092714177,-0.00328716475354,0.0217186925061,-0.999693659591
111548000000,,340,,111,548000000,"""map""",,,0.00617784727365,0.0176888685673,0.00914705824107,,0.0113730547625,-0.00320750391713,0.021710389577,-0.999694460381
111580000000,,341,,111,580000000,"""map""",,,0.0059503572993,0.0176763311028,0.00942214857787,,0.011610930917,-0.00320064781026,0.0216705186583,-0.99969260592
111616000000,,342,,111,616000000,"""map""",,,0.00573616009206,0.0177521239966,0.00982848089188,,0.0116366421409,-0.00321091418986,0.0216529434225,-0.999692648066
111648000000,,343,,111,648000000,"""map""",,,0.00559471733868,0.017852101475,0.0101665072143,,0.0115139147986,-0.0031952286475,0.0216161070769,-0.99969500829
111680000000,,344,,111,680000000,"""map""",,,0.0055107716471,0.0179936587811,0.0104150911793,,0.0115535400802,-0.00324085458665,0.0215914090236,-0.999694923996
111716000000,,345,,111,716000000,"""map""",,,0.00544984824955,0.0181796066463,0.0106039838865,,0.0115802009253,-0.00327703469264,0.0215600096215,-0.99969513473
111748000000,,346,,111,748000000,"""map""",,,0.00521169556305,0.0181449707597,0.0108106806874,,0.0115623474544,-0.00331584304977,0.0215507373148,-0.999695387612
111780000000,,347,,111,780000000,"""map""",,,0.00477755302563,0.0179033149034,0.0110556008294,,0.0115048677141,-0.00330579827039,0.021556806461,-0.999695977667
111816000000,,348,,111,816000000,"""map""",,,0.00431974977255,0.0177034288645,0.011335301213,,0.0114483250827,-0.0032915763432,0.021556806461,-0.999696652017
111848000000,,349,,111,848000000,"""map""",,,0.00400145631284,0.0176358763129,0.0116210104898,,0.0114476704894,-0.00331564746205,0.0215316026456,-0.999697157779
111880000000,,350,,111,880000000,"""map""",,,0.00369598483667,0.0176318176091,0.0118300691247,,0.0114802753573,-0.00331797574616,0.0215291159815,-0.999696778458
111916000000,,351,,111,916000000,"""map""",,,0.00341143971309,0.0177184287459,0.0120560172945,,0.0115232374839,-0.00334901690009,0.0214782025885,-0.99969728422
111948000000,,352,,111,948000000,"""map""",,,0.00305761047639,0.0176649522036,0.0122482739389,,0.0114272671342,-0.00338798890553,0.021452197983,-0.999698843653
111980000000,,353,,111,980000000,"""map""",,,0.00263292365707,0.0174628961831,0.0124081699178,,0.0114549750651,-0.00340797013372,0.0214216415178,-0.999699138681
112016000000,,354,,112,16000000,"""map""",,,0.00215147482231,0.0173194184899,0.0127817848697,,0.0114440007502,-0.00337345351115,0.02135955921,-0.999700698114
112048000000,,355,,112,48000000,"""map""",,,0.0018256707117,0.0172746218741,0.0131795099005,,0.0114461900814,-0.00338885785501,0.0213185081795,-0.999701541051
112080000000,,356,,112,80000000,"""map""",,,0.00151119567454,0.0172742102295,0.0136883640662,,0.0114136023357,-0.00334472648262,0.0213133241172,-0.99970208896
112116000000,,357,,112,116000000,"""map""",,,0.00126365025062,0.0173034332693,0.0142081864178,,0.0114520764815,-0.0032871308385,0.0212788058482,-0.999702636869
112148000000,,358,,112,148000000,"""map""",,,0.000995286041871,0.0172486137599,0.014583892189,,0.0115027560912,-0.00306480160279,0.0211803086633,-0.999704786359
112180000000,,359,,112,180000000,"""map""",,,0.00073939160211,0.0171332843602,0.0151624521241,,0.0115027939575,-0.00306116018093,0.0211893702357,-0.999704659918
112216000000,,360,,112,216000000,"""map""",,,0.000440396135673,0.0170625001192,0.0157134458423,,0.0115519852566,-0.00308315622604,0.021224057092,-0.999703269072
112248000000,,361,,112,248000000,"""map""",,,0.000241062778514,0.0170714389533,0.0160966180265,,0.0116063711548,-0.00306194253181,0.0211928262773,-0.999703395513
112280000000,,362,,112,280000000,"""map""",,,5.21076435689e-05,0.0171319022775,0.0165063757449,,0.0115891943384,-0.00303509959912,0.0212478279146,-0.999702510429
112316000000,,363,,112,316000000,"""map""",,,-0.000153406785103,0.0172393824905,0.0168949626386,,0.0115756036261,-0.00309417334639,0.0212047959823,-0.999703395513
112348000000,,364,,112,348000000,"""map""",,,-0.000370979571017,0.0174145810306,0.0172663833946,,0.0115309938211,-0.0032045967724,0.0212600083538,-0.999702383988
112380000000,,365,,112,380000000,"""map""",,,-0.000573741039261,0.0176434461027,0.0175331700593,,0.011533847953,-0.00323355165733,0.0212411687125,-0.999702679016
112416000000,,366,,112,416000000,"""map""",,,-0.000793603190687,0.0179837234318,0.0176745802164,,0.0114985947484,-0.00323594744225,0.0212020564371,-0.999703859128
112448000000,,367,,112,448000000,"""map""",,,-0.00107141572516,0.0181301292032,0.0179255530238,,0.0115205842081,-0.00332154439885,0.0211690133079,-0.999704027715
112480000000,,368,,112,480000000,"""map""",,,-0.0014351994032,0.0181607920676,0.0180027466267,,0.0115254587545,-0.00330269290376,0.0211610897003,-0.999704196303
112516000000,,369,,112,516000000,"""map""",,,-0.00177536706906,0.0182323660702,0.0179330874234,,0.0114782595526,-0.00324110450429,0.0211509744567,-0.999705207827
112548000000,,370,,112,548000000,"""map""",,,-0.00211107707582,0.0183437131345,0.0178187582642,,0.0115379184166,-0.00321678182143,0.021145874688,-0.999704659918
112580000000,,371,,112,580000000,"""map""",,,-0.00244954531081,0.0184938833117,0.0176732558757,,0.0115242058736,-0.00323863397457,0.0211126208246,-0.999705460708
112616000000,,372,,112,616000000,"""map""",,,-0.00285484525375,0.0187156423926,0.0175459608436,,0.0116029710895,-0.0032879912269,0.0210753208636,-0.99970516568
112648000000,,373,,112,648000000,"""map""",,,-0.00312686734833,0.0187752768397,0.0174533929676,,0.0115799892033,-0.00324609989365,0.0210383159306,-0.999706345792
112680000000,,374,,112,680000000,"""map""",,,-0.00334737286903,0.0187691245228,0.0173783414066,,0.0115791186074,-0.00329266030746,0.0210549639358,-0.999705882177
112716000000,,375,,112,716000000,"""map""",,,-0.00357489008456,0.0188240837306,0.0172446966171,,0.0115673658929,-0.00330356481669,0.0209652754422,-0.999707820932
112748000000,,376,,112,748000000,"""map""",,,-0.00378123368137,0.0189468581229,0.0173781123012,,0.0115961209095,-0.00336537152367,0.0208872616256,-0.999708958897
112780000000,,377,,112,780000000,"""map""",,,-0.00400734087452,0.0191113743931,0.0174843724817,,0.0116057834038,-0.00336101558102,0.0209014229667,-0.999708621722
112816000000,,378,,112,816000000,"""map""",,,-0.00428253458813,0.0194173045456,0.0175076592714,,0.0116278588035,-0.00341424474579,0.0208917713384,-0.999708326694
112848000000,,379,,112,848000000,"""map""",,,-0.00437034107745,0.0195813216269,0.0176199208945,,0.0115988074418,-0.00340481998606,0.0208459998609,-0.999709675393
112880000000,,380,,112,880000000,"""map""",,,-0.0043473020196,0.0196812991053,0.0179754067212,,0.0116126572914,-0.00339950223916,0.0207814730358,-0.999710813358
112916000000,,381,,112,916000000,"""map""",,,-0.00436779204756,0.0198420360684,0.0182881094515,,0.0116278232421,-0.00345384039288,0.0207338049501,-0.999711529855
112948000000,,382,,112,948000000,"""map""",,,-0.00437785079703,0.0200475901365,0.0185158047825,,0.0116385450053,-0.00347644493311,0.0207373452854,-0.99971119268
112980000000,,383,,112,980000000,"""map""",,,-0.00438965996727,0.0202821083367,0.0186372958124,,0.0116102262743,-0.00344691974864,0.0207019419327,-0.999712372791
113016000000,,384,,113,16000000,"""map""",,,-0.00441935751587,0.0206099376082,0.0188616737723,,0.011603584853,-0.00344099614079,0.0206480782603,-0.999713552903
113048000000,,385,,113,48000000,"""map""",,,-0.00445126695558,0.020675836131,0.019041897729,,0.0117769799512,-0.00344202709222,0.0206050884748,-0.999712457085
113080000000,,386,,113,80000000,"""map""",,,-0.00450259912759,0.0205591600388,0.01941652596,,0.0118120876175,-0.00345963196255,0.0205584740603,-0.999712878554
113116000000,,387,,113,116000000,"""map""",,,-0.00460105901584,0.0205087438226,0.0197987277061,,0.0117738818286,-0.00348227371055,0.0205695165347,-0.999713047141
113148000000,,388,,113,148000000,"""map""",,,-0.00471324473619,0.0205052606761,0.0200489442796,,0.0117182167077,-0.00350016471847,0.0205621408362,-0.999713763637
113180000000,,389,,113,180000000,"""map""",,,-0.00482553523034,0.0205442085862,0.0201720688492,,0.0117263062684,-0.0034812157588,0.0205886512039,-0.999713215728
113216000000,,390,,113,212000000,"""map""",,,-0.00496885273606,0.0206115543842,0.0202009174973,,0.0116936490462,-0.00347446962886,0.0205519412988,-0.999714437987
113248000000,,391,,113,248000000,"""map""",,,-0.00513020157814,0.0205766670406,0.0201441794634,,0.0117336111734,-0.00353101061395,0.0204671418396,-0.999715449511
113280000000,,392,,113,280000000,"""map""",,,-0.00524364085868,0.0201638936996,0.0201001092792,,0.0117156569452,-0.00351107482534,0.020445056891,-0.999716208155
113316000000,,393,,113,316000000,"""map""",,,-0.00544065842405,0.0198100544512,0.0201009511948,,0.0116688864557,-0.00351417064307,0.0204201059567,-0.999717219679
113348000000,,394,,113,348000000,"""map""",,,-0.00563989439979,0.019613340497,0.0200803801417,,0.0116335881408,-0.00350336425696,0.0203552841037,-0.999718989847
113380000000,,395,,113,380000000,"""map""",,,-0.00582789257169,0.019521471113,0.0201523434371,,0.0116353313081,-0.00353497241771,0.0203583608236,-0.999718863406
113416000000,,396,,113,416000000,"""map""",,,-0.00601952057332,0.0194808263332,0.0201650373638,,0.0116515489544,-0.00354265203449,0.020331808309,-0.999719116287
113448000000,,397,,113,448000000,"""map""",,,-0.0061511984095,0.0192999243736,0.0203516259789,,0.0115966316108,-0.00353330597084,0.0202767645249,-0.999720970749
113480000000,,398,,113,480000000,"""map""",,,-0.00625303620473,0.0190098304302,0.020652692765,,0.0115996092198,-0.00355407942807,0.0202462923534,-0.999721434364
113516000000,,399,,113,516000000,"""map""",,,-0.00645403051749,0.0187492147088,0.021026423201,,0.0115360553942,-0.00351604354365,0.0201471208189,-0.999724342496
113548000000,,400,,113,548000000,"""map""",,,-0.00669179204851,0.0186286885291,0.0213746186346,,0.0115268440029,-0.00351448378098,0.0201272275064,-0.999724848259
113580000000,,401,,113,580000000,"""map""",,,-0.00694370130077,0.0185643378645,0.0217483583838,,0.011483567092,-0.00350569616307,0.0201201468358,-0.999725522608
113616000000,,402,,113,616000000,"""map""",,,-0.00723866047338,0.0185647178441,0.0221263766289,,0.011505080424,-0.00350814726573,0.0201019815441,-0.999725564755
113648000000,,403,,113,648000000,"""map""",,,-0.00749724544585,0.0183131340891,0.0226016119123,,0.0114819938292,-0.00352216043431,0.0200896325175,-0.999726112664
113680000000,,404,,113,680000000,"""map""",,,-0.00778054539114,0.0177701730281,0.0232174880803,,0.0114901782203,-0.00349818546295,0.0200937629087,-0.99972602837
113716000000,,405,,113,716000000,"""map""",,,-0.00803907122463,0.0174606069922,0.0236907508224,,0.0114481604466,-0.00349630597693,0.0200390984461,-0.999727587804
113748000000,,406,,113,748000000,"""map""",,,-0.0082976706326,0.0172099731863,0.0241378825158,,0.0114752621872,-0.0034700853688,0.0199371452196,-0.999729400118
113780000000,,407,,113,780000000,"""map""",,,-0.00857761409134,0.0170380230993,0.0244255941361,,0.0116506928465,-0.00340936526026,0.0199349114366,-0.999727587804
113816000000,,408,,113,816000000,"""map""",,,-0.00884405337274,0.0169354211539,0.0246883407235,,0.0116413316364,-0.00341174458156,0.0199360072547,-0.999727672098
113848000000,,409,,113,848000000,"""map""",,,-0.00906085502356,0.0167199540883,0.0248467512429,,0.0115718436662,-0.00337854834073,0.0199037227687,-0.999729273678
113880000000,,410,,113,880000000,"""map""",,,-0.00921329203993,0.0164382010698,0.0249443445355,,0.0115939954571,-0.0034250985471,0.0199019526011,-0.999728936503
113916000000,,411,,113,916000000,"""map""",,,-0.00944966450334,0.0162078347057,0.0248590391129,,0.0116641828015,-0.00351456214778,0.019905324349,-0.999727672098
113948000000,,412,,113,948000000,"""map""",,,-0.00964761245996,0.0161442160606,0.0247296243906,,0.0115921215687,-0.0035125028791,0.0199003931677,-0.999728641475
113980000000,,413,,113,980000000,"""map""",,,-0.00986136402935,0.0161180775613,0.0246206447482,,0.0116177781335,-0.00352440969308,0.0198768330794,-0.999728767916
114016000000,,414,,114,16000000,"""map""",,,-0.0100664859638,0.0161557868123,0.0244160331786,,0.0116032924592,-0.00345826712906,0.0198317780983,-0.999730074468
114048000000,,415,,114,48000000,"""map""",,,-0.0101678380743,0.0159285534173,0.024445252493,,0.0115698495935,-0.00349456807797,0.0198064478424,-0.999730790964
114080000000,,416,,114,80000000,"""map""",,,-0.0101981600747,0.0154537064955,0.0247233696282,,0.0115639114976,-0.00343351112391,0.0197849950965,-0.999731507461
114116000000,,417,,114,116000000,"""map""",,,-0.0102597782388,0.01501419954,0.0249484442174,,0.0115702809401,-0.0034333214631,0.0197249779842,-0.999732603279
114148000000,,418,,114,148000000,"""map""",,,-0.0103517565876,0.0147684458643,0.0249013584107,,0.0115597185448,-0.00340492173119,0.0196689648225,-0.999733909831
114180000000,,419,,114,180000000,"""map""",,,-0.0104934703559,0.0146045023575,0.0246413610876,,0.0115955914397,-0.00340908834229,0.0196750339687,-0.999733404069
114216000000,,420,,114,216000000,"""map""",,,-0.0107172168791,0.0144886588678,0.0241384394467,,0.0115752345119,-0.00340250289721,0.0196552670968,-0.999734036272
114248000000,,421,,114,248000000,"""map""",,,-0.0105902245268,0.0144586488605,0.0239666029811,,0.0116217224858,-0.00351143142719,0.0196838005132,-0.999732561132
114280000000,,422,,114,280000000,"""map""",,,-0.0102605428547,0.0144748194143,0.0239495486021,,0.0116075176808,-0.00345198461445,0.0196679111513,-0.999733277628
114316000000,,423,,114,316000000,"""map""",,,-0.00988069549203,0.0145721621811,0.0238745491952,,0.0116151900536,-0.00342758125989,0.0196098327941,-0.999734373446
114348000000,,424,,114,348000000,"""map""",,,-0.00961594935507,0.014699540101,0.0236779693514,,0.011546809426,-0.00341260595778,0.0196141739195,-0.999735174237
114380000000,,425,,114,380000000,"""map""",,,-0.00938059855253,0.0148992836475,0.0233449731022,,0.0115654156133,-0.00343730302319,0.019603721501,-0.999735089943
114416000000,,426,,114,416000000,"""map""",,,-0.00919050071388,0.0151430591941,0.0227120481431,,0.0117777359603,-0.00335765305277,0.0195527659612,-0.999733867684
114448000000,,427,,114,448000000,"""map""",,,-0.00901345070451,0.0151886623353,0.0222795791924,,0.0117853931866,-0.00346750914268,0.0195313132153,-0.999733825537
114480000000,,428,,114,480000000,"""map""",,,-0.00883520115167,0.0150879751891,0.0218934807926,,0.0117718544993,-0.0035148443341,0.019568950351,-0.999733024747
114516000000,,429,,114,516000000,"""map""",,,-0.00868317112327,0.0150325112045,0.0213044714183,,0.011746353351,-0.00349612553573,0.0195086382108,-0.999734584181
114548000000,,430,,114,548000000,"""map""",,,-0.00860660336912,0.0150650022551,0.0206973701715,,0.011729093558,-0.00355849431045,0.0195099026162,-0.999734584181
114580000000,,431,,114,580000000,"""map""",,,-0.00856998376548,0.0151299964637,0.020083585754,,0.0117078996201,-0.0035582789664,0.0195032012673,-0.999734963502
114616000000,,432,,114,616000000,"""map""",,,-0.0085530448705,0.0152373882011,0.0194902345538,,0.0117249371544,-0.00353914857771,0.0195029062394,-0.999734837062
114648000000,,433,,114,648000000,"""map""",,,-0.0085236672312,0.0152644459158,0.019049782306,,0.0116710237619,-0.00347580021804,0.0194552381537,-0.999736649376
114680000000,,434,,114,680000000,"""map""",,,-0.00847024098039,0.0152379227802,0.0187648683786,,0.0116408453012,-0.00350682951817,0.0194345440511,-0.999737197285
114716000000,,435,,114,712000000,"""map""",,,-0.00841062888503,0.0152847962454,0.0184799134731,,0.0116346559707,-0.00350097538676,0.0194068957185,-0.999737871635
114748000000,,436,,114,748000000,"""map""",,,-0.00839762296528,0.0153731843457,0.0182689558715,,0.0116624857323,-0.00347685849906,0.0193144676797,-0.999739431068
114780000000,,437,,114,780000000,"""map""",,,-0.00843236688524,0.0155129972845,0.0180853158236,,0.0116920280389,-0.00345272284285,0.0192984097304,-0.999739473215
114816000000,,438,,114,816000000,"""map""",,,-0.0084837814793,0.0157237816602,0.0179306901991,,0.0116394495162,-0.00344431355875,0.0192905704166,-0.999740231858
114848000000,,439,,114,848000000,"""map""",,,-0.00844733975828,0.0157965235412,0.0178426485509,,0.0116221021367,-0.00344947918187,0.0192822674874,-0.99974061118
114880000000,,440,,114,880000000,"""map""",,,-0.00828331429511,0.0156971197575,0.0177692230791,,0.0116029608821,-0.00346771823056,0.0192654508949,-0.999741074795
114916000000,,441,,114,916000000,"""map""",,,-0.0081148436293,0.0156362205744,0.0178214814514,,0.0116241162951,-0.00348384038794,0.0192327870873,-0.999741454117
114948000000,,442,,114,948000000,"""map""",,,-0.00802174303681,0.0156368557364,0.0179206375033,,0.0116314172488,-0.00348042352976,0.0192452204076,-0.999741074795
114980000000,,443,,114,980000000,"""map""",,,-0.00793312955648,0.0156686846167,0.0179719254375,,0.0116265934103,-0.00350332441502,0.0191942648677,-0.999742044173
115016000000,,444,,115,16000000,"""map""",,,-0.00783565174788,0.0157683901489,0.0179386436939,,0.0116316457637,-0.00342868893175,0.019121013645,-0.999743645753
115048000000,,445,,115,48000000,"""map""",,,-0.00772585347295,0.0157052539289,0.0177411213517,,0.0115731340842,-0.00345923090895,0.0190558967641,-0.999745458068
115080000000,,446,,115,80000000,"""map""",,,-0.00759195582941,0.0155395548791,0.0172955840826,,0.0115589799871,-0.00342298922904,0.0190569082884,-0.999745710949
115116000000,,447,,115,116000000,"""map""",,,-0.00745455594733,0.0154103972018,0.0166900977492,,0.0115578789007,-0.00343928030308,0.019009450937,-0.999746553886
115148000000,,448,,115,148000000,"""map""",,,-0.00737861171365,0.0153502495959,0.0162055436522,,0.011607994467,-0.00342503960736,0.0189769978637,-0.999746722473
115180000000,,449,,115,180000000,"""map""",,,-0.00733246374875,0.0153562566265,0.0157554801553,,0.0115952687529,-0.00340992205964,0.0189532270411,-0.999747312529
115216000000,,450,,115,216000000,"""map""",,,-0.00731104752049,0.0154407713562,0.0151039063931,,0.0117725545321,-0.00336842815801,0.0189201839119,-0.999746048123
115248000000,,451,,115,248000000,"""map""",,,-0.0073058847338,0.0154809784144,0.0147366235033,,0.0117736032642,-0.0033410811095,0.0188881944539,-0.99974676462
115280000000,,452,,115,280000000,"""map""",,,-0.00734076555818,0.0154764065519,0.0144441127777,,0.0117354939521,-0.00325368369221,0.0188626113168,-0.999747902585
115316000000,,453,,115,316000000,"""map""",,,-0.00740247825161,0.015583133325,0.0140365250409,,0.0117270418626,-0.00327696883819,0.0188766462174,-0.999747691851
115348000000,,454,,115,348000000,"""map""",,,-0.00747739523649,0.0157491602004,0.0137398000807,,0.0116572591938,-0.0032954640607,0.0188193686502,-0.999749504165
115380000000,,455,,115,380000000,"""map""",,,-0.0075702406466,0.0159730352461,0.0133417351171,,0.0116795071322,-0.00334236856401,0.0188247634468,-0.999748998403
115416000000,,456,,115,416000000,"""map""",,,-0.0076934187673,0.0162477865815,0.0129216462374,,0.0116420125714,-0.00337004554332,0.0188068931831,-0.999749672752
115448000000,,457,,115,448000000,"""map""",,,-0.00780897168443,0.0162453427911,0.0122406817973,,0.0116445696997,-0.0033574508796,0.018812203686,-0.999749588459
115480000000,,458,,115,480000000,"""map""",,,-0.00794213917106,0.0159679260105,0.0113671775907,,0.0116823536908,-0.0034125440546,0.0188424651232,-0.999748408347
115516000000,,459,,115,516000000,"""map""",,,-0.00813442375511,0.0157275572419,0.0104036293924,,0.0116412256107,-0.00333042816426,0.0188672053233,-0.999748703375
115548000000,,460,,115,548000000,"""map""",,,-0.0083131743595,0.0156588088721,0.00967014208436,,0.0116536885655,-0.00331615157787,0.0188267022019,-0.999749419871
115580000000,,461,,115,580000000,"""map""",,,-0.00850303657353,0.0156812723726,0.0090060653165,,0.0116249230121,-0.00331327406765,0.0188279666073,-0.999749672752
115616000000,,462,,115,616000000,"""map""",,,-0.00870816782117,0.0157662071288,0.00837833620608,,0.0115641930254,-0.00334786905701,0.0187973679953,-0.999750852864
115648000000,,463,,115,648000000,"""map""",,,-0.00888385530561,0.0156494006515,0.00805167108774,,0.0115397669511,-0.00332675282736,0.0187529873638,-0.999752075123
115680000000,,464,,115,680000000,"""map""",,,-0.00903947092593,0.0154077010229,0.00792784523219,,0.0115764238433,-0.00331120887207,0.0187794977315,-0.999751190039
115716000000,,465,,115,716000000,"""map""",,,-0.00928272958845,0.0152551550418,0.00785922259092,,0.0114770896482,-0.00333019010042,0.0187447687284,-0.999752875913
115748000000,,466,,115,748000000,"""map""",,,-0.00947193149477,0.0152220325544,0.00783638004214,,0.0114931439755,-0.00333075216816,0.01876601074,-0.999752285857
115780000000,,467,,115,780000000,"""map""",,,-0.00969085656106,0.0152740227059,0.00788324140012,,0.0114811732827,-0.00335010646198,0.0187810150181,-0.99975211727
115816000000,,468,,115,816000000,"""map""",,,-0.00993452966213,0.0154116665944,0.00787469092757,,0.0115195759765,-0.00332206925882,0.0187931954573,-0.999751569361
115848000000,,469,,115,848000000,"""map""",,,-0.0102663422003,0.0153726236895,0.00828314851969,,0.0114854426268,-0.0032620847445,0.0187701411312,-0.999752538738
115880000000,,470,,115,880000000,"""map""",,,-0.0106545528397,0.0151717597619,0.0088257919997,,0.0117018953406,-0.00327868039537,0.0187588036289,-0.999750220661
115916000000,,471,,115,916000000,"""map""",,,-0.0111301727593,0.0149990608916,0.00954802427441,,0.0116524024281,-0.0032852902066,0.0187728806763,-0.999750473543
115948000000,,472,,115,948000000,"""map""",,,-0.0115169994533,0.0149189541116,0.010056254454,,0.0116477452013,-0.00329081012666,0.0187470446582,-0.999751021452
115980000000,,473,,115,980000000,"""map""",,,-0.0118910074234,0.0148961674422,0.0104973893613,,0.0116431324263,-0.00330283679574,0.0187495734691,-0.999751021452
116016000000,,474,,116,16000000,"""map""",,,-0.0122923636809,0.0149596398696,0.0108513757586,,0.0116106638772,-0.00337720984902,0.0187368872677,-0.99975131648
116048000000,,475,,116,48000000,"""map""",,,-0.0125142596662,0.0148983979598,0.0112738264725,,0.0115942055328,-0.00339785390226,0.0187555583216,-0.999751105745
116080000000,,476,,116,80000000,"""map""",,,-0.0125755527988,0.0147186573595,0.0117069026455,,0.0115325522667,-0.00337082493074,0.0187951763592,-0.999751190039
116116000000,,477,,116,116000000,"""map""",,,-0.0126917483285,0.0146329253912,0.0120724532753,,0.011566225623,-0.00342420457293,0.018771026215,-0.999751063598
116148000000,,478,,116,148000000,"""map""",,,-0.0128334602341,0.0146644618362,0.0122253959998,,0.0115122740349,-0.00343677585831,0.0187761259837,-0.999751527214
116180000000,,479,,116,180000000,"""map""",,,-0.0130091775209,0.01478526555,0.0123369153589,,0.0115164653415,-0.0034414446096,0.018753493126,-0.999751906535
116216000000,,480,,116,216000000,"""map""",,,-0.0132376905531,0.0149681651965,0.0122654121369,,0.0115358551967,-0.00323510450528,0.018743209295,-0.999752580885
116248000000,,481,,116,248000000,"""map""",,,-0.0135813690722,0.0148685928434,0.0122256185859,,0.0115844380007,-0.00329277127221,0.018765462831,-0.999751400773
116280000000,,482,,116,280000000,"""map""",,,-0.0140403294936,0.0144999297336,0.0121070407331,,0.011595380047,-0.00333965075082,0.0187765053053,-0.999750895011
116316000000,,483,,116,316000000,"""map""",,,-0.0146195599809,0.0141888810322,0.0118354223669,,0.0115626411653,-0.00342707385135,0.018715097347,-0.99975211727
116348000000,,484,,116,348000000,"""map""",,,-0.0150699922815,0.0140320714563,0.0115095647052,,0.0115238025151,-0.00348132902846,0.0187175840111,-0.999752412298
116380000000,,485,,116,380000000,"""map""",,,-0.0155064603314,0.0139409955591,0.011146703735,,0.0115392911527,-0.00347552494643,0.0187250440033,-0.999752032976
116416000000,,486,,116,416000000,"""map""",,,-0.0159619152546,0.0139355175197,0.0105562210083,,0.0115262147636,-0.00353837412937,0.0187210821995,-0.99975211727
116448000000,,487,,116,448000000,"""map""",,,-0.0163090825081,0.0137957464904,0.0100241629407,,0.0115582463685,-0.00357103003443,0.0187730071169,-0.999750599983
116480000000,,488,,116,480000000,"""map""",,,-0.0165655631572,0.0135347442701,0.00961985718459,,0.0115461489059,-0.00360412979849,0.0187712790961,-0.99975064213
116516000000,,489,,116,516000000,"""map""",,,-0.0169114433229,0.013332891278,0.00916019361466,,0.0115145170375,-0.00365610278961,0.0187762102774,-0.99975076857
116548000000,,490,,116,548000000,"""map""",,,-0.0171951986849,0.0132474638522,0.00872355699539,,0.0114478519185,-0.00366791905371,0.0188114028959,-0.999750810717
116580000000,,491,,116,580000000,"""map""",,,-0.0174923092127,0.0132360961288,0.0083040818572,,0.01147587628,-0.00372666451655,0.0188283880758,-0.999749925634
116616000000,,492,,116,616000000,"""map""",,,-0.0178346522152,0.0132746752352,0.00790849141777,,0.011485989548,-0.00378724995274,0.0188673739107,-0.999748871962
116648000000,,493,,116,648000000,"""map""",,,-0.0179886166006,0.0132546471432,0.00757558364421,,0.011428502893,-0.00378568097045,0.0188975932011,-0.999748998403
116680000000,,494,,116,680000000,"""map""",,,-0.0180368404835,0.0131812738255,0.00736293708906,,0.0114482845822,-0.00381143763397,0.0188906811179,-0.999748745522
116716000000,,495,,116,716000000,"""map""",,,-0.0181648302823,0.0131639642641,0.00713708577678,,0.0113791502505,-0.00380824929074,0.0188900489152,-0.999749546312
116748000000,,496,,116,748000000,"""map""",,,-0.0182987339795,0.0132036954165,0.00701869046316,,0.0114406296608,-0.0037861929888,0.018865898771,-0.999749419871
116780000000,,497,,116,780000000,"""map""",,,-0.0184489488602,0.0133074391633,0.00691799167544,,0.011373084397,-0.00375557560827,0.0188702398964,-0.999750220661
116816000000,,498,,116,816000000,"""map""",,,-0.018629539758,0.0134883942083,0.00680190697312,,0.011353882227,-0.00375733293428,0.0188194529439,-0.999751358626
116848000000,,499,,116,848000000,"""map""",,,-0.0187424812466,0.0135246803984,0.00684241391718,,0.0113379447913,-0.00377168722893,0.0188043222253,-0.999751822242
116880000000,,500,,116,880000000,"""map""",,,-0.0187854822725,0.0134300719947,0.00701857870445,,0.0113163534218,-0.00381588379722,0.0187759573963,-0.999752370151
116916000000,,501,,116,916000000,"""map""",,,-0.0189121421427,0.01334563829,0.00722944084555,,0.0113520969128,-0.00377018838163,0.0187722063268,-0.99975224371
116948000000,,502,,116,948000000,"""map""",,,-0.0190338492393,0.0133335320279,0.00733950641006,,0.0114005733619,-0.00381042446325,0.0187843024723,-0.999751358626
116980000000,,503,,116,980000000,"""map""",,,-0.0192222930491,0.0133752729744,0.00742582604289,,0.0114013056634,-0.00380296710524,0.018802467764,-0.999750979305
117016000000,,504,,117,16000000,"""map""",,,-0.0194700341672,0.0134721640497,0.00742677366361,,0.0114166191281,-0.00381960753714,0.0187682023761,-0.99975144292
117048000000,,505,,117,48000000,"""map""",,,-0.0195818636566,0.0133560877293,0.00751132238656,,0.011378311594,-0.00383844717842,0.0187864941084,-0.99975144292
117080000000,,506,,117,80000000,"""map""",,,-0.0195914786309,0.0130066266283,0.00771472929046,,0.0114342868894,-0.00384653114153,0.0187815629271,-0.999750895011
117116000000,,507,,117,116000000,"""map""",,,-0.0196759644896,0.012793793343,0.00789356138557,,0.0114266247241,-0.0038255571575,0.0187449373158,-0.999751695801
117148000000,,508,,117,148000000,"""map""",,,-0.0198103971779,0.0126679372042,0.00800411961973,,0.0114442661436,-0.00385293647469,0.0186380529079,-0.999753381675
117180000000,,509,,117,180000000,"""map""",,,-0.0200004000217,0.0125597072765,0.00813150126487,,0.0114638094397,-0.00381078402855,0.0186430262361,-0.999753213088
117216000000,,510,,117,216000000,"""map""",,,-0.0202345643193,0.0124700320885,0.00819701980799,,0.0114074330907,-0.00377947517628,0.0186525514238,-0.999753803144
117248000000,,511,,117,248000000,"""map""",,,-0.0203656498343,0.0123282745481,0.00856896396726,,0.0113809684919,-0.00372553149072,0.018603534639,-0.999755278283
117280000000,,512,,117,280000000,"""map""",,,-0.0203913524747,0.0121252117679,0.00924858078361,,0.0113670537757,-0.00374196974946,0.0185699857476,-0.999755952633
117316000000,,513,,117,316000000,"""map""",,,-0.0205596014857,0.0119418632239,0.0100638139993,,0.0114155621641,-0.0037974587097,0.0185877295708,-0.999754898962
117348000000,,514,,117,348000000,"""map""",,,-0.0207452196628,0.01185182482,0.0104401791468,,0.0115684241739,-0.00377541261521,0.0185972547586,-0.9997530445
117380000000,,515,,117,380000000,"""map""",,,-0.0209389589727,0.011798908934,0.0108165703714,,0.0115500376112,-0.00376090751387,0.0185950209756,-0.999753339528
117416000000,,516,,117,416000000,"""map""",,,-0.0211481060833,0.0117502426729,0.0111399283633,,0.0115031103881,-0.00371921308544,0.0185841470887,-0.999754182465
117448000000,,517,,117,448000000,"""map""",,,-0.0214027762413,0.011722959578,0.0114040784538,,0.0115278933936,-0.00374540405907,0.0185827983895,-0.99975384529
117480000000,,518,,117,480000000,"""map""",,,-0.0217059105635,0.011721232906,0.0116343740374,,0.0115079256656,-0.00376912022243,0.0185819133057,-0.999754056025
117516000000,,519,,117,516000000,"""map""",,,-0.0221064724028,0.0117852576077,0.011746423319,,0.0115345035341,-0.00379575011597,0.0185406936879,-0.999754393199
117548000000,,520,,117,548000000,"""map""",,,-0.0222517810762,0.01172619313,0.0119417496026,,0.0114926648844,-0.00377185285287,0.0184825310369,-0.999756079073
117580000000,,521,,117,580000000,"""map""",,,-0.0222574174404,0.0115855690092,0.0121705858037,,0.0114690461856,-0.00378850810202,0.0184594767108,-0.999756626982
117616000000,,522,,117,616000000,"""map""",,,-0.0223113670945,0.0115059986711,0.0122571391985,,0.0114447821132,-0.0037931449139,0.0184016090878,-0.999758017828
117648000000,,523,,117,648000000,"""map""",,,-0.0224194023758,0.011473541148,0.0123632038012,,0.011457588499,-0.0038375265332,0.0184036321365,-0.99975759636
117680000000,,524,,117,680000000,"""map""",,,-0.0225835498422,0.0114809432998,0.0124377720058,,0.0114675476676,-0.00378933358756,0.0183768267409,-0.99975827071
117716000000,,525,,117,716000000,"""map""",,,-0.0228758193552,0.0115444501862,0.0125380065292,,0.011504809433,-0.00385841490645,0.0183941912425,-0.999757174891
117748000000,,526,,117,748000000,"""map""",,,-0.0229800418019,0.0114974742755,0.0126475971192,,0.011458354057,-0.00379638956269,0.0183463124225,-0.999758860765
117780000000,,527,,117,780000000,"""map""",,,-0.0229591745883,0.011346151121,0.012776969932,,0.0114236033219,-0.00379725159745,0.0183479561496,-0.999759240087
117816000000,,528,,117,816000000,"""map""",,,-0.0230338387191,0.0112344324589,0.0128388823941,,0.0113843797524,-0.00377299806177,0.0182557388451,-0.999761431723
117848000000,,529,,117,848000000,"""map""",,,-0.0231709014624,0.0111584533006,0.0127471899614,,0.0114697258036,-0.00378935894152,0.018247983825,-0.999760588786
117880000000,,530,,117,880000000,"""map""",,,-0.0233287326992,0.0110992565751,0.0126210935414,,0.0114465417442,-0.00374116336171,0.0182066377666,-0.999761726751
117916000000,,531,,117,916000000,"""map""",,,-0.023600531742,0.011060568504,0.0123881753534,,0.0115000211558,-0.00364532505019,0.0181671883164,-0.999762232513
117948000000,,532,,117,948000000,"""map""",,,-0.0237778592855,0.0109315607697,0.012418734841,,0.0116285746414,-0.00365369745579,0.0182006107672,-0.999760083024
117976000000,,533,,117,976000000,"""map""",,,-0.0238947756588,0.0106984376907,0.0127616710961,,0.0116413099044,-0.00367360887826,0.018207902172,-0.999759703702
118016000000,,534,,118,16000000,"""map""",,,-0.0240959078074,0.0104964757338,0.0131158316508,,0.0116722921186,-0.00373062664958,0.0181598126179,-0.99975999873
118048000000,,535,,118,48000000,"""map""",,,-0.0243788324296,0.0103249028325,0.013432088308,,0.0115994162662,-0.00371279194722,0.0182046990116,-0.999760125171
118080000000,,536,,118,80000000,"""map""",,,-0.0247007720172,0.0101784775034,0.0136339217424,,0.0115859855803,-0.0037456694525,0.0182307457639,-0.999759703702
118116000000,,537,,118,116000000,"""map""",,,-0.0251657888293,0.0100110517815,0.0137712443247,,0.011581968788,-0.00372768558981,0.0181893997055,-0.999760588786
118148000000,,538,,118,148000000,"""map""",,,-0.0251824744046,0.00979876983911,0.0141277946532,,0.0116301976244,-0.00370333689444,0.0181859858108,-0.999760125171
118180000000,,539,,118,180000000,"""map""",,,-0.0248971581459,0.00951879378408,0.0147452503443,,0.0116178199511,-0.00369114558924,0.0182046568647,-0.99975999873
118216000000,,540,,118,216000000,"""map""",,,-0.0247130226344,0.0092865889892,0.0153141086921,,0.0116624653174,-0.00373249033054,0.0181805067205,-0.999759787996
118248000000,,541,,118,248000000,"""map""",,,-0.0246364232153,0.00903792399913,0.0157296378165,,0.0116475387476,-0.0037325074527,0.0181671883164,-0.999760209465
118280000000,,542,,118,280000000,"""map""",,,-0.0246353838593,0.00881818216294,0.0160486828536,,0.0116395598224,-0.00375440010632,0.0181598969116,-0.999760335905
118316000000,,543,,118,316000000,"""map""",,,-0.0247498322278,0.00857470277697,0.0162993837148,,0.0116604748667,-0.00378424698978,0.0181233134471,-0.999760588786
118348000000,,544,,118,348000000,"""map""",,,-0.0248125083745,0.00834464747459,0.0164179876447,,0.0116662206675,-0.00379098060738,0.0181695906867,-0.999759661556
118380000000,,545,,118,380000000,"""map""",,,-0.0248452425003,0.00807850901037,0.0164866372943,,0.0116324416148,-0.00377772772842,0.0181425745568,-0.999760630933
118416000000,,546,,118,416000000,"""map""",,,-0.0249174572527,0.00787653122097,0.0164688006043,,0.0115705993464,-0.00371724140318,0.0182150249894,-0.999760251611
118448000000,,547,,118,448000000,"""map""",,,-0.0250245705247,0.00769187323749,0.0164364743978,,0.0115447689259,-0.00381770994114,0.0181715294418,-0.999760925961
118480000000,,548,,118,480000000,"""map""",,,-0.0251616053283,0.00752034131438,0.0163746848702,,0.0115039852645,-0.00375096777234,0.0181419002073,-0.999762232513
118516000000,,549,,118,516000000,"""map""",,,-0.025427384302,0.00728136254475,0.0162421893328,,0.0114923043313,-0.0037924886743,0.0181560615484,-0.999761979632
118548000000,,550,,118,548000000,"""map""",,,-0.0253562834114,0.00701243476942,0.0162847768515,,0.0114966467738,-0.00379960227207,0.0181241142372,-0.999762401101
118580000000,,551,,118,580000000,"""map""",,,-0.0250505916774,0.00671456428245,0.0163644980639,,0.0115381894077,-0.00376959865502,0.0181261372859,-0.999762063926
118616000000,,552,,118,616000000,"""map""",,,-0.024867573753,0.00641682231799,0.0163236185908,,0.0115018499339,-0.00377814228219,0.0181481800877,-0.999762021779
118648000000,,553,,118,648000000,"""map""",,,-0.0247851274908,0.00611542072147,0.0161938462406,,0.0114770593552,-0.00376447913001,0.0181376855224,-0.999762569688
118680000000,,554,,118,676000000,"""map""",,,-0.0247783120722,0.00583575200289,0.0159360729158,,0.0114093145524,-0.0037683029687,0.0181398350117,-0.999763286184
118716000000,,555,,118,716000000,"""map""",,,-0.0247888341546,0.00549532845616,0.0155604705215,,0.0115949510052,-0.00378168656873,0.0181432910533,-0.999761010255
118748000000,,556,,118,748000000,"""map""",,,-0.0246765837073,0.0052078156732,0.0151204839349,,0.0116153418481,-0.00383434675104,0.0181186351469,-0.999761052402
118780000000,,557,,118,780000000,"""map""",,,-0.0244497265667,0.00488041201606,0.0145577900112,,0.0115939743837,-0.00381113206932,0.0181365475575,-0.999761094548
118816000000,,558,,118,816000000,"""map""",,,-0.0243346467614,0.00456826016307,0.0138433557004,,0.011604443595,-0.00388381068758,0.0181267694887,-0.999760841667
118848000000,,559,,118,848000000,"""map""",,,-0.0243099611253,0.00426119100302,0.013055043295,,0.0115757620061,-0.00388161575874,0.018127233104,-0.999761136695
118880000000,,560,,118,880000000,"""map""",,,-0.0243590921164,0.00395647622645,0.0122468238696,,0.0115375664246,-0.00393748140644,0.0181334286907,-0.999761263136
118916000000,,561,,118,916000000,"""map""",,,-0.0245263371617,0.00358573743142,0.0111901890486,,0.0115467192054,-0.00393161607978,0.0181359575016,-0.999761178842
118948000000,,562,,118,948000000,"""map""",,,-0.0245883557945,0.00334458216093,0.0104441950098,,0.0115268423566,-0.00397040500984,0.018199557096,-0.999760040877
118980000000,,563,,118,980000000,"""map""",,,-0.024606462568,0.00317090447061,0.00975895207375,,0.0115361610906,-0.00400812742708,0.0182402709517,-0.999759029353
119016000000,,564,,119,16000000,"""map""",,,-0.024720525369,0.00300245545805,0.00893609877676,,0.0115071933641,-0.0040000941719,0.018234623274,-0.999759535115
119048000000,,565,,119,48000000,"""map""",,,-0.0248998850584,0.00282296026126,0.00811906252056,,0.0115389730757,-0.00394871222448,0.0182653904734,-0.999758776472
119076000000,,566,,119,76000000,"""map""",,,-0.0251459535211,0.00264521711506,0.0073622581549,,0.0115780007281,-0.00391524927312,0.0182849044643,-0.999758144269
119116000000,,567,,119,116000000,"""map""",,,-0.0255259349942,0.00239271321334,0.00644175102934,,0.0115241426533,-0.00390058710892,0.0182403130985,-0.999759661556
119148000000,,568,,119,148000000,"""map""",,,-0.0256549622864,0.00203574029729,0.00577435269952,,0.0116395351269,-0.00390105237062,0.0182387536651,-0.99975827071
119180000000,,569,,119,180000000,"""map""",,,-0.0256341118366,0.00156016973779,0.00515814591199,,0.0116341986115,-0.00390330426356,0.018243516259,-0.999758312856
119216000000,,570,,119,216000000,"""map""",,,-0.0256986971945,0.00110649503767,0.00452788174152,,0.0115642644775,-0.00395283142037,0.0182381214624,-0.999758987206
119248000000,,571,,119,248000000,"""map""",,,-0.0258641708642,0.000670731416903,0.0038097507786,,0.0115486115331,-0.00393961377356,0.0182362670011,-0.999759240087
119280000000,,572,,119,280000000,"""map""",,,-0.0260889548808,0.000242530484684,0.0029293615371,,0.0115418087683,-0.00393655154159,0.0182330638406,-0.999759408674
119316000000,,573,,119,316000000,"""map""",,,-0.0264411773533,-0.000269306008704,0.00162824161816,,0.0115821222289,-0.00387845211092,0.0182385429309,-0.9997590715
119348000000,,574,,119,348000000,"""map""",,,-0.0265479702502,-0.000485597644001,0.000742923468351,,0.0117170882916,-0.00387406488741,0.0182910157573,-0.999756584836
119380000000,,575,,119,376000000,"""map""",,,-0.0263942815363,-0.000621313694865,-0.00020082941046,,0.011744831784,-0.00387347581935,0.0182845672895,-0.999756374101
119416000000,,576,,119,416000000,"""map""",,,-0.0262879673392,-0.000824225950055,-0.00147580495104,,0.0116720234324,-0.00385792462006,0.0183187062368,-0.999756626982
119448000000,,577,,119,448000000,"""map""",,,-0.0262900236994,-0.00100541394204,-0.00257841241546,,0.0117134949435,-0.00391663616785,0.0183205606981,-0.999755868339
119480000000,,578,,119,480000000,"""map""",,,-0.0263458937407,-0.00118521240074,-0.00370147405192,,0.0116814695948,-0.00392855483563,0.0183019739379,-0.999756584836
119516000000,,579,,119,516000000,"""map""",,,-0.0264426600188,-0.00135919277091,-0.00487422989681,,0.011651802494,-0.00401877773813,0.0182959890854,-0.999756669129
119548000000,,580,,119,548000000,"""map""",,,-0.0264674201608,-0.00151794985868,-0.00582745810971,,0.0116422657817,-0.00400945373572,0.0182500911674,-0.9997577228
119580000000,,581,,119,580000000,"""map""",,,-0.0264177471399,-0.00163673027419,-0.00663063907996,,0.0116829384784,-0.00403193414031,0.0182559495793,-0.999757006304
119616000000,,582,,119,616000000,"""map""",,,-0.0265032593161,-0.00179510377347,-0.00771818310022,,0.0117621449191,-0.00403106025175,0.0182901306735,-0.999755446871
119648000000,,583,,119,648000000,"""map""",,,-0.0266703404486,-0.00191401166376,-0.00860239006579,,0.0116643342667,-0.00401794435006,0.0182844829958,-0.999756711276
119680000000,,584,,119,680000000,"""map""",,,-0.0269233323634,-0.00203292397782,-0.00949313584715,,0.0116520280455,-0.00406794829309,0.0182765172414,-0.999756837717
119716000000,,585,,119,716000000,"""map""",,,-0.0272607877851,-0.00217599584721,-0.0104747340083,,0.011602845966,-0.0040409262363,0.0183160088385,-0.99975679557
119748000000,,586,,119,748000000,"""map""",,,-0.0274410005659,-0.00230083381757,-0.0111055485904,,0.0115740359609,-0.00407106913552,0.0183186640899,-0.99975692201
119780000000,,587,,119,780000000,"""map""",,,-0.0274585150182,-0.00239358074032,-0.0114247668535,,0.0115787501518,-0.00411218173988,0.0183200970828,-0.999756753423
119816000000,,588,,119,816000000,"""map""",,,-0.0275976285338,-0.00254324474372,-0.0120766339824,,0.0115390777842,-0.00408751694315,0.0183846239078,-0.999756036927
119848000000,,589,,119,848000000,"""map""",,,-0.027776921168,-0.00270251720212,-0.0128171499819,,0.0115763655621,-0.00411061769667,0.0184151382262,-0.999754941108
119880000000,,590,,119,880000000,"""map""",,,-0.0279993768781,-0.00286958599463,-0.0136506464332,,0.011580702407,-0.00413731146903,0.0183986166616,-0.999755109696
119916000000,,591,,119,916000000,"""map""",,,-0.0283013768494,-0.00306030455977,-0.0144955562428,,0.0115663197949,-0.00409556764976,0.0184459475724,-0.999754646081
119948000000,,592,,119,948000000,"""map""",,,-0.028453046456,-0.00331056024879,-0.0152390180156,,0.0115232200325,-0.00406159926549,0.018459434564,-0.999754983255
119980000000,,593,,119,980000000,"""map""",,,-0.0284579955041,-0.00357430125587,-0.0159355793148,,0.011552357005,-0.00403574579592,0.0184418171813,-0.999755067549
120016000000,,594,,120,16000000,"""map""",,,-0.0286455228925,-0.00389109412208,-0.0168794244528,,0.0115461235519,-0.00412441716756,0.0184574958089,-0.999754477493
120048000000,,595,,120,48000000,"""map""",,,-0.0288756396621,-0.00416454020888,-0.0176247227937,,0.0115367310609,-0.00400773658091,0.018406835297,-0.99975599478
120080000000,,596,,120,80000000,"""map""",,,-0.0292024929076,-0.00445870682597,-0.0184369962662,,0.0115571617457,-0.00403216463089,0.0184109656882,-0.999755573311
120116000000,,597,,120,116000000,"""map""",,,-0.0295684561133,-0.00471507757902,-0.0192672722042,,0.011574829507,-0.00404346624246,0.0183741293426,-0.999756079073
120148000000,,598,,120,148000000,"""map""",,,-0.0297612864524,-0.00487820198759,-0.0197880640626,,0.0115638706679,-0.00409403258251,0.0183868998377,-0.999755699752
120180000000,,599,,120,180000000,"""map""",,,-0.029836256057,-0.00499712768942,-0.0200325325131,,0.0115385143994,-0.0041073348523,0.0184064559754,-0.999755615458
120216000000,,600,,120,216000000,"""map""",,,-0.0300192367285,-0.00518562411889,-0.0206247214228,,0.0115951597638,-0.0041665459061,0.0183777961184,-0.99975519399
120248000000,,601,,120,248000000,"""map""",,,-0.0302444621921,-0.00534557318315,-0.0211432557553,,0.0116073003611,-0.00417957356283,0.018395708529,-0.999754730374
120276000000,,602,,120,280000000,"""map""",,,-0.0305207502097,-0.00554291717708,-0.0217868406326,,0.0115841205822,-0.00418403618969,0.0183980687525,-0.999754898962
120316000000,,603,,120,316000000,"""map""",,,-0.0308625232428,-0.00580006325617,-0.0226055979729,,0.0115908499193,-0.00415759924969,0.0184568636062,-0.99975384529
120348000000,,604,,120,348000000,"""map""",,,-0.0309041328728,-0.00603002030402,-0.023240223527,,0.0115796684921,-0.00419724033635,0.018400428976,-0.999754898962
120380000000,,605,,120,380000000,"""map""",,,-0.0307107791305,-0.00622507371008,-0.0235089790076,,0.0115496253624,-0.00419179450254,0.0183986588084,-0.999755236136
120416000000,,606,,120,416000000,"""map""",,,-0.0306035652757,-0.00646857358515,-0.0239174813032,,0.0115802236451,-0.00422309808645,0.0184005132697,-0.999754730374
120448000000,,607,,120,448000000,"""map""",,,-0.0306554920971,-0.00670769996941,-0.0243377238512,,0.0115946889045,-0.00422169044757,0.0183732864056,-0.999755067549
120480000000,,608,,120,480000000,"""map""",,,-0.0307963620871,-0.00691677164286,-0.0247973687947,,0.0116251548198,-0.00424826634046,0.0183327832842,-0.999755362577
120516000000,,609,,120,516000000,"""map""",,,-0.0310274865478,-0.00710858032107,-0.0252513997257,,0.0115913704987,-0.00426050308523,0.0183797348734,-0.999754856815
120548000000,,610,,120,548000000,"""map""",,,-0.0310182236135,-0.00716885458678,-0.0253301300108,,0.0116627099667,-0.00425619817978,0.0183673437,-0.999754266759
120580000000,,611,,120,580000000,"""map""",,,-0.0307630822062,-0.00711758527905,-0.025109667331,,0.0116539819471,-0.00427420114027,0.018372064147,-0.999754182465
120616000000,,612,,120,616000000,"""map""",,,-0.0305546186864,-0.00707699963823,-0.0251398216933,,0.0115861222283,-0.00421578758387,0.0183278521029,-0.999756079073
