rosbagTimestamp,header,seq,stamp,secs,nsecs,frame_id,pose,position,x,y,z,orientation,x,y,z,w
462576000000,,6451,,462,568022098,"""map""",,,-0.064885571599,0.0592310614884,-0.0039489720948,,0.00110307402815,-6.93525980656e-05,0.0238534725301,-0.999714859456
462612000000,,6452,,462,608022098,"""map""",,,-0.0644897148013,0.0599647462368,-0.00343915098347,,0.00118077104368,-9.09819573629e-05,0.0238045821858,-0.999715955274
462644000000,,6453,,462,640022098,"""map""",,,-0.0642135366797,0.060737002641,-0.00313551281579,,0.00114897062909,-0.000106839338684,0.0237454923042,-0.999717388266
462676000000,,6454,,462,672021992,"""map""",,,-0.0637897104025,0.0604546368122,-0.00299698021263,,0.00136774952788,-0.000105853456396,0.0237631939806,-0.999716713917
462712000000,,6455,,462,704021992,"""map""",,,-0.0634288042784,0.0604185387492,-0.00291464175098,,0.00137793515346,-0.000149685767257,0.0238329891617,-0.999715028043
462744000000,,6456,,462,736021992,"""map""",,,-0.0631170943379,0.0605924241245,-0.00292683532462,,0.00139150495696,-0.000157156625428,0.0238657794098,-0.999714185106
462776000000,,6457,,462,768021885,"""map""",,,-0.0628243237734,0.0609245337546,-0.00299998186529,,0.00139968440902,-0.000142248000948,0.0238581086834,-0.999714353693
462812000000,,6458,,462,808021885,"""map""",,,-0.0625200122595,0.0615625679493,-0.00331450859085,,0.00140079220436,-0.00018382985943,0.0237791254893,-0.999716292448
462844000000,,6459,,462,840021885,"""map""",,,-0.0623326040804,0.0622369982302,-0.00361476838589,,0.00134223385048,-0.000149210256964,0.0237787040208,-0.999716376742
462876000000,,6460,,462,872021779,"""map""",,,-0.0620208829641,0.0616456232965,-0.00356633891352,,0.0013560441462,-0.000185449343852,0.0237576305966,-0.999716798211
462912000000,,6461,,462,904021779,"""map""",,,-0.0617775581777,0.0613094419241,-0.00340625201352,,0.00132027715341,-0.000200175345709,0.0237134185525,-0.999717936175
462944000000,,6462,,462,936021779,"""map""",,,-0.0615731552243,0.0611947588623,-0.00327572389506,,0.0013248860183,-0.000182267174472,0.0236807968917,-0.999718694819
462976000000,,6463,,462,968021673,"""map""",,,-0.0614283159375,0.0612949505448,-0.00313724065199,,0.00130575632932,-0.000189567593092,0.02366958583,-0.9997189477
463012000000,,6464,,463,8021673,"""map""",,,-0.061299841851,0.061692494899,-0.00291559193283,,0.00122937586775,-0.000177268945133,0.0237049048891,-0.99971827335
463044000000,,6465,,463,40021673,"""map""",,,-0.0612361952662,0.0621774978936,-0.00286172842607,,0.00121421390942,-0.000197933207454,0.0236870767722,-0.999718736966
463076000000,,6466,,463,72021567,"""map""",,,-0.0609100162983,0.0615046359599,-0.00285691954195,,0.00116073754352,-0.00012161720092,0.0236379756936,-0.999719959224
463112000000,,6467,,463,104021567,"""map""",,,-0.060654181987,0.0610721260309,-0.00289173703641,,0.00116824742045,-8.90742362413e-05,0.0236762028852,-0.999718989847
463144000000,,6468,,463,136021567,"""map""",,,-0.0604172870517,0.0608662292361,-0.00284089962952,,0.00111031649485,-0.000119897411937,0.0235788015183,-0.999721392217
463176000000,,6469,,463,168021462,"""map""",,,-0.0601753480732,0.0608928538859,-0.00283820577897,,0.00106408008495,-0.000124680996925,0.0235911926918,-0.999721139336
463212000000,,6470,,463,208021462,"""map""",,,-0.0599096044898,0.0611662566662,-0.00280401529744,,0.00105932506433,-0.000128202152091,0.0236512098041,-0.999719706343
463244000000,,6471,,463,240021462,"""map""",,,-0.0597046725452,0.0615551546216,-0.0027537252754,,0.00103902633537,-0.000163273022182,0.0236399565955,-0.999720001371
463276000000,,6472,,463,272021356,"""map""",,,-0.0595231428742,0.0608213171363,-0.00243460014462,,0.00106643298216,-0.000139689061626,0.0236166915351,-0.999720591427
463312000000,,6473,,463,304021356,"""map""",,,-0.059364631772,0.0603719353676,-0.00221279333346,,0.00111151286443,-0.000152806733158,0.0236112124448,-0.999720591427
463344000000,,6474,,463,336021356,"""map""",,,-0.0592226944864,0.0601080693305,-0.00183661631308,,0.00120772798688,-0.000153514298073,0.0236734633401,-0.999719031994
463376000000,,6475,,463,368021250,"""map""",,,-0.0591122098267,0.0600279308856,-0.00143813772593,,0.00119171790555,-0.000177749929578,0.023642611847,-0.999719790637
463412000000,,6476,,463,408021250,"""map""",,,-0.058970388025,0.060187432915,-0.000908992020413,,0.00108827941419,-0.000198603070696,0.0236118446476,-0.999720633574
463444000000,,6477,,463,440021250,"""map""",,,-0.058871332556,0.0604871250689,-0.000548830605112,,0.00110566951669,-0.000267330668864,0.0235798130427,-0.999721307923
463476000000,,6478,,463,472021145,"""map""",,,-0.0586881861091,0.0596743412316,-0.000184992037248,,0.00105358576662,-0.000251762141628,0.0236148792207,-0.99972054928
463512000000,,6479,,463,504021145,"""map""",,,-0.0585161522031,0.0591224133968,0.000160682830028,,0.00108711481938,-0.000242973947487,0.0235308805516,-0.999722530182
463544000000,,6480,,463,536021145,"""map""",,,-0.0583475083113,0.0588299706578,0.000508702418301,,0.00103003868456,-0.000207509185463,0.0235424709349,-0.999722319448
463576000000,,6481,,463,568021040,"""map""",,,-0.0581950582564,0.0587177202106,0.000784232222941,,0.00105157839949,-0.000213297174302,0.0235416279979,-0.999722319448
463612000000,,6482,,463,608021040,"""map""",,,-0.0580189824104,0.0588510148227,0.00113472552039,,0.00103643582707,-0.000287695252275,0.0235746711272,-0.999721560804
463644000000,,6483,,463,640021040,"""map""",,,-0.0578955970705,0.0591110363603,0.00126968661789,,0.00106601867534,-0.000212301496165,0.0235464748855,-0.999722193007
463676000000,,6484,,463,672020935,"""map""",,,-0.0577084086835,0.058329384774,0.00159841426648,,0.00104871488333,-0.000206970372578,0.0235283095938,-0.999722656623
463712000000,,6485,,463,704020935,"""map""",,,-0.0575485900044,0.0577628239989,0.00192189728841,,0.000984150438903,-0.000168013513664,0.0234706948519,-0.999724047469
463744000000,,6486,,463,736020935,"""map""",,,-0.0573834292591,0.0573867596686,0.00223884591833,,0.000998674267595,-0.000189822655612,0.0234703576771,-0.999724047469
463776000000,,6487,,463,768020830,"""map""",,,-0.0572212226689,0.0571887120605,0.00236052158289,,0.00100499082072,-0.000180631638027,0.0234652579084,-0.999724173909
463812000000,,6488,,463,808020830,"""map""",,,-0.0570164546371,0.0571803897619,0.00243890797719,,0.00100479947238,-0.000137978903857,0.023430613199,-0.999725016846
463844000000,,6489,,463,840020830,"""map""",,,-0.0568306855857,0.0573622770607,0.00246394914575,,0.000994253705267,-0.000165452310595,0.0233790254564,-0.999726196958
463876000000,,6490,,463,872020725,"""map""",,,-0.0565920844674,0.0565336197615,0.00282414862886,,0.000981630518343,-0.000135073446647,0.0233296293499,-0.99972737707
463912000000,,6491,,463,904020725,"""map""",,,-0.0563784912229,0.055919777602,0.00312156253494,,0.00104295373018,-0.000139414366248,0.0233573198294,-0.999726660573
463944000000,,6492,,463,936020725,"""map""",,,-0.0561690181494,0.0554994828999,0.0034612743184,,0.00099236026633,-0.000151972521902,0.0233011380803,-0.999728051419
463976000000,,6493,,463,968020620,"""map""",,,-0.0559622682631,0.0552585721016,0.00383445667103,,0.000989309188465,-0.000121087154909,0.0233308094617,-0.99972737707
464012000000,,6494,,464,8020620,"""map""",,,-0.0556580014527,0.0552071556449,0.00410375464708,,0.000899965154771,-0.000180496224813,0.0233705539398,-0.999726491986
464044000000,,6495,,464,40020620,"""map""",,,-0.055393088609,0.0553454086185,0.00433529308066,,0.00114397050643,-0.000164908352832,0.0234003939086,-0.999725564755
464076000000,,6496,,464,72020515,"""map""",,,-0.0551159530878,0.0543603077531,0.00449576927349,,0.00118724610023,-0.00017010764404,0.0234326783945,-0.999724721818
464112000000,,6497,,464,104020515,"""map""",,,-0.0548536032438,0.0536171235144,0.00477474508807,,0.00118052701178,-0.000140033603881,0.0235236312936,-0.999722614476
464144000000,,6498,,464,136020515,"""map""",,,-0.0545832626522,0.053105328232,0.00500916037709,,0.00118259163113,-0.000210902047927,0.0235398999772,-0.999722193007
464176000000,,6499,,464,168020411,"""map""",,,-0.0543045550585,0.0527652986348,0.00526063330472,,0.00118633821431,-0.000224609528383,0.0235802345112,-0.99972122363
464212000000,,6500,,464,208020411,"""map""",,,-0.053914103657,0.0525718741119,0.00550042884424,,0.00112349973272,-0.000299844781062,0.0236313586384,-0.999720085665
464244000000,,6501,,464,240020411,"""map""",,,-0.0535741746426,0.0525955967605,0.0056161689572,,0.00108412371023,-0.000295312842394,0.023654581552,-0.999719622049
464276000000,,6502,,464,272020306,"""map""",,,-0.0532681308687,0.0514737181365,0.00627248547971,,0.00105904925766,-0.000288952331423,0.0236767086474,-0.99971907414
464312000000,,6503,,464,304020306,"""map""",,,-0.0529404208064,0.0505625680089,0.00688419956714,,0.00106763799513,-0.000295218547052,0.023643159756,-0.999719917077
464344000000,,6504,,464,336020306,"""map""",,,-0.0525997243822,0.0498331524432,0.00747396703809,,0.00107647471577,-0.000291624746195,0.0236370063161,-0.999720001371
464376000000,,6505,,464,368020202,"""map""",,,-0.0522219911218,0.0492741316557,0.00814619567245,,0.00107173245445,-0.000306259580796,0.0236372170504,-0.999720043518
464412000000,,6506,,464,408020202,"""map""",,,-0.0517154298723,0.0487916097045,0.00880804285407,,0.00106447344181,-0.000346848024888,0.0236045532428,-0.999720760014
464444000000,,6507,,464,440020202,"""map""",,,-0.0513542406261,0.048587501049,0.00925037078559,,0.00105665561301,-0.000362183633163,0.0236260481355,-0.999720254252
464476000000,,6508,,464,472020098,"""map""",,,-0.0508471690118,0.0475852899253,0.00964487809688,,0.00104567956937,-0.00037184341096,0.0236312321979,-0.999720127812
464512000000,,6509,,464,504020098,"""map""",,,-0.0503411665559,0.0467909164727,0.00997864454985,,0.00102747155459,-0.00037455208684,0.0235935950622,-0.999721097189
464544000000,,6510,,464,536020098,"""map""",,,-0.0498040504754,0.0462036728859,0.0101899486035,,0.00108467606443,-0.000354741709792,0.0235927099783,-0.999721055042
464576000000,,6511,,464,568019994,"""map""",,,-0.0492653511465,0.045812625438,0.0102629438043,,0.00105141127324,-0.000380592771555,0.0235823840005,-0.99972135007
464612000000,,6512,,464,608019994,"""map""",,,-0.0485538467765,0.0455425083637,0.0103053906932,,0.00107824204343,-0.000340958908307,0.0235520804164,-0.999721982273
464644000000,,6513,,464,640019994,"""map""",,,-0.0479559116066,0.0454831533134,0.0103370435536,,0.00110096285793,-0.000376262121132,0.0235752611831,-0.999721392217
464676000000,,6514,,464,672019890,"""map""",,,-0.0475132279098,0.0447081588209,0.010287983343,,0.00110683588133,-0.000408176546237,0.0235777057003,-0.999721307923
464712000000,,6515,,464,704019890,"""map""",,,-0.0470609404147,0.0441371239722,0.0102833900601,,0.00115777680973,-0.00035481744241,0.0236006757327,-0.999720760014
464744000000,,6516,,464,736019890,"""map""",,,-0.0466059148312,0.0437340848148,0.0102928057313,,0.00112875853989,-0.000281734148548,0.0236253737859,-0.999720254252
464776000000,,6517,,464,768019786,"""map""",,,-0.0461482033134,0.0434736423194,0.010307027027,,0.00110806023905,-0.000287212333355,0.0236149635144,-0.999720464986
464812000000,,6518,,464,808019786,"""map""",,,-0.0455170683563,0.0433224514127,0.010245305486,,0.00112456735685,-0.000206153118844,0.0236289984149,-0.999720169958
464844000000,,6519,,464,840019786,"""map""",,,-0.0449898391962,0.0433672778308,0.0101086134091,,0.00134120647989,-0.000223948349697,0.0236530221186,-0.999719327021
464876000000,,6520,,464,872019683,"""map""",,,-0.0448440089822,0.0426069162786,0.0102660097182,,0.00135417416791,-0.000206685634396,0.0236456464201,-0.999719453462
464912000000,,6521,,464,904019683,"""map""",,,-0.0446629524231,0.042042195797,0.0103618791327,,0.00131130827112,-0.000222609981462,0.0236870346253,-0.999718526231
464944000000,,6522,,464,936019683,"""map""",,,-0.0444356650114,0.0416390188038,0.010338684544,,0.00129884840323,-0.000213808410636,0.0236594284395,-0.999719242728
464976000000,,6523,,464,968019579,"""map""",,,-0.0441873855889,0.0414032638073,0.0102242575958,,0.00128735112162,-0.000201747414926,0.0236148370738,-0.999720338546
465012000000,,6524,,465,8019579,"""map""",,,-0.043822158128,0.0413081422448,0.0100048938766,,0.00133058255178,-0.000187231324132,0.0235444096899,-0.999721897979
465044000000,,6525,,465,40019579,"""map""",,,-0.0434794090688,0.0413845106959,0.00977898389101,,0.00135951932673,-0.000212676331467,0.0235490458433,-0.999721813686
465076000000,,6526,,465,72019476,"""map""",,,-0.043101195246,0.0415713265538,0.00954941473901,,0.00138468943289,-0.000214125746771,0.0235512796263,-0.999721687245
465112000000,,6527,,465,104019476,"""map""",,,-0.0426791384816,0.0418903306127,0.00940223690122,,0.00135664572661,-0.000183822080373,0.0235414594105,-0.999721982273
465144000000,,6528,,465,136019476,"""map""",,,-0.0422328449786,0.0422871150076,0.00918974727392,,0.00138954961484,-0.000208930530306,0.0234847297525,-0.999723246678
465176000000,,6529,,465,176019373,"""map""",,,-0.0418904274702,0.041962377727,0.00929724331945,,0.00134607571682,-0.000192653861929,0.0234988067999,-0.999722993797
465212000000,,6530,,465,208019373,"""map""",,,-0.0416056141257,0.0416807830334,0.00935687404126,,0.00139548186608,-0.000172762360429,0.0235372447257,-0.999721982273
465244000000,,6531,,465,240019373,"""map""",,,-0.04128992185,0.0415426343679,0.00941846892238,,0.00136092684214,-0.000142389505699,0.023556084367,-0.999721602951
465276000000,,6532,,465,272019270,"""map""",,,-0.0409399420023,0.0415197499096,0.00942818354815,,0.00137593144948,-0.000157389009321,0.0235664103449,-0.999721392217
465312000000,,6533,,465,304019270,"""map""",,,-0.0405225344002,0.0416039787233,0.00944476667792,,0.00140197013469,-0.00019528808112,0.02357610412,-0.999721055042
465344000000,,6534,,465,336019270,"""map""",,,-0.0400514639914,0.0418191254139,0.00940509140491,,0.00137057176152,-0.00011144149466,0.0235614791636,-0.999721518658
465376000000,,6535,,465,368019167,"""map""",,,-0.0398386567831,0.041465215385,0.00934345647693,,0.0013731282313,-8.42310941344e-05,0.0235672532818,-0.999721307923
465412000000,,6536,,465,408019167,"""map""",,,-0.0396637134254,0.0409839376807,0.00925940088928,,0.00140180698029,-3.33279497322e-05,0.0235242213495,-0.999722361595
465444000000,,6537,,465,440019167,"""map""",,,-0.0394919514656,0.0407776646316,0.00918592792004,,0.00139020239708,-2.76305930804e-05,0.0234669016355,-0.999723710294
465476000000,,6538,,465,472019064,"""map""",,,-0.0392924249172,0.0407238155603,0.0090853376314,,0.00140172462106,-3.34221627559e-05,0.0234615489858,-0.999723752441
465512000000,,6539,,465,512019064,"""map""",,,-0.0389527827501,0.040819812566,0.00878254137933,,0.00137101714341,2.50868414413e-05,0.0234182220255,-0.999724848259
465544000000,,6540,,465,536019064,"""map""",,,-0.0387311540544,0.0409649685025,0.00849341601133,,0.00158859679148,6.05918569995e-06,0.0233697531497,-0.999725691196
465576000000,,6541,,465,568018961,"""map""",,,-0.0386624895036,0.0405833125114,0.0079061454162,,0.0016110271467,-1.69902013517e-05,0.023413628019,-0.999724637524
465612000000,,6542,,465,608018961,"""map""",,,-0.0386177636683,0.0400530025363,0.00713916495442,,0.00164069943355,-1.5389526607e-05,0.0234291802061,-0.999724173909
465644000000,,6543,,465,640018961,"""map""",,,-0.0385169424117,0.0398004725575,0.00657084351406,,0.00163182250054,4.12338588687e-05,0.0234121528793,-0.999724595378
465676000000,,6544,,465,672018859,"""map""",,,-0.0383614897728,0.0396589301527,0.0060404445976,,0.0015804687059,4.62921392345e-05,0.0234009418176,-0.999724932552
465712000000,,6545,,465,704018859,"""map""",,,-0.0381605401635,0.039638005197,0.00557117117569,,0.0015807531148,4.71155668237e-05,0.0233890142595,-0.99972522758
465744000000,,6546,,465,736018859,"""map""",,,-0.0378890223801,0.03973897174,0.00510948942974,,0.00160143371726,1.67520551941e-05,0.0234026276916,-0.999724848259
465776000000,,6547,,465,768018756,"""map""",,,-0.0378256179392,0.0393079482019,0.00431324448436,,0.00160305867583,1.43295992215e-05,0.0234126586415,-0.999724595378
465812000000,,6548,,465,808018756,"""map""",,,-0.0377636738122,0.0387228354812,0.00323055358604,,0.00156071780365,2.77524649735e-05,0.0233601436683,-0.999725944077
465844000000,,6549,,465,840018756,"""map""",,,-0.0376934930682,0.0384181328118,0.00246349070221,,0.00157200558579,5.39323256625e-06,0.0232944788783,-0.999727461363
465876000000,,6550,,465,872018654,"""map""",,,-0.0375825352967,0.0382257886231,0.00179775990546,,0.00155879666468,2.76314574202e-05,0.0232802753903,-0.999727840685
465912000000,,6551,,465,904018654,"""map""",,,-0.0374533236027,0.0381582044065,0.00114815495908,,0.00154010165624,7.14076273624e-06,0.0232402358842,-0.999728767916
465944000000,,6552,,465,936018654,"""map""",,,-0.0372862443328,0.0382379479706,0.000495805055834,,0.00150114323328,1.32216804049e-05,0.0232346303534,-0.99972897865
465976000000,,6553,,465,968018552,"""map""",,,-0.0373711623251,0.0378398410976,9.04607732082e-05,,0.0015540960563,-3.48345349303e-05,0.0232128825796,-0.999729315825
466012000000,,6554,,466,8018552,"""map""",,,-0.0374978780746,0.0373337380588,-0.00032425034442,,0.00160279007199,1.05517763334e-05,0.0231706514373,-0.999730243055
466044000000,,6555,,466,40018552,"""map""",,,-0.0375384762883,0.0371122099459,-0.000611750700045,,0.00162175516601,2.00866776284e-05,0.0231575859143,-0.99973058023
466076000000,,6556,,466,72018450,"""map""",,,-0.0375101715326,0.0370288603008,-0.00086161470972,,0.00163283789385,-6.72703214898e-06,0.0231453211814,-0.999730790964
466112000000,,6557,,466,104018450,"""map""",,,-0.0374372787774,0.0370820984244,-0.00124128209427,,0.0016134697706,6.42749317959e-05,0.023110381444,-0.999731676048
466144000000,,6558,,466,136018450,"""map""",,,-0.0373323857784,0.0372675471008,-0.0016877935268,,0.00159648129792,9.17923786981e-05,0.0231071361366,-0.999731718195
466176000000,,6559,,466,168018348,"""map""",,,-0.037425801158,0.0369797311723,-0.00183515413664,,0.00158136210384,6.423607767e-05,0.0231207495687,-0.999731423167
466212000000,,6560,,466,208018348,"""map""",,,-0.0375639311969,0.0366029106081,-0.00201406260021,,0.00153442566112,0.000129814104411,0.0230819323212,-0.999732392545
466244000000,,6561,,466,240018348,"""map""",,,-0.037622064352,0.0364645309746,-0.00219339504838,,0.0015227884388,0.000176239763544,0.0231028793049,-0.999731928929
466276000000,,6562,,466,272018247,"""map""",,,-0.0376152843237,0.0364358685911,-0.00237490283325,,0.00150438430123,0.000198333561356,0.0231008141094,-0.99973205537
466312000000,,6563,,466,304018247,"""map""",,,-0.0375321283937,0.0365121327341,-0.00265003857203,,0.00173754861089,0.000214176125426,0.0231338993854,-0.999730833111
466344000000,,6564,,466,336018247,"""map""",,,-0.037407875061,0.0366599299014,-0.00301346369088,,0.00172067143224,0.00016730504325,0.0231184736389,-0.99973125458
466376000000,,6565,,466,368018145,"""map""",,,-0.0375892668962,0.0362924523652,-0.00302236271091,,0.00169000671881,0.000192932549733,0.0230969365993,-0.999731802489
466412000000,,6566,,466,408018145,"""map""",,,-0.0378766283393,0.0357747711241,-0.00289493240416,,0.00166129590695,0.000152495200447,0.0230208615377,-0.999733614803
466444000000,,6567,,466,440018145,"""map""",,,-0.0380300283432,0.0355309173465,-0.00277502625249,,0.00167166798295,0.000204141553485,0.0229967956872,-0.999734162712
466476000000,,6568,,466,472018044,"""map""",,,-0.0381192564964,0.0354533046484,-0.00262783979997,,0.00169349692239,0.00019103849341,0.0229710861097,-0.999734668474
466512000000,,6569,,466,504018044,"""map""",,,-0.0381253920496,0.035497456789,-0.00265099387616,,0.0016933297344,0.000200347266984,0.0229301615197,-0.999735637852
466544000000,,6570,,466,536018044,"""map""",,,-0.0380961857736,0.0356428697705,-0.00289404811338,,0.00166137402679,0.000150631766443,0.0228944631391,-0.999736522936
466576000000,,6571,,466,568017942,"""map""",,,-0.0384349785745,0.0352381281555,-0.00300441100262,,0.00169276947766,8.62247964734e-05,0.0229259889817,-0.999735764292
466612000000,,6572,,466,608017942,"""map""",,,-0.0389472171664,0.0347091518342,-0.00311261042953,,0.0016319581607,6.81191030432e-05,0.0228636116459,-0.999737281579
466644000000,,6573,,466,640017942,"""map""",,,-0.0392478629947,0.0344807356596,-0.00334602571093,,0.00163062526662,2.57496664886e-05,0.0228779415744,-0.999737028698
466676000000,,6574,,466,672017841,"""map""",,,-0.0394579730928,0.0343893356621,-0.00372684630565,,0.00160756377881,3.45618975041e-05,0.0228550136889,-0.99973753446
466712000000,,6575,,466,704017841,"""map""",,,-0.0396102145314,0.0344086699188,-0.00415227143094,,0.00159182464739,4.70455141516e-05,0.0228366376629,-0.999737955929
466744000000,,6576,,466,736017841,"""map""",,,-0.0397186242044,0.0345566608012,-0.00467185443267,,0.00160834242538,5.72192036193e-05,0.0228274075031,-0.999738166663
466776000000,,6577,,466,768017740,"""map""",,,-0.040239572525,0.0342447422445,-0.00511943688616,,0.00156436688108,8.60936637983e-05,0.0228156485323,-0.999738461691
466812000000,,6578,,466,808017740,"""map""",,,-0.0409928783774,0.0338296554983,-0.00577850732952,,0.00158161967706,0.000152235157684,0.0228394615018,-0.999737913782
466844000000,,6579,,466,840017740,"""map""",,,-0.0414828471839,0.0336442925036,-0.00638802582398,,0.00158995787951,0.000258048895615,0.0228070505752,-0.999738630278
466876000000,,6580,,466,872017640,"""map""",,,-0.0418893322349,0.0335832387209,-0.00702296383679,,0.00153800616761,0.00026212524496,0.0227820574941,-0.999739262481
466912000000,,6581,,466,904017640,"""map""",,,-0.0422286391258,0.0336411446333,-0.00771432183683,,0.00153935466097,0.000349284145659,0.0227532711965,-0.999739894684
466944000000,,6582,,466,936017640,"""map""",,,-0.0424927733839,0.0338008664548,-0.00841644592583,,0.00148940315454,0.000382994792068,0.0227740495929,-0.999739515362
466976000000,,6583,,466,968017539,"""map""",,,-0.0428524762392,0.0335072726011,-0.00847784616053,,0.00154077629392,0.000429254991894,0.0227783485714,-0.999739262481
467012000000,,6584,,467,8017539,"""map""",,,-0.0432720631361,0.0331187359989,-0.00844612997025,,0.00153980432339,0.000445952676007,0.0228330973276,-0.999738040222
467044000000,,6585,,467,40017539,"""map""",,,-0.043559871614,0.0329766459763,-0.00871589407325,,0.00177537195007,0.000435000093023,0.0228920186218,-0.999736354348
467076000000,,6586,,467,72017438,"""map""",,,-0.0437972471118,0.0329441390932,-0.00882562622428,,0.00176915689511,0.000394774260001,0.0229076972495,-0.99973593288
467112000000,,6587,,467,104017438,"""map""",,,-0.044019524008,0.0330129340291,-0.00893209967762,,0.00173615093249,0.00038149886706,0.02290782369,-0.99973605932
467144000000,,6588,,467,136017438,"""map""",,,-0.044210780412,0.0332045815885,-0.00913896039128,,0.00173124979731,0.000429605954958,0.022908666627,-0.999735975027
467176000000,,6589,,467,168017338,"""map""",,,-0.0444371439517,0.0329562909901,-0.00948915723711,,0.00173328552302,0.000396877280728,0.0228942945517,-0.999736354348
467212000000,,6590,,467,208017338,"""map""",,,-0.044664375484,0.0326428078115,-0.0100049544126,,0.00168918716017,0.000323850868648,0.022858596171,-0.999737239432
467244000000,,6591,,467,240017338,"""map""",,,-0.0447718128562,0.0325650423765,-0.0106094712391,,0.00172682767093,0.000292570745381,0.0228118974628,-0.999738250956
467276000000,,6592,,467,272017238,"""map""",,,-0.0448656082153,0.0326381623745,-0.0112613691017,,0.00170678346943,0.000308728217202,0.0227587924337,-0.999739515362
467312000000,,6593,,467,304017238,"""map""",,,-0.0449204035103,0.0328382849693,-0.0117534659803,,0.00170479943946,0.000291575108403,0.0226900087769,-0.999741032648
467344000000,,6594,,467,336017238,"""map""",,,-0.0449121817946,0.0331156402826,-0.0122617455199,,0.0016667670124,0.000342397786898,0.0226798935333,-0.999741369823
467376000000,,6595,,467,368017138,"""map""",,,-0.0450552292168,0.0328162610531,-0.0123842917383,,0.00166205006388,0.000300068645036,0.02267218066,-0.999741580558
467412000000,,6596,,467,408017138,"""map""",,,-0.0452518612146,0.0323870703578,-0.0126973921433,,0.00170164764545,0.000287053706447,0.0226586936685,-0.999741833439
467444000000,,6597,,467,440017138,"""map""",,,-0.0453993044794,0.0321824401617,-0.0132171269506,,0.00169813422818,0.000300265673321,0.0226530459908,-0.999741917732
467476000000,,6598,,467,472017038,"""map""",,,-0.0455260202289,0.0321179591119,-0.0137858903036,,0.00167386315875,0.000310782876067,0.022638252447,-0.999742297054
467512000000,,6599,,467,504017038,"""map""",,,-0.0456554181874,0.0322094894946,-0.0142968501896,,0.00165492383029,0.000355805506126,0.0226732764781,-0.999741496264
467544000000,,6600,,467,544017038,"""map""",,,-0.0458041876554,0.0324753634632,-0.0148801757023,,0.00172616356996,0.000406841182611,0.02262350105,-0.999742549935
467576000000,,6601,,467,568016938,"""map""",,,-0.0459293797612,0.0322556458414,-0.0150039680302,,0.00171668534465,0.000374599131613,0.0226325626224,-0.999742339201
467612000000,,6602,,467,608016938,"""map""",,,-0.046155847609,0.0320789217949,-0.0153093812987,,0.00177656700255,0.00042401939842,0.022584810243,-0.999743308578
467644000000,,6603,,467,640016938,"""map""",,,-0.0463268831372,0.0320431701839,-0.0156337097287,,0.00175308137093,0.000374632799701,0.0225838408655,-0.999743350725
467676000000,,6604,,467,672016838,"""map""",,,-0.0465090423822,0.0321355313063,-0.0161306653172,,0.00179823776784,0.000620206845542,0.0226251447771,-0.999742254907
467712000000,,6605,,467,704016838,"""map""",,,-0.0466435886919,0.0323479324579,-0.0167817771435,,0.00187764362404,0.000616869630089,0.0226828438127,-0.999740779767
467744000000,,6606,,467,736016838,"""map""",,,-0.0467785261571,0.0326829776168,-0.0174660049379,,0.0018926453091,0.000642053154096,0.0226798935333,-0.999740779767
467776000000,,6607,,467,768016739,"""map""",,,-0.0470630042255,0.0325346365571,-0.0175877455622,,0.00186758908997,0.000621982775444,0.0227023578035,-0.999740400446
467812000000,,6608,,467,808016739,"""map""",,,-0.047446899116,0.0322936214507,-0.0176109913737,,0.00187737514368,0.00062967827961,0.0227150861518,-0.999740063271
467844000000,,6609,,467,840016739,"""map""",,,-0.0477310940623,0.0322130694985,-0.0175564009696,,0.00185132604524,0.000632210424402,0.0226906831265,-0.99974061118
467876000000,,6610,,467,872016639,"""map""",,,-0.0480037517846,0.0322399809957,-0.0174742285162,,0.00189190983836,0.000630450299569,0.0226631612344,-0.999741159089
467912000000,,6611,,467,904016639,"""map""",,,-0.0482546836138,0.0324064455926,-0.0173490978777,,0.00185818593874,0.000591831603259,0.0226663643949,-0.999741243383
467944000000,,6612,,467,936016639,"""map""",,,-0.048507053405,0.032680220902,-0.0172188077122,,0.00191273157513,0.000514878002164,0.0226564598855,-0.999741369823
467976000000,,6613,,467,968016540,"""map""",,,-0.0490393675864,0.0328014865518,-0.0171446371824,,0.00193138204951,0.000505348204589,0.0226440265652,-0.999741664851
468012000000,,6614,,468,8016540,"""map""",,,-0.04978402704,0.0330196917057,-0.0170757304877,,0.00189947050554,0.000538004891673,0.0226163782326,-0.999742254907
468044000000,,6615,,468,40016540,"""map""",,,-0.0503493025899,0.033325009048,-0.016986919567,,0.0018556423929,0.00052939573932,0.0226041134997,-0.999742634229
468076000000,,6616,,468,72016441,"""map""",,,-0.050885014236,0.0337148457766,-0.0168110541999,,0.00183408452684,0.000557613795261,0.0226076538349,-0.999742634229
468112000000,,6617,,468,104016441,"""map""",,,-0.0514015294611,0.0342187844217,-0.016606066376,,0.00180385593451,0.000548483981156,0.022582028551,-0.999743224285
468144000000,,6618,,468,136016441,"""map""",,,-0.0519308261573,0.0348445028067,-0.0164148379117,,0.00175516130144,0.000508572603137,0.0225652541053,-0.999743730047
468176000000,,6619,,468,168016342,"""map""",,,-0.0525224581361,0.0349406450987,-0.0159796979278,,0.00170709652502,0.000524708507625,0.0225997723743,-0.99974301355
468212000000,,6620,,468,208016342,"""map""",,,-0.0532510504127,0.0349906720221,-0.0155360819772,,0.00171786549757,0.000502342895568,0.0225040990281,-0.999745205186
468244000000,,6621,,468,240016342,"""map""",,,-0.0538188964128,0.0351614914834,-0.0154201583937,,0.00173792599805,0.000523719497252,0.022458243257,-0.999746132417
468276000000,,6622,,468,272016243,"""map""",,,-0.0544117949903,0.0354512743652,-0.0152873573825,,0.00174714249308,0.000534534444434,0.0224761556676,-0.999745753096
468312000000,,6623,,468,304016243,"""map""",,,-0.0550085864961,0.0358371995389,-0.0152046410367,,0.00177962536557,0.000579828806421,0.0224147477093,-0.999747059648
468344000000,,6624,,468,336016243,"""map""",,,-0.0556419230998,0.0363085977733,-0.0151632837951,,0.0017726006713,0.000597629429108,0.0223873522578,-0.999747649704
468376000000,,6625,,468,368016145,"""map""",,,-0.0564045868814,0.0362484157085,-0.0149959744886,,0.00172076589222,0.000606076497193,0.0223934635508,-0.999747607557
468412000000,,6626,,468,408016145,"""map""",,,-0.0573865361512,0.0361067205667,-0.014789858833,,0.00170520975385,0.000586407419101,0.0224031151791,-0.999747396823
468444000000,,6627,,468,440016145,"""map""",,,-0.0581315532327,0.0361463688314,-0.0146328154951,,0.00176039483696,0.000583965494907,0.0224132304228,-0.999747143942
468476000000,,6628,,468,472016046,"""map""",,,-0.0588622614741,0.0363117605448,-0.0144246360287,,0.00174775345774,0.000615739238441,0.0224291619315,-0.999746722473
468512000000,,6629,,468,504016046,"""map""",,,-0.0595939494669,0.0365936048329,-0.0140452021733,,0.00180751011567,0.000658476307467,0.0224383077976,-0.999746427445
468544000000,,6630,,468,536016046,"""map""",,,-0.0602861605585,0.0369706116617,-0.0137746613473,,0.00175064899563,0.000704167195566,0.0224101537028,-0.999747101795
468576000000,,6631,,468,568015948,"""map""",,,-0.0608749017119,0.0368217080832,-0.0132724065334,,0.00173986446497,0.000705238030095,0.0224190888347,-0.999746933207
468612000000,,6632,,468,608015948,"""map""",,,-0.0615956187248,0.0365715175867,-0.0125929452479,,0.00171158228326,0.000656176134978,0.0223729801824,-0.999748029025
468644000000,,6633,,468,640015948,"""map""",,,-0.0621963739395,0.0365284457803,-0.0122956763953,,0.00191173581468,0.000684450949223,0.0224113759614,-0.999746806767
468676000000,,6634,,468,672015850,"""map""",,,-0.0627946183085,0.036567889154,-0.0118668125942,,0.00188683764624,0.000711554253948,0.0224269281485,-0.999746511739
468712000000,,6635,,468,704015850,"""map""",,,-0.0634147077799,0.0367074124515,-0.0114335939288,,0.00190816588606,0.000712424232402,0.0223899653624,-0.999747312529
468744000000,,6636,,468,736015850,"""map""",,,-0.0640601739287,0.0369485542178,-0.0109254382551,,0.0018618016362,0.00074549049301,0.0224738375909,-0.999745458068
468776000000,,6637,,468,768015752,"""map""",,,-0.0646983757615,0.0364815331995,-0.010283363983,,0.00187156163624,0.000756923113782,0.0224726153323,-0.999745415921
468812000000,,6638,,468,808015752,"""map""",,,-0.0655072778463,0.0357656925917,-0.0093172416091,,0.00180053810496,0.000707045117384,0.0224464421394,-0.999746216711
468844000000,,6639,,468,840015752,"""map""",,,-0.0661780163646,0.0353615134954,-0.0085970479995,,0.0017890558464,0.000706223953541,0.0224227134637,-0.99974676462
468876000000,,6640,,468,872015654,"""map""",,,-0.0668707787991,0.0350722633302,-0.00791316945106,,0.00179050172203,0.000724275275891,0.022434851756,-0.999746511739
468912000000,,6641,,468,904015654,"""map""",,,-0.0675901845098,0.0349145755172,-0.00723416917026,,0.00175979469712,0.00074359590162,0.0223905975651,-0.999747523263
468944000000,,6642,,468,936015654,"""map""",,,-0.0683297365904,0.0348664037883,-0.00660835159943,,0.00177650633414,0.000732260951231,0.0223943486346,-0.999747396823
468976000000,,6643,,468,968015556,"""map""",,,-0.0688299387693,0.0344862490892,-0.00594042334706,,0.00175215187651,0.00077196064835,0.0223987740537,-0.999747270382
469012000000,,6644,,469,8015556,"""map""",,,-0.0694056600332,0.0340745709836,-0.0051208967343,,0.0017740860596,0.000727761569357,0.0223850341811,-0.999747607557
469044000000,,6645,,469,40015556,"""map""",,,-0.0699062794447,0.0338923558593,-0.00443649571389,,0.00177365792335,0.000713845124496,0.0224204375339,-0.999746848914
469076000000,,6646,,469,72015459,"""map""",,,-0.0704201981425,0.0338425338268,-0.00386607460678,,0.00174172205439,0.000714529434558,0.0223833483072,-0.999747691851
469112000000,,6647,,469,104015459,"""map""",,,-0.0709604173899,0.0339199453592,-0.00348072149791,,0.00175020657719,0.000721658343493,0.0224047589062,-0.999747186088
469144000000,,6648,,469,136015459,"""map""",,,-0.0715623274446,0.0341155193746,-0.00314980163239,,0.00176219719096,0.000807605975047,0.0223257335653,-0.999748914109
469176000000,,6649,,469,168015361,"""map""",,,-0.0718559771776,0.0338868126273,-0.00252219452523,,0.00177616282086,0.000810948376538,0.0222672758864,-0.999750136368
469212000000,,6650,,469,208015361,"""map""",,,-0.0721545517445,0.0335907824337,-0.00187252112664,,0.00172600815345,0.000864240843892,0.0222835445699,-0.999749883487
469244000000,,6651,,469,240015361,"""map""",,,-0.0724498555064,0.0335124358535,-0.00135532557033,,0.001757016339,0.000837776286181,0.0222681188233,-0.999750136368
469276000000,,6652,,469,272015264,"""map""",,,-0.0728098079562,0.0335706695914,-0.000834725331515,,0.00179782827663,0.000871527391919,0.0222312403309,-0.999750852864
469312000000,,6653,,469,304015264,"""map""",,,-0.0732460841537,0.0337705276906,-0.000462373893242,,0.00175777576429,0.000898678688075,0.0222623868519,-0.999750304955
469344000000,,6654,,469,336015264,"""map""",,,-0.0737149864435,0.0341143943369,-0.000295234582154,,0.00200783165826,0.000866062830751,0.0221820971055,-0.999751611507
469376000000,,6655,,469,368015167,"""map""",,,-0.0736869946122,0.0340155698359,3.08585586026e-05,,0.00204212071254,0.000889612094243,0.0222077645363,-0.999750979305
469412000000,,6656,,469,408015167,"""map""",,,-0.0735410749912,0.0338550172746,0.000481878319988,,0.0020034175579,0.000909533559518,0.0222085653264,-0.999750937158
469444000000,,6657,,469,440015167,"""map""",,,-0.0735093429685,0.0338736437261,0.000776544795372,,0.00196248732921,0.000936147359878,0.0222074273615,-0.999751063598
469476000000,,6658,,469,472015070,"""map""",,,-0.0735666751862,0.0340016372502,0.000953502487391,,0.00193224881756,0.000938271289393,0.02222175729,-0.999750810717
469512000000,,6659,,469,504015070,"""map""",,,-0.0737207531929,0.034251280129,0.00112690753303,,0.00186812111162,0.000962188596947,0.0222139179762,-0.999751063598
469544000000,,6660,,469,536015070,"""map""",,,-0.0739379972219,0.0345854572952,0.00133584125433,,0.00187002768029,0.000937714366535,0.0221871547273,-0.999751695801
469576000000,,6661,,469,568014973,"""map""",,,-0.0739050507545,0.0342332981527,0.0018488462083,,0.00188153060068,0.000948132417174,0.0221287391953,-0.999752960207
469612000000,,6662,,469,608014973,"""map""",,,-0.0738311856985,0.0336764752865,0.00245930068195,,0.00185909184903,0.00107878715365,0.0221277698178,-0.999752833766
469644000000,,6663,,469,640014973,"""map""",,,-0.0738576054573,0.0334084518254,0.00293138273992,,0.00184918622833,0.00100136911404,0.0221956683907,-0.99975144292
469676000000,,6664,,469,672014876,"""map""",,,-0.0739690288901,0.0332645438612,0.00334545597434,,0.00185333888652,0.00101145715156,0.0221943618384,-0.999751485067
469712000000,,6665,,469,704014876,"""map""",,,-0.0741697475314,0.0332631208003,0.00377500895411,,0.00172798786172,0.00110119672355,0.0222060365155,-0.999751358626
469744000000,,6666,,469,736014876,"""map""",,,-0.0744405910373,0.0333818942308,0.00418942375109,,0.0017295962332,0.00110740889737,0.0221887141607,-0.999751737948
469776000000,,6667,,469,768014780,"""map""",,,-0.0744672194123,0.0329824350774,0.00445166323334,,0.00186376290522,0.00107832584322,0.0222078066831,-0.999751105745
469812000000,,6668,,469,808014780,"""map""",,,-0.0745341926813,0.0324908979237,0.00482044043019,,0.00184293063173,0.00101130926716,0.0221716446871,-0.999752032976
469844000000,,6669,,469,840014780,"""map""",,,-0.0746588259935,0.0322760902345,0.00515608070418,,0.00187344877785,0.000987663362263,0.0221943196916,-0.99975144292
469876000000,,6670,,469,872014684,"""map""",,,-0.0748622044921,0.0321949124336,0.00565503071994,,0.00188529471762,0.000985713700088,0.0222145923257,-0.999750979305
469912000000,,6671,,469,904014684,"""map""",,,-0.0751622319221,0.0322359539568,0.00615808367729,,0.00176736425465,0.00112353615847,0.0222358343374,-0.999750557836
469944000000,,6672,,469,936014684,"""map""",,,-0.0755191594362,0.0324177071452,0.00657284585759,,0.00179106399556,0.00113808303622,0.0222802992626,-0.999749504165
469976000000,,6673,,469,968014587,"""map""",,,-0.0755839124322,0.0321771539748,0.00668737059459,,0.00180143928196,0.00115198532237,0.0222692567882,-0.999749757046
470012000000,,6674,,470,8014587,"""map""",,,-0.075700931251,0.0319160409272,0.00658100796863,,0.00190991975472,0.00110767573138,0.0222368880086,-0.999750347102
470044000000,,6675,,470,40014587,"""map""",,,-0.075986944139,0.0319175757468,0.00670132506639,,0.00183324941008,0.00108385415973,0.022207005893,-0.999751147892
470076000000,,6676,,470,72014491,"""map""",,,-0.0765112638474,0.0320532023907,0.00751260202378,,0.00111571417259,0.00123078247766,0.0220154906134,-0.999756289808
470112000000,,6677,,470,104014491,"""map""",,,-0.077293753624,0.032224573195,0.00937479175627,,-0.00135077225046,0.00240929430208,0.021565151537,-0.999763665506
470144000000,,6678,,470,136014491,"""map""",,,-0.0783307254314,0.0324012227356,0.0124996555969,,-0.00605580430021,0.00557663369256,0.0209189560557,-0.999747312529
470176000000,,6679,,470,168014396,"""map""",,,-0.0792215317488,0.0318930484354,0.0165451355278,,-0.00896830910967,0.00797954717169,0.0205998622656,-0.999715744539
470212000000,,6680,,470,208014396,"""map""",,,-0.0805085524917,0.0310123376548,0.0227095428854,,-0.0158880748457,0.0141581184298,0.0200153276236,-0.999573161751
470244000000,,6681,,470,240014396,"""map""",,,-0.0818168446422,0.030263191089,0.0284606441855,,-0.0236328209365,0.0217250010333,0.0195594673101,-0.999293222383
470276000000,,6682,,470,272014300,"""map""",,,-0.0833646357059,0.0294195525348,0.0348276644945,,-0.0277486731565,0.0259614108561,0.0194118690466,-0.999089231636
470312000000,,6683,,470,304014300,"""map""",,,-0.0851573422551,0.0284572783858,0.0416308119893,,-0.0366763825857,0.0353662054882,0.01928517562,-0.998515022972
470344000000,,6684,,470,336014300,"""map""",,,-0.0871852785349,0.0273381788284,0.0489700734615,,-0.0465951125135,0.0458160043112,0.0192454311418,-0.997677017183
470376000000,,6685,,470,368014204,"""map""",,,-0.0895162969828,0.0260126329958,0.0569061264396,,-0.0519515745474,0.0515208562285,0.0193068391001,-0.997132859222
470412000000,,6686,,470,408014204,"""map""",,,-0.0933233350515,0.0236176829785,0.067475028336,,-0.0632394034431,0.0636882226811,0.0195184162796,-0.995772949008
470444000000,,6687,,470,440014204,"""map""",,,-0.0977112129331,0.0204867720604,0.076510950923,,-0.0740332669526,0.0756607169646,0.0195969780053,-0.994188396091
470476000000,,6688,,470,472014109,"""map""",,,-0.102402418852,0.0154164107516,0.0854814201593,,-0.0783295823468,0.0803494458601,0.0196118979896,-0.993490781455
470512000000,,6689,,470,504014109,"""map""",,,-0.108810305595,0.00896035414189,0.095491476357,,-0.0851011852408,0.0858357480932,0.0193014443035,-0.992480437202
470544000000,,6690,,470,536014109,"""map""",,,-0.116946958005,0.000996470800601,0.106813147664,,-0.0898579894874,0.0873592246699,0.0187689610194,-0.991938344437
470576000000,,6691,,470,568014014,"""map""",,,-0.126819550991,-0.00851954706013,0.119533881545,,-0.0916559379895,0.0875730084674,0.0184631434866,-0.991760653323
470612000000,,6692,,470,608014014,"""map""",,,-0.141514182091,-0.0225202981383,0.137449875474,,-0.0947690923996,0.0879592225955,0.0178435426667,-0.991445184162
470644000000,,6693,,470,640014014,"""map""",,,-0.155086681247,-0.0354146547616,0.153447583318,,-0.0964103433642,0.0883839258512,0.0174564660099,-0.9912561134
470676000000,,6694,,470,672013919,"""map""",,,-0.167777389288,-0.0490002855659,0.170067057014,,-0.0970059326636,0.0884011728026,0.017226639245,-0.991200437413
470712000000,,6695,,470,704013919,"""map""",,,-0.182078048587,-0.0640199705958,0.188170745969,,-0.0977860402072,0.0877906220306,0.0168377924206,-0.991184758785
470744000000,,6696,,470,736013919,"""map""",,,-0.197862297297,-0.0804248526692,0.207663923502,,-0.0982788781241,0.0870095207433,0.0165381283277,-0.991209962601
470776000000,,6697,,470,768013824,"""map""",,,-0.215056702495,-0.0981824174523,0.228596061468,,-0.0984150802749,0.0868082017116,0.0164415698978,-0.991215736719
470812000000,,6698,,470,808013824,"""map""",,,-0.238433584571,-0.122193977237,0.256676316261,,-0.0988123011512,0.0865678514054,0.0163273940852,-0.991199088714
470844000000,,6699,,470,840013824,"""map""",,,-0.258564263582,-0.14280487597,0.280577927828,,-0.0992224156705,0.0864418698654,0.0163523871663,-0.991168700836
470876000000,,6700,,470,872013729,"""map""",,,-0.277446866035,-0.163807302713,0.304616719484,,-0.099362358354,0.086482842529,0.0164254276548,-0.991149861195
470912000000,,6701,,470,904013729,"""map""",,,-0.297654122114,-0.186049029231,0.330213755369,,-0.0995918420173,0.0864023058284,0.0167679129458,-0.991128113421
470944000000,,6702,,470,936013729,"""map""",,,-0.319095820189,-0.209392860532,0.357366740704,,-0.0991954640779,0.0854852615276,0.0171002829932,-0.991241741325
470976000000,,6703,,470,968013635,"""map""",,,-0.341686248779,-0.233757823706,0.386134803295,,-0.0988588128327,0.0850772833268,0.0172958865171,-0.991307111087
471012000000,,6704,,471,8013635,"""map""",,,-0.371452838182,-0.265635699034,0.424216002226,,-0.0981129749575,0.0847427710341,0.0176769783213,-0.991403121608
471044000000,,6705,,471,40013635,"""map""",,,-0.396344125271,-0.292197138071,0.456353515387,,-0.0974645035463,0.0841264576684,0.0180705877396,-0.991512408386
471076000000,,6706,,471,72013540,"""map""",,,-0.420218795538,-0.319604068995,0.489251047373,,-0.0970233557756,0.0836519440817,0.018219871877,-0.991593077454
471112000000,,6707,,471,104013540,"""map""",,,-0.445100575686,-0.347802907228,0.523620188236,,-0.0959969292077,0.0828852119063,0.0185368161778,-0.991751549604
471144000000,,6708,,471,136013540,"""map""",,,-0.470924288034,-0.376723229885,0.559508502483,,-0.0950716794424,0.0825277012638,0.0187495734691,-0.991866441913
471176000000,,6709,,471,168013446,"""map""",,,-0.49759888649,-0.406332761049,0.596875846386,,-0.0946567647922,0.0823256281986,0.01886256917,-0.991920769201
471212000000,,6710,,471,208013446,"""map""",,,-0.532035648823,-0.444184094667,0.645634710789,,-0.0937636704381,0.0817595038269,0.0189796109683,-0.992050202173
471244000000,,6711,,471,240013446,"""map""",,,-0.560432136059,-0.475102335215,0.686257898808,,-0.0928889863542,0.0813569171299,0.0191170518413,-0.992162944993
471276000000,,6712,,471,272013352,"""map""",,,-0.587874352932,-0.507146775723,0.727155089378,,-0.0924368678906,0.081197653409,0.0191518229913,-0.992217525161
471312000000,,6713,,471,304013352,"""map""",,,-0.61605489254,-0.539617419243,0.769578397274,,-0.0916785887925,0.0807519024122,0.0192791907675,-0.992321796465
471344000000,,6714,,471,336013352,"""map""",,,-0.644927740097,-0.572474002838,0.813516557217,,-0.0909013139781,0.0803410786406,0.0193525262839,-0.992425224831
471376000000,,6715,,471,368013258,"""map""",,,-0.674474477768,-0.605631649494,0.858940720558,,-0.0904641154989,0.0802324859683,0.0193982556145,-0.992473061504
471412000000,,6716,,471,408013258,"""map""",,,-0.712226510048,-0.647475659847,0.917734980583,,-0.0896549157638,0.0799887415237,0.0195132322173,-0.992563930109
471444000000,,6717,,471,440013258,"""map""",,,-0.74299710989,-0.681282222271,0.966292083263,,-0.0889937825174,0.0794985598461,0.0195871577896,-0.992661289329
471476000000,,6718,,471,472013164,"""map""",,,-0.772803843021,-0.716205656528,1.01026785374,,-0.0885974760301,0.0780751445388,0.0195625861769,-0.992810194145
471512000000,,6719,,471,504013164,"""map""",,,-0.80262106657,-0.750686168671,1.04685652256,,-0.0875839816299,0.0703113048555,0.0196111393464,-0.993479233218
471544000000,,6720,,471,536013164,"""map""",,,-0.83243060112,-0.784786522388,1.07512676716,,-0.0863596025098,0.0567014895129,0.0198717333107,-0.99445067593
471576000000,,6721,,471,568013070,"""map""",,,-0.862132847309,-0.818530261517,1.09492003918,,-0.0853693860116,0.0477294132817,0.0200624478002,-0.995003263261
471612000000,,6722,,471,608013070,"""map""",,,-0.899059891701,-0.860178947449,1.1075565815,,-0.0805005596811,0.0265074964593,0.020189646989,-0.99619753636
471644000000,,6723,,471,640013070,"""map""",,,-0.928207874298,-0.893087387085,1.10977780819,,-0.0656529704231,0.00417912608184,0.0194069800122,-0.997645027725
471676000000,,6724,,471,672012977,"""map""",,,-0.955842792988,-0.927867114544,1.11799657345,,-0.054073408286,-0.0024513792474,0.0190383215283,-0.998352462577
471712000000,,6725,,471,704012977,"""map""",,,-0.981591761112,-0.962164700031,1.13562774658,,-0.0377087511184,-0.00329568072184,0.0190472566601,-0.999101833544
471744000000,,6726,,471,736012977,"""map""",,,-1.00548696518,-0.995553731918,1.16675007343,,-0.0279403246725,-0.00173029540168,0.0196764669616,-0.999414436719
471776000000,,6727,,471,768012884,"""map""",,,-1.02774512768,-1.02769160271,1.21219241619,,-0.0234153086246,-0.000233079974799,0.0200498458925,-0.999524735022
471812000000,,6728,,471,808012884,"""map""",,,-1.05351185799,-1.06588613987,1.28826022148,,-0.0170503751976,0.00280005156406,0.0208577166848,-0.999633136716
471844000000,,6729,,471,840012884,"""map""",,,-1.07289075851,-1.09479951859,1.35989296436,,-0.0199999789267,0.0122724951808,0.0213634788669,-0.99949641234
471876000000,,6730,,471,872012791,"""map""",,,-1.09258675575,-1.12473022938,1.43394982815,,-0.0257711888755,0.0225828788966,0.0213257152906,-0.99918520001
471912000000,,6731,,471,904012791,"""map""",,,-1.11207926273,-1.15361130238,1.50882720947,,-0.0381998936124,0.0465120213188,0.0209371213474,-0.997967493263
471944000000,,6732,,471,936012791,"""map""",,,-1.13162100315,-1.18170297146,1.58234417439,,-0.0477341995832,0.0649979991777,0.0207242797624,-0.996527588331
471976000000,,6733,,471,968012698,"""map""",,,-1.15148842335,-1.20920741558,1.6541069746,,-0.0513514449541,0.0710622220845,0.020701562611,-0.995934118557
472012000000,,6734,,472,8012698,"""map""",,,-1.17726874352,-1.24299955368,1.74322235584,,-0.0564310582107,0.0797494764989,0.0208507624548,-0.994997868464
472044000000,,6735,,472,40012698,"""map""",,,-1.19872808456,-1.26967489719,1.81435763836,,-0.0594465598545,0.0846526617306,0.0210915052535,-0.99441202727
472076000000,,6736,,472,72012605,"""map""",,,-1.22099661827,-1.29858922958,1.88241004944,,-0.0606849238258,0.0852939839826,0.0211307439694,-0.994281582773
472112000000,,6737,,472,104012605,"""map""",,,-1.2438378334,-1.32704508305,1.94869148731,,-0.0628761509922,0.0847718773843,0.0212136889673,-0.994188353945
472144000000,,6738,,472,136012605,"""map""",,,-1.26716160774,-1.35505187511,2.01288294792,,-0.0653090758469,0.0841831827166,0.0147431783434,-0.994198511335
472176000000,,6739,,472,168012512,"""map""",,,-1.29088747501,-1.38266289234,2.07458496094,,-0.0661455024461,0.083991371092,0.0148604730228,-0.994157671039
472212000000,,6740,,472,208012512,"""map""",,,-1.32109153271,-1.41675543785,2.14844536781,,-0.0675281350799,0.0828220963421,0.0152603623214,-0.994156743808
472244000000,,6741,,472,240012512,"""map""",,,-1.34575343132,-1.44376587868,2.20525932312,,-0.0683475415963,0.0823838764603,0.0157292038643,-0.994129854119
472276000000,,6742,,472,272012420,"""map""",,,-1.37009513378,-1.4722880125,2.26172590256,,-0.0686001204154,0.0824233647647,0.0159725176207,-0.994105282506
472312000000,,6743,,472,304012420,"""map""",,,-1.39486038685,-1.50051379204,2.31649899483,,-0.0684524806636,0.0811839095851,0.0165078668905,-0.994208710872
472344000000,,6744,,472,336012420,"""map""",,,-1.42006850243,-1.52845823765,2.36960077286,,-0.0669582767608,0.0783842873921,0.0170653432558,-0.99452569732
472376000000,,6745,,472,368012328,"""map""",,,-1.44564318657,-1.55611991882,2.42115283012,,-0.0656212845541,0.0768238312776,0.0173998206455,-0.994730699591
472412000000,,6746,,472,408012328,"""map""",,,-1.47802019119,-1.59029531479,2.4833111763,,-0.0621886436968,0.072788956736,0.0180113714174,-0.995243711031
472444000000,,6747,,472,440012328,"""map""",,,-1.50417101383,-1.61728334427,2.53106999397,,-0.0581664994791,0.0674150932809,0.0185374905274,-0.995855556831
472476000000,,6748,,472,472012235,"""map""",,,-1.53001987934,-1.64542818069,2.57857060432,,-0.055981091212,0.0646212939384,0.0187859883462,-0.99616129007
472512000000,,6749,,472,504012235,"""map""",,,-1.5559772253,-1.67306017876,2.62439966202,,-0.0516123517271,0.0594402951206,0.019199743958,-0.996711770059
472544000000,,6750,,472,536012235,"""map""",,,-1.5819413662,-1.70015501976,2.66867518425,,-0.0474953487828,0.0540044830422,0.0196157333528,-0.997217616534
472576000000,,6751,,472,568012143,"""map""",,,-1.60786259174,-1.72672426701,2.71136593819,,-0.0455306869397,0.051244272433,0.0198007580178,-0.997451278663
472612000000,,6752,,472,608012143,"""map""",,,-1.64013874531,-1.75913095474,2.7626388073,,-0.0418354664416,0.04664946071,0.0202019117219,-0.997830431712
472644000000,,6753,,472,640012143,"""map""",,,-1.66575980186,-1.78438532352,2.80206632614,,-0.0385629105102,0.0429786710608,0.020565512584,-0.998119685533
472676000000,,6754,,472,672012052,"""map""",,,-1.69046652317,-1.8108382225,2.84118652344,,-0.0371282462749,0.0411213608628,0.0207553841366,-0.998248359862
472712000000,,6755,,472,704012052,"""map""",,,-1.71497917175,-1.83651423454,2.87892508507,,-0.0347151793359,0.0378804649525,0.02104126621,-0.998457450377
472744000000,,6756,,472,736012052,"""map""",,,-1.73923945427,-1.86146318913,2.91537618637,,-0.0326946995895,0.0355535025433,0.021277752177,-0.998606186605
472780000000,,6757,,472,768011960,"""map""",,,-1.76321232319,-1.88569903374,2.95058941841,,-0.0317924646376,0.0344841131902,0.0213993879818,-0.998670165522
472812000000,,6758,,472,808011960,"""map""",,,-1.79275155067,-1.91502821445,2.99280691147,,-0.0301333607784,0.0322582522626,0.021622471251,-0.998791169124
472844000000,,6759,,472,840011960,"""map""",,,-1.8160418272,-1.93773424625,3.02517771721,,-0.0286600445903,0.0307452956464,0.021819718502,-0.998877991632
472876000000,,6760,,472,872011869,"""map""",,,-1.83874547482,-1.96156394482,3.05689620972,,-0.0279011969213,0.0301411405763,0.0218225423409,-0.998917904697
472912000000,,6761,,472,904011869,"""map""",,,-1.86112987995,-1.98461461067,3.0874683857,,-0.0266276014774,0.02878366105,0.0219231468683,-0.998990439423
472944000000,,6762,,472,936011869,"""map""",,,-1.88319265842,-2.00691413879,3.11688899994,,-0.0254105168901,0.0272968356445,0.0220343302546,-0.999061414716
472976000000,,6763,,472,968011777,"""map""",,,-1.90495705605,-2.0284640789,3.14529490471,,-0.0248201279521,0.0267690739599,0.0220742011733,-0.999089653105
473012000000,,6764,,473,8011777,"""map""",,,-1.93169808388,-2.05440878868,3.17956113815,,-0.0236364815385,0.025937632131,0.0221973964115,-0.999137574071
473044000000,,6765,,473,40011777,"""map""",,,-1.95273017883,-2.07442879677,3.20573425293,,-0.0226447263511,0.024498915542,0.0223335728791,-0.999193840114
473076000000,,6766,,473,72011686,"""map""",,,-1.97327148914,-2.09556722641,3.23124289513,,-0.022173611348,0.0238144851312,0.0224222498483,-0.999218959636
473112000000,,6767,,473,104011686,"""map""",,,-1.99353885651,-2.11594772339,3.25571298599,,-0.0213321066297,0.0229027915868,0.0226091289746,-0.999254362989
473144000000,,6768,,473,136011686,"""map""",,,-2.0134832859,-2.13564324379,3.27928733826,,-0.0204911898271,0.0217320656518,0.0227198908925,-0.999295582607
473176000000,,6769,,473,168011595,"""map""",,,-2.03312754631,-2.1546587944,3.30197763443,,-0.0200529746786,0.0209295961181,0.0227821417878,-0.999320238513
473212000000,,6770,,473,208011595,"""map""",,,-2.05725836754,-2.17749428749,3.32913994789,,-0.0190180516106,0.0196603009287,0.0228829991963,-0.999363860501
473244000000,,6771,,473,240011595,"""map""",,,-2.07619214058,-2.19509553909,3.34991526604,,-0.0179997172788,0.0189409865509,0.0229947726385,-0.999394037645
473276000000,,6772,,473,272011504,"""map""",,,-2.09460806847,-2.21374583244,3.36993145943,,-0.017490100471,0.0183576960641,0.0230356972284,-0.999413045873
473312000000,,6773,,473,304011504,"""map""",,,-2.11269140244,-2.23168373108,3.38917446136,,-0.0167214452119,0.0170508824518,0.0230156353285,-0.999449797925
473344000000,,6774,,473,336011504,"""map""",,,-2.130464077,-2.24897241592,3.40774846077,,-0.0159692584428,0.0164774270289,0.0230592994636,-0.999470787056
473376000000,,6775,,473,368011414,"""map""",,,-2.14787340164,-2.26561069489,3.42574977875,,-0.0155643390988,0.0163079717555,0.0230786870139,-0.999479469307
473412000000,,6776,,473,408011414,"""map""",,,-2.16918373108,-2.28555822372,3.44738173485,,-0.0147000322976,0.0151909552082,0.0232172658518,-0.999506949052
473444000000,,6777,,473,440011414,"""map""",,,-2.18589949608,-2.30085921288,3.46394491196,,-0.0139860899761,0.0146366567112,0.0233032032759,-0.999523512763
473476000000,,6778,,473,472011323,"""map""",,,-2.20193099976,-2.3174290657,3.47979283333,,-0.0136822377459,0.0145995725471,0.0233523043544,-0.999527095245
473512000000,,6779,,473,504011323,"""map""",,,-2.21767568588,-2.33329081535,3.49519324303,,-0.0131084189813,0.0142728395996,0.0234290116187,-0.999537716251
473544000000,,6780,,473,536011323,"""map""",,,-2.23318529129,-2.34850883484,3.51000761986,,-0.0126020591906,0.0130990284453,0.0235381298095,-0.999557736004
473576000000,,6781,,473,568011233,"""map""",,,-2.24846982956,-2.36312866211,3.52430891991,,-0.0123591318763,0.012743075384,0.0235627014222,-0.999564774528
473612000000,,6782,,473,608011233,"""map""",,,-2.26723861694,-2.38056588173,3.54158902168,,-0.0118144484584,0.0125837931621,0.0236855594856,-0.999570464353
473644000000,,6783,,473,640011233,"""map""",,,-2.28192996979,-2.39390230179,3.55486154556,,-0.0112498074787,0.011645627672,0.0238418821467,-0.999584667841
473676000000,,6784,,473,672011143,"""map""",,,-2.29562902451,-2.40820980072,3.56809186935,,-0.0110353655946,0.0109136370482,0.0239278617177,-0.999593265798
473712000000,,6785,,473,704011143,"""map""",,,-2.30914878845,-2.42190933228,3.5808391571,,-0.0105705623341,0.0103774184122,0.0241224958641,-0.99959925065
473744000000,,6786,,473,736011143,"""map""",,,-2.32242822647,-2.43501019478,3.59303474426,,-0.00992453313524,0.0100671250816,0.0242736344629,-0.99960540409
473776000000,,6787,,473,768011053,"""map""",,,-2.33549976349,-2.44757938385,3.60471916199,,-0.00959521062607,0.00939765420897,0.0243859558142,-0.999612442614
473812000000,,6788,,473,808011053,"""map""",,,-2.35159397125,-2.4625723362,3.61855649948,,-0.00893781434189,0.00846541097876,0.024508687437,-0.999623822263
473844000000,,6789,,473,840011053,"""map""",,,-2.36424779892,-2.4740190506,3.62929344177,,-0.00852789932047,0.00884263848498,0.0246017476785,-0.999621883508
473876000000,,6790,,473,872010963,"""map""",,,-2.37543225288,-2.48599004745,3.63960170746,,-0.00834437523148,0.00873994464282,0.0246814473691,-0.999622347123
473912000000,,6791,,473,904010963,"""map""",,,-2.38651776314,-2.49744582176,3.64945578575,,-0.00788295373599,0.00737161734503,0.0248513834623,-0.999632968129
473944000000,,6792,,473,936010963,"""map""",,,-2.39752101898,-2.50838875771,3.65899753571,,-0.00753638177502,0.00736922788832,0.0249299451879,-0.999633642478
473976000000,,6793,,473,968010874,"""map""",,,-2.40840697289,-2.51887822151,3.66830015182,,-0.00733794184844,0.00768803526298,0.0249632833451,-0.999631914458
474012000000,,6794,,474,8010874,"""map""",,,-2.42183303833,-2.53140044212,3.67940759659,,-0.00692794577459,0.00723784972012,0.0250460176087,-0.999636086996
474044000000,,6795,,474,40010874,"""map""",,,-2.43250656128,-2.54096722603,3.6877822876,,-0.00651684538335,0.00625049923852,0.0251454420243,-0.999643041226
474076000000,,6796,,474,72010784,"""map""",,,-2.44216895103,-2.55120921135,3.69549393654,,-0.00605672276143,0.00610816031985,0.0251339359347,-0.99964712947
474112000000,,6797,,474,112010784,"""map""",,,-2.45409154892,-2.5634226799,3.70155930519,,0.00491717983751,-0.00423651440792,0.0246156139917,-0.999675957914
474144000000,,6798,,474,136010784,"""map""",,,-2.46106958389,-2.5703265667,3.70253920555,,0.0263371191001,-0.0276131334604,0.0235189529934,-0.998994864842
474176000000,,6799,,474,168010695,"""map""",,,-2.46994233131,-2.57880306244,3.70143342018,,0.0365330819013,-0.0395379809786,0.0228518105284,-0.998288441515
474212000000,,6800,,474,208010695,"""map""",,,-2.47965097427,-2.58773803711,3.69823646545,,0.0496646539904,-0.0558575992995,0.0216743118747,-0.996967222107
474244000000,,6801,,474,240010695,"""map""",,,-2.48590564728,-2.59334230423,3.69533824921,,0.0528813709452,-0.0630768213576,0.0208462948888,-0.996388714465
474276000000,,6802,,474,272010606,"""map""",,,-2.48934745789,-2.59809780121,3.69519424438,,0.0507704045492,-0.0625788978308,0.0205517727114,-0.996535975553
474312000000,,6803,,474,304010606,"""map""",,,-2.49094247818,-2.60103034973,3.70122718811,,0.0330311463567,-0.0440548705873,0.0199402219395,-0.998283805361
474344000000,,6804,,474,336010606,"""map""",,,-2.4914150238,-2.60280752182,3.71265006065,,0.0115711933535,-0.0180105890666,0.019190008036,-0.999586648742
474376000000,,6805,,474,368010517,"""map""",,,-2.49164104462,-2.60414171219,3.72593998909,,0.0019432848299,-0.0057166421277,0.0189092257313,-0.999803030663
474412000000,,6806,,474,408010517,"""map""",,,-2.49236083031,-2.60574650764,3.74120974541,,-0.0178041776748,0.0203514643809,0.0186598006818,-0.999460208197
474444000000,,6807,,474,440010517,"""map""",,,-2.49354624748,-2.6072101593,3.75100803375,,-0.0304626778957,0.0380242492554,0.0187482669168,-0.998636448043
474476000000,,6808,,474,472010428,"""map""",,,-2.49416899681,-2.60976576805,3.7567448616,,-0.0350970139784,0.0443149821678,0.0188847384123,-0.998222313109
474512000000,,6809,,474,504010428,"""map""",,,-2.49594116211,-2.61275315285,3.76100969315,,-0.0391198773266,0.0493286349479,0.0192572322594,-0.997830431712
474544000000,,6810,,474,536010428,"""map""",,,-2.49890518188,-2.61622428894,3.76480984688,,-0.0375298779177,0.0487600413636,0.0197746269717,-0.997909330612
474576000000,,6811,,474,568010340,"""map""",,,-2.50292778015,-2.62022829056,3.76878857613,,-0.0354797090092,0.0462257553139,0.0200600875767,-0.998099202165
474612000000,,6812,,474,608010340,"""map""",,,-2.50927138329,-2.62589478493,3.77401375771,,-0.0301631702072,0.0371575325723,0.0206396910374,-0.998640873462
474644000000,,6813,,474,640010340,"""map""",,,-2.51525259018,-2.63079595566,3.77854990959,,-0.0240603014391,0.0281690215397,0.0211521545685,-0.999089695252
474676000000,,6814,,474,672010251,"""map""",,,-2.5199239254,-2.63661289215,3.78350949287,,-0.0211079619514,0.0247306238509,0.021409924694,-0.999242013962
474712000000,,6815,,474,704010251,"""map""",,,-2.52505660057,-2.6425049305,3.78825449944,,-0.0153701312365,0.0168325740316,0.0220105172852,-0.999497845333
474744000000,,6816,,474,736010251,"""map""",,,-2.53059339523,-2.64834833145,3.79261064529,,-0.0116105904906,0.0105834262705,0.022492466498,-0.999623569382
474776000000,,6817,,474,768010163,"""map""",,,-2.53641963005,-2.65411543846,3.79673194885,,-0.00994568448383,0.00861415572708,0.0227709728729,-0.999654167994
474812000000,,6818,,474,808010163,"""map""",,,-2.54383158684,-2.66118121147,3.80182600021,,-0.00731236904231,0.00690451501824,0.023202472308,-0.999680214746
474844000000,,6819,,474,840010163,"""map""",,,-2.54983377457,-2.66669440269,3.80563473701,,-0.00554715656126,0.00439866794559,0.0236744748644,-0.999694671115
