rosbagTimestamp,header,seq,stamp,secs,nsecs,frame_id,pose,position,x,y,z,orientation,x,y,z,w
110984000000,,303,,110,984000000,"""map""",,,0.0109638897702,0.0123909059912,-0.0103975525126,,0.00894790493127,-0.00829058284653,0.0308597960391,-0.99944933431
111020000000,,304,,111,20000000,"""map""",,,0.0110370777547,0.0123798204586,-0.0102271167561,,0.008998703861,-0.00832152772948,0.0308379639716,-0.999449250016
111052000000,,305,,111,52000000,"""map""",,,0.0111586079001,0.012434406206,-0.0101004038006,,0.00898108059258,-0.00826996431189,0.0308073653596,-0.999450851596
111084000000,,306,,111,84000000,"""map""",,,0.011307572946,0.0125343222171,-0.0100363558158,,0.00900244015443,-0.00828833869148,0.0308043729333,-0.999450556569
111120000000,,307,,111,120000000,"""map""",,,0.0114906430244,0.0127577288076,-0.00989352818578,,0.00890443885347,-0.00816851322553,0.0307972501159,-0.999452621764
111152000000,,308,,111,152000000,"""map""",,,0.0114650018513,0.012661636807,-0.00966017041355,,0.00888277508522,-0.0081799577001,0.0307634483434,-0.999453801876
111184000000,,309,,111,184000000,"""map""",,,0.0114507274702,0.0126294437796,-0.00948597863317,,0.00882405822792,-0.00814528899491,0.0307744486709,-0.999454265491
111220000000,,310,,111,220000000,"""map""",,,0.0114867882803,0.0126515123993,-0.00935216341168,,0.00884031085942,-0.0081136646175,0.0307496241771,-0.999455066281
111252000000,,311,,111,252000000,"""map""",,,0.0115251271054,0.0127028990537,-0.00927457027137,,0.00881966890529,-0.00817653112839,0.0307497084708,-0.9994548134
111284000000,,312,,111,284000000,"""map""",,,0.0115926619619,0.0128004271537,-0.00920375529677,,0.00876980864844,-0.00807669631605,0.0307118606009,-0.999457173624
111320000000,,313,,111,320000000,"""map""",,,0.0116717061028,0.0130261117592,-0.00909142941236,,0.00871768818451,-0.00802925670417,0.0307256426203,-0.999457637239
111352000000,,314,,111,352000000,"""map""",,,0.0116275148466,0.0129291852936,-0.00912989862263,,0.00869817098325,-0.00802346603999,0.0307205428517,-0.999458016561
111384000000,,315,,111,384000000,"""map""",,,0.0116274533793,0.0128881698474,-0.00908604077995,,0.00895583323092,-0.00801372999451,0.030702925469,-0.999456330687
111420000000,,316,,111,420000000,"""map""",,,0.0116248000413,0.0129130342975,-0.0090134460479,,0.00889764444399,-0.00801384437546,0.0306835379187,-0.999457426505
111452000000,,317,,111,452000000,"""map""",,,0.011630076915,0.0129710938781,-0.00886877067387,,0.00883791865534,-0.0080195286847,0.0306590084528,-0.99945869091
111484000000,,318,,111,484000000,"""map""",,,0.0116644352674,0.0130987195298,-0.00876434147358,,0.00892193596946,-0.00812391436886,0.0306138691781,-0.999458480176
111520000000,,319,,111,520000000,"""map""",,,0.0117045845836,0.0132646327838,-0.00865958537906,,0.00889880743359,-0.00811426582748,0.0305918685231,-0.999459407407
111552000000,,320,,111,552000000,"""map""",,,0.0113829830661,0.0129896067083,-0.00847048871219,,0.00888306640885,-0.00814648363581,0.0306194747089,-0.999458438029
111584000000,,321,,111,584000000,"""map""",,,0.0110782263801,0.0127980196849,-0.00836096797138,,0.00877118282503,-0.00811483612703,0.0306296320994,-0.999459407407
111620000000,,322,,111,620000000,"""map""",,,0.0108120581135,0.0126672312617,-0.00824425555766,,0.00880363285262,-0.0081120087485,0.0306137848844,-0.999459660288
111652000000,,323,,111,652000000,"""map""",,,0.0105587374419,0.0126179093495,-0.00813753344119,,0.00876830000529,-0.00815103471343,0.0306230993379,-0.999459280966
111684000000,,324,,111,684000000,"""map""",,,0.010297617875,0.0126270214096,-0.00811323430389,,0.00879935470054,-0.00818133265872,0.0305808260488,-0.999460081756
111720000000,,325,,111,720000000,"""map""",,,0.00998218357563,0.0127556081861,-0.00811211857945,,0.00878417522905,-0.00818190561302,0.0305570973731,-0.99946096684
111752000000,,326,,111,752000000,"""map""",,,0.00946102663875,0.0127385770902,-0.00831776577979,,0.00874761423737,-0.00822632172359,0.0305656953302,-0.999460629665
111784000000,,327,,111,784000000,"""map""",,,0.0089705362916,0.0127596026286,-0.00862713437527,,0.0087241380929,-0.00822163323654,0.0305308398865,-0.999461936218
111820000000,,328,,111,820000000,"""map""",,,0.00850564055145,0.0128422994167,-0.00886507891119,,0.00876753623772,-0.00819816264854,0.0304936663661,-0.999462947742
111852000000,,329,,111,852000000,"""map""",,,0.00808322243392,0.0129661886021,-0.00902938097715,,0.0087723379121,-0.00822618019826,0.0304537954474,-0.999463874973
111884000000,,330,,111,884000000,"""map""",,,0.00766561925411,0.0131210135296,-0.00910949893296,,0.00875581519503,-0.00812995877847,0.0304340707223,-0.999465392259
111920000000,,331,,111,920000000,"""map""",,,0.0072023300454,0.0133392186835,-0.0093160783872,,0.00879590009953,-0.00788059764896,0.0303761609525,-0.999468848301
111952000000,,332,,111,952000000,"""map""",,,0.00689318031073,0.013334476389,-0.00926390755922,,0.00883756184769,-0.00790021610144,0.0303410947745,-0.999469354063
111984000000,,333,,111,984000000,"""map""",,,0.00658711418509,0.0133871389553,-0.00924574676901,,0.00888583435374,-0.00790120667586,0.030390195853,-0.999467373161
112020000000,,334,,112,20000000,"""map""",,,0.00629290984944,0.0134762814268,-0.00928476732224,,0.00891517366402,-0.0078953313064,0.0303596393879,-0.999468173951
112052000000,,335,,112,52000000,"""map""",,,0.0060198167339,0.0136146536097,-0.00936958473176,,0.00894699885634,-0.00789776623355,0.0303784790291,-0.999467288867
112084000000,,336,,112,84000000,"""map""",,,0.00574146769941,0.0137916682288,-0.0093933865428,,0.00891445580935,-0.00787941300971,0.0304093305222,-0.999466698812
112120000000,,337,,112,120000000,"""map""",,,0.00535946106538,0.0140762301162,-0.00938909500837,,0.00891459216922,-0.00800649822915,0.0304396341063,-0.999464802203
112152000000,,338,,112,152000000,"""map""",,,0.00503108045086,0.0143612558022,-0.00933170504868,,0.00887472269109,-0.00803952411275,0.0304658072993,-0.999464085707
112184000000,,339,,112,184000000,"""map""",,,0.00473048398271,0.014701584354,-0.00929646659642,,0.00886105826298,-0.00807083753368,0.0304245455346,-0.999465223672
112220000000,,340,,112,220000000,"""map""",,,0.00442594196647,0.0150548461825,-0.00924764014781,,0.00883670874444,-0.00811252257785,0.0303845903222,-0.99946631949
112252000000,,341,,112,252000000,"""map""",,,0.0041682831943,0.0151048162952,-0.00901143066585,,0.00886505809769,-0.00815575306135,0.0303934411604,-0.999465476553
112284000000,,342,,112,284000000,"""map""",,,0.00391879957169,0.0150826256722,-0.008779482916,,0.00881561214765,-0.00808264387846,0.0303860654619,-0.999466698812
112320000000,,343,,112,320000000,"""map""",,,0.00359807675704,0.0151217533275,-0.00864653196186,,0.00887163909759,-0.00806936832088,0.0303848432033,-0.99946631949
112352000000,,344,,112,352000000,"""map""",,,0.00332007417455,0.0151962935925,-0.00849124975502,,0.00888112057447,-0.00805679695318,0.0303878777764,-0.99946631949
112384000000,,345,,112,384000000,"""map""",,,0.00302923237905,0.0153074236587,-0.0083838775754,,0.008927065208,-0.00810970511865,0.0303574477517,-0.999466403784
112420000000,,346,,112,420000000,"""map""",,,0.00272450433113,0.0154450628906,-0.00815659761429,,0.00890750618915,-0.00808609786208,0.0303155537843,-0.999468005364
112452000000,,347,,112,452000000,"""map""",,,0.00265404488891,0.0150747997686,-0.00754331238568,,0.00891910451619,-0.00809199706263,0.0303044270163,-0.999468173951
112484000000,,348,,112,484000000,"""map""",,,0.0026433262974,0.0146356476471,-0.00704156747088,,0.00894248585083,-0.00818984455228,0.0303072508552,-0.99946712028
112520000000,,349,,112,520000000,"""map""",,,0.00259049842134,0.0142128905281,-0.00654038181528,,0.00889861164007,-0.00817314979046,0.0302307121783,-0.999469901972
112552000000,,350,,112,552000000,"""map""",,,0.00251981103793,0.0139730535448,-0.00618415093049,,0.00891982747458,-0.00822114566665,0.0301813160718,-0.999470829203
112584000000,,351,,112,584000000,"""map""",,,0.00242593581788,0.0138042178005,-0.00601674849167,,0.0089370291922,-0.00826499102493,0.0301998606851,-0.999469733385
112620000000,,352,,112,620000000,"""map""",,,0.00230879429728,0.0137281045318,-0.00583974365145,,0.0089935950785,-0.00826310672329,0.0301636143954,-0.999470407734
112652000000,,353,,112,652000000,"""map""",,,0.00240056868643,0.0136062279344,-0.00538208335638,,0.00890942080441,-0.00826901956806,0.0301684191362,-0.999470913496
112684000000,,354,,112,684000000,"""map""",,,0.00252897059545,0.013534723781,-0.00484625855461,,0.00896929198735,-0.00829873414581,0.0300854741383,-0.999472683664
112720000000,,355,,112,720000000,"""map""",,,0.00260897702537,0.0135318636894,-0.00423547253013,,0.00896736033225,-0.0083061106469,0.0300847997887,-0.999472683664
112752000000,,356,,112,752000000,"""map""",,,0.0026653027162,0.013583663851,-0.00385106564499,,0.00894112126429,-0.00834716828338,0.0300875393339,-0.99947247293
112784000000,,357,,112,784000000,"""map""",,,0.00269899354316,0.0136602893472,-0.00352976750582,,0.00893403633378,-0.00827580475792,0.0300104527479,-0.999475465356
112820000000,,358,,112,820000000,"""map""",,,0.00270099169575,0.0137747628614,-0.00319207250141,,0.0089057639685,-0.00833443602502,0.0300200200826,-0.999474917447
112852000000,,359,,112,852000000,"""map""",,,0.00285514676943,0.0137755554169,-0.00319055793807,,0.00907627855189,-0.00831759016839,0.0299811185414,-0.999474622419
112884000000,,360,,112,884000000,"""map""",,,0.00299699627794,0.0137789715081,-0.00301524880342,,0.00911507945923,-0.00837589691711,0.0299528801529,-0.999474706713
112920000000,,361,,112,920000000,"""map""",,,0.00308157573454,0.0138465715572,-0.00286603416316,,0.00907258172997,-0.00834749706172,0.0299455466012,-0.99947554965
112952000000,,362,,112,952000000,"""map""",,,0.00309683801606,0.0139505416155,-0.00295214541256,,0.0090103758627,-0.00839020869447,0.0299633747182,-0.999475170328
112984000000,,363,,112,984000000,"""map""",,,0.0030851222109,0.0140838930383,-0.00314125209115,,0.00902568916278,-0.00840199450089,0.0299647234173,-0.999474917447
113020000000,,364,,113,20000000,"""map""",,,0.00300791603513,0.0142409196123,-0.00348236504942,,0.00904416248868,-0.00839646684293,0.0299344198332,-0.999475718237
113052000000,,365,,113,52000000,"""map""",,,0.00297697400674,0.0141643770039,-0.00341674010269,,0.00903356146557,-0.00843238495111,0.0298866674539,-0.999476940496
113084000000,,366,,113,84000000,"""map""",,,0.00291885831393,0.0140689592808,-0.00319883436896,,0.00897448512528,-0.00840857292836,0.029863823862,-0.999478373489
113120000000,,367,,113,120000000,"""map""",,,0.00277856551111,0.0140710724518,-0.00297785038128,,0.00898632633176,-0.00843690952231,0.0298313707886,-0.999478963544
113152000000,,368,,113,152000000,"""map""",,,0.00260947132483,0.0141356475651,-0.00286807911471,,0.00894321329556,-0.00840569659116,0.029788128122,-0.999480902299
113184000000,,369,,113,184000000,"""map""",,,0.00245011365041,0.0142751960084,-0.00287965335883,,0.00899942354725,-0.00842416660376,0.0297741353683,-0.999480649418
113220000000,,370,,113,220000000,"""map""",,,0.00227195210755,0.0144413523376,-0.00284631829709,,0.00888954008658,-0.00844591310166,0.0297396592463,-0.99948250388
113252000000,,371,,113,252000000,"""map""",,,0.00220145168714,0.014388974756,-0.00250556506217,,0.00891366242785,-0.00843198371229,0.0297188387031,-0.999483009642
113284000000,,372,,113,284000000,"""map""",,,0.00211533368565,0.0143099064007,-0.00226584030315,,0.00886644797645,-0.00841321200398,0.0296508136896,-0.999485622747
113320000000,,373,,113,320000000,"""map""",,,0.00191701180302,0.0142943384126,-0.00189651898108,,0.00883870335228,-0.00843788122531,0.0296093411907,-0.999486887152
113352000000,,374,,113,352000000,"""map""",,,0.00167440529913,0.0143457707018,-0.0016875511501,,0.00887240716629,-0.00842027750743,0.0295999845903,-0.999487055739
113384000000,,375,,113,384000000,"""map""",,,0.00141181889921,0.0144480895251,-0.00150455615949,,0.00882831917552,-0.00842288114546,0.0295627689231,-0.999488446585
113420000000,,376,,113,420000000,"""map""",,,0.00109107105527,0.014591823332,-0.00124078278895,,0.0087893429307,-0.00836943330276,0.0295728420199,-0.999488994494
113452000000,,377,,113,448000000,"""map""",,,0.000864582543727,0.0144709255546,-0.000921094440855,,0.00881326723529,-0.00840123240026,0.02957056609,-0.999488573026
113484000000,,378,,113,484000000,"""map""",,,0.000637119170278,0.0143270939589,-0.000540677981917,,0.00880616999823,-0.00836676757633,0.0295699760342,-0.999488910201
113520000000,,379,,113,520000000,"""map""",,,0.000306500936858,0.0142689403147,-4.06628532801e-06,,0.00882240519888,-0.00834742536269,0.0294552523125,-0.999492366242
113552000000,,380,,113,552000000,"""map""",,,2.11171573028e-05,0.0142642706633,0.000386893720133,,0.00880708502524,-0.00835960164485,0.0294397001254,-0.999492829858
113584000000,,381,,113,584000000,"""map""",,,-0.000286081427475,0.0143242599443,0.000652021029964,,0.00895845071896,-0.00828715592497,0.0294633866543,-0.999491396865
113620000000,,382,,113,620000000,"""map""",,,-0.000597829406615,0.0144398948178,0.000917890109122,,0.00893454724084,-0.00831875515421,0.0294375506361,-0.999492113361
113652000000,,383,,113,652000000,"""map""",,,-0.000788951816503,0.0143441986293,0.00111371907406,,0.00890930319248,-0.00826847073295,0.0294313971962,-0.999492956298
113680000000,,384,,113,680000000,"""map""",,,-0.000963210244663,0.0142526933923,0.00124703696929,,0.00896580550866,-0.00836118274847,0.0294342210351,-0.999491565452
113720000000,,385,,113,720000000,"""map""",,,-0.00123695726506,0.0142537262291,0.001224757405,,0.00891781749384,-0.00841984972103,0.0294918779239,-0.999489795285
113752000000,,386,,113,752000000,"""map""",,,-0.00147126335651,0.0143490592018,0.0011449707672,,0.00893165390497,-0.0084033764977,0.0294484666699,-0.99949105969
113784000000,,387,,113,784000000,"""map""",,,-0.00173056288622,0.0144688608125,0.00102638988756,,0.00893412908566,-0.00835817231515,0.0294174465894,-0.999492408389
113820000000,,388,,113,820000000,"""map""",,,-0.00197469512932,0.0146529944614,0.000849736155942,,0.0089401007261,-0.0083518779879,0.0294043810664,-0.999492745564
113852000000,,389,,113,852000000,"""map""",,,-0.00206355378032,0.0146113848314,0.00088905566372,,0.00891145443101,-0.00838574258967,0.0293757212094,-0.999493588501
113884000000,,390,,113,884000000,"""map""",,,-0.00211466802284,0.0145413642749,0.000899908773135,,0.00890527767454,-0.00833933983554,0.0293218153901,-0.999495569403
113920000000,,391,,113,920000000,"""map""",,,-0.00222541973926,0.0145694827661,0.000776817032602,,0.00894484525117,-0.00830106168906,0.0292866227716,-0.999496623074
113952000000,,392,,113,952000000,"""map""",,,-0.0023694911506,0.0146720753983,0.00056015670998,,0.00890991946666,-0.0082970003216,0.0292592694669,-0.999497761039
113984000000,,393,,113,984000000,"""map""",,,-0.002575580962,0.0148270279169,0.000245082250331,,0.00894743401021,-0.00832366357454,0.0292676145429,-0.999496918102
114020000000,,394,,114,20000000,"""map""",,,-0.00281236693263,0.0150263449177,-7.68873287598e-05,,0.00895317090011,-0.00834885325182,0.0292596066417,-0.999496918102
114052000000,,395,,114,52000000,"""map""",,,-0.00284977676347,0.0151015073061,-0.000546223658603,,0.00899188763723,-0.00840497350929,0.029288182205,-0.999495232228
114084000000,,396,,114,84000000,"""map""",,,-0.00282976846211,0.0151937808841,-0.00107440096326,,0.00896673671118,-0.00832973986181,0.0292685839205,-0.999496707368
114120000000,,397,,114,120000000,"""map""",,,-0.00282458006404,0.0153731619939,-0.00169732805807,,0.00893972218648,-0.00835018606358,0.0292123178777,-0.999498435388
114152000000,,398,,114,152000000,"""map""",,,-0.00284552155063,0.0155746098608,-0.00237635150552,,0.00890024812318,-0.00830610926808,0.029235877966,-0.999498393242
114184000000,,399,,114,184000000,"""map""",,,-0.00289462693036,0.015832349658,-0.00314159970731,,0.00893759356484,-0.00831021130066,0.0292116013813,-0.99949881471
114220000000,,400,,114,220000000,"""map""",,,-0.0029841621872,0.0161319244653,-0.0040320623666,,0.0091314337947,-0.00827450341223,0.0291865661532,-0.999498056067
114252000000,,401,,114,252000000,"""map""",,,-0.00298268161714,0.0161210428923,-0.00456265825778,,0.00914265131837,-0.00835073928213,0.0291850910136,-0.99949733957
114272000000,,402,,114,272000000,"""map""",,,-0.00298731354997,0.0160597804934,-0.0050332872197,,0.00906954728036,-0.00837535073676,0.0291860182442,-0.999497761039
114272000000,,403,,114,272000000,"""map""",,,-0.00305359438062,0.0160590503365,-0.00560956541449,,0.00908802953777,-0.00842353293989,0.0291777996088,-0.999497466011
114272000000,,404,,114,272000000,"""map""",,,-0.0031609730795,0.0161294154823,-0.00611773133278,,0.00906112249989,-0.00843498130399,0.0291939418517,-0.999497086689
114384000000,,405,,114,384000000,"""map""",,,-0.00330298161134,0.0162344705313,-0.00661656493321,,0.00902539051285,-0.00842892732491,0.0291710982598,-0.999498182507
114420000000,,406,,114,420000000,"""map""",,,-0.00346560077742,0.0163799524307,-0.00715630454943,,0.00901940677165,-0.00835522849772,0.0292019918998,-0.999497887479
114452000000,,407,,114,452000000,"""map""",,,-0.00351829617284,0.0162668935955,-0.00735576963052,,0.00902468731079,-0.00835309185007,0.0291554196322,-0.999499278325
114484000000,,408,,114,484000000,"""map""",,,-0.00355345290154,0.0161282941699,-0.00743951555341,,0.00900283365535,-0.00841739923576,0.0291440821299,-0.999499236179
114520000000,,409,,114,520000000,"""map""",,,-0.00361400097609,0.0160459950566,-0.00751574896276,,0.00896346115195,-0.00836876385111,0.0290802718013,-0.999501849283
114552000000,,410,,114,552000000,"""map""",,,-0.00371843669564,0.0160424765199,-0.00760546792299,,0.00901106496779,-0.00835498156411,0.0290374506032,-0.999502860808
114584000000,,411,,114,584000000,"""map""",,,-0.00386312254705,0.0161054544151,-0.00772492261603,,0.00898077247607,-0.00829966063562,0.0290422553439,-0.999503450863
114620000000,,412,,114,620000000,"""map""",,,-0.00403647962958,0.0162467230111,-0.00783475674689,,0.00897938864769,-0.00832512348539,0.0290476079937,-0.999503071542
114652000000,,413,,114,652000000,"""map""",,,-0.0040887221694,0.0161432269961,-0.00704485876486,,0.00896710045412,-0.008328653037,0.0290266188631,-0.999503745891
114684000000,,414,,114,684000000,"""map""",,,-0.0040905252099,0.0159786790609,-0.00609145639464,,0.00898920746398,-0.00836930795293,0.0290003613765,-0.999503956626
114720000000,,415,,114,720000000,"""map""",,,-0.00414102012292,0.0158426966518,-0.00499401055276,,0.00896741904561,-0.00838701602953,0.0289756633233,-0.999504715269
114752000000,,416,,114,752000000,"""map""",,,-0.00422541797161,0.0157855544239,-0.00422787060961,,0.00897302356806,-0.00835874177093,0.0290057561731,-0.999504040919
114784000000,,417,,114,784000000,"""map""",,,-0.00430070003495,0.0157747976482,-0.00358317629434,,0.00895096827452,-0.0083191480789,0.0289218417978,-0.999507033346
114820000000,,418,,114,820000000,"""map""",,,-0.0043809316121,0.0158340074122,-0.00308461603709,,0.00896528676081,-0.00836461226305,0.0288765760825,-0.999507791989
114852000000,,419,,114,852000000,"""map""",,,-0.00434930529445,0.0156431868672,-0.00292939529754,,0.00891261237863,-0.00833509107101,0.0288305938707,-0.999509857184
114884000000,,420,,114,884000000,"""map""",,,-0.00428582075983,0.0154573163018,-0.00295981578529,,0.00891201590194,-0.00832154728002,0.0288220802073,-0.999510194359
114920000000,,421,,114,920000000,"""map""",,,-0.00426019355655,0.0152912037447,-0.0029946193099,,0.00892734161147,-0.00825819787079,0.0287716304297,-0.999512090967
114952000000,,422,,114,952000000,"""map""",,,-0.00428477860987,0.0152117218822,-0.00302566657774,,0.00894727554793,-0.00830150001217,0.0287635382347,-0.999511753793
114984000000,,423,,114,984000000,"""map""",,,-0.00434461701661,0.0152061451226,-0.00305231008679,,0.00890654718371,-0.00824721489186,0.0287553617461,-0.999512849611
115020000000,,424,,115,20000000,"""map""",,,-0.00443287240341,0.0152824539691,-0.00325159239583,,0.00911673866212,-0.00823998814791,0.0286713209302,-0.999513355373
115052000000,,425,,115,52000000,"""map""",,,-0.0044654821977,0.0150519609451,-0.00350158056244,,0.0091187280016,-0.00821091155573,0.0286837542505,-0.999513228932
115084000000,,426,,115,84000000,"""map""",,,-0.00452801305801,0.0147757530212,-0.00385514437221,,0.00903838795885,-0.00812430398026,0.028651343324,-0.999515631303
115124000000,,427,,115,124000000,"""map""",,,-0.00462901592255,0.0145814940333,-0.00433892477304,,0.00903606613671,-0.00818259681722,0.0286158556776,-0.999516221359
115152000000,,428,,115,152000000,"""map""",,,-0.00475436681882,0.0145186092705,-0.00470039853826,,0.00899153836169,-0.00817526421224,0.0286294269628,-0.999516221359
115184000000,,429,,115,184000000,"""map""",,,-0.00490823155269,0.0145355993882,-0.00513314502314,,0.00900729934856,-0.00824922991458,0.0286193960128,-0.99951579989
115220000000,,430,,115,220000000,"""map""",,,-0.00510561652482,0.014614709653,-0.00557280005887,,0.0089455904766,-0.00822270435918,0.0286344424378,-0.999516094918
115252000000,,431,,115,252000000,"""map""",,,-0.00520479306579,0.0143014155328,-0.0063485763967,,0.00897243163945,-0.00823930342626,0.0286353696684,-0.999515757743
115284000000,,432,,115,284000000,"""map""",,,-0.00532786687836,0.0139000834897,-0.0071897925809,,0.00896949016808,-0.0082306044649,0.0286761678178,-0.999514661925
115320000000,,433,,115,320000000,"""map""",,,-0.00552507117391,0.0135304173455,-0.00810467451811,,0.00897869987187,-0.00823536380722,0.0286502053591,-0.999515336275
115352000000,,434,,115,352000000,"""map""",,,-0.00572850182652,0.013371810317,-0.00881107430905,,0.00897833367996,-0.00820133553656,0.0286635237632,-0.999515167687
115384000000,,435,,115,384000000,"""map""",,,-0.00594918848947,0.0132990153506,-0.00943702086806,,0.00889330899854,-0.00822774185424,0.0286612899803,-0.99951579989
115420000000,,436,,115,420000000,"""map""",,,-0.00620513595641,0.0132871018723,-0.00999599508941,,0.00885872456646,-0.00821083600832,0.0286429561012,-0.999516769268
115452000000,,437,,115,452000000,"""map""",,,-0.00627104286104,0.0131137631834,-0.0101624764502,,0.00886241754001,-0.0082130277885,0.0286048974969,-0.999517822939
115484000000,,438,,115,484000000,"""map""",,,-0.006322494708,0.0129863619804,-0.0102461799979,,0.00886186648231,-0.00823900656674,0.0286372241298,-0.999516684974
115520000000,,439,,115,520000000,"""map""",,,-0.00646002124995,0.0129524124786,-0.0102851940319,,0.00882382460925,-0.00820248012807,0.0286415231083,-0.999517190736
115552000000,,440,,115,552000000,"""map""",,,-0.00659398315474,0.0130033772439,-0.0102562811226,,0.00882412725161,-0.00822595884498,0.0286378563325,-0.999517064295
115584000000,,441,,115,584000000,"""map""",,,-0.00677934614941,0.013139677234,-0.0101634822786,,0.00884144380293,-0.00820404301883,0.0286546307782,-0.999516642827
115620000000,,442,,115,620000000,"""map""",,,-0.00700383447111,0.0133605832234,-0.0101307481527,,0.00887409059126,-0.00818880024475,0.0286704779932,-0.999515968477
115652000000,,443,,115,652000000,"""map""",,,-0.00707241147757,0.0133799510077,-0.00961129553616,,0.00881692409178,-0.00815434476392,0.0286496574501,-0.99951740147
115684000000,,444,,115,684000000,"""map""",,,-0.00711389724165,0.0133903650567,-0.00913250073791,,0.00902428481662,-0.00818198959802,0.028666094721,-0.999514788366
115720000000,,445,,115,720000000,"""map""",,,-0.00720994360745,0.0134635558352,-0.00855507794768,,0.00896279252348,-0.00815870613956,0.0286597726937,-0.99951579989
115752000000,,446,,115,752000000,"""map""",,,-0.00733467983082,0.0135608138517,-0.00814166199416,,0.00898652807275,-0.00819415398522,0.0286373505703,-0.999515884184
115784000000,,447,,115,784000000,"""map""",,,-0.00748414406553,0.0137104699388,-0.00779021251947,,0.00899006676167,-0.0082498513748,0.0286467071707,-0.99951512554
115820000000,,448,,115,820000000,"""map""",,,-0.00768298190087,0.0139394029975,-0.00751589611173,,0.008923641538,-0.00829681002282,0.0286365076333,-0.999515631303
115852000000,,449,,115,852000000,"""map""",,,-0.00760632194579,0.0139268385246,-0.00707813398913,,0.00893860305183,-0.00830914122757,0.0286577074981,-0.999514830513
115884000000,,450,,115,884000000,"""map""",,,-0.00747714936733,0.0138910040259,-0.00663166260347,,0.00889974983136,-0.00832092036623,0.0287017931017,-0.999513818988
115920000000,,451,,115,920000000,"""map""",,,-0.00739485537633,0.0139704942703,-0.00628644041717,,0.00889314714065,-0.00835398337527,0.028697241242,-0.999513734694
115952000000,,452,,115,952000000,"""map""",,,-0.00740428548306,0.0141293574125,-0.006073419936,,0.00886090185866,-0.0083541114416,0.0286899919841,-0.999514240457
115984000000,,453,,115,984000000,"""map""",,,-0.0074883569032,0.0143653284758,-0.00599705707282,,0.00888678833777,-0.00837076430353,0.0286517226456,-0.999514914806
116020000000,,454,,116,20000000,"""map""",,,-0.00759946089238,0.0146611835808,-0.00589320668951,,0.00892665514056,-0.00815045630555,0.0286979998853,-0.999515083394
116052000000,,455,,116,52000000,"""map""",,,-0.00788675062358,0.0146973067895,-0.00582861015573,,0.00893730919709,-0.0082148091514,0.028690287012,-0.999514619778
116084000000,,456,,116,84000000,"""map""",,,-0.008240878582,0.0146913258359,-0.00580115802586,,0.00894296072316,-0.00830071506827,0.0286943331095,-0.999513776841
116120000000,,457,,116,120000000,"""map""",,,-0.00870308373123,0.0148031907156,-0.00584719562903,,0.00889890553614,-0.00835468003305,0.0286370133955,-0.999515378422
116152000000,,458,,116,152000000,"""map""",,,-0.00908055156469,0.014952368103,-0.00598006602377,,0.0088819397421,-0.0084049313007,0.0286534928133,-0.999514661925
116184000000,,459,,116,184000000,"""map""",,,-0.00946394074708,0.0151577815413,-0.00617187237367,,0.00889781399862,-0.00843244195637,0.0286600677217,-0.999514071869
116220000000,,460,,116,220000000,"""map""",,,-0.0098876086995,0.015426565893,-0.00648895511404,,0.00890515742843,-0.00845341857458,0.0286828270198,-0.999513228932
116252000000,,461,,116,252000000,"""map""",,,-0.010117188096,0.0155146103352,-0.00702497828752,,0.00890522402374,-0.00851963448399,0.0287312958956,-0.999511205884
116284000000,,462,,116,284000000,"""map""",,,-0.010322582908,0.0155842332169,-0.00750544434413,,0.00885901138318,-0.0085490542396,0.0287300314902,-0.999511374471
116320000000,,463,,116,320000000,"""map""",,,-0.0106213968247,0.0157701298594,-0.00820176955312,,0.00886272610927,-0.00860427924698,0.0287745385622,-0.999509604303
116356000000,,464,,116,356000000,"""map""",,,-0.0108746122569,0.0159759856761,-0.00889951735735,,0.00881868217925,-0.00859252338375,0.0287797226246,-0.999509983625
116384000000,,465,,116,384000000,"""map""",,,-0.0111743444577,0.0162354409695,-0.00963822565973,,0.00883255798985,-0.00871843681585,0.0288351035835,-0.999507201933
116420000000,,466,,116,420000000,"""map""",,,-0.0115126166493,0.0165398996323,-0.0103344283998,,0.00882476838071,-0.00870028767392,0.0288692846777,-0.999506401143
116452000000,,467,,116,452000000,"""map""",,,-0.0115602584556,0.0166490450501,-0.010878900066,,0.00880422381399,-0.00871061558113,0.0288811279421,-0.999506106115
116484000000,,468,,116,484000000,"""map""",,,-0.0116014052182,0.016737382859,-0.0112439710647,,0.00874829751846,-0.00872416980593,0.0288986610311,-0.999506021821
116520000000,,469,,116,520000000,"""map""",,,-0.0117157567292,0.016919625923,-0.0116351107135,,0.00879186358183,-0.00870137160216,0.0288665029857,-0.999506738318
116552000000,,470,,116,552000000,"""map""",,,-0.0118554420769,0.0171124152839,-0.0119262775406,,0.00881893663981,-0.00871207660843,0.0288617825386,-0.99950656973
116584000000,,471,,116,584000000,"""map""",,,-0.012015610002,0.017380265519,-0.0121980989352,,0.00874156324232,-0.00868879938041,0.0288446287713,-0.999507960576
116620000000,,472,,116,620000000,"""map""",,,-0.0122290868312,0.0177073273808,-0.0124786794186,,0.0087573314526,-0.00867937427083,0.0288322375978,-0.999508297751
116652000000,,473,,116,652000000,"""map""",,,-0.0125976447016,0.0178436525166,-0.0127047877759,,0.00871741550078,-0.00869664814538,0.0288111220267,-0.999509014247
116684000000,,474,,116,684000000,"""map""",,,-0.0130372270942,0.0179519560188,-0.0128879211843,,0.00873740863036,-0.00873196748611,0.0287504305649,-0.999510278653
116716000000,,475,,116,716000000,"""map""",,,-0.0136297661811,0.018101580441,-0.0130903664976,,0.00874764528157,-0.00871825635408,0.028802692657,-0.99950884566
116752000000,,476,,116,752000000,"""map""",,,-0.0141096850857,0.0182835496962,-0.0132361538708,,0.00878176022801,-0.00872764222366,0.0288009646362,-0.999508550632
116784000000,,477,,116,784000000,"""map""",,,-0.0146529460326,0.0185167342424,-0.0133972642943,,0.00879428257273,-0.00873021767033,0.028829413759,-0.999507581255
116820000000,,478,,116,820000000,"""map""",,,-0.0152265066281,0.018790287897,-0.0135800987482,,0.00878587718588,-0.00876261251651,0.0288107427051,-0.999507876283
116852000000,,479,,116,852000000,"""map""",,,-0.0154966898263,0.0186611488461,-0.0135993687436,,0.0087610958332,-0.00874688284524,0.0288137772782,-0.999508129164
116884000000,,480,,116,884000000,"""map""",,,-0.0157637633383,0.0184208843857,-0.0135727422312,,0.00880583581069,-0.00878665783573,0.0287939682594,-0.999507960576
116920000000,,481,,116,920000000,"""map""",,,-0.0160638894886,0.0183066073805,-0.0135483443737,,0.00882024056309,-0.00876058235756,0.0287252267494,-0.999510025772
116952000000,,482,,116,952000000,"""map""",,,-0.0163993556052,0.0182721056044,-0.0135484561324,,0.00882625894732,-0.00875654487521,0.0286735125663,-0.999511500911
116984000000,,483,,116,984000000,"""map""",,,-0.0168005861342,0.0182496346533,-0.0135128125548,,0.0088308844842,-0.00865321932165,0.0286893597814,-0.99951192238
117020000000,,484,,117,20000000,"""map""",,,-0.0172435771674,0.0182591211051,-0.0134406136349,,0.00879671713718,-0.0086677304322,0.0286842600127,-0.999512301702
117052000000,,485,,117,52000000,"""map""",,,-0.0173087287694,0.0178887881339,-0.0132311750203,,0.00876356006431,-0.00862582791914,0.0286471286392,-0.999514029722
117084000000,,486,,117,84000000,"""map""",,,-0.0173142459244,0.0174394007772,-0.0129506001249,,0.00878204505365,-0.00867595273081,0.0286406380245,-0.999513608254
117120000000,,487,,117,120000000,"""map""",,,-0.0174808688462,0.0169978160411,-0.0126959756017,,0.00883526766898,-0.00867542026156,0.0286294691096,-0.99951339752
117152000000,,488,,117,152000000,"""map""",,,-0.0176609903574,0.0167121421546,-0.0125820431858,,0.00894319252054,-0.00868149868397,0.02864577994,-0.99951192238
117184000000,,489,,117,184000000,"""map""",,,-0.0178689714521,0.0164863020182,-0.0125142848119,,0.00891646729239,-0.00864502339568,0.0286585504351,-0.999512133114
117220000000,,490,,117,220000000,"""map""",,,-0.0181052554399,0.0162854753435,-0.0124432574958,,0.00890107166395,-0.00865138379347,0.0286414809615,-0.999512681023
117252000000,,491,,117,252000000,"""map""",,,-0.0184017214924,0.0161279924214,-0.0123841920868,,0.00889613841444,-0.00865573357255,0.0286367605144,-0.999512849611
117284000000,,492,,117,284000000,"""map""",,,-0.0187583081424,0.0160104203969,-0.0123365484178,,0.00890794599399,-0.00867643833536,0.0286210397399,-0.999512976051
117320000000,,493,,117,320000000,"""map""",,,-0.0192276891321,0.0159596484154,-0.0122298840433,,0.00889398399637,-0.00870223174361,0.0285530568733,-0.999514872659
117352000000,,494,,117,352000000,"""map""",,,-0.0191582329571,0.0154749900103,-0.0124864652753,,0.00885165218946,-0.00868865443888,0.0285514974399,-0.999515420568
117384000000,,495,,117,384000000,"""map""",,,-0.0191706568003,0.0150952208787,-0.0127998488024,,0.00882060281659,-0.00873551809957,0.028499446082,-0.999516727121
117420000000,,496,,117,420000000,"""map""",,,-0.0192381162196,0.0148012377322,-0.0131793767214,,0.00882165254425,-0.00872943182351,0.0284583529047,-0.999517949379
117452000000,,497,,117,452000000,"""map""",,,-0.0193810537457,0.0145684843883,-0.0135612804443,,0.00881240088398,-0.00875506807114,0.0284687210294,-0.999517527911
117484000000,,498,,117,484000000,"""map""",,,-0.0195835456252,0.0144009254873,-0.0139994965866,,0.00880165189671,-0.00874532315331,0.0284421685148,-0.999518455141
117520000000,,499,,117,520000000,"""map""",,,-0.0199518837035,0.0142721217126,-0.0145432744175,,0.00880963135447,-0.00870864037463,0.028432938355,-0.999519003051
117552000000,,500,,117,552000000,"""map""",,,-0.0198364555836,0.0139334648848,-0.0147902183235,,0.0088085714065,-0.00871683762798,0.0284165853778,-0.999519424519
117584000000,,501,,117,584000000,"""map""",,,-0.0198218114674,0.0136538567021,-0.0150778042153,,0.00876456746248,-0.00868791830445,0.0284043627917,-0.99952035175
117620000000,,502,,117,620000000,"""map""",,,-0.0199094116688,0.0134305367246,-0.0153986653313,,0.00874179537154,-0.00866212405502,0.0283056548725,-0.99952355491
117652000000,,503,,117,652000000,"""map""",,,-0.0200623422861,0.0132469637319,-0.0157226379961,,0.00880824910556,-0.00871185601145,0.028324157339,-0.999521995477
117684000000,,504,,117,684000000,"""map""",,,-0.0202523134649,0.0131025128067,-0.0160713158548,,0.00883807318692,-0.00861678729151,0.0282568488219,-0.999524482141
117720000000,,505,,117,720000000,"""map""",,,-0.0205803532153,0.012964845635,-0.0164224803448,,0.00879220987335,-0.00858181558382,0.0282602627167,-0.999525114344
117752000000,,506,,117,752000000,"""map""",,,-0.0203364957124,0.0127550978214,-0.0160253271461,,0.00879042365369,-0.00855315202252,0.0282848764762,-0.999524692875
117784000000,,507,,117,784000000,"""map""",,,-0.020179240033,0.0125860543922,-0.0157014448196,,0.00882035122943,-0.00860635778837,0.0282619485906,-0.999524608581
117820000000,,508,,117,820000000,"""map""",,,-0.020143898204,0.0124689647928,-0.0154889971018,,0.00897615482372,-0.00860500790589,0.0282764471065,-0.999522838414
117852000000,,509,,117,852000000,"""map""",,,-0.0202089753002,0.0123646724969,-0.0153497168794,,0.00896643347201,-0.00862282672087,0.0282938537549,-0.999522290505
117884000000,,510,,117,884000000,"""map""",,,-0.020342675969,0.0122827561572,-0.0152501910925,,0.00892465256845,-0.00862666097279,0.0283104596133,-0.999522121917
117920000000,,511,,117,920000000,"""map""",,,-0.02060187608,0.0121997054666,-0.0151662090793,,0.00897495828951,-0.00862334503656,0.0282940644892,-0.999522164064
117952000000,,512,,117,952000000,"""map""",,,-0.0203543473035,0.0119032347575,-0.0148682044819,,0.00898159557439,-0.00860111210064,0.0282858037069,-0.999522585533
117984000000,,513,,117,984000000,"""map""",,,-0.0202169734985,0.0116650192067,-0.0146024962887,,0.00901853811029,-0.00863334966531,0.0282943595171,-0.999521700449
118020000000,,514,,118,20000000,"""map""",,,-0.0201842207462,0.0114569105208,-0.0143492436036,,0.0090508960857,-0.00866744936746,0.028305528432,-0.999520815365
118052000000,,515,,118,52000000,"""map""",,,-0.0202575381845,0.011243541725,-0.0141289848834,,0.00901979212309,-0.00864947727625,0.0282795238264,-0.99952195333
118084000000,,516,,118,84000000,"""map""",,,-0.0203994363546,0.0110676810145,-0.0140220792964,,0.00900968270345,-0.00869903087774,0.0282552893886,-0.999522332652
118116000000,,517,,118,120000000,"""map""",,,-0.02070517838,0.0108824614435,-0.0140539798886,,0.00900189541464,-0.00871641842838,0.0282904398602,-0.999521236833
118152000000,,518,,118,152000000,"""map""",,,-0.0207366347313,0.0105800684541,-0.0139968134463,,0.00902312046877,-0.00871956083814,0.0283001336354,-0.999520731071
118184000000,,519,,118,184000000,"""map""",,,-0.0208419095725,0.0103375688195,-0.0140873519704,,0.00893962680043,-0.00864229457246,0.0283300578978,-0.999521321127
118220000000,,520,,118,220000000,"""map""",,,-0.02104030177,0.01011217013,-0.0142637714744,,0.00893351171047,-0.00870756144721,0.028345862966,-0.99952035175
118252000000,,521,,118,252000000,"""map""",,,-0.0211870130152,0.00999149680138,-0.0143279926851,,0.00887657385971,-0.00868951873739,0.0283180881928,-0.999521826889
118284000000,,522,,118,284000000,"""map""",,,-0.0214180741459,0.00984158087522,-0.0144606688991,,0.00888353213358,-0.00865639912439,0.0282960032442,-0.999522669826
118320000000,,523,,118,320000000,"""map""",,,-0.0218219552189,0.00962629914284,-0.0146712232381,,0.00880992447366,-0.00871086157838,0.0283030417679,-0.999522627679
118352000000,,524,,118,352000000,"""map""",,,-0.0215788502246,0.00944177992642,-0.0145699838176,,0.00886733817428,-0.00870950977172,0.0282809568193,-0.999522796267
118384000000,,525,,118,384000000,"""map""",,,-0.0214778706431,0.00928446929902,-0.0146496826783,,0.00883717946485,-0.00867074389585,0.0282806617914,-0.999523344176
118420000000,,526,,118,420000000,"""map""",,,-0.0214912276715,0.0091376779601,-0.0147910891101,,0.00902515900358,-0.00873058782636,0.0283220921434,-0.999520014575
118452000000,,527,,118,452000000,"""map""",,,-0.0215957835317,0.00896302890033,-0.0148800443858,,0.00900603004518,-0.0087247237036,0.0283011030129,-0.999520857512
118484000000,,528,,118,484000000,"""map""",,,-0.0217660386115,0.00879707932472,-0.0150115704164,,0.00892210753059,-0.00869994027626,0.02830662425,-0.999521658302
118520000000,,529,,118,520000000,"""map""",,,-0.0220124088228,0.00863350834697,-0.0153713757172,,0.00895022202526,-0.00880293672477,0.0282992064047,-0.999520731071
118552000000,,530,,118,552000000,"""map""",,,-0.0217877626419,0.0083601474762,-0.0158056337386,,0.00888974768245,-0.00875322076633,0.0282890490142,-0.99952195333
118584000000,,531,,118,584000000,"""map""",,,-0.0216875076294,0.00810146331787,-0.0161338746548,,0.00888978628962,-0.00877124866919,0.0282940223423,-0.999521700449
118620000000,,532,,118,620000000,"""map""",,,-0.0216933898628,0.00786465872079,-0.0166186392307,,0.00891101085756,-0.00883480248703,0.0283196054794,-0.999520141015
118652000000,,533,,118,652000000,"""map""",,,-0.0217976048589,0.00762791233137,-0.0171622596681,,0.00884092236944,-0.0087909469702,0.0283022409778,-0.999521658302
118684000000,,534,,118,684000000,"""map""",,,-0.0219833347946,0.00740879541263,-0.017689652741,,0.00883454380397,-0.00883583853559,0.0282993328452,-0.999521447568
118720000000,,535,,118,720000000,"""map""",,,-0.0223209895194,0.00714235706255,-0.0183138549328,,0.00890920476451,-0.00887833659428,0.0283395409387,-0.999519255932
118752000000,,536,,118,752000000,"""map""",,,-0.022163067013,0.00682815723121,-0.0183579903096,,0.00882181808588,-0.00882097387297,0.0283791589763,-0.999519424519
118784000000,,537,,118,784000000,"""map""",,,-0.0221119057387,0.00654040789232,-0.0184698496014,,0.0088107031318,-0.00883698444693,0.0284210950906,-0.99951820226
118820000000,,538,,118,820000000,"""map""",,,-0.0221777968109,0.0062752244994,-0.0187998060137,,0.00882075738097,-0.00880334113348,0.0284660236311,-0.999517106442
118852000000,,539,,118,852000000,"""map""",,,-0.022320440039,0.00601518107578,-0.0191280227154,,0.00885736646762,-0.00883743338521,0.0284487434232,-0.999516937855
118884000000,,540,,118,884000000,"""map""",,,-0.0224901773036,0.00581260584295,-0.0193424187601,,0.00879306116046,-0.00873449604621,0.0284419999275,-0.999518623729
118920000000,,541,,118,920000000,"""map""",,,-0.0228329636157,0.00548437703401,-0.0197462681681,,0.00878477077966,-0.00868874626468,0.0284457088501,-0.999519045197
118952000000,,542,,118,952000000,"""map""",,,-0.0227690786123,0.00508763408288,-0.0193656366318,,0.00884961747214,-0.00867410568839,0.0284186084265,-0.999519340225
118984000000,,543,,118,984000000,"""map""",,,-0.0226642899215,0.00468126032501,-0.0187582243234,,0.00884663656014,-0.00872501810387,0.0284215165591,-0.99951887661
119020000000,,544,,119,20000000,"""map""",,,-0.0226814746857,0.00428961077705,-0.0182838216424,,0.00885606897545,-0.00878891198535,0.0284359307813,-0.999517780792
119052000000,,545,,119,52000000,"""map""",,,-0.0228385385126,0.00395205942914,-0.0179433561862,,0.00884496663147,-0.00880213615973,0.0283923509399,-0.999518960904
119084000000,,546,,119,84000000,"""map""",,,-0.0232021845877,0.00366124440916,-0.0172867998481,,0.00820435545189,-0.00825041826329,0.028127753025,-0.99953666258
119120000000,,547,,119,120000000,"""map""",,,-0.0239729881287,0.00329468119889,-0.0153074888512,,0.00585967523718,-0.00631041956534,0.0276017603555,-0.999581928295
119152000000,,548,,119,152000000,"""map""",,,-0.0242925100029,0.00307125085965,-0.0120329353958,,0.00391169980054,-0.00472955330436,0.0272665664693,-0.999609365894
119184000000,,549,,119,184000000,"""map""",,,-0.0248579308391,0.00273974146694,-0.00791285093874,,-0.00117974721276,1.78403823122e-06,0.0264463045036,-0.999649573987
119220000000,,550,,119,220000000,"""map""",,,-0.0256817042828,0.0022788385395,-0.00322655262426,,-0.0077542176072,0.00668478429627,0.0255785430396,-0.999620450515
119252000000,,551,,119,252000000,"""map""",,,-0.0267458558083,0.00168924755417,0.00220023770817,,-0.0113000327956,0.0104157647489,0.0250922948484,-0.999567050458
119284000000,,552,,119,284000000,"""map""",,,-0.0280061624944,0.000943659164477,0.00808741524816,,-0.0192268276299,0.0186917673788,0.0241691102786,-0.99934822402
119320000000,,553,,119,320000000,"""map""",,,-0.0298588313162,-0.00022665731376,0.0157143585384,,-0.0278082398655,0.0279074809588,0.0232338295633,-0.998953518784
119352000000,,554,,119,352000000,"""map""",,,-0.0309235546738,-0.00158058328088,0.0194106455892,,-0.0303433020922,0.0317036287534,0.0227654516358,-0.998777218517
119384000000,,555,,119,384000000,"""map""",,,-0.0326472520828,-0.00338524393737,0.0196915864944,,-0.0260258096766,0.0320456987086,0.0215997962465,-0.99891398504
119420000000,,556,,119,420000000,"""map""",,,-0.0350022278726,-0.00561083713546,0.0169243626297,,-0.0146815431872,0.024143851804,0.0203111142064,-0.999394374819
119452000000,,557,,119,452000000,"""map""",,,-0.0379294380546,-0.0081398691982,0.0123607339337,,-0.00894589974556,0.0190247667066,0.0197355568432,-0.999584204225
119484000000,,558,,119,484000000,"""map""",,,-0.0413033775985,-0.0108425598592,0.0073984474875,,-5.50016373061e-06,0.00946909886917,0.0189254944148,-0.99977605668
119520000000,,559,,119,520000000,"""map""",,,-0.0459110923111,-0.0142937395722,0.00201644212939,,0.00580674072992,0.00188279241312,0.0185016235593,-0.999810237774
119552000000,,560,,119,552000000,"""map""",,,-0.0490302145481,-0.0166413113475,0.00212106481194,,0.00599568258225,0.0004835076583,0.0182934181277,-0.999814621046
119584000000,,561,,119,584000000,"""map""",,,-0.0522427894175,-0.0189607273787,0.00884207058698,,-0.014335265503,0.0168980490785,0.0178071277895,-0.999595878902
119620000000,,562,,119,620000000,"""map""",,,-0.0561276860535,-0.0218779277056,0.0252860616893,,-0.0406917804264,0.0408881073615,0.0179349591811,-0.998173717793
119652000000,,563,,119,652000000,"""map""",,,-0.0611800178885,-0.0259668510407,0.048358514905,,-0.0497518174598,0.0496577835602,0.0182456236015,-0.99735956712
119684000000,,564,,119,684000000,"""map""",,,-0.0673776119947,-0.0312325004488,0.0732592716813,,-0.0634384948246,0.0616597051932,0.0195568963523,-0.995887124821
119720000000,,565,,119,720000000,"""map""",,,-0.0765763968229,-0.0393705181777,0.102275080979,,-0.0748764845451,0.0694620046989,0.0215717685922,-0.994536739794
119752000000,,566,,119,752000000,"""map""",,,-0.0849644318223,-0.0471404492855,0.121269315481,,-0.0793969266722,0.0727396883872,0.0227422708691,-0.993925526197
119784000000,,567,,119,784000000,"""map""",,,-0.0946909189224,-0.0562490001321,0.139511615038,,-0.0850291562356,0.0772822981102,0.0250942757502,-0.993059787782
119820000000,,568,,119,820000000,"""map""",,,-0.105902448297,-0.0669131353498,0.158732280135,,-0.0875889045794,0.0784113262418,0.0272817814816,-0.992691087151
119852000000,,569,,119,852000000,"""map""",,,-0.118677668273,-0.0792860090733,0.179912686348,,-0.0882118837327,0.0782538274201,0.028236534041,-0.992621671292
119884000000,,570,,119,884000000,"""map""",,,-0.133008688688,-0.0933032184839,0.203318327665,,-0.0889733561131,0.0783375152562,0.0299726891717,-0.992496200124
119920000000,,571,,119,920000000,"""map""",,,-0.152907177806,-0.112955451012,0.235365062952,,-0.0899682084353,0.079417594433,0.0315941627276,-0.992270377309
119952000000,,572,,119,952000000,"""map""",,,-0.169332593679,-0.129246085882,0.263644397259,,-0.0903945224909,0.0798121745459,0.0322036061571,-0.992180351641
119984000000,,573,,119,984000000,"""map""",,,-0.187060534954,-0.147000148892,0.292755275965,,-0.0913661920708,0.0804110124453,0.0336447333482,-0.991995116242
120020000000,,574,,120,20000000,"""map""",,,-0.205998748541,-0.166110351682,0.322694808245,,-0.0915857366511,0.0802142271633,0.0350872513853,-0.991940915395
120052000000,,575,,120,52000000,"""map""",,,-0.226080611348,-0.186508134007,0.353850543499,,-0.0914587587332,0.0799953691157,0.0357403589498,-0.991946900247
120084000000,,576,,120,84000000,"""map""",,,-0.247252747416,-0.208167538047,0.386090785265,,-0.0911201970504,0.0793217847682,0.0368946768369,-0.991989974326
120120000000,,577,,120,120000000,"""map""",,,-0.275217115879,-0.237005010247,0.428180724382,,-0.0908589142485,0.0791958117893,0.0380249288734,-0.991981334222
120152000000,,578,,120,152000000,"""map""",,,-0.298461198807,-0.260832071304,0.463648587465,,-0.0906813021605,0.0791785157763,0.0385268978391,-0.991979564055
120184000000,,579,,120,184000000,"""map""",,,-0.322605937719,-0.285743057728,0.500541388988,,-0.0900725732519,0.0786553699948,0.039475370518,-0.992039328286
120220000000,,580,,120,220000000,"""map""",,,-0.347647309303,-0.311654508114,0.53866815567,,-0.0892181242651,0.0780495781946,0.0402367533364,-0.992133779373
120252000000,,581,,120,252000000,"""map""",,,-0.373524069786,-0.338518887758,0.578094005585,,-0.0888051816265,0.0780313269629,0.0406193624272,-0.992156707259
120284000000,,582,,120,284000000,"""map""",,,-0.40016117692,-0.366206258535,0.618761599064,,-0.0881299387347,0.0779326694223,0.0412716270547,-0.992197758289
120320000000,,583,,120,320000000,"""map""",,,-0.434458702803,-0.401911914349,0.671381652355,,-0.0875202332045,0.0774969961322,0.0418956954406,-0.99225967201
120352000000,,584,,120,352000000,"""map""",,,-0.463009953499,-0.431375861168,0.714211583138,,-0.0871146814108,0.0773686421856,0.0421478178884,-0.992294653894
120384000000,,585,,120,384000000,"""map""",,,-0.492095857859,-0.461515128613,0.758419215679,,-0.0864875353172,0.0772805246498,0.0425949116574,-0.992337306505
120420000000,,586,,120,420000000,"""map""",,,-0.521701812744,-0.492292702198,0.803911983967,,-0.0858282150438,0.0769957660533,0.0429941266065,-0.99239943096
120452000000,,587,,120,452000000,"""map""",,,-0.551838457584,-0.523676991463,0.850752353668,,-0.0854924080526,0.076833839837,0.0431845882149,-0.992432769117
120484000000,,588,,120,484000000,"""map""",,,-0.582461118698,-0.555665373802,0.898927986622,,-0.0847779386279,0.0767551582563,0.0435376523649,-0.992484651887
120520000000,,589,,120,520000000,"""map""",,,-0.621358633041,-0.596436500549,0.9612210989,,-0.0840983091712,0.0766631842839,0.0438654284058,-0.992535185959
120552000000,,590,,120,552000000,"""map""",,,-0.653712332249,-0.629926085472,1.01294326782,,-0.0837441953013,0.0766093377337,0.0439834817285,-0.99256405655
120584000000,,591,,120,584000000,"""map""",,,-0.686372756958,-0.663796305656,1.06601190567,,-0.082963302114,0.0765822442248,0.0441875146221,-0.992622682816
120620000000,,592,,120,620000000,"""map""",,,-0.719340860844,-0.698014616966,1.12033998966,,-0.0823336970152,0.0766897868479,0.0443476726464,-0.992659687749
120652000000,,593,,120,652000000,"""map""",,,-0.752621591091,-0.73254853487,1.17597901821,,-0.0820227215972,0.0767348367252,0.0444440203421,-0.992677642307
120684000000,,594,,120,684000000,"""map""",,,-0.786164402962,-0.767374575138,1.23296046257,,-0.0814523741441,0.0767068148332,0.04454395052,-0.992722275819
120720000000,,595,,120,720000000,"""map""",,,-0.82845813036,-0.811263263226,1.30604410172,,-0.0809246243133,0.0766668255411,0.044663015367,-0.992763200409
120752000000,,596,,120,752000000,"""map""",,,-0.864001691341,-0.846982836723,1.36653363705,,-0.0807147626423,0.0766656790151,0.0446829929732,-0.992779469093
120784000000,,597,,120,784000000,"""map""",,,-0.899632453918,-0.882880926132,1.42811143398,,-0.080175414361,0.0765843306584,0.0447476462388,-0.992826504975
120820000000,,598,,120,820000000,"""map""",,,-0.935366690159,-0.91896468401,1.49104857445,,-0.0793134536863,0.0760543073674,0.0447814480113,-0.99293490667
120852000000,,599,,120,852000000,"""map""",,,-0.971209943295,-0.955208063126,1.55532944202,,-0.0784223382584,0.0754417180708,0.0448161348676,-0.99305085265
120884000000,,600,,120,884000000,"""map""",,,-1.00713324547,-0.991549968719,1.62086808681,,-0.0755173174986,0.073106484178,0.0449139998499,-0.993446190089
120920000000,,601,,120,920000000,"""map""",,,-1.05200135708,-1.03706336021,1.70446944237,,-0.0715309501107,0.069477938101,0.0450935875714,-0.99399329833
120952000000,,602,,120,952000000,"""map""",,,-1.08932876587,-1.07402920723,1.77312004566,,-0.0692704919712,0.0672760459709,0.0451611911164,-0.994301813261
120984000000,,603,,120,984000000,"""map""",,,-1.12637710571,-1.11082756519,1.84306168556,,-0.0645095343256,0.062769090753,0.0453598713603,-0.994907547768
121020000000,,604,,121,20000000,"""map""",,,-1.16298663616,-1.14733088017,1.91336166859,,-0.0598600757561,0.0589533442623,0.0499857408654,-0.995209909259
121052000000,,605,,121,52000000,"""map""",,,-1.19904649258,-1.1834256649,1.98257637024,,-0.0582157906301,0.0573678847769,0.0500779160231,-0.995395481833
121084000000,,606,,121,84000000,"""map""",,,-1.23452842236,-1.2190836668,2.04966402054,,-0.0560440068668,0.0553382810198,0.0501512093927,-0.99563129345
121120000000,,607,,121,120000000,"""map""",,,-1.27803349495,-1.26302063465,2.12952828407,,-0.0551309385284,0.0546348596671,0.0500263704274,-0.995727388265
121152000000,,608,,121,152000000,"""map""",,,-1.31395864487,-1.29834508896,2.19064593315,,-0.0547978767212,0.0545318596429,0.0499816104743,-0.995753687898
121184000000,,609,,121,184000000,"""map""",,,-1.34920179844,-1.33318793774,2.24922704697,,-0.0535825487397,0.0539592024067,0.049839533448,-0.995858085642
121220000000,,610,,121,220000000,"""map""",,,-1.38380682468,-1.36755788326,2.30544519424,,-0.0512597357166,0.0525403130494,0.0498831554362,-0.996054026341
121252000000,,611,,121,252000000,"""map""",,,-1.41781306267,-1.40147078037,2.35971355438,,-0.0497442735031,0.05144300783,0.0498777606396,-0.996188474787
121284000000,,612,,121,284000000,"""map""",,,-1.45122528076,-1.43489634991,2.41232967377,,-0.0463323179404,0.0485543361785,0.0499581768265,-0.996493870852
121320000000,,613,,121,320000000,"""map""",,,-1.49211919308,-1.47597813606,2.4759106636,,-0.0426854766738,0.0451173932968,0.0499476822612,-0.996818780907
121352000000,,614,,121,352000000,"""map""",,,-1.52583861351,-1.50889706612,2.52689695358,,-0.0408851629267,0.0434117741341,0.0499489045198,-0.996969961653
121384000000,,615,,121,384000000,"""map""",,,-1.55875575542,-1.54124188423,2.57617735863,,-0.0374760909657,0.0400330329221,0.0499474293801,-0.997245307014
121420000000,,616,,121,420000000,"""map""",,,-1.59088110924,-1.57297456264,2.62371134758,,-0.0343060964267,0.0372033498186,0.0499449848629,-0.997469106779
121452000000,,617,,121,452000000,"""map""",,,-1.62222576141,-1.60408604145,2.66941642761,,-0.0327785038234,0.0358498523464,0.0499703151189,-0.997568699783
121484000000,,618,,121,484000000,"""map""",,,-1.65280723572,-1.63458430767,2.71335577965,,-0.0300840732495,0.0333524391915,0.0499811890058,-0.9977396474
121520000000,,619,,121,520000000,"""map""",,,-1.68994724751,-1.67180132866,2.76592087746,,-0.0277682239435,0.0310638559331,0.0500180674982,-0.997878858441
121552000000,,620,,121,552000000,"""map""",,,-1.72079849243,-1.7015209198,2.8075067997,,-0.0267421093611,0.030044431175,0.0500803605403,-0.997934998043
121584000000,,621,,121,584000000,"""map""",,,-1.75073719025,-1.73054993153,2.847635746,,-0.0248477835287,0.028301368077,0.049971115909,-0.998040365164
121620000000,,622,,121,620000000,"""map""",,,-1.77982020378,-1.75891554356,2.88630747795,,-0.0231133309002,0.026787447187,0.0499069262587,-0.998127061232
121652000000,,623,,121,652000000,"""map""",,,-1.80804634094,-1.78664135933,2.92357325554,,-0.0223147162803,0.0260756451968,0.0498248241978,-0.998168196556
121684000000,,624,,121,684000000,"""map""",,,-1.83543074131,-1.81373441219,2.95949482918,,-0.0210053645037,0.0247530211143,0.0496436770429,-0.998239256142
121720000000,,625,,121,720000000,"""map""",,,-1.86201286316,-1.84022688866,2.9942445755,,-0.0195919139626,0.023432147443,0.0494250613397,-0.998310695051
121752000000,,626,,121,752000000,"""map""",,,-1.88960683346,-1.86635708809,3.02880954742,,-0.018843127619,0.0227645757716,0.0493086517441,-0.998346351284
121784000000,,627,,121,784000000,"""map""",,,-1.9168702364,-1.891928792,3.06238508224,,-0.0173819237107,0.0215315555597,0.0492100281186,-0.998405019698
121820000000,,628,,121,820000000,"""map""",,,-1.94964599609,-1.92309987545,3.10244178772,,-0.01602117945,0.0203607361937,0.0490995612286,-0.998457829699
121852000000,,629,,121,852000000,"""map""",,,-1.97490644455,-1.94738602638,3.13311386108,,-0.0153909935149,0.0197480905915,0.0490842197758,-0.998480841878
121884000000,,630,,121,884000000,"""map""",,,-1.99935162067,-1.97113204002,3.16261816025,,-0.0140701998568,0.0186668905719,0.0489628368521,-0.998527119118
121920000000,,631,,121,920000000,"""map""",,,-2.02299880981,-1.99432969093,3.19102287292,,-0.0129402163419,0.0177398549985,0.048846553697,-0.998564924841
121952000000,,632,,121,952000000,"""map""",,,-2.04722952843,-2.01707816124,3.21922421455,,-0.0123722850886,0.0172616382514,0.0487636929929,-0.998584565272
121984000000,,633,,121,984000000,"""map""",,,-2.07105827332,-2.03929686546,3.24661922455,,-0.0111075189155,0.0163604936846,0.0486252405955,-0.998621359471
122020000000,,634,,122,20000000,"""map""",,,-2.09967303276,-2.06627368927,3.27926683426,,-0.0101267551653,0.0154539610713,0.0485272491727,-0.998650988705
122052000000,,635,,122,52000000,"""map""",,,-2.12167835236,-2.08728146553,3.30413174629,,-0.00973499493999,0.0150019729995,0.0484449785244,-0.998665740102
122084000000,,636,,122,84000000,"""map""",,,-2.14294338226,-2.10775613785,3.32788920403,,-0.00891410916798,0.0140673002854,0.0483378833824,-0.99869225047
122120000000,,637,,122,120000000,"""map""",,,-2.16346168518,-2.12773990631,3.35069966316,,-0.00816848169771,0.0131466494656,0.0482278379609,-0.998716484908
122152000000,,638,,122,152000000,"""map""",,,-2.18326425552,-2.1472454071,3.37260127068,,-0.00779940207458,0.0126685879704,0.0481301837129,-0.998730266927
122184000000,,639,,122,184000000,"""map""",,,-2.20241332054,-2.16629099846,3.39368987083,,-0.00705126604364,0.011837369635,0.0479951452103,-0.998752604757
122220000000,,640,,122,220000000,"""map""",,,-2.22545051575,-2.18947482109,3.41900992393,,-0.00636016276591,0.0112411988409,0.0478967744658,-0.998768789147
122252000000,,641,,122,252000000,"""map""",,,-2.24562954903,-2.20747447014,3.44081306458,,-0.00597960191318,0.0109423906912,0.0478203622295,-0.998778103601
122284000000,,642,,122,284000000,"""map""",,,-2.26510047913,-2.22503829002,3.46176886559,,-0.00539338929978,0.0104514431263,0.0476718367353,-0.998793866522
122320000000,,643,,122,320000000,"""map""",,,-2.28389811516,-2.24217772484,3.48176074028,,-0.00480601666023,0.00989694568711,0.0475493158467,-0.998808322891
122352000000,,644,,122,352000000,"""map""",,,-2.30204606056,-2.25890374184,3.50090575218,,-0.00446540459908,0.00946825132239,0.0474238446787,-0.998820081862
122384000000,,645,,122,384000000,"""map""",,,-2.31958293915,-2.27520823479,3.51919746399,,-0.00394795193484,0.00837388996156,0.0473559882526,-0.998835170433
122420000000,,646,,122,420000000,"""map""",,,-2.34063839912,-2.2950425148,3.54084467888,,-0.00345169024506,0.00743444625715,0.0472319922243,-0.998850343299
122452000000,,647,,122,452000000,"""map""",,,-2.35894608498,-2.31003880501,3.559258461,,-0.00322755807912,0.00693706520633,0.0471944815291,-0.998856496739
122484000000,,648,,122,484000000,"""map""",,,-2.37656497955,-2.32473635674,3.57676029205,,-0.00286850331439,0.00612905924782,0.0471091341609,-0.998866822717
122520000000,,649,,122,520000000,"""map""",,,-2.39353442192,-2.33913350105,3.59335803986,,-0.00238629183632,0.00534319849474,0.0470365572877,-0.998876095023
122552000000,,650,,122,552000000,"""map""",,,-2.40989851952,-2.35321164131,3.60911226273,,-0.00205350822301,0.00488182352954,0.0469774674061,-0.998881911288
122584000000,,651,,122,584000000,"""map""",,,-2.42565202713,-2.36695671082,3.62404346466,,-0.00148663236968,0.00386950076238,0.0468655675233,-0.998892658735
122620000000,,652,,122,620000000,"""map""",,,-2.44451141357,-2.38374209404,3.6417658329,,-0.000976033507411,0.00280166326942,0.0467664381356,-0.998901509573
122652000000,,653,,122,652000000,"""map""",,,-2.46080374718,-2.39668393135,3.65707492828,,-0.000740925215527,0.00236854480269,0.0467250077835,-0.99890475488
122684000000,,654,,122,684000000,"""map""",,,-2.47642755508,-2.40934300423,3.67157769203,,-0.000289435661932,0.00170475515234,0.0465775781075,-0.99891318425
122720000000,,655,,122,720000000,"""map""",,,-2.49140405655,-2.4217312336,3.68536472321,,4.13260962588e-05,0.000993186822005,0.0466057322023,-0.998912847075
122752000000,,656,,122,752000000,"""map""",,,-2.50578379631,-2.43387055397,3.69854784012,,0.000256802425207,0.000587602605355,0.0465669149548,-0.998914996565
122784000000,,657,,122,784000000,"""map""",,,-2.51960158348,-2.44576716423,3.71091389656,,0.000709945491454,-0.000173788969578,0.0464843071317,-0.998918789781
122820000000,,658,,122,820000000,"""map""",,,-2.5360584259,-2.46032762527,3.72545933723,,0.00114769400969,-0.000815637079668,0.046566029871,-0.998914280068
122852000000,,659,,122,852000000,"""map""",,,-2.55013346672,-2.4708442688,3.73773670197,,0.00136313090829,-0.00122500185628,0.0465981879164,-0.998912046285
122884000000,,660,,122,884000000,"""map""",,,-2.56359291077,-2.48118209839,3.74942302704,,0.0017429059785,-0.00179947704056,0.04670178487,-0.998905724258
122920000000,,661,,122,920000000,"""map""",,,-2.57645654678,-2.49132823944,3.76042461395,,0.0020640460876,-0.00224733417069,0.0468090907463,-0.998899233643
122952000000,,662,,122,952000000,"""map""",,,-2.58879613876,-2.50128173828,3.77079820633,,0.00217919636087,-0.00251555821692,0.0468788016338,-0.998895103252
122984000000,,663,,122,984000000,"""map""",,,-2.6006026268,-2.51105046272,3.78058695793,,0.00236075718462,-0.00312941971859,0.0469415582912,-0.998890003483
123020000000,,664,,123,20000000,"""map""",,,-2.61467576027,-2.52304553986,3.79196500778,,0.00251040105198,-0.00367443098876,0.0469851381326,-0.998885704505
123052000000,,665,,123,52000000,"""map""",,,-2.62698125839,-2.53093218803,3.8020067215,,0.00259224023014,-0.00387214922259,0.0470216373034,-0.998883007106
123084000000,,666,,123,84000000,"""map""",,,-2.63875031471,-2.53874230385,3.8114900589,,0.00278794389401,-0.00454327188952,0.0470104262417,-0.998880225414
123120000000,,667,,123,120000000,"""map""",,,-2.64999198914,-2.54647898674,3.82034420967,,0.0030206806848,-0.00518362813905,0.0470349978543,-0.99887520994
123152000000,,668,,123,152000000,"""map""",,,-2.66074514389,-2.55415511131,3.82862901688,,0.00305767030663,-0.00544986336029,0.0470523202091,-0.998872891863
123184000000,,669,,123,184000000,"""map""",,,-2.67104148865,-2.56174755096,3.83626103401,,0.00312848631407,-0.00603778481437,0.0470276221558,-0.998870447346
123220000000,,670,,123,220000000,"""map""",,,-2.68329167366,-2.57110404968,3.84508872032,,0.00316786003166,-0.00682265923241,0.0469341404459,-0.998869688702
123252000000,,671,,123,252000000,"""map""",,,-2.69402003288,-2.5772125721,3.85292744637,,0.0031777041196,-0.00716019605534,0.0468689392712,-0.998870320905
