rosbagTimestamp,header,seq,stamp,secs,nsecs,frame_id,pose,position,x,y,z,orientation,x,y,z,w
102212000000,,149,,102,212000000,"""map""",,,0.00877832248807,-0.00149245583452,0.0427916496992,,0.00868375235704,-0.0108597610538,0.0416573128654,-0.999035199376
102244000000,,150,,102,244000000,"""map""",,,0.00826037302613,-0.00126160972286,0.0426042079926,,0.00867122972163,-0.010830377868,0.0415778239091,-0.999038908299
102276000000,,151,,102,276000000,"""map""",,,0.00766776036471,-0.00102294131648,0.0426190197468,,0.00870408829377,-0.0107581923349,0.0413907761955,-0.999047253375
102312000000,,152,,102,312000000,"""map""",,,0.00719671277329,-0.000799521687441,0.0427262783051,,0.00865969482067,-0.0107201663287,0.0412567070703,-0.999053617549
102344000000,,153,,102,344000000,"""map""",,,0.00684120180085,-0.000576591002755,0.0428870618343,,0.00866750326521,-0.0107083684215,0.0411961841959,-0.99905614636
102376000000,,154,,102,376000000,"""map""",,,0.00658325571567,-0.000362682796549,0.043025713414,,0.00864692819452,-0.01061360469,0.041149401194,-0.999059265227
102412000000,,155,,102,412000000,"""map""",,,0.00636773929,-7.06030114088e-05,0.04291594401,,0.00870023235103,-0.0105763466289,0.0410875296204,-0.999061709744
102444000000,,156,,102,444000000,"""map""",,,0.00571860093623,0.000328332534991,0.0421557053924,,0.00865535287209,-0.0105574539748,0.0410217383899,-0.999065039345
102476000000,,157,,102,476000000,"""map""",,,0.00505140190944,0.000738810107578,0.0411604754627,,0.00868098054321,-0.0105708582367,0.0409318813089,-0.999068326799
102512000000,,158,,102,512000000,"""map""",,,0.00449560163543,0.00114301033318,0.0401723049581,,0.00865684480467,-0.0105641490676,0.0408920103902,-0.999070265554
102544000000,,159,,102,544000000,"""map""",,,0.00405293423682,0.00153811858036,0.0392384007573,,0.00870043238393,-0.0105674933212,0.0408617910998,-0.999071066345
102576000000,,160,,102,576000000,"""map""",,,0.00372693128884,0.0018963245675,0.0383841916919,,0.00870919547106,-0.0105263100879,0.0407792254236,-0.999074817414
102612000000,,161,,102,612000000,"""map""",,,0.00344216939993,0.00236957380548,0.0372431948781,,0.00875405461745,-0.0105954370934,0.0406607506324,-0.99907848419
102644000000,,162,,102,644000000,"""map""",,,0.00294453697279,0.00269703753293,0.0367345847189,,0.00876482848791,-0.010601074152,0.0405918826819,-0.999081181588
102676000000,,163,,102,676000000,"""map""",,,0.00241823494434,0.00300292461179,0.0363881066442,,0.00872613027236,-0.0105760568694,0.0405363752824,-0.999084005427
102712000000,,164,,102,712000000,"""map""",,,0.00195126689505,0.00327445426956,0.0360786430538,,0.00869728001369,-0.0105094168573,0.0404606373957,-0.999088093671
102744000000,,165,,102,744000000,"""map""",,,0.00158583978191,0.00352809554897,0.0358302555978,,0.00868001972677,-0.0105125013151,0.040420766477,-0.999089779545
102776000000,,166,,102,776000000,"""map""",,,0.00126009783708,0.0037550709676,0.0356526076794,,0.00872152852797,-0.0104353375972,0.0403089930347,-0.999094752873
102812000000,,167,,102,812000000,"""map""",,,0.000943850085605,0.00405175564811,0.0355284921825,,0.00878757403899,-0.0104326532874,0.0402354889309,-0.999097113097
102844000000,,168,,102,844000000,"""map""",,,0.000478076573927,0.00431247055531,0.0352498814464,,0.00876578296586,-0.0104088243483,0.0401934263761,-0.999099304733
102876000000,,169,,102,876000000,"""map""",,,1.91239669221e-05,0.00458002509549,0.0349820405245,,0.00877190800601,-0.0102757292928,0.0400741507948,-0.999105373879
102912000000,,170,,102,912000000,"""map""",,,-0.000374070223188,0.00485105672851,0.0348378792405,,0.00897452630489,-0.0102566578851,0.0400418663089,-0.999105120998
102944000000,,171,,102,944000000,"""map""",,,-0.000714277732186,0.00511083425954,0.034765522927,,0.00895079120837,-0.0102598938081,0.0399997194604,-0.999106975459
102976000000,,172,,102,976000000,"""map""",,,-0.000989372958429,0.00529794907197,0.0348724722862,,0.00894668209644,-0.0102255900189,0.0398972604716,-0.999111485172
103012000000,,173,,103,12000000,"""map""",,,-0.00124363799114,0.00550655229017,0.034926045686,,0.0088998788855,-0.010225328371,0.0398350938701,-0.999114309011
103044000000,,174,,103,44000000,"""map""",,,-0.00154147262219,0.00535215716809,0.034651953727,,0.00886063687682,-0.0102283965298,0.0397612104446,-0.999117638612
103076000000,,175,,103,76000000,"""map""",,,-0.00181575620081,0.0050958590582,0.0342131480575,,0.00881020911923,-0.0101625266444,0.0396917945851,-0.999121473975
103112000000,,176,,103,112000000,"""map""",,,-0.00198381091468,0.00486127985641,0.0338131152093,,0.00878801674554,-0.0101612010766,0.0396026118537,-0.999125182898
103140000000,,177,,103,144000000,"""map""",,,-0.00211237231269,0.00465054623783,0.033482119441,,0.00872357149767,-0.0101200184196,0.0395999144554,-0.999126278716
103176000000,,178,,103,176000000,"""map""",,,-0.00220087449998,0.00449230801314,0.0331957675517,,0.00870951791092,-0.010166129953,0.0395653540396,-0.99912729024
103212000000,,179,,103,212000000,"""map""",,,-0.00225798483007,0.00435119727626,0.0328630395234,,0.00867016995888,-0.0101661232852,0.0394403043401,-0.99913264289
103244000000,,180,,103,244000000,"""map""",,,-0.00255501968786,0.00416034134105,0.0324278399348,,0.00863419992858,-0.0101960768529,0.0393808351368,-0.999134960967
103276000000,,181,,103,276000000,"""map""",,,-0.00288850232027,0.003970451653,0.0320379734039,,0.00865240802568,-0.0102019504113,0.0392696096036,-0.999139133505
103312000000,,182,,103,312000000,"""map""",,,-0.00315250526182,0.00380141404457,0.0317140929401,,0.00864089016456,-0.0102214010996,0.0391398816039,-0.999144106833
103344000000,,183,,103,344000000,"""map""",,,-0.00336043955758,0.00365310045891,0.0314415544271,,0.00860611555718,-0.0102318016577,0.039087830246,-0.999146340616
103376000000,,184,,103,376000000,"""map""",,,-0.0035051854793,0.00354939745739,0.031213471666,,0.0086233594628,-0.0102572103627,0.0389714627972,-0.999150513154
103412000000,,185,,103,412000000,"""map""",,,-0.00360980816185,0.00348859000951,0.0309856738895,,0.00858132390831,-0.0102433104638,0.0388738928429,-0.999154769986
103444000000,,186,,103,444000000,"""map""",,,-0.00371345249005,0.00330663355999,0.0305055566132,,0.00862376734881,-0.0102875709932,0.0388412711822,-0.999155275748
103476000000,,187,,103,476000000,"""map""",,,-0.00379869993776,0.00308445398696,0.0297996979207,,0.00857570652366,-0.0103129449601,0.038793476656,-0.999157298797
103512000000,,188,,103,512000000,"""map""",,,-0.00382683472708,0.00286823417991,0.0291004255414,,0.00857719376411,-0.0100974794868,0.0386239620313,-0.999165981047
103544000000,,189,,103,544000000,"""map""",,,-0.00377821433358,0.00262295547873,0.0284000281245,,0.00857285914184,-0.0101750719173,0.038551975214,-0.99916808839
103576000000,,190,,103,576000000,"""map""",,,-0.00369038013741,0.00236999802291,0.027745751664,,0.0086218469507,-0.0102454545201,0.0385070045266,-0.999168636299
103612000000,,191,,103,612000000,"""map""",,,-0.00352014601231,0.00207582046278,0.027085499838,,0.00867878191005,-0.010206204115,0.0384527615326,-0.999170617201
103644000000,,192,,103,644000000,"""map""",,,-0.00374100334011,0.00177030055784,0.0266017001122,,0.00870191987134,-0.0102181547221,0.0383751691845,-0.999173272452
103676000000,,193,,103,676000000,"""map""",,,-0.00399604719132,0.00142794672865,0.0261791776866,,0.00871583870342,-0.0102383853741,0.0382638593576,-0.999177276403
103712000000,,194,,103,712000000,"""map""",,,-0.00415334990248,0.00109512871131,0.0257074553519,,0.00869921226559,-0.010240853105,0.0380680450994,-0.999184862836
103744000000,,195,,103,744000000,"""map""",,,-0.00426044175401,0.00077129265992,0.0251102596521,,0.0086773074289,-0.010262511646,0.0379993457363,-0.999187391646
103776000000,,196,,103,776000000,"""map""",,,-0.00434876047075,0.000408066087402,0.0244542174041,,0.00868651371648,-0.0102613277476,0.0378697020303,-0.999192280681
103812000000,,197,,103,812000000,"""map""",,,-0.00442907214165,-6.42453524051e-05,0.0237167328596,,0.00868470988076,-0.0103099804397,0.0377816572638,-0.99919510452
103844000000,,198,,103,844000000,"""map""",,,-0.00494222156703,-0.000356003554771,0.0231590475887,,0.00866058122157,-0.0102524469457,0.037724548284,-0.999198096946
103876000000,,199,,103,876000000,"""map""",,,-0.00553506938741,-0.000603622407652,0.0226798597723,,0.00865801734317,-0.0102961435141,0.0376767537578,-0.999199445645
103912000000,,200,,103,912000000,"""map""",,,-0.00607691891491,-0.000851651304401,0.0221907179803,,0.00860724603114,-0.0102258980531,0.0375794788315,-0.999204250386
103944000000,,201,,103,944000000,"""map""",,,-0.00656667398289,-0.00111359276343,0.0216934774071,,0.00858322512631,-0.0102289271932,0.0375360675775,-0.999206104847
103976000000,,202,,103,976000000,"""map""",,,-0.00699320016429,-0.00137982901651,0.0212361756712,,0.00853593060001,-0.0102317159646,0.0374682954451,-0.999208970833
104012000000,,203,,104,12000000,"""map""",,,-0.00749765988439,-0.00170964584686,0.0204905178398,,0.00852054025023,-0.0101898221618,0.0374344936726,-0.999210825294
104044000000,,204,,104,44000000,"""map""",,,-0.00790698826313,-0.00189296377357,0.0203101225197,,0.00850987117065,-0.0101860862388,0.0373831166643,-0.99921289049
104076000000,,205,,104,76000000,"""map""",,,-0.00826835725456,-0.00203999504447,0.0201845560223,,0.00852560832644,-0.0101368858024,0.037264936901,-0.999217610937
104112000000,,206,,104,112000000,"""map""",,,-0.00857483036816,-0.00218257424422,0.0201264843345,,0.00855377501591,-0.0101707553226,0.0372249395418,-0.999218580314
104144000000,,207,,104,144000000,"""map""",,,-0.00881947856396,-0.00233371183276,0.0200702343136,,0.00857106353792,-0.0101002155746,0.0372018852157,-0.99921997116
104176000000,,208,,104,176000000,"""map""",,,-0.00901668891311,-0.00246665254235,0.020077014342,,0.00859637741258,-0.0100794074615,0.0371054532263,-0.999223595789
104212000000,,209,,104,212000000,"""map""",,,-0.00920769292861,-0.00265497621149,0.0200974326581,,0.00851889792254,-0.0101063410264,0.0370912918852,-0.99922452302
104244000000,,210,,104,244000000,"""map""",,,-0.00944042298943,-0.0027253893204,0.0199998561293,,0.00853473377769,-0.0101023523869,0.0370826939281,-0.999224691607
104276000000,,211,,104,276000000,"""map""",,,-0.00967581849545,-0.00279939454049,0.0198518037796,,0.00849303523335,-0.0100436163083,0.0370165655228,-0.999228105502
104312000000,,212,,104,312000000,"""map""",,,-0.00988899637014,-0.00293014966883,0.0197498016059,,0.00854847826011,-0.0100408212808,0.0369645984585,-0.999229580642
104344000000,,213,,104,344000000,"""map""",,,-0.0100672394037,-0.00309736537747,0.0196578484029,,0.00853043776259,-0.00998798921839,0.03694639102,-0.999230929341
104376000000,,214,,104,376000000,"""map""",,,-0.0102086775005,-0.00326776388101,0.0195325724781,,0.00857156024512,-0.0100262529592,0.0368471773386,-0.99923387962
104412000000,,215,,104,412000000,"""map""",,,-0.0103448741138,-0.00346026616171,0.019263189286,,0.00877998575411,-0.0100258524407,0.0367396185812,-0.999236071256
104444000000,,216,,104,444000000,"""map""",,,-0.0102791078389,-0.003507822752,0.0190809648484,,0.00879613371819,-0.0100482201107,0.0367125603044,-0.999236661312
104476000000,,217,,104,476000000,"""map""",,,-0.0101186903194,-0.00354184489697,0.0189488790929,,0.0088088757724,-0.00998950901564,0.0366696548127,-0.999238684361
104512000000,,218,,104,512000000,"""map""",,,-0.00993885751814,-0.00362539174967,0.0188938118517,,0.00880838742049,-0.0100423569243,0.0365678280267,-0.999241887522
104544000000,,219,,104,544000000,"""map""",,,-0.00974668655545,-0.00374276563525,0.0187947005033,,0.00885641585348,-0.0100477404022,0.0365309916811,-0.999242730459
104576000000,,220,,104,576000000,"""map""",,,-0.00952367018908,-0.00388031778857,0.0187163762748,,0.00883617824568,-0.0100497811081,0.0364669284713,-0.999245259269
104612000000,,221,,104,612000000,"""map""",,,-0.00920686963946,-0.00404074089602,0.0186827722937,,0.00881639178203,-0.0101405863286,0.036415003554,-0.999246439381
104644000000,,222,,104,644000000,"""map""",,,-0.00877934321761,-0.0042228247039,0.0185095369816,,0.00880330485629,-0.0101131490595,0.0363780407678,-0.999248167402
104676000000,,223,,104,676000000,"""map""",,,-0.0082891844213,-0.00440810248256,0.0182328764349,,0.00874930634691,-0.0101375828717,0.0363385913176,-0.999249853276
104712000000,,224,,104,712000000,"""map""",,,-0.00779152987525,-0.00458132335916,0.01796056889,,0.0086855937298,-0.0101548944428,0.0362847697921,-0.999252171353
104744000000,,225,,104,744000000,"""map""",,,-0.00729051837698,-0.00475540710613,0.0177440904081,,0.00868596095068,-0.010142927619,0.0361984108995,-0.99925541666
104776000000,,226,,104,776000000,"""map""",,,-0.0067771570757,-0.00494005996734,0.0175797250122,,0.00862088004273,-0.0101730121547,0.036120649964,-0.99925849338
104812000000,,227,,104,812000000,"""map""",,,-0.00617808056995,-0.00516512058675,0.0174958501011,,0.00865951339165,-0.0101732842982,0.0361024846722,-0.999258788408
104844000000,,228,,104,844000000,"""map""",,,-0.00579198822379,-0.00521636614576,0.0175560303032,,0.00863645462034,-0.010163058913,0.0360774494442,-0.999260052813
104876000000,,229,,104,872000000,"""map""",,,-0.00544108916074,-0.00523520587012,0.0176540147513,,0.00873922822871,-0.0101682747501,0.0359330964881,-0.999264309645
104912000000,,230,,104,912000000,"""map""",,,-0.00509221712127,-0.00525237200782,0.017605734989,,0.00872212763884,-0.0101364415318,0.0358814244518,-0.999266585575
104944000000,,231,,104,944000000,"""map""",,,-0.00471671298146,-0.00527816312388,0.017498286441,,0.00869424675768,-0.0101579872148,0.0358344728626,-0.999268355742
104976000000,,232,,104,976000000,"""map""",,,-0.0043610627763,-0.00527713121846,0.0174929481,,0.00872787525067,-0.0101206985314,0.0357751722467,-0.999270505232
105012000000,,233,,105,12000000,"""map""",,,-0.00390608329326,-0.00528910383582,0.0174771659076,,0.00874885203351,-0.0101399087686,0.0357354699154,-0.99927160105
105044000000,,234,,105,44000000,"""map""",,,-0.00364992883988,-0.00519362743944,0.0166953466833,,0.00874399246895,-0.0101712286515,0.0357468917114,-0.999270884553
105076000000,,235,,105,76000000,"""map""",,,-0.00340629322454,-0.00508206989616,0.0157622918487,,0.00876332581282,-0.010080036248,0.0357615166678,-0.999271095288
105108000000,,236,,105,108000000,"""map""",,,-0.00316480314359,-0.00499696936458,0.0148700904101,,0.00868553964684,-0.0101176419794,0.0357841916723,-0.999270589525
105144000000,,237,,105,144000000,"""map""",,,-0.00289389537647,-0.00489496579394,0.0139944804832,,0.00893358747396,-0.0101214966462,0.0357666164365,-0.999269030092
105176000000,,238,,105,176000000,"""map""",,,-0.00256125209853,-0.00479521183297,0.0132355224341,,0.00893779396817,-0.0101113224217,0.0357600415281,-0.999269282973
105212000000,,239,,105,212000000,"""map""",,,-0.00214198976755,-0.00468051852658,0.0123698394746,,0.00887395729774,-0.0101190774418,0.0357186954697,-0.999271263875
105244000000,,240,,105,244000000,"""map""",,,-0.0021814245265,-0.00425316393375,0.011682504788,,0.00885862555841,-0.0101216702961,0.0357046184223,-0.999271853931
105276000000,,241,,105,276000000,"""map""",,,-0.00230878428556,-0.00373401446268,0.0109274126589,,0.00879339211509,-0.0101292442165,0.0356597320286,-0.99927400342
105312000000,,242,,105,312000000,"""map""",,,-0.00238628056832,-0.00326205976307,0.0101467333734,,0.00885453941322,-0.0101413297019,0.0356202825784,-0.99927467777
105344000000,,243,,105,344000000,"""map""",,,-0.00241103116423,-0.00283930799924,0.0093265324831,,0.00885654488704,-0.0101085306869,0.0356000520912,-0.999275773588
105376000000,,244,,105,376000000,"""map""",,,-0.00239453557879,-0.00245893769898,0.00864471215755,,0.00883350793002,-0.0100264152081,0.0355479585864,-0.999278639573
105412000000,,245,,105,412000000,"""map""",,,-0.00233548344113,-0.00201295712031,0.00785157643259,,0.00883976772484,-0.00998446493514,0.0354952750258,-0.999280915503
105444000000,,246,,105,444000000,"""map""",,,-0.0023463065736,-0.00168011453934,0.00728145940229,,0.00883326253987,-0.0100104985989,0.035476856853,-0.999281379119
105476000000,,247,,105,476000000,"""map""",,,-0.00237133004703,-0.00135894748382,0.00674665812403,,0.00882350784934,-0.00997869517975,0.0354360165567,-0.999283191433
105512000000,,248,,105,512000000,"""map""",,,-0.0023445750121,-0.00108394573908,0.00621014460921,,0.00882973047756,-0.00998792200569,0.0353765895003,-0.999285130188
105544000000,,249,,105,544000000,"""map""",,,-0.00226794718765,-0.000810127996374,0.00547142978758,,0.00884012589073,-0.0099733198102,0.0353044762425,-0.99928778544
105576000000,,250,,105,576000000,"""map""",,,-0.00215003709309,-0.000574026140384,0.00475887628272,,0.00883608041066,-0.00994108080497,0.0352691993303,-0.999289344873
105612000000,,251,,105,612000000,"""map""",,,-0.00192406191491,-0.00030931076617,0.00386054255068,,0.00881901620537,-0.00991663826701,0.0352492217241,-0.999290524985
105644000000,,252,,105,644000000,"""map""",,,-0.00207071681507,-2.63538531726e-05,0.00255427067168,,0.00880533848289,-0.00981832259337,0.0352356082921,-0.999292084418
105676000000,,253,,105,676000000,"""map""",,,-0.00225081015378,0.00028286644374,0.00123777939007,,0.00883062284653,-0.00981622821604,0.0351717979634,-0.999294107467
105712000000,,254,,105,712000000,"""map""",,,-0.00235658325255,0.000618661171757,2.3126573069e-05,,0.0088323692654,-0.00961628624204,0.0351083669564,-0.999298195711
105744000000,,255,,105,744000000,"""map""",,,-0.00238451547921,0.000930572568905,-0.000965316372458,,0.00881373142685,-0.00965006665301,0.0351037308031,-0.999298195711
105776000000,,256,,105,776000000,"""map""",,,-0.00240337313153,0.00118501123507,-0.00191824510694,,0.00881378834979,-0.0096418529978,0.0350808029175,-0.999299122942
105812000000,,257,,105,812000000,"""map""",,,-0.00239986879751,0.00145852495916,-0.00311625772156,,0.0087926177079,-0.0096630341764,0.0350053600587,-0.999301736046
105844000000,,258,,105,844000000,"""map""",,,-0.00241079786792,0.00162066298071,-0.00395576888695,,0.00879120360705,-0.00966182331884,0.0349989115908,-0.999302031074
105876000000,,259,,105,876000000,"""map""",,,-0.00239630276337,0.0017858594656,-0.00466667907313,,0.00884150113746,-0.00968593473239,0.0349110775585,-0.999304391298
105912000000,,260,,105,912000000,"""map""",,,-0.00235453387722,0.0019434702117,-0.00523033365607,,0.00883034119527,-0.00972577955625,0.034849458866,-0.999306330053
105944000000,,261,,105,944000000,"""map""",,,-0.00226814532652,0.00205184402876,-0.00569402752444,,0.00878979938436,-0.00974412578307,0.0348025072768,-0.999308100221
105976000000,,262,,105,976000000,"""map""",,,-0.00216890755109,0.00215493538417,-0.00622525624931,,0.00879997978275,-0.00982153180424,0.0346864770028,-0.999311261234
106012000000,,263,,106,12000000,"""map""",,,-0.00201474945061,0.00225089583546,-0.00676217209548,,0.00876139249078,-0.00982098706445,0.0346548668664,-0.999312694227
106044000000,,264,,106,44000000,"""map""",,,-0.00199472112581,0.0021038800478,-0.00649026315659,,0.0087416822125,-0.00984564564617,0.034639146092,-0.999313157842
106076000000,,265,,106,76000000,"""map""",,,-0.00200596055947,0.00192497426178,-0.00614892784506,,0.00872806120717,-0.00985549319147,0.0345311237192,-0.999316993206
106112000000,,266,,106,112000000,"""map""",,,-0.00197475985624,0.00176943745464,-0.00594918383285,,0.00875274769471,-0.00987535328863,0.0345312923066,-0.999316487443
106144000000,,267,,106,144000000,"""map""",,,-0.00191076204646,0.00162816094235,-0.0058450489305,,0.00870425918606,-0.00985798207812,0.0345019159532,-0.999318131171
106176000000,,268,,106,176000000,"""map""",,,-0.00181862735189,0.0015046101762,-0.00576303107664,,0.0087180510837,-0.00979798406363,0.0344765435504,-0.99931947987
106192000000,,269,,106,192000000,"""map""",,,-0.00167735957075,0.00138241855893,-0.0056872786954,,0.00871555236004,-0.00975926185236,0.0344450598546,-0.999320955009
106244000000,,270,,106,244000000,"""map""",,,-0.00153481948655,0.00171392317861,-0.00533366436139,,0.0086914330028,-0.00973787446701,0.0344428260716,-0.999321502918
106276000000,,271,,106,276000000,"""map""",,,-0.00136850320268,0.00216067326255,-0.00486841844395,,0.00861237238855,-0.0096430727457,0.0343539805149,-0.999326139072
106312000000,,272,,106,312000000,"""map""",,,-0.00115306698717,0.00259839580394,-0.0044851754792,,0.00861037724564,-0.0097207675798,0.0343108642889,-0.999326855568
106344000000,,273,,106,344000000,"""map""",,,-0.000906868022867,0.00301386206411,-0.0040607615374,,0.00859167602218,-0.00964199236228,0.0342773996912,-0.999328962911
106376000000,,274,,106,376000000,"""map""",,,-0.00062168657314,0.00338753778487,-0.00354642933235,,0.00863934419017,-0.00965853886927,0.0342480233378,-0.999329426526
106412000000,,275,,106,412000000,"""map""",,,-0.000254598096944,0.00379880401306,-0.00295357964933,,0.00857285012801,-0.00960742215065,0.0342234938719,-0.999331280987
106444000000,,276,,106,444000000,"""map""",,,-0.000117165975098,0.00401452695951,-0.00262864981778,,0.00853971085128,-0.00961564342029,0.0342395096744,-0.999330943812
106476000000,,277,,106,476000000,"""map""",,,-2.78444349533e-06,0.00418744888157,-0.00235157716088,,0.00855593216076,-0.00955635856834,0.0342185626907,-0.999332081777
106512000000,,278,,106,512000000,"""map""",,,0.000162344629643,0.00432994356379,-0.00213020504452,,0.0085544266457,-0.00952790689374,0.0342029683567,-0.999332924714
106544000000,,279,,106,544000000,"""map""",,,0.000382850848837,0.00445987237617,-0.00193966634106,,0.00855632465329,-0.00946558347627,0.034216244614,-0.999333051155
106576000000,,280,,106,576000000,"""map""",,,0.000676247873344,0.00456325476989,-0.00163858721498,,0.00854558856681,-0.00941938970712,0.0341915887076,-0.999334357707
106612000000,,281,,106,612000000,"""map""",,,0.00105280324351,0.00472494354472,-0.00117870280519,,0.00860230793515,-0.00937171347197,0.034191209386,-0.999334399854
106644000000,,282,,106,644000000,"""map""",,,0.00120675645303,0.00498147727922,-0.000769348174799,,0.00872635191374,-0.00936853480111,0.0341399166713,-0.99933511635
106676000000,,283,,106,676000000,"""map""",,,0.00127199327108,0.00524119334295,-0.000268826581305,,0.00873625014639,-0.00940128917915,0.034106915689,-0.999335832847
106712000000,,284,,106,712000000,"""map""",,,0.00130360957701,0.00548753328621,0.0001921729272,,0.00871176192191,-0.00936669805873,0.0340761906364,-0.99933739228
106744000000,,285,,106,744000000,"""map""",,,0.00138542812783,0.00576786138117,0.00072405685205,,0.00871639196313,-0.00935657048796,0.0340738725597,-0.999337518721
106776000000,,286,,106,776000000,"""map""",,,0.00145788351074,0.00591540616006,0.00112002203241,,0.00864897320159,-0.00932794711846,0.0340425574513,-0.999339499623
106812000000,,287,,106,812000000,"""map""",,,0.00158704456408,0.00614899024367,0.00181788939517,,0.00866200073484,-0.00933554124793,0.0340651903089,-0.999338530245
106844000000,,288,,106,844000000,"""map""",,,0.00156703370158,0.00625311629847,0.00245697400533,,0.00864456749767,-0.00931665048712,0.0340478258073,-0.999339457476
106876000000,,289,,106,876000000,"""map""",,,0.00158763106447,0.006338018924,0.00303752836771,,0.00857089663805,-0.00932675204539,0.0339863335554,-0.999342028434
106912000000,,290,,106,912000000,"""map""",,,0.00166868325323,0.00644105486572,0.00362723739818,,0.00854436828384,-0.00929079374542,0.0339775670109,-0.999342955664
106944000000,,291,,106,944000000,"""map""",,,0.00178774492815,0.00657597789541,0.00411810260266,,0.00855026476789,-0.00929024332568,0.0339527003703,-0.999343714308
106976000000,,292,,106,976000000,"""map""",,,0.00193848344497,0.00671784114093,0.00449683424085,,0.00864629162893,-0.00928649435528,0.0339822031642,-0.99934194414
107012000000,,293,,107,12000000,"""map""",,,0.00212331232615,0.00686838896945,0.0048616132699,,0.00864870268385,-0.00923167501132,0.0340054682246,-0.999341606965
107044000000,,294,,107,44000000,"""map""",,,0.0022724790033,0.0069844503887,0.00510937394574,,0.00867101750566,-0.00922453568915,0.0339958165963,-0.999341817699
107076000000,,295,,107,76000000,"""map""",,,0.00245016301051,0.00708900392056,0.00521467020735,,0.00867732138181,-0.00912354364947,0.0339028406485,-0.999345863797
107112000000,,296,,107,112000000,"""map""",,,0.002655682154,0.00719098001719,0.00516396947205,,0.00866643380951,-0.0091147618144,0.0339221860519,-0.999345400182
107144000000,,297,,107,144000000,"""map""",,,0.00247736717574,0.00719492696226,0.0048101679422,,0.00867010808142,-0.00883936285888,0.0339309104496,-0.999347549671
107176000000,,298,,107,176000000,"""map""",,,0.00202376674861,0.0071318782866,0.00460735475644,,0.00875751909148,-0.0088799689499,0.0338689124354,-0.999348519048
107212000000,,299,,107,212000000,"""map""",,,0.00153918040451,0.00704973982647,0.00434570433572,,0.00868181225405,-0.00892818682248,0.0337932588423,-0.999351258593
107244000000,,300,,107,244000000,"""map""",,,0.00123360252474,0.00697773043066,0.00412570592016,,0.00872593303828,-0.00891099655736,0.0338187998325,-0.999350162775
107276000000,,301,,107,276000000,"""map""",,,0.000984798884019,0.0069280769676,0.00394614506513,,0.00877375395772,-0.00895838273453,0.0337794768229,-0.999350710684
107312000000,,302,,107,312000000,"""map""",,,0.000783138268162,0.0068729124032,0.00389357819222,,0.00880162344811,-0.00896931995491,0.0337099345228,-0.999352649439
107344000000,,303,,107,344000000,"""map""",,,0.000857636914589,0.006802840624,0.00371972261928,,0.00883685476639,-0.00899885648898,0.0336839720641,-0.999352986614
107376000000,,304,,107,376000000,"""map""",,,0.00117422477342,0.00670583127066,0.00348401186056,,0.00883669689064,-0.00901833474351,0.0337019687685,-0.999352185824
107412000000,,305,,107,412000000,"""map""",,,0.00154976837803,0.00663745310158,0.00311980838887,,0.00876801668709,-0.00895738177775,0.0336783665333,-0.999354124579
107444000000,,306,,107,444000000,"""map""",,,0.00183173385449,0.00662157544866,0.00270062685013,,0.00874633576582,-0.00898546243455,0.033659526892,-0.999354756782
107476000000,,307,,107,476000000,"""map""",,,0.00211220677011,0.00663444120437,0.00229804543778,,0.00866744292607,-0.00896763220823,0.0336343230766,-0.999356358362
107512000000,,308,,107,512000000,"""map""",,,0.00241133756936,0.00668759318069,0.00179062807001,,0.0087289689902,-0.0089986658918,0.0336186023021,-0.999356147628
107544000000,,309,,107,544000000,"""map""",,,0.00249956268817,0.00670030014589,0.00144666049164,,0.00874819143105,-0.00896596567904,0.033595252948,-0.999357074859
107576000000,,310,,107,576000000,"""map""",,,0.00240418524481,0.00665325811133,0.00131867663004,,0.00870394239529,-0.00893963981697,0.0335634742243,-0.999358760732
107612000000,,311,,107,612000000,"""map""",,,0.00233625224791,0.00662548234686,0.00104931159876,,0.00873828183851,-0.00897104945742,0.0335477955966,-0.999358676439
107644000000,,312,,107,644000000,"""map""",,,0.00231912033632,0.00659866072237,0.000763355928939,,0.00867549144097,-0.00897038118909,0.0335044264895,-0.999360657341
107676000000,,313,,107,676000000,"""map""",,,0.00233860081062,0.00658250367269,0.000406267179642,,0.00870166862632,-0.00898275519924,0.0334388459932,-0.999362511802
107712000000,,314,,107,712000000,"""map""",,,0.00237544812262,0.00658321240917,-9.57778684096e-06,,0.00872975548784,-0.00897078950727,0.0334001973331,-0.999363734061
107744000000,,315,,107,744000000,"""map""",,,0.00239237910137,0.00655794003978,-0.000584707828239,,0.0087676747996,-0.00903756691848,0.033363782456,-0.999363986942
107776000000,,316,,107,776000000,"""map""",,,0.00237539131194,0.00648987712339,-0.00118219456635,,0.00876325517364,-0.00896861283245,0.033276412039,-0.999367569424
107812000000,,317,,107,812000000,"""map""",,,0.00242035696283,0.00642340164632,-0.00190296920482,,0.00880110924832,-0.00902679562045,0.0332049731308,-0.999369044564
107844000000,,318,,107,844000000,"""map""",,,0.00247835274786,0.00641873013228,-0.00254258047789,,0.00879211760509,-0.00898191568876,0.0331936777754,-0.9993698875
107876000000,,319,,107,876000000,"""map""",,,0.00254793767817,0.00643936777487,-0.0033227193635,,0.00884044988948,-0.00899913887595,0.0331519945422,-0.999370772584
107912000000,,320,,107,912000000,"""map""",,,0.0026583885774,0.00645244680345,-0.0040144380182,,0.00888723258007,-0.00897247472009,0.0331294459783,-0.999371320493
107944000000,,321,,107,944000000,"""map""",,,0.00273200194351,0.0064249355346,-0.00454178871587,,0.00888446858902,-0.0089871860256,0.0331207637275,-0.999371489081
107976000000,,322,,107,976000000,"""map""",,,0.0027657810133,0.00631894823164,-0.00502493046224,,0.00889844815126,-0.00895669806964,0.0331315111739,-0.999371278346
108012000000,,323,,108,12000000,"""map""",,,0.00282955472358,0.00622862298042,-0.00563227524981,,0.00893499444216,-0.00893762691579,0.0331249784123,-0.999371320493
108044000000,,324,,108,44000000,"""map""",,,0.00289842765778,0.00617596460506,-0.00601331749931,,0.0089391964731,-0.0089438272539,0.0330972879329,-0.999372205577
108076000000,,325,,108,76000000,"""map""",,,0.00298075098544,0.00617690198123,-0.006387360394,,0.00894339081189,-0.00892338003666,0.0330265655211,-0.999374650094
108112000000,,326,,108,112000000,"""map""",,,0.00312087591738,0.00619501899928,-0.00676075881347,,0.00890028454281,-0.00890099800569,0.0329948289441,-0.999376293821
108144000000,,327,,108,144000000,"""map""",,,0.00321105355397,0.00625013187528,-0.00700175855309,,0.00891490259128,-0.00891217646268,0.0330020360552,-0.999375830206
108176000000,,328,,108,176000000,"""map""",,,0.00319695868529,0.0063249906525,-0.00721753295511,,0.00892046630906,-0.0088639021823,0.0329918786648,-0.999376546703
108212000000,,329,,108,212000000,"""map""",,,0.00324486987665,0.00647351518273,-0.00761738047004,,0.00910216414608,-0.00887749176785,0.0329551266129,-0.999375956647
108244000000,,330,,108,244000000,"""map""",,,0.00332819763571,0.00662831636146,-0.00786304473877,,0.00907921902514,-0.00886649023649,0.0329236007702,-0.999377305346
108276000000,,331,,108,276000000,"""map""",,,0.00345221185125,0.00680669443682,-0.00810056831688,,0.00902907864506,-0.00892942877054,0.0328723923492,-0.999378949073
108312000000,,332,,108,312000000,"""map""",,,0.00360551127233,0.00702671753243,-0.00832010246813,,0.00904025327588,-0.00899550667886,0.0328354295631,-0.999379412688
108340000000,,333,,108,340000000,"""map""",,,0.00372853665613,0.00709954323247,-0.00832947995514,,0.00905257031678,-0.00897165984072,0.032777309059,-0.999381477884
108376000000,,334,,108,376000000,"""map""",,,0.00382924452424,0.00704205827788,-0.00827092304826,,0.0090651841143,-0.00893448101596,0.0327725464651,-0.999381857205
108412000000,,335,,108,412000000,"""map""",,,0.00394813204184,0.00698718475178,-0.00822431780398,,0.00912056709003,-0.00897111251306,0.0327580479492,-0.999381435737
108444000000,,336,,108,444000000,"""map""",,,0.00407258840278,0.00693083042279,-0.00809189863503,,0.00908072606309,-0.00895167531466,0.0327170812125,-0.999383374492
108476000000,,337,,108,476000000,"""map""",,,0.00424407795072,0.00688298558816,-0.00812753289938,,0.00907656720532,-0.00900121447448,0.0326971457531,-0.999383585226
108512000000,,338,,108,512000000,"""map""",,,0.00444630905986,0.0068357991986,-0.00821630097926,,0.00895259753808,-0.00896652759886,0.0326340519209,-0.999387083415
108544000000,,339,,108,544000000,"""map""",,,0.00460454868153,0.00680013280362,-0.00784442480654,,0.00892446025545,-0.00898267146891,0.0326198062861,-0.999387673471
108576000000,,340,,108,576000000,"""map""",,,0.00470835436136,0.00679209316149,-0.00700268009678,,0.00884814597502,-0.00896776416409,0.0325696515364,-0.999390117988
108612000000,,341,,108,612000000,"""map""",,,0.00482432730496,0.00681972131133,-0.00601270515472,,0.0088594179984,-0.00899643813348,0.0324802159238,-0.999392646799
108644000000,,342,,108,644000000,"""map""",,,0.00495327264071,0.00683619454503,-0.00533774495125,,0.00879612829549,-0.00901106139725,0.0324006426738,-0.999395681372
108676000000,,343,,108,676000000,"""map""",,,0.00510172778741,0.00688638864085,-0.00459274230525,,0.00880763337674,-0.00896416086578,0.0323855119552,-0.999396482162
108712000000,,344,,108,712000000,"""map""",,,0.00526293832809,0.00694878725335,-0.00377306970768,,0.00879520687339,-0.00892516031141,0.0323374224011,-0.999398463064
108744000000,,345,,108,744000000,"""map""",,,0.0054654465057,0.00699886633083,-0.00305460765958,,0.00877289221107,-0.00893871633178,0.0323158853615,-0.999399263854
108776000000,,346,,108,776000000,"""map""",,,0.00564503809437,0.00706565007567,-0.00247027468868,,0.00877049245945,-0.00873808944577,0.0322822521764,-0.99940212984
108812000000,,347,,108,812000000,"""map""",,,0.00591991655529,0.00715420208871,-0.0017594199162,,0.00879564576758,-0.00872268786471,0.0322814935331,-0.999402045546
108844000000,,348,,108,844000000,"""map""",,,0.0061458251439,0.00725245894864,-0.0013114598114,,0.00880901895438,-0.00871755175261,0.032300164587,-0.999401413343
108876000000,,349,,108,876000000,"""map""",,,0.00639483472332,0.0073610492982,-0.000911938841455,,0.00877713503841,-0.00871141525996,0.0323163911237,-0.999401202609
108912000000,,350,,108,912000000,"""map""",,,0.00668668188155,0.00746117020026,-0.000579900457524,,0.00875482115746,-0.00873626190308,0.0323097740685,-0.999401413343
108944000000,,351,,108,944000000,"""map""",,,0.00673412065953,0.0074267052114,-0.000194082414964,,0.00874802155519,-0.00874083035656,0.0323258741646,-0.999400907581
108976000000,,352,,108,976000000,"""map""",,,0.00657663587481,0.00727820815518,0.00032972462941,,0.00876174149108,-0.00872330535051,0.0323296673809,-0.999400823287
109012000000,,353,,109,12000000,"""map""",,,0.00643055234104,0.00715362560004,0.00101970601827,,0.00880365693065,-0.00873271686989,0.0322990266221,-0.999401371196
109044000000,,354,,109,44000000,"""map""",,,0.00635580066592,0.00710303895175,0.00147896818817,,0.00881430828097,-0.00875877410753,0.0322936318255,-0.999401202609
109072000000,,355,,109,72000000,"""map""",,,0.00632916996256,0.00707911793143,0.00187550624833,,0.00883840799764,-0.00878667043104,0.03227150473,-0.999401497637
109112000000,,356,,109,112000000,"""map""",,,0.00635091820732,0.00709389476106,0.00217448640615,,0.00884820696242,-0.00880349510363,0.032279849806,-0.999400991875
109144000000,,357,,109,144000000,"""map""",,,0.00634272396564,0.00699243089184,0.00234016752802,,0.00880327217281,-0.00879390109089,0.0322805663024,-0.999401371196
109176000000,,358,,109,176000000,"""map""",,,0.00632294034585,0.00680633727461,0.0024143315386,,0.00881706030824,-0.00881013468248,0.0322201698685,-0.999403099217
109212000000,,359,,109,212000000,"""map""",,,0.00635400088504,0.0066313110292,0.00245971884578,,0.00884633908324,-0.00876605577821,0.0322387987756,-0.999402677749
109244000000,,360,,109,244000000,"""map""",,,0.0064283576794,0.00657256180421,0.00250685401261,,0.00886950105568,-0.00874287800071,0.0322174724702,-0.999403267805
109276000000,,361,,109,276000000,"""map""",,,0.0065478021279,0.00657226564363,0.00255268579349,,0.00880212227499,-0.00870510961398,0.0322188633162,-0.999404152888
109312000000,,362,,109,312000000,"""map""",,,0.00671784719452,0.00665219360963,0.00255772680975,,0.00878249084455,-0.00870824318741,0.0321806361246,-0.999405543734
109344000000,,363,,109,344000000,"""map""",,,0.00680807325989,0.00671154586598,0.00270117493346,,0.00873641383071,-0.00866525205654,0.0321550951344,-0.999407145315
109376000000,,364,,109,376000000,"""map""",,,0.00685472926125,0.00673035439104,0.00300677865744,,0.00870259765126,-0.00867105770389,0.032078430017,-0.99940988486
109412000000,,365,,109,412000000,"""map""",,,0.00696499925107,0.00678050192073,0.00329721206799,,0.00867673084167,-0.00866688961556,0.0320844991632,-0.999409969153
109444000000,,366,,109,444000000,"""map""",,,0.00707406178117,0.00683239242062,0.00342626241036,,0.00867692784101,-0.00869588194299,0.0320589160261,-0.999410517062
109476000000,,367,,109,476000000,"""map""",,,0.0071885259822,0.00691245961934,0.0035358867608,,0.00867142645537,-0.00869367045535,0.0319854119223,-0.99941296158
109512000000,,368,,109,512000000,"""map""",,,0.00732794683427,0.00703199440613,0.00364870019257,,0.00872721117541,-0.00866472932655,0.031996622984,-0.99941228723
109544000000,,369,,109,544000000,"""map""",,,0.00750186759979,0.00706510338932,0.00389395537786,,0.00876817237113,-0.00870945530803,0.032009983535,-0.999411149265
109576000000,,370,,109,576000000,"""map""",,,0.00773089472204,0.00703354179859,0.00412517040968,,0.00877746876098,-0.00864540621069,0.0319962858092,-0.999412118643
109612000000,,371,,109,612000000,"""map""",,,0.00806286092848,0.00708682043478,0.00435517961159,,0.00882832197433,-0.0086439728114,0.0319442765982,-0.999413298754
109644000000,,372,,109,644000000,"""map""",,,0.00837574992329,0.00719496235251,0.00445141224191,,0.00882782885826,-0.00860150775212,0.0319310003409,-0.999414099545
109676000000,,373,,109,676000000,"""map""",,,0.0087184663862,0.00735074887052,0.00448309676722,,0.00882454193915,-0.00859955397405,0.0318826157588,-0.999415701125
109712000000,,374,,109,712000000,"""map""",,,0.00906129926443,0.00753815844655,0.00437820190564,,0.00884594791809,-0.00839425866087,0.0319089575391,-0.999416417621
109744000000,,375,,109,744000000,"""map""",,,0.00911453831941,0.00766431679949,0.0044621177949,,0.00886168735821,-0.00837860483154,0.0318918037718,-0.99941696553
109776000000,,376,,109,776000000,"""map""",,,0.00885753985494,0.00777512881905,0.0046510156244,,0.00888225493796,-0.00837568229334,0.0318533236991,-0.999418019201
109812000000,,377,,109,812000000,"""map""",,,0.00860335957259,0.00796778127551,0.00487107876688,,0.00885907651734,-0.00839848797776,0.0318252960448,-0.999418904285
109844000000,,378,,109,844000000,"""map""",,,0.00848755612969,0.00815623253584,0.00501950783655,,0.00888216753676,-0.00841559056385,0.0318486453989,-0.999417808467
109876000000,,379,,109,876000000,"""map""",,,0.00842463038862,0.00840310007334,0.00515897199512,,0.00888482282937,-0.00844968600605,0.0317737925959,-0.99941991581
109912000000,,380,,109,912000000,"""map""",,,0.00837582722306,0.00870536733419,0.00521796522662,,0.00886854638737,-0.00851516494242,0.0317363661945,-0.999420674453
109944000000,,381,,109,944000000,"""map""",,,0.00826638191938,0.00905036274344,0.0053547504358,,0.00887695184367,-0.00849870812096,0.0317267988598,-0.999421053775
109972000000,,382,,109,972000000,"""map""",,,0.00809211842716,0.00945734325796,0.00552107486874,,0.00886381927257,-0.00846160033155,0.0316153204455,-0.999424973431
110012000000,,383,,110,12000000,"""map""",,,0.00789130944759,0.00999080296606,0.00572539726272,,0.00885750831708,-0.00848684049038,0.0315855226236,-0.999425774222
110044000000,,384,,110,44000000,"""map""",,,0.00772451609373,0.0104259811342,0.00586047582328,,0.00883546605037,-0.00848962559858,0.0315913810356,-0.999425816368
110076000000,,385,,110,76000000,"""map""",,,0.00759325455874,0.0108948117122,0.00601148651913,,0.00884748529024,-0.00853222077185,0.0315996418179,-0.999425057725
110112000000,,386,,110,112000000,"""map""",,,0.007506090682,0.0113785080612,0.00616417825222,,0.00884405540523,-0.00851345375567,0.0315776833098,-0.999425942809
110144000000,,387,,110,144000000,"""map""",,,0.00734852300957,0.011497952044,0.00639079604298,,0.00884271605947,-0.00851650795133,0.0315653342832,-0.999426322131
110176000000,,388,,110,176000000,"""map""",,,0.00709324982017,0.0112895322964,0.00667251972482,,0.00889340131825,-0.00850124843582,0.0315791584495,-0.999425563487
110212000000,,389,,110,212000000,"""map""",,,0.00694081140682,0.011213353835,0.00693417945877,,0.00888063854047,-0.00843190520143,0.0314669213919,-0.999429820319
110244000000,,390,,110,244000000,"""map""",,,0.00681977020577,0.0111904833466,0.00710621383041,,0.00892259492556,-0.00838137061558,0.0314450050307,-0.999430578962
110276000000,,391,,110,276000000,"""map""",,,0.00670079514384,0.0111927660182,0.00722758099437,,0.00889742613648,-0.00835108995708,0.0314037011192,-0.99943234913
110312000000,,392,,110,312000000,"""map""",,,0.00659130699933,0.0112391589209,0.00736145488918,,0.00891002075904,-0.00834882658077,0.0312904946841,-0.999435805172
110344000000,,393,,110,344000000,"""map""",,,0.00652573490515,0.0111926132813,0.00742893386632,,0.00892480144067,-0.0083208236425,0.031288850957,-0.999435931612
110376000000,,394,,110,376000000,"""map""",,,0.00653534149751,0.011102010496,0.00738907232881,,0.00891784249796,-0.0083087427464,0.0311933461982,-0.999439050479
110412000000,,395,,110,412000000,"""map""",,,0.00657730083913,0.0111032882705,0.0071629001759,,0.00890712744374,-0.00815220461775,0.0311872770521,-0.999440652059
110444000000,,396,,110,444000000,"""map""",,,0.00668296637014,0.0112114995718,0.00708148768172,,0.00886560987567,-0.00815739028531,0.0311215279684,-0.999443012283
110476000000,,397,,110,476000000,"""map""",,,0.00679581100121,0.0113777033985,0.00693377526477,,0.00886208839123,-0.00823405762534,0.0311428121269,-0.999441790024
110512000000,,398,,110,512000000,"""map""",,,0.00692778034136,0.0115608051419,0.00677140802145,,0.00888074026501,-0.00821008602903,0.0311139415357,-0.999442675108
110544000000,,399,,110,544000000,"""map""",,,0.00725274533033,0.0115999979898,0.00643459474668,,0.00886925030971,-0.00823697012075,0.0311275971146,-0.999442169346
110576000000,,400,,110,576000000,"""map""",,,0.00773656228557,0.0115514565259,0.00593492854387,,0.00886081822351,-0.00829184144856,0.0310707831628,-0.999443602339
110612000000,,401,,110,612000000,"""map""",,,0.00834029819816,0.0116109447554,0.00534076197073,,0.00890764752927,-0.00828444051958,0.0310151071759,-0.999444908891
110644000000,,402,,110,644000000,"""map""",,,0.0088420342654,0.0117050874978,0.00494503136724,,0.00890967755445,-0.00830558730981,0.0309904512695,-0.9994454568
110676000000,,403,,110,676000000,"""map""",,,0.00930729042739,0.0118339192122,0.00455768918619,,0.00891227088215,-0.00831659029203,0.0310161187003,-0.999444571716
110712000000,,404,,110,712000000,"""map""",,,0.00973260775208,0.0120006781071,0.00412671873346,,0.0089385865059,-0.00834026873315,0.0309668911812,-0.999445667534
110744000000,,405,,110,744000000,"""map""",,,0.0100028347224,0.0121015794575,0.00369475898333,,0.0089494662374,-0.00836290101457,0.0309214147317,-0.999446805499
110776000000,,406,,110,776000000,"""map""",,,0.0101565988734,0.0121533088386,0.00334627088159,,0.0089392266729,-0.00838602170964,0.0308832718338,-0.99944785917
110812000000,,407,,110,812000000,"""map""",,,0.0103591913357,0.0123068932444,0.00281675928272,,0.00897425204168,-0.0083304392155,0.0308793521768,-0.999448154198
110844000000,,408,,110,844000000,"""map""",,,0.0105512011796,0.0124732106924,0.00248280283995,,0.0089290349352,-0.00833408899264,0.0308849577077,-0.999448364932
110876000000,,409,,110,876000000,"""map""",,,0.0107836378738,0.0127004412934,0.00220480398275,,0.00899466891764,-0.00832777011403,0.0308672138845,-0.999448407079
110912000000,,410,,110,912000000,"""map""",,,0.0110132517293,0.0129608884454,0.00190854584798,,0.00890499003465,-0.00834125408037,0.0308852105888,-0.99944853352
110944000000,,411,,110,944000000,"""map""",,,0.0111026419327,0.0130002060905,0.0018093616236,,0.00894528170154,-0.00836268779021,0.0308549491516,-0.999448870695
110976000000,,412,,110,976000000,"""map""",,,0.0110749173909,0.0128476973623,0.00186373793986,,0.00889449450213,-0.00829831531151,0.0308533897182,-0.999449924366
111012000000,,413,,111,12000000,"""map""",,,0.0111302370206,0.0127847716212,0.00200356123969,,0.00895890097819,-0.0083219035526,0.030855665648,-0.999449081429
111044000000,,414,,111,36000000,"""map""",,,0.0112325148657,0.0128155639395,0.00212681037374,,0.00896678140989,-0.00829488186624,0.0308405770762,-0.999449671485
111076000000,,415,,111,76000000,"""map""",,,0.0113669726998,0.0128947682679,0.00211139325984,,0.00896370728296,-0.00829037614587,0.0308278065811,-0.9994501351
111112000000,,416,,111,112000000,"""map""",,,0.0114978495985,0.0130506390706,0.00206898432225,,0.00887960884439,-0.00818207948935,0.0308117486318,-0.999452284589
111144000000,,417,,111,144000000,"""map""",,,0.0115419346839,0.0130746280774,0.0020696290303,,0.00882168621234,-0.0081950485562,0.0308017598287,-0.999453001086
111176000000,,418,,111,176000000,"""map""",,,0.0115013113245,0.0129982680082,0.00208907388151,,0.00878209173828,-0.00815545963861,0.0307949320393,-0.999453928316
111212000000,,419,,111,212000000,"""map""",,,0.0114979352802,0.0129825705662,0.00209121778607,,0.00877507093354,-0.00811504943371,0.0307666515039,-0.999455150575
111244000000,,420,,111,244000000,"""map""",,,0.0115158995613,0.0130108809099,0.0019937872421,,0.00876818136438,-0.00816970587021,0.0307757130764,-0.999454518372
111276000000,,421,,111,276000000,"""map""",,,0.0115555245429,0.0130843827501,0.00187395920511,,0.00873669266772,-0.00809252813761,0.0307223130193,-0.999457005036
111312000000,,422,,111,312000000,"""map""",,,0.01160771586,0.013231405057,0.00179640587885,,0.00870110667177,-0.00805985204405,0.030722397313,-0.999457595092
111344000000,,423,,111,344000000,"""map""",,,0.0115848025307,0.0132609885186,0.00169695261866,,0.00867287423074,-0.00802780922334,0.0307397618146,-0.999457595092
111376000000,,424,,111,376000000,"""map""",,,0.0115533368662,0.0131818465889,0.00153337675147,,0.00891357941008,-0.00802564730404,0.0306985000499,-0.999456794302
111412000000,,425,,111,412000000,"""map""",,,0.0115373777226,0.0131761655211,0.00150984246284,,0.00889030101418,-0.00804072023537,0.0306866989323,-0.999457215771
111444000000,,426,,111,444000000,"""map""",,,0.0115201072767,0.0132122961804,0.00159160909243,,0.00879649521797,-0.00803248456008,0.0306671006477,-0.99945869091
111476000000,,427,,111,476000000,"""map""",,,0.011533039622,0.0132906064391,0.00163193442859,,0.00886655772701,-0.00812416585055,0.0306329195536,-0.999458395882
111512000000,,428,,111,512000000,"""map""",,,0.0115444203839,0.0134144369513,0.00165755173657,,0.00883681872137,-0.00813086106676,0.0306078000319,-0.999459407407
111544000000,,429,,111,544000000,"""map""",,,0.0113945221528,0.0133506553248,0.00178696704097,,0.00884613362764,-0.00813794655292,0.0306179574224,-0.999458859498
111572000000,,430,,111,576000000,"""map""",,,0.01106109377,0.0131094614044,0.001970048761,,0.00873980192388,-0.00812907511464,0.0306415596575,-0.999459196672
111612000000,,431,,111,612000000,"""map""",,,0.0106945605949,0.0129039548337,0.00214778305963,,0.00874433281299,-0.00812019651468,0.0306384407908,-0.999459280966
111644000000,,432,,111,644000000,"""map""",,,0.0104241520166,0.012827555649,0.00225485116243,,0.00874493962059,-0.00816495156988,0.0306269347011,-0.999459323113
111676000000,,433,,111,676000000,"""map""",,,0.0101455049589,0.0128121199086,0.00222385372035,,0.00876310701141,-0.00817746708478,0.0306223406946,-0.999459196672
111712000000,,434,,111,712000000,"""map""",,,0.00986930076033,0.0128846140578,0.00219307886437,,0.0087501458471,-0.00818769660647,0.0305801938461,-0.999460545372
111744000000,,435,,111,744000000,"""map""",,,0.00947004836053,0.0129206757993,0.00206070113927,,0.00870324951386,-0.00824794822233,0.0305765270703,-0.999460503225
111776000000,,436,,111,776000000,"""map""",,,0.0088276239112,0.0129047539085,0.00181699614041,,0.00873192274753,-0.00827479424195,0.0305624500229,-0.999460503225
111812000000,,437,,111,812000000,"""map""",,,0.00834173057228,0.0129603361711,0.00163317902479,,0.00872052021401,-0.00821524519018,0.0305157091679,-0.999462484127
111844000000,,438,,111,844000000,"""map""",,,0.00790131278336,0.0130607644096,0.00154579605442,,0.00872715138677,-0.00823781519799,0.0304810644584,-0.999463327064
111876000000,,439,,111,876000000,"""map""",,,0.00746253039688,0.0131934564561,0.00155886856373,,0.00871374265915,-0.00815926213634,0.0304530368042,-0.999464970791
111912000000,,440,,111,912000000,"""map""",,,0.00708116823807,0.0133438128978,0.00155656621791,,0.00876260229878,-0.00812944760388,0.030428591632,-0.999465476553
111944000000,,441,,111,944000000,"""map""",,,0.00670463545248,0.0135319121182,0.00140280136839,,0.00876386388485,-0.00791378236526,0.0303649077439,-0.999469143329
111976000000,,442,,111,976000000,"""map""",,,0.00636412203312,0.0137628344819,0.00130759854801,,0.00884936362382,-0.0079186928847,0.0304029663481,-0.999467162427
112012000000,,443,,112,12000000,"""map""",,,0.00594131229445,0.0140849221498,0.00109513581265,,0.00886204661481,-0.00793000330431,0.0303903644404,-0.999467373161
112044000000,,444,,112,44000000,"""map""",,,0.00567816570401,0.0141854407266,0.000981048680842,,0.0089007221929,-0.00791071264236,0.0303824408329,-0.999467457455
112076000000,,445,,112,76000000,"""map""",,,0.00542737962678,0.014269342646,0.000972748617642,,0.00887649125353,-0.00789702590605,0.03042888666,-0.999466361637
112112000000,,446,,112,112000000,"""map""",,,0.00514635257423,0.0144001115113,0.000993153546005,,0.00885828788972,-0.00799309162122,0.0304384961414,-0.999465434406
112144000000,,447,,112,144000000,"""map""",,,0.00484100123867,0.0145981293172,0.00103900465183,,0.00884802846599,-0.00805283803055,0.0304661023272,-0.999464212147
112176000000,,448,,112,176000000,"""map""",,,0.00453915540129,0.0148483095691,0.00105314981192,,0.00882468491533,-0.00808782596519,0.0304471783922,-0.999464760056
112212000000,,449,,112,212000000,"""map""",,,0.00418022414669,0.0152126634493,0.00109762325883,,0.00880161011258,-0.00813212697452,0.0304014490616,-0.999465982315
112244000000,,450,,112,244000000,"""map""",,,0.00393559737131,0.0152138741687,0.00126763351727,,0.0088111464956,-0.00815678749071,0.0304148517594,-0.999465307966
112276000000,,451,,112,276000000,"""map""",,,0.00370663893409,0.0151555119082,0.00144292588811,,0.00876649077773,-0.00809679126664,0.030404399341,-0.999466488077
112312000000,,452,,112,312000000,"""map""",,,0.00347988004796,0.0151496082544,0.00152154779062,,0.00880108407957,-0.00808360329549,0.030415526109,-0.999465898021
112344000000,,453,,112,344000000,"""map""",,,0.00323387864046,0.0151872448623,0.00157971470617,,0.00886013675342,-0.00809131913221,0.0304038092851,-0.999465729434
112376000000,,454,,112,376000000,"""map""",,,0.00295955012552,0.0152704445645,0.00154386542272,,0.00887610847453,-0.00812737901268,0.0303714405054,-0.999466235196
112412000000,,455,,112,412000000,"""map""",,,0.00261021102779,0.0154091222212,0.00159789866302,,0.00888565263661,-0.00811461983631,0.0303272284613,-0.999467626042
112444000000,,456,,112,444000000,"""map""",,,0.00254966737702,0.0150252869353,0.00212030415423,,0.0088807559466,-0.00810506674273,0.030317576833,-0.999468005364
112476000000,,457,,112,476000000,"""map""",,,0.00255182594992,0.0145748946816,0.00275584030896,,0.00888094408454,-0.00820104849347,0.0303413476556,-0.999466488077
112512000000,,458,,112,512000000,"""map""",,,0.00249695940875,0.0142172453925,0.00310620549135,,0.00885635810735,-0.00803893710264,0.0302381721704,-0.999471208524
112544000000,,459,,112,544000000,"""map""",,,0.0024453944061,0.0139509076253,0.00354581745341,,0.00887301339766,-0.00807687646913,0.0301993127761,-0.999471882874
112576000000,,460,,112,576000000,"""map""",,,0.00235529965721,0.0137506909668,0.00390711380169,,0.00892546827872,-0.00819342123098,0.0302033167267,-0.999470407734
112612000000,,461,,112,612000000,"""map""",,,0.00220923940651,0.013624808751,0.0042862710543,,0.00892985299153,-0.00821567596061,0.0301802202537,-0.999470829203
112644000000,,462,,112,644000000,"""map""",,,0.00229277834296,0.0134990243241,0.00480864290148,,0.00891294747489,-0.00825892194048,0.0301807681628,-0.999470618468
112676000000,,463,,112,676000000,"""map""",,,0.00241164700128,0.0134158385918,0.00538963219151,,0.00892653400953,-0.00830794981766,0.0300883822708,-0.999472894398
112712000000,,464,,112,712000000,"""map""",,,0.00246632494964,0.0134036326781,0.00598095078021,,0.0089357605062,-0.00839060213365,0.0300896466763,-0.999472051461
112744000000,,465,,112,744000000,"""map""",,,0.00250678602606,0.0134357009083,0.00651482213289,,0.00893112741921,-0.00842007156821,0.0300817652156,-0.999472093608
112776000000,,466,,112,776000000,"""map""",,,0.00252555520274,0.0135024785995,0.00694904476404,,0.0088980724156,-0.00842210780841,0.0300100734263,-0.999474580272
112812000000,,467,,112,812000000,"""map""",,,0.00250094127841,0.013624407351,0.00742829078808,,0.00883812587048,-0.00843021241277,0.0300215373691,-0.999474664566
112844000000,,468,,112,844000000,"""map""",,,0.00263285846449,0.0136074041948,0.00755317043513,,0.0088538432082,-0.00843102190803,0.0299760187727,-0.999475844678
112876000000,,469,,112,876000000,"""map""",,,0.00273989071138,0.0136087173596,0.00769085437059,,0.00887927461247,-0.00848181703055,0.0299401939515,-0.999476266146
112912000000,,470,,112,912000000,"""map""",,,0.00277885701507,0.0136628942564,0.00786426849663,,0.00886382139226,-0.00846343028268,0.0299307952043,-0.999476898349
112944000000,,471,,112,944000000,"""map""",,,0.00274773407727,0.0137412119657,0.00795193854719,,0.00870402073121,-0.00834917369546,0.0299377072874,-0.999479005691
112976000000,,472,,112,976000000,"""map""",,,0.00269968365319,0.0138697884977,0.00789705943316,,0.00873357937798,-0.00835705857233,0.0299557039917,-0.999478204901
113012000000,,473,,113,12000000,"""map""",,,0.00256824260578,0.0140590993688,0.00780921243131,,0.00879827166236,-0.00837770838783,0.0299364850288,-0.99947795202
113044000000,,474,,113,44000000,"""map""",,,0.00245553650893,0.014000617899,0.00823303405195,,0.00875514856277,-0.00836069320295,0.0298530342688,-0.999480986593
113076000000,,475,,113,76000000,"""map""",,,0.00220890436321,0.0139117836952,0.00937729049474,,0.00729523387885,-0.00742002349446,0.0295605351401,-0.999508887807
113112000000,,476,,113,112000000,"""map""",,,0.00180998456199,0.0139098120853,0.0109801087528,,0.00581309296021,-0.00585551624821,0.0292059115567,-0.999539402125
113144000000,,477,,113,144000000,"""map""",,,0.00142582913395,0.0140957180411,0.011521814391,,0.00593643250969,-0.00507897627943,0.0290482823433,-0.99954749432
113176000000,,478,,113,176000000,"""map""",,,0.00116815476213,0.0145241040736,0.0106739923358,,0.00858952525698,-0.00493623741587,0.0287320966858,-0.999538053426
113208000000,,479,,113,208000000,"""map""",,,0.00133545836434,0.014738554135,0.0088953319937,,0.0086486863643,-0.00852831047861,0.0286743133564,-0.9995149991
113244000000,,480,,113,244000000,"""map""",,,0.00145764055196,0.0146411471069,0.00876086112112,,0.00860482810266,-0.00956602698953,0.0286484351915,-0.999506738318
113276000000,,481,,113,276000000,"""map""",,,0.0014838919742,0.0145346159115,0.0091183707118,,0.00859989873239,-0.00910186325298,0.0286262659491,-0.999511795939
113312000000,,482,,113,312000000,"""map""",,,0.00115478946827,0.0142413945869,0.0123203154653,,0.00494797959372,-0.00523349255297,0.0284812386434,-0.999568399157
113344000000,,483,,113,344000000,"""map""",,,8.30397475511e-05,0.0134073747322,0.0207553375512,,-0.000478068574573,-0.0003418272404,0.0283057813131,-0.999599208503
113376000000,,484,,113,376000000,"""map""",,,-0.00172375515103,0.011969268322,0.0328020974994,,-0.016212042359,0.0145622640663,0.0278709944238,-0.999373975745
113412000000,,485,,113,412000000,"""map""",,,-0.00476332567632,0.00954049173743,0.049210999161,,-0.0334869790113,0.0328856936312,0.0276984030792,-0.998513885007
113444000000,,486,,113,444000000,"""map""",,,-0.00750034069642,0.00695728044957,0.0612529739738,,-0.0416224528942,0.0419497006178,0.0276672565581,-0.997868911784
113476000000,,487,,113,476000000,"""map""",,,-0.0110072288662,0.00362807977945,0.0722005143762,,-0.0568999144884,0.059201513879,0.0280241560713,-0.996229062203
113512000000,,488,,113,512000000,"""map""",,,-0.0156521555036,-0.000620214908849,0.0831236764789,,-0.0655285322645,0.0681901944868,0.0283432920082,-0.995114446647
113544000000,,489,,113,544000000,"""map""",,,-0.021675715223,-0.00610035983846,0.0950035527349,,-0.0698871421001,0.0719437677082,0.0287482389287,-0.994541839563
113576000000,,490,,113,576000000,"""map""",,,-0.0292373932898,-0.0129995048046,0.108437232673,,-0.0757746866528,0.0752046286301,0.0298090329589,-0.99383802934
113612000000,,491,,113,612000000,"""map""",,,-0.0408685617149,-0.0236809328198,0.127423509955,,-0.0797391419599,0.0762432044387,0.0310255595943,-0.993411334645
113644000000,,492,,113,644000000,"""map""",,,-0.0515243597329,-0.0338449925184,0.144755423069,,-0.081456435882,0.0766858100622,0.0317703365544,-0.993214382422
113676000000,,493,,113,676000000,"""map""",,,-0.0635647773743,-0.0454177372158,0.163443252444,,-0.0835679338881,0.0769690538417,0.033317336629,-0.992966348219
113712000000,,494,,113,712000000,"""map""",,,-0.0769684687257,-0.0583811104298,0.183075964451,,-0.0845409363621,0.075421937534,0.0349959613114,-0.99294493762
113744000000,,495,,113,744000000,"""map""",,,-0.0916078537703,-0.0726475566626,0.203740224242,,-0.0848012866649,0.0741784066225,0.0359657602957,-0.992981773965
113776000000,,496,,113,776000000,"""map""",,,-0.107439532876,-0.0882095471025,0.225618511438,,-0.0849017417027,0.0729419781135,0.0373906609501,-0.993012119696
113812000000,,497,,113,812000000,"""map""",,,-0.128825381398,-0.109386377037,0.254882842302,,-0.0851772806761,0.0731481460085,0.0385368023485,-0.992929596167
113844000000,,498,,113,844000000,"""map""",,,-0.145983576775,-0.126831114292,0.279337406158,,-0.0854813102606,0.0733990745151,0.0391534528891,-0.992860770363
113876000000,,499,,113,876000000,"""map""",,,-0.163890615106,-0.145224332809,0.30496224761,,-0.0861748037256,0.0739403256607,0.0403094987969,-0.992714478652
113912000000,,500,,113,912000000,"""map""",,,-0.182918027043,-0.164801746607,0.331794917583,,-0.086623708492,0.0740988623485,0.041603196312,-0.992610165202
113944000000,,501,,113,944000000,"""map""",,,-0.203010737896,-0.185485720634,0.359837263823,,-0.0865242741982,0.0739798495265,0.0421989420157,-0.992602536622
113972000000,,502,,113,972000000,"""map""",,,-0.229536294937,-0.212797999382,0.396666020155,,-0.0861012061085,0.0735422789696,0.0432981739717,-0.992624495131
114012000000,,503,,114,12000000,"""map""",,,-0.251816958189,-0.235784724355,0.427659243345,,-0.085850760315,0.0733448618141,0.0442433170495,-0.992619142481
114044000000,,504,,114,44000000,"""map""",,,-0.274434894323,-0.259281665087,0.459250450134,,-0.085753224605,0.0733666596373,0.0447496692875,-0.992603295266
114076000000,,505,,114,76000000,"""map""",,,-0.29769217968,-0.283556580544,0.492006599903,,-0.0853783711929,0.0733870685901,0.0457306371866,-0.992589344659
114112000000,,506,,114,112000000,"""map""",,,-0.321734845638,-0.308708429337,0.526182949543,,-0.084898342296,0.0729375276697,0.046323137583,-0.992636211954
114144000000,,507,,114,144000000,"""map""",,,-0.346523046494,-0.334666103125,0.561772704124,,-0.0845983653944,0.0728362138899,0.0466710176706,-0.992652902106
114176000000,,508,,114,176000000,"""map""",,,-0.372006595135,-0.361353009939,0.598715662956,,-0.0839602351076,0.0729079432163,0.0472548358162,-0.992674228412
114212000000,,509,,114,212000000,"""map""",,,-0.404788732529,-0.395729064941,0.646863102913,,-0.0834682618597,0.0728186165928,0.0477558775513,-0.992698336409
114244000000,,510,,114,244000000,"""map""",,,-0.43179410696,-0.424060046673,0.686700046062,,-0.0832577376928,0.0726387239652,0.0479819953935,-0.992718271869
114276000000,,511,,114,276000000,"""map""",,,-0.459398925304,-0.453016042709,0.727895438671,,-0.0827554559184,0.0726382886673,0.0484365070079,-0.992738249475
114312000000,,512,,114,312000000,"""map""",,,-0.487559348345,-0.48255199194,0.770559549332,,-0.0822271754654,0.0727404328718,0.0487589725458,-0.992758859284
114344000000,,513,,114,344000000,"""map""",,,-0.516227602959,-0.512597501278,0.814628660679,,-0.0820172288421,0.0726765198102,0.048943660036,-0.992771840513
114376000000,,514,,114,376000000,"""map""",,,-0.545395612717,-0.543145179749,0.86011826992,,-0.0815526342528,0.0725984947983,0.0492327874168,-0.992801511894
