rosbagTimestamp,header,seq,stamp,secs,nsecs,frame_id,pose,position,x,y,z,orientation,x,y,z,w
106244000000,,277,,106,176000000,"""map""",,,-0.00221865437925,0.0013988756109,-0.0122957965359,,0.00871876708621,-0.00982509946911,0.0343973074752,-0.999321924387
106244000000,,278,,106,244000000,"""map""",,,-0.00205295393243,0.00172917637974,-0.0118874674663,,0.00871465134767,-0.00980906506279,0.0343805330295,-0.99932268303
106276000000,,279,,106,276000000,"""map""",,,-0.00186164875049,0.00217497581616,-0.0114505151287,,0.00859916947666,-0.0097261814742,0.0343149946801,-0.999326771274
106312000000,,280,,106,312000000,"""map""",,,-0.00162335007917,0.00261195306666,-0.0111191095784,,0.00862776125661,-0.00978838849392,0.0342683381188,-0.999327487771
106344000000,,281,,106,344000000,"""map""",,,-0.00135603372473,0.00302681000903,-0.0108353979886,,0.00859745359779,-0.00971075148826,0.0342375709193,-0.999329595113
106376000000,,282,,106,376000000,"""map""",,,-0.00105115689803,0.00340005336329,-0.0106018902734,,0.00862159653915,-0.00973003165466,0.0342252218927,-0.99932963726
106412000000,,283,,106,412000000,"""map""",,,-0.000661152647808,0.00381095870398,-0.0104149645194,,0.00857365239986,-0.0096688167734,0.0341879219318,-0.999331871043
106444000000,,284,,106,444000000,"""map""",,,-0.000498780806083,0.00402670633048,-0.0103538902476,,0.00855639174251,-0.0096802321897,0.0341888491625,-0.999331871043
106476000000,,285,,106,476000000,"""map""",,,-0.000358447898179,0.00419984199107,-0.0103104496375,,0.00855779859938,-0.00963507822117,0.0341917994419,-0.999332208218
106512000000,,286,,106,512000000,"""map""",,,-0.000168783444678,0.00434269243851,-0.0103159584105,,0.00853268311125,-0.0096190043845,0.0341810519955,-0.999332924714
106544000000,,287,,106,544000000,"""map""",,,7.50915933168e-05,0.00447311205789,-0.0103489626199,,0.00855044245143,-0.00953928654283,0.0341771744854,-0.999333683358
106576000000,,288,,106,576000000,"""map""",,,0.000390884815715,0.00457711610943,-0.0102135865018,,0.00854696537758,-0.00949682882016,0.0341612429767,-0.999334694882
106612000000,,289,,106,612000000,"""map""",,,0.000794471357949,0.0047397618182,-0.0100245513022,,0.00850853045635,-0.00944367205413,0.034163940375,-0.999335453525
106644000000,,290,,106,644000000,"""map""",,,0.000973071961198,0.00499698380008,-0.00966805592179,,0.00872954383781,-0.00943141333043,0.0341209505895,-0.99933511635
106676000000,,291,,106,676000000,"""map""",,,0.00106343044899,0.00525746867061,-0.00919798389077,,0.00875391323617,-0.00945116904829,0.0341001300463,-0.999335453525
106712000000,,292,,106,712000000,"""map""",,,0.00111955055036,0.00550476228818,-0.00881969276816,,0.00871602527731,-0.00943913933344,0.0340581517852,-0.999337307987
106744000000,,293,,106,744000000,"""map""",,,0.00120347505435,0.00573212932795,-0.00849287211895,,0.00873357116675,-0.00943690460381,0.034052377667,-0.999337350133
106776000000,,294,,106,776000000,"""map""",,,0.00132179167122,0.00593496207148,-0.00829252786934,,0.00867047622324,-0.00940324487112,0.0340384270601,-0.999338740979
106812000000,,295,,106,812000000,"""map""",,,0.00147999345791,0.00616971030831,-0.00791909079999,,0.00866635673923,-0.00940882105559,0.0340575195825,-0.999338024483
106844000000,,296,,106,844000000,"""map""",,,0.00148259790149,0.00627408036962,-0.00740267615765,,0.00867222593484,-0.00940781850389,0.0340461820803,-0.999338403805
106876000000,,297,,106,876000000,"""map""",,,0.00152576481923,0.00635925866663,-0.00682905502617,,0.00857863083171,-0.00940299149612,0.0339855327652,-0.999341311937
106912000000,,298,,106,912000000,"""map""",,,0.00162947434001,0.00646268157288,-0.00625028833747,,0.00854748011243,-0.00936971022073,0.0339877244014,-0.999341817699
106944000000,,299,,106,944000000,"""map""",,,0.00177130068187,0.00659804278985,-0.00578719424084,,0.00856207477582,-0.00935474150407,0.0339573786704,-0.999342829224
106976000000,,300,,106,976000000,"""map""",,,0.00194526289124,0.00674056261778,-0.0055188043043,,0.00864309888168,-0.00935396368069,0.0339908011213,-0.999341016909
107012000000,,301,,107,12000000,"""map""",,,0.00215988932177,0.0068922447972,-0.00540894316509,,0.0086297024606,-0.00930926989071,0.0340335380257,-0.999340089679
107044000000,,302,,107,44000000,"""map""",,,0.00233357772231,0.00700944103301,-0.0054216729477,,0.0086720523672,-0.00930163713349,0.0340180701323,-0.999340300413
107076000000,,303,,107,76000000,"""map""",,,0.00253643514588,0.00711530819535,-0.0055677620694,,0.00867476583811,-0.00920482423784,0.0339317112397,-0.999344135776
107112000000,,304,,107,112000000,"""map""",,,0.00276777148247,0.00721878791228,-0.0057758721523,,0.008675647835,-0.00918568607009,0.033947474161,-0.999343798601
107144000000,,305,,107,144000000,"""map""",,,0.00261187250726,0.00722386501729,-0.00620280578732,,0.00867723968113,-0.00891453746887,0.033948317098,-0.999346243118
107176000000,,306,,107,176000000,"""map""",,,0.00217781425454,0.00716164102778,-0.0064717293717,,0.00876774313388,-0.00893510940119,0.033904652963,-0.999346748881
107212000000,,307,,107,212000000,"""map""",,,0.00171967654023,0.00708093121648,-0.00687621813267,,0.00869776960037,-0.00899407338761,0.033832581852,-0.999349277692
107244000000,,308,,107,244000000,"""map""",,,0.0014367637923,0.00701037188992,-0.00713585782796,,0.00871733277627,-0.00899280589523,0.0338385245576,-0.99934889837
107276000000,,309,,107,276000000,"""map""",,,0.00121195975225,0.00696240877733,-0.00739220855758,,0.00877307527615,-0.0090325299585,0.033822298021,-0.999348603342
107312000000,,310,,107,312000000,"""map""",,,0.00103566376492,0.00690917018801,-0.00756301358342,,0.00880271163117,-0.00903838915246,0.0337430197989,-0.999350921419
107344000000,,311,,107,344000000,"""map""",,,0.0011306455126,0.00684047397226,-0.00775758503005,,0.00882634222491,-0.00906909770025,0.0337238429828,-0.999351132153
107376000000,,312,,107,376000000,"""map""",,,0.00146355491597,0.00674435915425,-0.00809018965811,,0.00883447380901,-0.00909533160275,0.0337308393597,-0.999350542097
107412000000,,313,,107,412000000,"""map""",,,0.00186750071589,0.00667697237805,-0.00850615743548,,0.00877175065503,-0.00903186182393,0.0337044554325,-0.999352565146
107444000000,,314,,107,444000000,"""map""",,,0.00218644412234,0.00666081765667,-0.00890485197306,,0.00876345432161,-0.00905418515538,0.0336858686723,-0.999353113055
107476000000,,315,,107,476000000,"""map""",,,0.00250602629967,0.00667371042073,-0.00930943712592,,0.00869559807043,-0.00907802692582,0.0336532048647,-0.999354588194
107512000000,,316,,107,512000000,"""map""",,,0.00284618907608,0.0067271636799,-0.00977866537869,,0.00873161874692,-0.00908350904131,0.0336489058862,-0.999354335313
107544000000,,317,,107,544000000,"""map""",,,0.00296913343482,0.00673945294693,-0.0100863873959,,0.00873864698086,-0.00907225953707,0.0336242921267,-0.99935517825
107576000000,,318,,107,576000000,"""map""",,,0.00290304608643,0.00669136736542,-0.010212524794,,0.00871055697067,-0.00900932552537,0.0335899424451,-0.999357159152
107612000000,,319,,107,612000000,"""map""",,,0.00287589197978,0.00666280090809,-0.0105771683156,,0.00874205128554,-0.00904520294785,0.0335773826843,-0.999356990565
107644000000,,320,,107,644000000,"""map""",,,0.00289433216676,0.00663575809449,-0.0108216432855,,0.00869591483034,-0.00903030022969,0.0335405884855,-0.999358718586
107676000000,,321,,107,676000000,"""map""",,,0.00295198173262,0.00661973562092,-0.0110835535452,,0.00869377110333,-0.00904733496511,0.0334708354512,-0.999360952369
107712000000,,322,,107,712000000,"""map""",,,0.00302954297513,0.00662092072889,-0.011405008845,,0.00873353668577,-0.00904466782899,0.0334298265676,-0.99936200604
107744000000,,323,,107,744000000,"""map""",,,0.00307494169101,0.00659585045651,-0.0119579760358,,0.00875303194927,-0.00909484262316,0.033404412018,-0.999362216774
107776000000,,324,,107,776000000,"""map""",,,0.00307555939071,0.0065277707763,-0.0125278681517,,0.00876528976747,-0.00904421800193,0.0333194439714,-0.999365419935
107812000000,,325,,107,812000000,"""map""",,,0.00314855063334,0.00646181358024,-0.0132829304785,,0.00878477725192,-0.00910898338475,0.0332345180716,-0.99936748513
107844000000,,326,,107,844000000,"""map""",,,0.00323342415504,0.00645796535537,-0.0139177273959,,0.00879401230967,-0.00905025080469,0.0332290811282,-0.999368117333
107876000000,,327,,107,876000000,"""map""",,,0.00333338067867,0.00647978484631,-0.0144879212603,,0.008823955567,-0.00906059730035,0.0332081762913,-0.999368454508
107912000000,,328,,107,912000000,"""map""",,,0.00347763346508,0.00649437028915,-0.0150182088837,,0.00886155237716,-0.00903810354994,0.0331645121563,-0.999369803207
107944000000,,329,,107,944000000,"""map""",,,0.00357217574492,0.0064678597264,-0.0153549835086,,0.00888663966106,-0.00906838800536,0.0331558720523,-0.999369592473
107976000000,,330,,107,976000000,"""map""",,,0.00361581519246,0.00636245310307,-0.0155443176627,,0.00888917575198,-0.00902677651752,0.0331739109035,-0.999369339591
108012000000,,331,,108,12000000,"""map""",,,0.00369902467355,0.00627342285588,-0.0157588999718,,0.00892807400815,-0.009005643158,0.0331666194987,-0.999369381738
108044000000,,332,,108,44000000,"""map""",,,0.00378872686997,0.00622222898528,-0.0158937778324,,0.00896723306595,-0.009033344807,0.0331331127541,-0.999369929647
108076000000,,333,,108,76000000,"""map""",,,0.00389631744474,0.00622500339523,-0.016023747623,,0.00894787374173,-0.00898792574215,0.0330695131597,-0.999372584899
108112000000,,334,,108,112000000,"""map""",,,0.00406581256539,0.0062453020364,-0.0161544326693,,0.00890393155297,-0.00897128315326,0.0330306537654,-0.99937443936
108144000000,,335,,108,144000000,"""map""",,,0.00417210860178,0.00630189338699,-0.016274780035,,0.00892533867665,-0.00898917138037,0.0330356270935,-0.999373933598
108176000000,,336,,108,176000000,"""map""",,,0.00416269013658,0.00637763971463,-0.0164134260267,,0.00893438471476,-0.00895281550152,0.0330443514911,-0.999373891451
108212000000,,337,,108,212000000,"""map""",,,0.00422483123839,0.00652789184824,-0.0166788548231,,0.00910577536749,-0.00894643898032,0.0329876218331,-0.99937431292
108244000000,,338,,108,244000000,"""map""",,,0.00432554958388,0.00668453471735,-0.0168415103108,,0.00909288589707,-0.00892982170552,0.0329683185764,-0.999375155857
108276000000,,339,,108,276000000,"""map""",,,0.00447068270296,0.00686464551836,-0.017017506063,,0.0090666036713,-0.00901931761862,0.0329270146649,-0.9993759145
108312000000,,340,,108,312000000,"""map""",,,0.00463289441541,0.00707940943539,-0.0172073524445,,0.00904383432194,-0.00906342381004,0.0328689784545,-0.999377642521
108344000000,,341,,108,344000000,"""map""",,,0.00475113745779,0.00714607723057,-0.017153698951,,0.00905337506331,-0.00904865685945,0.0328100150134,-0.999379623422
108376000000,,342,,108,376000000,"""map""",,,0.00483516743407,0.00708165857941,-0.0170068815351,,0.00906330387198,-0.00900159140889,0.0328230805365,-0.999379539129
108412000000,,343,,108,412000000,"""map""",,,0.00494203902781,0.0070188161917,-0.016839293763,,0.00915345382009,-0.00905992480808,0.0327965701688,-0.999379075513
108444000000,,344,,108,444000000,"""map""",,,0.0050634117797,0.00695658428594,-0.0166731309146,,0.00908600097887,-0.00901221138574,0.0327517259219,-0.999381604324
108476000000,,345,,108,476000000,"""map""",,,0.00523694697767,0.00690327351913,-0.0165121145546,,0.00906908107329,-0.00905656757261,0.0327473426497,-0.999381520031
108512000000,,346,,108,512000000,"""map""",,,0.00544599909335,0.00685107149184,-0.0163377132267,,0.00895604829458,-0.00903199089094,0.0326651141482,-0.999385439688
108544000000,,347,,108,544000000,"""map""",,,0.00562525866553,0.00680626183748,-0.0153553159907,,0.00894120859861,-0.00904685034324,0.0326496884017,-0.99938594545
108576000000,,348,,108,576000000,"""map""",,,0.00569550693035,0.00680055562407,-0.0144603783265,,0.00887732438436,-0.00904564138414,0.0326253275233,-0.999387378443
108612000000,,349,,108,612000000,"""map""",,,0.00580753432587,0.00682490551844,-0.0132136018947,,0.00886284575857,-0.00906070084619,0.0325145234585,-0.999390960925
108644000000,,350,,108,644000000,"""map""",,,0.00593967176974,0.00683904252946,-0.0123466486111,,0.00880135814728,-0.00906765702095,0.0324530733534,-0.999393405442
108676000000,,351,,108,676000000,"""map""",,,0.00609672255814,0.00688710715622,-0.0114581044763,,0.00881162897206,-0.0090466506036,0.0324228962099,-0.99939450126
108712000000,,352,,108,712000000,"""map""",,,0.00627150340006,0.00694758025929,-0.0105460667983,,0.00879863984018,-0.00898870658943,0.0323854698084,-0.999396355721
108744000000,,353,,108,744000000,"""map""",,,0.00647701742128,0.00699640763924,-0.0096822027117,,0.00877184631891,-0.00899597426604,0.0323933091222,-0.999396271428
108776000000,,354,,108,776000000,"""map""",,,0.00665048230439,0.00706257810816,-0.00890291389078,,0.0087588471288,-0.00890754443104,0.0323487599033,-0.999398589504
108812000000,,355,,108,812000000,"""map""",,,0.0069263339974,0.00715059135109,-0.00798121094704,,0.00879909771898,-0.00878549339334,0.0323518787701,-0.99939917956
108844000000,,356,,108,844000000,"""map""",,,0.00715940631926,0.0072486018762,-0.00736266793683,,0.00880465282744,-0.00878614045706,0.0323740480124,-0.999398420917
108876000000,,357,,108,876000000,"""map""",,,0.00742064928636,0.00735715823248,-0.00670656189322,,0.00878667286971,-0.00876966800031,0.0323902745491,-0.999398210183
108912000000,,358,,108,912000000,"""map""",,,0.00772959366441,0.00745741743594,-0.0061137015,,0.00875831293859,-0.00879850603474,0.0323995890026,-0.999397915155
108944000000,,359,,108,944000000,"""map""",,,0.00778259523213,0.00742335151881,-0.00544822681695,,0.00875251627548,-0.00881008735281,0.032408397694,-0.999397620127
108976000000,,360,,108,976000000,"""map""",,,0.00762064941227,0.00727552408352,-0.00471156369895,,0.0087679235069,-0.00879761459571,0.0324107579175,-0.999397451539
109012000000,,361,,109,12000000,"""map""",,,0.00747775426134,0.00715203396976,-0.00380059867166,,0.00880029901285,-0.00879587062902,0.0323966808701,-0.999397620127
109044000000,,362,,109,44000000,"""map""",,,0.0074119810015,0.00710253044963,-0.00325093814172,,0.00881230161514,-0.00881813078038,0.0324126545257,-0.999396819337
109084000000,,363,,109,80000000,"""map""",,,0.00739963306114,0.00707985833287,-0.0027680946514,,0.0088374559828,-0.00883729382393,0.0323876614445,-0.999397282952
109112000000,,364,,109,112000000,"""map""",,,0.00744051812217,0.00709607545286,-0.00236152834259,,0.00886055367096,-0.00886097913762,0.032401443464,-0.999396397868
109144000000,,365,,109,144000000,"""map""",,,0.00743903173134,0.00699604023248,-0.00216422299854,,0.00881654337331,-0.00885195948022,0.032385301221,-0.999397451539
109176000000,,366,,109,176000000,"""map""",,,0.00741516798735,0.00681139808148,-0.00191581435502,,0.00880972633922,-0.00890366949342,0.0323512044205,-0.999398083742
109212000000,,367,,109,212000000,"""map""",,,0.00745016383007,0.00663848407567,-0.0016283885343,,0.00883491446404,-0.00882987288138,0.0323499821619,-0.999398547357
109244000000,,368,,109,244000000,"""map""",,,0.00753437681124,0.00658162776381,-0.00144479423761,,0.00885423977289,-0.00880864833016,0.0323227552978,-0.999399474588
109276000000,,369,,109,276000000,"""map""",,,0.00766917318106,0.00658338703215,-0.00128888245672,,0.00882038533483,-0.00877765062216,0.0323179927039,-0.999400191085
109312000000,,370,,109,312000000,"""map""",,,0.00785968638957,0.00666552362964,-0.0011556763202,,0.00878541445933,-0.00877245555104,0.0323013446987,-0.999401076168
109344000000,,371,,109,344000000,"""map""",,,0.00795722194016,0.00672684935853,-0.000907554873265,,0.00876542998313,-0.00876498794088,0.0322669107235,-0.999402467014
109376000000,,372,,109,376000000,"""map""",,,0.00799986440688,0.00674741202965,-0.000570839561988,,0.00870706206339,-0.00872149351321,0.0321978741857,-0.999405585881
109412000000,,373,,109,412000000,"""map""",,,0.00811440311372,0.00680009927601,-0.000348851201124,,0.00868439157352,-0.00870680872441,0.032197494864,-0.999405880909
109444000000,,374,,109,444000000,"""map""",,,0.0082335844636,0.00685434043407,-0.000306067900965,,0.0086911142724,-0.00875327798253,0.0321848508095,-0.999405880909
109476000000,,375,,109,476000000,"""map""",,,0.00836377590895,0.00693697901443,-0.000271196942776,,0.00872550695998,-0.00878793368661,0.0321086071605,-0.999407693224
109512000000,,376,,109,512000000,"""map""",,,0.00852410309017,0.00705929612741,-0.000231203142903,,0.00873095783834,-0.00872130929181,0.0321089864821,-0.999408241133
109544000000,,377,,109,544000000,"""map""",,,0.00870530679822,0.00709466496482,-0.000229636483709,,0.00876369168221,-0.00877088297473,0.0321311557245,-0.99940680814
109576000000,,378,,109,576000000,"""map""",,,0.00892973970622,0.00706496089697,-0.000234487262787,,0.00876406669598,-0.00872009506179,0.0321043924757,-0.999408030398
109612000000,,379,,109,612000000,"""map""",,,0.00926552712917,0.00712099857628,-0.000252287223702,,0.00883208275224,-0.00869950211264,0.0320578202081,-0.999409168363
109644000000,,380,,109,644000000,"""map""",,,0.00958849396557,0.00723167462274,-0.000312508258503,,0.00883357783349,-0.00866267085018,0.0320573144459,-0.999409505538
109676000000,,381,,109,676000000,"""map""",,,0.00994700007141,0.0073902849108,-0.000387981534004,,0.00882803386111,-0.00865883978294,0.0320081712205,-0.999411191412
109712000000,,382,,109,712000000,"""map""",,,0.010311008431,0.00758073851466,-0.000665267754812,,0.00884522471274,-0.00845332759254,0.0320214053309,-0.999412371524
109744000000,,383,,109,744000000,"""map""",,,0.0103710973635,0.00770927080885,-0.000769558246247,,0.00887459347231,-0.00844458971531,0.0320117958495,-0.999412455817
109776000000,,384,,109,776000000,"""map""",,,0.0101085500792,0.00782190542668,-0.000731779320631,,0.00890003640112,-0.00841922054349,0.0319884464954,-0.999413214461
109812000000,,385,,109,812000000,"""map""",,,0.00985723920166,0.00801741890609,-0.00056799640879,,0.00886865875153,-0.0084565435329,0.0319458781784,-0.999414478866
109844000000,,386,,109,844000000,"""map""",,,0.00975089240819,0.0082086045295,-0.000397824798711,,0.00889677117281,-0.00846140180096,0.0319532960237,-0.999413973104
109876000000,,387,,109,876000000,"""map""",,,0.00970332324505,0.00845855660737,-0.00024469505297,,0.00889330661131,-0.00851651469112,0.0319100112103,-0.999414942482
109912000000,,388,,109,912000000,"""map""",,,0.0096753500402,0.00876422785223,-0.000159140967298,,0.00887038804824,-0.00856416028338,0.0318555996289,-0.999416417621
109944000000,,389,,109,944000000,"""map""",,,0.0095720263198,0.00911182537675,7.09659580025e-05,,0.00887330808604,-0.00855707034176,0.0318524386153,-0.999416628355
109976000000,,390,,109,976000000,"""map""",,,0.00939124077559,0.00952068902552,0.000377811054932,,0.0088733742389,-0.00850491200123,0.0317490945427,-0.999420337278
110012000000,,391,,110,12000000,"""map""",,,0.00919247604907,0.010057120584,0.000720277719665,,0.00886116255997,-0.00853803246829,0.0317144076864,-0.999421222362
110044000000,,392,,110,44000000,"""map""",,,0.00903471279889,0.0104951811954,0.000929881120101,,0.00887978450085,-0.00855306873721,0.0317192967208,-0.999420800893
110076000000,,393,,110,76000000,"""map""",,,0.00891849771142,0.0109672993422,0.00113611482084,,0.00883760868667,-0.00858000583148,0.0317453013263,-0.999420084397
110112000000,,394,,110,112000000,"""map""",,,0.00885199010372,0.0114546325058,0.00120033777785,,0.00887064031195,-0.00858463504952,0.0317123424908,-0.99942084304
110144000000,,395,,110,144000000,"""map""",,,0.00870005041361,0.0115765724331,0.00129779253621,,0.00885924131811,-0.00855998795117,0.0317113309664,-0.999421180215
110176000000,,396,,110,176000000,"""map""",,,0.00848592538387,0.0114048048854,0.00136091583408,,0.00889623779292,-0.00854334181875,0.0317276417968,-0.999420463719
110212000000,,397,,110,212000000,"""map""",,,0.00828630663455,0.0112960003316,0.0013872369891,,0.00887126498257,-0.00848602817573,0.0316157840609,-0.999424762697
110244000000,,398,,110,244000000,"""map""",,,0.0081738429144,0.0112757300958,0.0013369981898,,0.00892127051023,-0.00843725939466,0.0315986302935,-0.999425226313
110276000000,,399,,110,276000000,"""map""",,,0.00806958135217,0.0112810665742,0.00134280067869,,0.00890562886398,-0.00843138770893,0.0315687903248,-0.999426322131
110312000000,,400,,110,312000000,"""map""",,,0.00798036623746,0.0113310171291,0.00140429590829,,0.00889070879729,-0.00838262388752,0.031460515071,-0.999430326081
110344000000,,401,,110,344000000,"""map""",,,0.00791973993182,0.0112868025899,0.00142365810461,,0.00887879504801,-0.00836458834966,0.0314373764511,-0.999431379752
110376000000,,402,,110,376000000,"""map""",,,0.00792106892914,0.0111974682659,0.00132424198091,,0.00891958292819,-0.00835345209449,0.0313570867047,-0.999433613535
110412000000,,403,,110,412000000,"""map""",,,0.00796315446496,0.0112012280151,0.00108726287726,,0.00891973943541,-0.00819584154668,0.031354768628,-0.999434920088
110444000000,,404,,110,444000000,"""map""",,,0.00807656627148,0.0113120898604,0.00104430364445,,0.00887728786601,-0.00819252558987,0.0312947515158,-0.999437196018
110476000000,,405,,110,476000000,"""map""",,,0.00820336304605,0.0114815086126,0.000947854190599,,0.00887073199369,-0.00827206399874,0.0313016214521,-0.999436395227
110512000000,,406,,110,512000000,"""map""",,,0.00835505034775,0.0116683170199,0.000694005109835,,0.00888979202101,-0.00827477413576,0.0313001463124,-0.999436268787
110544000000,,407,,110,544000000,"""map""",,,0.00868425145745,0.0117097869515,0.00029530361644,,0.00887373968994,-0.00827808758187,0.0312998512844,-0.999436395227
110576000000,,408,,110,576000000,"""map""",,,0.0091589204967,0.0116623258218,-0.000338989892043,,0.00885654400212,-0.00833294938137,0.0312339336134,-0.999438165395
110612000000,,409,,110,612000000,"""map""",,,0.00976185221225,0.0117241768166,-0.00117930257693,,0.00890263905133,-0.008323457553,0.0311910702684,-0.999439219066
110644000000,,410,,110,644000000,"""map""",,,0.0102706365287,0.011820957996,-0.00156467931811,,0.00892197609951,-0.00834199998492,0.0311799435004,-0.999439219066
110676000000,,411,,110,676000000,"""map""",,,0.0107491360977,0.0119531033561,-0.00171241688076,,0.00894044129651,-0.00838510211398,0.0311718091587,-0.999438924038
110712000000,,412,,110,712000000,"""map""",,,0.0111934412271,0.0121237905696,-0.00182764022611,,0.00893833967519,-0.00837327551895,0.031146942518,-0.999439851269
110744000000,,413,,110,744000000,"""map""",,,0.0114668253809,0.0122271245345,-0.00186597765423,,0.00895236932797,-0.00839557776668,0.0311120870743,-0.999440567765
110776000000,,414,,110,776000000,"""map""",,,0.0116101317108,0.0122799528763,-0.00172969442792,,0.00891932858596,-0.00842579071857,0.0310721740088,-0.999441874318
110812000000,,415,,110,812000000,"""map""",,,0.0118104238063,0.0124360136688,-0.00144158431794,,0.0089721387312,-0.00837764570263,0.0310621852057,-0.999442085052
110844000000,,416,,110,844000000,"""map""",,,0.0120084229857,0.0126051446423,-0.00117768312339,,0.00892407714461,-0.00836083933809,0.0310744920854,-0.999442253639
110876000000,,417,,110,876000000,"""map""",,,0.0122531959787,0.0128358704969,-0.000962160469498,,0.00900314306837,-0.00835595713606,0.0310400581102,-0.999442717255
110912000000,,418,,110,912000000,"""map""",,,0.012500978075,0.0131004573777,-0.000939387246035,,0.00889503339733,-0.00837983237909,0.0310555681505,-0.999442970136
110944000000,,419,,110,944000000,"""map""",,,0.0125927515328,0.0131421294063,-0.00088147551287,,0.00893396136261,-0.00839797651505,0.0310448628509,-0.999442801548
110976000000,,420,,110,976000000,"""map""",,,0.0125537579879,0.0129904309288,-0.000703220372088,,0.00889522322279,-0.00833605480974,0.0310249273916,-0.999444276688
111012000000,,421,,111,12000000,"""map""",,,0.0126058142632,0.0129296928644,-0.000317109428579,,0.00896106250648,-0.00836076671298,0.0310317130342,-0.999443307311
111044000000,,422,,111,44000000,"""map""",,,0.0127133447677,0.0129631152377,1.14869617391e-05,,0.00897057149817,-0.00837556591617,0.0310146435606,-0.999443602339
111076000000,,423,,111,76000000,"""map""",,,0.0128593584523,0.0130457095802,0.000378291239031,,0.00898000747373,-0.00831046449044,0.0309944552201,-0.99944465601
111112000000,,424,,111,112000000,"""map""",,,0.0130076147616,0.0132056735456,0.00076133524999,,0.00888613576133,-0.00822547683156,0.0309871216685,-0.999446510471
111144000000,,425,,111,144000000,"""map""",,,0.013053195551,0.0132318586111,0.00117714668158,,0.0088337152069,-0.00822979334386,0.0309777229213,-0.999447226968
111176000000,,426,,111,176000000,"""map""",,,0.0130003765225,0.0131560498849,0.00157153757755,,0.00883559212049,-0.0082242680937,0.0309801252916,-0.999447184821
111212000000,,427,,111,212000000,"""map""",,,0.0129926130176,0.0131423352286,0.00198383489624,,0.00877687271132,-0.00815107181829,0.0309411816036,-0.99944946075
111244000000,,428,,111,244000000,"""map""",,,0.0130149368197,0.0131732020527,0.00222692126408,,0.00878236384064,-0.00819201071096,0.0309517183157,-0.999448702107
111276000000,,429,,111,276000000,"""map""",,,0.0130653074011,0.0132500464097,0.00239519844763,,0.00875189358306,-0.00812964199798,0.0308967166784,-0.999451273065
111312000000,,430,,111,312000000,"""map""",,,0.0131341433153,0.0134011143818,0.00252147950232,,0.00871759561785,-0.00813003545775,0.0308998776921,-0.999451399506
111344000000,,431,,111,344000000,"""map""",,,0.0131120244041,0.0134327281266,0.00253111426719,,0.00867666240513,-0.00807013101832,0.0309205717947,-0.99945161024
111376000000,,432,,111,376000000,"""map""",,,0.0130675919354,0.0133539317176,0.00231033982709,,0.00890891522745,-0.00805743034952,0.0308636314023,-0.999451483799
111412000000,,433,,111,412000000,"""map""",,,0.0130462786183,0.0133500602096,0.00216818484478,,0.00889177092668,-0.00807414527926,0.0308587845148,-0.99945161024
111444000000,,434,,111,444000000,"""map""",,,0.0130325965583,0.0133886616677,0.00216616527177,,0.00883799233,-0.00807117182733,0.0308473627188,-0.999452495324
111476000000,,435,,111,476000000,"""map""",,,0.0130554428324,0.0134703107178,0.00210468051955,,0.00884917581515,-0.00813909534266,0.0308007904512,-0.999453296114
111512000000,,436,,111,512000000,"""map""",,,0.0130825471133,0.0135982800275,0.00206390116364,,0.00883818900844,-0.00816317269711,0.0307743643772,-0.99945401261
111544000000,,437,,111,544000000,"""map""",,,0.0129325203598,0.0135364606977,0.0020589386113,,0.00884811629936,-0.00816507023137,0.0307723834753,-0.99945388617
111576000000,,438,,111,576000000,"""map""",,,0.0125853735954,0.0132953962311,0.00197615870275,,0.00874503126118,-0.0081695237415,0.0308029820873,-0.99945388617
111612000000,,439,,111,612000000,"""map""",,,0.0122124729678,0.0130914365873,0.00180509767961,,0.00874585600586,-0.00815128181167,0.0307974608502,-0.999454181198
111644000000,,440,,111,644000000,"""map""",,,0.0119448360056,0.0130174402148,0.00171589362435,,0.00876906451372,-0.00819371438618,0.0307878092219,-0.99945388617
111676000000,,441,,111,676000000,"""map""",,,0.0116752311587,0.0130052501336,0.00159219361376,,0.00875946744171,-0.0082020760287,0.0307818243694,-0.999454139051
111712000000,,442,,111,712000000,"""map""",,,0.0114139625803,0.0130818281323,0.00151615845971,,0.00875156128562,-0.00820708458895,0.0307285507529,-0.999455740631
111744000000,,443,,111,744000000,"""map""",,,0.0110138077289,0.013119678013,0.00142172793858,,0.00872139138608,-0.00826235557096,0.0307199949426,-0.999455867071
111776000000,,444,,111,776000000,"""map""",,,0.0104817179963,0.0130991106853,0.00100757658947,,0.00873582340955,-0.00830391036738,0.0307125770973,-0.99945561419
111812000000,,445,,111,812000000,"""map""",,,0.00986368581653,0.0131604708731,0.000541301211342,,0.008720596173,-0.00824095388285,0.0306619165854,-0.999457805826
111844000000,,446,,111,844000000,"""map""",,,0.00942533370107,0.013263206929,0.000330984301399,,0.008735359609,-0.0082562701258,0.030646153664,-0.999458058708
111876000000,,447,,111,876000000,"""map""",,,0.00899492204189,0.0133991120383,0.000238167136558,,0.00869777742059,-0.00822224086733,0.0306033746128,-0.999459955316
111912000000,,448,,111,912000000,"""map""",,,0.00862767640501,0.013553513214,3.65129017155e-05,,0.00876078471594,-0.00816220887606,0.0305928379007,-0.999460208197
111944000000,,449,,111,944000000,"""map""",,,0.00826993491501,0.0137460464612,-0.000406449369621,,0.00875838405368,-0.00794080582146,0.0305091342595,-0.999464591469
111976000000,,450,,111,976000000,"""map""",,,0.00795388966799,0.0139776570722,-0.000831556913909,,0.00882874035589,-0.00793654631443,0.0305248971809,-0.999463579945
112012000000,,451,,112,12000000,"""map""",,,0.00764745566994,0.0142292743549,-0.00122328649741,,0.00884897746978,-0.00794569872484,0.0305382577318,-0.999462863448
112044000000,,452,,112,44000000,"""map""",,,0.0073797442019,0.0143815930933,-0.0016090554418,,0.00889503549644,-0.00790922252077,0.0305196709716,-0.999463327064
112076000000,,453,,112,76000000,"""map""",,,0.00712788943201,0.0144478427246,-0.00185135449283,,0.00888146766858,-0.0078974930199,0.0305903090898,-0.999461388309
112112000000,,454,,112,112000000,"""map""",,,0.00678201997653,0.0146015342325,-0.0020708842203,,0.00887276339771,-0.00798223020549,0.0305672547636,-0.999461514749
112144000000,,455,,112,144000000,"""map""",,,0.00648424308747,0.0147960530594,-0.00213920488022,,0.00886221730132,-0.00805161066822,0.0305932593691,-0.999460208197
112176000000,,456,,112,176000000,"""map""",,,0.00620345724747,0.0150476982817,-0.00225426419638,,0.00883078966408,-0.00810290132491,0.0306064513327,-0.999459660288
112212000000,,457,,112,212000000,"""map""",,,0.00593732530251,0.0153321856633,-0.00244632503018,,0.00881056959003,-0.00812804731188,0.0305497638215,-0.999461388309
112244000000,,458,,112,244000000,"""map""",,,0.00567615218461,0.0154265472665,-0.00251828483306,,0.00880174875678,-0.0081519567169,0.0305632929599,-0.9994608404
112276000000,,459,,112,276000000,"""map""",,,0.00542368926108,0.0153463538736,-0.00262942537665,,0.00878323505387,-0.00812771112491,0.0305560015551,-0.999461472602
112312000000,,460,,112,312000000,"""map""",,,0.00511086499318,0.0153127191588,-0.0027890263591,,0.00879648920875,-0.00810358835147,0.0305670440294,-0.999461219721
112344000000,,461,,112,344000000,"""map""",,,0.00484552048147,0.0153373721987,-0.00285610603169,,0.00885658094235,-0.00810402344359,0.030549890262,-0.999461177574
112376000000,,462,,112,376000000,"""map""",,,0.00456515001133,0.0154072679579,-0.00291498051956,,0.00883928521751,-0.00813219700662,0.0305204717618,-0.999462020511
112412000000,,463,,112,412000000,"""map""",,,0.00428261421621,0.0155048714951,-0.00292710168287,,0.00889659455941,-0.00812554027409,0.0304801793746,-0.999462779155
112444000000,,464,,112,444000000,"""map""",,,0.00413057627156,0.0152730569243,-0.00265220436268,,0.00888319079144,-0.00812564934553,0.0304709492148,-0.999463158476
112476000000,,465,,112,476000000,"""map""",,,0.00411019800231,0.0147881368175,-0.00217630784027,,0.00888477998282,-0.00820881614942,0.0304919383453,-0.999461809777
112512000000,,466,,112,512000000,"""map""",,,0.00404620962217,0.0143175395206,-0.00176109559834,,0.00884929254217,-0.00821200198195,0.0303917974333,-0.999465181525
112544000000,,467,,112,544000000,"""map""",,,0.00398747250438,0.0140462778509,-0.00144712242763,,0.00886304142861,-0.0082303307985,0.0303810499869,-0.999465223672
112576000000,,468,,112,576000000,"""map""",,,0.00389369903132,0.013841740787,-0.00112585385796,,0.00890799620801,-0.00828544054,0.0303563097868,-0.999465097231
112612000000,,469,,112,612000000,"""map""",,,0.00378671986982,0.013731751591,-0.000817880034447,,0.00893858049668,-0.00829456385098,0.0303319910552,-0.999465476553
112644000000,,470,,112,644000000,"""map""",,,0.00379922916181,0.0136207835749,-0.000378525583073,,0.00888599405078,-0.00827252008197,0.0303240253009,-0.99946644593
112676000000,,471,,112,676000000,"""map""",,,0.0039163059555,0.0135188000277,0.000221779337153,,0.00892048507243,-0.00829787231685,0.0302442834635,-0.999468300392
112712000000,,472,,112,712000000,"""map""",,,0.00398826505989,0.0134914470837,0.00115083134733,,0.00890711863571,-0.00834713733179,0.0302392679885,-0.999468173951
112744000000,,473,,112,744000000,"""map""",,,0.00403973879293,0.0135253984481,0.0018636083696,,0.00892401847241,-0.00835826910061,0.0302310914999,-0.999468173951
112776000000,,474,,112,776000000,"""map""",,,0.00407515838742,0.0135918669403,0.00248796795495,,0.00886771024164,-0.00835226189877,0.030193496511,-0.999469859825
112812000000,,475,,112,812000000,"""map""",,,0.00408867467195,0.0136911058798,0.00305183068849,,0.00886191513229,-0.00835864179565,0.0301700628633,-0.999470618468
112844000000,,476,,112,840000000,"""map""",,,0.00417504413053,0.0137322498485,0.00328484340571,,0.00886316107792,-0.0083511383601,0.0301493266138,-0.999471208524
112876000000,,477,,112,876000000,"""map""",,,0.00431366218254,0.013713747263,0.00350688281469,,0.00907277558901,-0.00839942700049,0.0300754010415,-0.999471208524
112912000000,,478,,112,912000000,"""map""",,,0.00439058383927,0.0137680033222,0.0038719647564,,0.00902092173271,-0.00837858281146,0.0300857270194,-0.999471503552
112944000000,,479,,112,944000000,"""map""",,,0.00440678093582,0.0138614056632,0.00407112762332,,0.00900738059649,-0.00838683715238,0.0300797843137,-0.999471714286
112976000000,,480,,112,976000000,"""map""",,,0.00439593195915,0.0139889465645,0.00412677414715,,0.00899536501977,-0.00842093636063,0.030116704953,-0.999470449881
113012000000,,481,,113,12000000,"""map""",,,0.00433671521023,0.0141357360408,0.00417328160256,,0.00898820915167,-0.00842156210139,0.0300742630766,-0.999471840727
113044000000,,482,,113,44000000,"""map""",,,0.00426988163963,0.0141391549259,0.0044350461103,,0.00901861818519,-0.00842993870521,0.0300297981514,-0.999472810105
113076000000,,483,,113,76000000,"""map""",,,0.00420446693897,0.014025256969,0.00490139657632,,0.00895220109042,-0.00840941080276,0.0299925824842,-0.999474706713
113112000000,,484,,113,112000000,"""map""",,,0.00405322853476,0.0140093136579,0.00545337656513,,0.00894796212174,-0.00846529414885,0.029946726713,-0.999475633943
113144000000,,485,,113,144000000,"""map""",,,0.00388138694689,0.0140566295013,0.00578656513244,,0.00894775251937,-0.008486910399,0.0299425120281,-0.99947554965
113176000000,,486,,113,176000000,"""map""",,,0.00371490721591,0.0141867017373,0.00615233462304,,0.00892875188454,-0.0084553730112,0.0299307952043,-0.999476308293
113212000000,,487,,113,212000000,"""map""",,,0.00353841809556,0.0143488254398,0.00660884613171,,0.00888134803985,-0.00845859247066,0.0298852766079,-0.999478078461
113244000000,,488,,113,244000000,"""map""",,,0.0034189762082,0.0143709210679,0.00731578050181,,0.00889344216858,-0.0084562145076,0.0298591455618,-0.999478837104
113276000000,,489,,113,276000000,"""map""",,,0.00332639995031,0.0142833059654,0.00803126208484,,0.00887652335757,-0.00846731310225,0.02981624007,-0.999480101509
113312000000,,490,,113,312000000,"""map""",,,0.00312845082954,0.0142518999055,0.00880460068583,,0.0088024194432,-0.00846260636118,0.0297525140351,-0.999482714614
113344000000,,491,,113,344000000,"""map""",,,0.00288661359809,0.0142979761586,0.00927401613444,,0.008805857879,-0.00846466808911,0.0297291225341,-0.99948343111
113376000000,,492,,113,376000000,"""map""",,,0.00262485374697,0.014386289753,0.00978130474687,,0.00878688221741,-0.00841531317255,0.0296941406499,-0.999485032691
113412000000,,493,,113,412000000,"""map""",,,0.00231452076696,0.0145270852372,0.0102407550439,,0.0088036473406,-0.00843166098432,0.0297049723899,-0.999484400488
113444000000,,494,,113,444000000,"""map""",,,0.00203967420384,0.0144946072251,0.0107411341742,,0.00875800317829,-0.00841782540666,0.0296664501704,-0.999486086362
113476000000,,495,,113,476000000,"""map""",,,0.00180143455509,0.0143365357071,0.0112516591325,,0.00881132370581,-0.00844849169442,0.0297050145368,-0.999484189754
113512000000,,496,,113,512000000,"""map""",,,0.00145266286563,0.0142581081018,0.0118783274665,,0.00877869735293,-0.00839005582982,0.0296040306877,-0.99948798297
113544000000,,497,,113,544000000,"""map""",,,0.00116232363507,0.0142442230135,0.0123528977856,,0.00877858548269,-0.00837756315819,0.0295724626982,-0.999489036641
113576000000,,498,,113,576000000,"""map""",,,0.000837472674903,0.0142848147079,0.0126942573115,,0.00892579905328,-0.00833768312277,0.0295661406709,-0.999488193704
113612000000,,499,,113,612000000,"""map""",,,0.000522232614458,0.0143775818869,0.0130054000765,,0.00892352158,-0.00833915848884,0.0295516421551,-0.999488615173
113644000000,,500,,113,644000000,"""map""",,,0.000259732012637,0.0143431853503,0.0132090523839,,0.0088905006149,-0.00834573494068,0.0295529065605,-0.999488868054
113676000000,,501,,113,676000000,"""map""",,,6.48157147225e-05,0.0142284631729,0.0132975587621,,0.0089059732416,-0.00834998308782,0.0295249631999,-0.999489500257
113712000000,,502,,113,712000000,"""map""",,,-0.000231744765188,0.0141899455339,0.0133343571797,,0.00889625250727,-0.00839872258424,0.0295717040549,-0.999487772236
113744000000,,503,,113,744000000,"""map""",,,-0.000482351111714,0.0142671493813,0.0132859852165,,0.00889502076151,-0.00841922334231,0.0295992680939,-0.999486845005
113776000000,,504,,113,776000000,"""map""",,,-0.000753394211642,0.0143715422601,0.0132054965943,,0.00893385259986,-0.00842343792426,0.0295536230569,-0.999487814383
113812000000,,505,,113,812000000,"""map""",,,-0.00101963768248,0.0145297376439,0.0131045952439,,0.00891289499712,-0.00834921477217,0.0295123612922,-0.999489879578
113844000000,,506,,113,844000000,"""map""",,,-0.00117332139052,0.0145631050691,0.0130893997848,,0.00890400970883,-0.00841858078808,0.0295209592493,-0.999489036641
113876000000,,507,,113,876000000,"""map""",,,-0.00124838715419,0.0144729623571,0.0131842214614,,0.0088677236389,-0.00834525344174,0.0294544515224,-0.999491986921
113912000000,,508,,113,912000000,"""map""",,,-0.0013705517631,0.0144698144868,0.013118032366,,0.00889523676411,-0.00834014926906,0.029426466015,-0.999492576977
113944000000,,509,,113,944000000,"""map""",,,-0.00151608104352,0.0145461065695,0.0129270898178,,0.00888212903248,-0.00831107722495,0.0294000820878,-0.999493757088
113976000000,,510,,113,976000000,"""map""",,,-0.00171565602068,0.0146834896877,0.0125918751583,,0.00891406389305,-0.00832732148059,0.0293977218643,-0.999493419913
114012000000,,511,,114,12000000,"""map""",,,-0.00195851759054,0.0148565340787,0.0122767854482,,0.0088956553103,-0.00834042878004,0.0293666596369,-0.999494389291
114044000000,,512,,114,44000000,"""map""",,,-0.00207909499295,0.0149723729119,0.0118803186342,,0.00892509035649,-0.00839616066089,0.0293943501164,-0.999492829858
114076000000,,513,,114,76000000,"""map""",,,-0.00207437179051,0.0150403054431,0.0113965449855,,0.00894341703276,-0.00834329464226,0.0293984383607,-0.999492956298
114112000000,,514,,114,112000000,"""map""",,,-0.00207954831421,0.0151996873319,0.010786505416,,0.00890577106843,-0.00838063504194,0.0293319306338,-0.999494979347
114144000000,,515,,114,144000000,"""map""",,,-0.00210896600038,0.0153745822608,0.010256299749,,0.00887818747897,-0.00834469542817,0.029352456149,-0.999494852906
114176000000,,516,,114,176000000,"""map""",,,-0.00215667043813,0.0156196625903,0.00961784273386,,0.00888387919683,-0.00835204025739,0.0293490001074,-0.999494852906
114212000000,,517,,114,212000000,"""map""",,,-0.00224117538892,0.0159076508135,0.00889977812767,,0.00908988585126,-0.0082740678262,0.0292986346234,-0.999495147934
114244000000,,518,,114,244000000,"""map""",,,-0.00228887726553,0.0159872788936,0.00842771120369,,0.00909675656959,-0.00832785695959,0.0293054624129,-0.999494473585
114276000000,,519,,114,276000000,"""map""",,,-0.00229179766029,0.0159119553864,0.00804438535124,,0.00910611971424,-0.00841513653857,0.0293405707377,-0.999492576977
114312000000,,520,,114,312000000,"""map""",,,-0.00236534280702,0.0158881247044,0.00756274582818,,0.00905121504762,-0.00843236192263,0.0292913010718,-0.999494389291
114344000000,,521,,114,344000000,"""map""",,,-0.00246801087633,0.0159460548311,0.00712147308514,,0.00905137612349,-0.00844169442438,0.0293117001465,-0.999493714941
114376000000,,522,,114,376000000,"""map""",,,-0.00260972208343,0.0160363838077,0.00665311701596,,0.00901916885187,-0.00844958296441,0.0292906688691,-0.999494515732
114412000000,,523,,114,412000000,"""map""",,,-0.00277012283914,0.0161685459316,0.00619381247088,,0.00902223040471,-0.00843762447527,0.0293185279359,-0.999493799235
114444000000,,524,,114,444000000,"""map""",,,-0.00287545681931,0.0161383189261,0.00596330221742,,0.00898901702114,-0.00837516319563,0.0293044930354,-0.999495021494
114476000000,,525,,114,476000000,"""map""",,,-0.0029192364309,0.0159818641841,0.00586434174329,,0.00897203177945,-0.00841637628976,0.029253411055,-0.999496370193
114512000000,,526,,114,512000000,"""map""",,,-0.00298861321062,0.0158810410649,0.0057809939608,,0.00893308817375,-0.00838302224521,0.0292252569602,-0.999497803186
114544000000,,527,,114,544000000,"""map""",,,-0.00308393826708,0.0158623158932,0.0057341856882,,0.00893208961448,-0.00838376265503,0.0291789797205,-0.999499151885
114576000000,,528,,114,576000000,"""map""",,,-0.00323077477515,0.015904346481,0.00570591771975,,0.00894669041056,-0.00829520994488,0.0291472431436,-0.999500711318
114612000000,,529,,114,612000000,"""map""",,,-0.00339734880254,0.0160250645131,0.00576116703451,,0.00897046152123,-0.00831677435522,0.0291587913801,-0.999499952675
114644000000,,530,,114,640000000,"""map""",,,-0.00350987748243,0.0160192735493,0.00630625151098,,0.00895256604756,-0.00836627337984,0.0291544081078,-0.999499868381
114676000000,,531,,114,676000000,"""map""",,,-0.00352661847137,0.0158510748297,0.007284254767,,0.00892739209303,-0.00836424681201,0.0291271390968,-0.999500922053
114712000000,,532,,114,712000000,"""map""",,,-0.00358384242281,0.0157119296491,0.00836579687893,,0.00892914771095,-0.00839815401338,0.02908229485,-0.999501849283
114744000000,,533,,114,744000000,"""map""",,,-0.0036713515874,0.0156558733433,0.00912632606924,,0.00892225674237,-0.00842295739257,0.0291000808201,-0.999501259227
114776000000,,534,,114,776000000,"""map""",,,-0.00376362586394,0.0156353823841,0.0098388036713,,0.0089158632836,-0.00836825636025,0.0290317186318,-0.999503703745
114812000000,,535,,114,812000000,"""map""",,,-0.00384668959305,0.0156865306199,0.0104023646563,,0.00893248585248,-0.00836181488946,0.0290047025019,-0.999504420241
114844000000,,536,,114,844000000,"""map""",,,-0.00386509252712,0.0155818723142,0.0106600346044,,0.0089296342107,-0.00837205276644,0.0289489843682,-0.999506021821
114876000000,,537,,114,876000000,"""map""",,,-0.00381305627525,0.0153808668256,0.0106220925227,,0.00886811520535,-0.00832539266546,0.0289457812077,-0.999507033346
114912000000,,538,,114,912000000,"""map""",,,-0.00378994247876,0.0152120795101,0.0105658313259,,0.00888275576106,-0.00828846169525,0.0288685681812,-0.999509393569
114944000000,,539,,114,944000000,"""map""",,,-0.00381391542032,0.015123850666,0.0104887578636,,0.00891206403743,-0.00829194893537,0.028881717998,-0.999508719219
114976000000,,540,,114,976000000,"""map""",,,-0.00387409701943,0.0151050314307,0.0103669883683,,0.00887435563485,-0.00826283219255,0.0288680624191,-0.999509730744
115012000000,,541,,115,12000000,"""map""",,,-0.00396530330181,0.0151684125885,0.0101011265069,,0.00909253809811,-0.00826969019274,0.0288172754666,-0.999509182835
115044000000,,542,,115,44000000,"""map""",,,-0.00402463506907,0.0150455990806,0.00985337048769,,0.00909085679282,-0.00825932803607,0.0287761401424,-0.99951044724
115072000000,,543,,115,72000000,"""map""",,,-0.00408314680681,0.0147532736883,0.00948642753065,,0.00903937610488,-0.00814104516947,0.0287663620736,-0.999512133114
115112000000,,544,,115,112000000,"""map""",,,-0.00419096276164,0.0145305823535,0.00908624380827,,0.0090208807589,-0.00817322638742,0.0287740749469,-0.999511838086
115144000000,,545,,115,144000000,"""map""",,,-0.00431496696547,0.0144549729303,0.00882854033262,,0.00897339969987,-0.00818275816062,0.0287465952016,-0.999513018198
115176000000,,546,,115,176000000,"""map""",,,-0.00446707988158,0.0144544932991,0.0085059767589,,0.00897471880568,-0.00826281803385,0.0287342883219,-0.999512681023
115212000000,,547,,115,212000000,"""map""",,,-0.00471268501133,0.0145491678268,0.00814514048398,,0.00888118161331,-0.00822163414204,0.0287381658319,-0.999513776841
115244000000,,548,,115,244000000,"""map""",,,-0.00479870848358,0.0143473818898,0.00769323576242,,0.00892048383766,-0.0082456430696,0.0287461315863,-0.999512976051
115276000000,,549,,115,276000000,"""map""",,,-0.00491988286376,0.0139346765354,0.00690447632223,,0.00893276645418,-0.00826514839648,0.0287829257851,-0.999511585205
115312000000,,550,,115,312000000,"""map""",,,-0.00511880405247,0.0135363042355,0.00599619653076,,0.00894850099637,-0.00824925580361,0.0287786689534,-0.999511711646
115344000000,,551,,115,344000000,"""map""",,,-0.0053176227957,0.0133492695168,0.00530901504681,,0.00894928917124,-0.00825961415308,0.02876707857,-0.999512006674
115376000000,,552,,115,376000000,"""map""",,,-0.00553928734735,0.013260204345,0.00470697274432,,0.00888206661481,-0.00823000037379,0.0287839373094,-0.999512343848
115412000000,,553,,115,412000000,"""map""",,,-0.00578721472993,0.0132403941825,0.00418967055157,,0.00882102974636,-0.00824881400257,0.0287640439969,-0.999513271079
115444000000,,554,,115,444000000,"""map""",,,-0.00592443998903,0.0131200673059,0.00407121609896,,0.00883622395278,-0.0082266826883,0.0287200848339,-0.999514577631
115476000000,,555,,115,476000000,"""map""",,,-0.00597092416137,0.012964643538,0.00411205831915,,0.0088565786786,-0.0082385926921,0.0287388823284,-0.999513818988
115512000000,,556,,115,512000000,"""map""",,,-0.00610975036398,0.0129091693088,0.0042287344113,,0.00879279277784,-0.00820306349561,0.0287337825597,-0.999514788366
115544000000,,557,,115,544000000,"""map""",,,-0.00623892061412,0.0129459137097,0.00433291075751,,0.00878752355744,-0.00823647495702,0.0287355948742,-0.999514493338
115576000000,,558,,115,576000000,"""map""",,,-0.00641589658335,0.0130623066798,0.00462890742347,,0.00881816705338,-0.00822168789574,0.0287500090964,-0.999513987576
115612000000,,559,,115,612000000,"""map""",,,-0.00663469405845,0.0132597126067,0.00488786632195,,0.00881893672728,-0.00822137525173,0.0287719676044,-0.999513271079
115644000000,,560,,115,644000000,"""map""",,,-0.00676853954792,0.0133558753878,0.00548568693921,,0.00877180656958,-0.00817500921146,0.0287634117942,-0.999514409044
115676000000,,561,,115,676000000,"""map""",,,-0.00680762389675,0.0133570302278,0.00614368077368,,0.00898886833414,-0.00819577157633,0.028746763789,-0.999512681023
115712000000,,562,,115,712000000,"""map""",,,-0.00690161203966,0.01341512613,0.00710302917287,,0.00894781364054,-0.00816025071454,0.0287721361918,-0.999512681023
115744000000,,563,,115,744000000,"""map""",,,-0.00702279433608,0.013505032286,0.00783431436867,,0.00894717057182,-0.00819921580526,0.0287582698787,-0.99951272317
115776000000,,564,,115,776000000,"""map""",,,-0.00716268736869,0.0136406570673,0.00843691267073,,0.00895386253648,-0.00824389558059,0.0287487025441,-0.99951259673
115812000000,,565,,115,812000000,"""map""",,,-0.00735769793391,0.0138529213145,0.00893232785165,,0.00889726458728,-0.00830824459864,0.0287504305649,-0.999512554583
115844000000,,566,,115,844000000,"""map""",,,-0.00737850368023,0.0139261297882,0.00965036544949,,0.00889651466973,-0.00832795796385,0.0287553617461,-0.999512259555
115876000000,,567,,115,876000000,"""map""",,,-0.00724492967129,0.0138677330688,0.0102484086528,,0.00884664671613,-0.00830537416777,0.0288018918669,-0.999511500911
115912000000,,568,,115,912000000,"""map""",,,-0.00715147936717,0.0139239896089,0.010829353705,,0.00888458694696,-0.00838418860985,0.0287909336863,-0.999510826562
115944000000,,569,,115,944000000,"""map""",,,-0.00715036597103,0.0140624074265,0.0112446611747,,0.00883729192676,-0.0083536924015,0.0287877726726,-0.999511627352
115976000000,,570,,115,976000000,"""map""",,,-0.00720331771299,0.0142842819914,0.0116461543366,,0.00885122821027,-0.00838343342393,0.0287632853537,-0.99951192238
116012000000,,571,,116,12000000,"""map""",,,-0.00732929492369,0.0145640941337,0.0118554495275,,0.00886818589599,-0.00816527590305,0.0287814506454,-0.999513060345
116044000000,,572,,116,44000000,"""map""",,,-0.00756653537974,0.0146925412118,0.012120434083,,0.00889701680991,-0.00819093032754,0.0287997845245,-0.999512090967
116076000000,,573,,116,76000000,"""map""",,,-0.00791759509593,0.0146686024964,0.0122963488102,,0.00892533455303,-0.0082956188187,0.0288082138942,-0.999510742268
116112000000,,574,,116,112000000,"""map""",,,-0.00838712695986,0.0147570623085,0.01235516835,,0.00888280659246,-0.0083624839501,0.0287463001737,-0.999512301702
116144000000,,575,,116,144000000,"""map""",,,-0.00876827165484,0.0148971676826,0.0124923847616,,0.00885509687114,-0.00840070272468,0.0287580591444,-0.99951192238
116176000000,,576,,116,176000000,"""map""",,,-0.00915071181953,0.0150848021731,0.0125090442598,,0.00887693449514,-0.00843989242024,0.0287737377721,-0.999510910856
116212000000,,577,,116,212000000,"""map""",,,-0.00956579204649,0.015342595987,0.0123474979773,,0.0088535557741,-0.00847132909188,0.0287618945077,-0.999511205884
116244000000,,578,,116,244000000,"""map""",,,-0.0098647242412,0.0154937133193,0.0119804739952,,0.00888287294082,-0.00848445380161,0.0287855388897,-0.999510152212
116276000000,,579,,116,276000000,"""map""",,,-0.010066382587,0.0155476899818,0.011439201422,,0.00884779934395,-0.00856182702932,0.0288038727688,-0.999509267129
116312000000,,580,,116,312000000,"""map""",,,-0.0103630525991,0.0157150700688,0.0106486557052,,0.0088566500175,-0.00860280315033,0.028853901078,-0.999507454814
116344000000,,581,,116,344000000,"""map""",,,-0.0106219239533,0.0159070696682,0.00988238118589,,0.00882154993478,-0.00863570896274,0.0288740894184,-0.999506822611
116376000000,,582,,116,376000000,"""map""",,,-0.0109055275097,0.0161588806659,0.0090262144804,,0.0088074335342,-0.00869205518844,0.0288994196743,-0.99950576894
116412000000,,583,,116,412000000,"""map""",,,-0.0112452860922,0.0164483673871,0.00812980253249,,0.00880280927583,-0.00872058856373,0.028939585621,-0.999504378094
116444000000,,584,,116,444000000,"""map""",,,-0.0113839637488,0.0166257806122,0.0073215123266,,0.00879293624279,-0.00871992488463,0.0289695941771,-0.999503619451
116476000000,,585,,116,472000000,"""map""",,,-0.0114063508809,0.0167039558291,0.00661107990891,,0.00876231550651,-0.008767813975,0.0289821960848,-0.999503071542
116512000000,,586,,116,512000000,"""map""",,,-0.0115187419578,0.0168710257858,0.00557440659031,,0.00876999819607,-0.00872065681055,0.0289602797236,-0.999504083066
116544000000,,587,,116,544000000,"""map""",,,-0.0116522759199,0.0170540530235,0.0047382991761,,0.00876109805708,-0.00873759382671,0.0289485628997,-0.999504335947
116576000000,,588,,116,576000000,"""map""",,,-0.0118116484955,0.0172973703593,0.00383229716681,,0.00871066024769,-0.00868863751352,0.0289497008646,-0.999505136737
116612000000,,589,,116,612000000,"""map""",,,-0.012009668164,0.0176147762686,0.00287981517613,,0.00872010400295,-0.00870757966072,0.0289127380785,-0.999506021821
116644000000,,590,,116,644000000,"""map""",,,-0.0123478844762,0.0178141854703,0.00198019458912,,0.00871834628656,-0.0085295823853,0.0289160255327,-0.999507454814
116676000000,,591,,116,676000000,"""map""",,,-0.0127737754956,0.0179068911821,0.00125931098592,,0.00868875180057,-0.00859709586406,0.0288815072637,-0.99950817131
116712000000,,592,,116,712000000,"""map""",,,-0.013348643668,0.0180493723601,0.000547385949176,,0.00871446758289,-0.00861174490882,0.0288910324515,-0.999507496961
116744000000,,593,,116,744000000,"""map""",,,-0.0138137275353,0.0182086378336,0.000106537343527,,0.0087478716048,-0.00865280909987,0.0288967644229,-0.999506738318
116776000000,,594,,116,776000000,"""map""",,,-0.0143324704841,0.0184222906828,-0.000282722554402,,0.00880807853739,-0.00872367359779,0.0289255507204,-0.999504757416
116812000000,,595,,116,812000000,"""map""",,,-0.0149018513039,0.0186812449247,-0.000658845587168,,0.00877758882059,-0.00875010536333,0.0288981552689,-0.999505516059
116844000000,,596,,116,844000000,"""map""",,,-0.0152674838901,0.0186795406044,-0.00104177324101,,0.00880546096767,-0.0087900725202,0.0289044351493,-0.999504799563
116876000000,,597,,116,876000000,"""map""",,,-0.0154699385166,0.0184554345906,-0.00132167595439,,0.0087925900799,-0.00885199970545,0.0289024963943,-0.999504378094
116912000000,,598,,116,912000000,"""map""",,,-0.0158170666546,0.0182624030858,-0.00155767216347,,0.00878576990358,-0.00882715706183,0.0288793156276,-0.999505389618
116944000000,,599,,116,944000000,"""map""",,,-0.0161592625082,0.0182086005807,-0.00177897396497,,0.00878901383852,-0.0088774040631,0.0287981407974,-0.99950724408
116976000000,,600,,116,976000000,"""map""",,,-0.0165566857904,0.018173051998,-0.00209689512849,,0.00877437426034,-0.00878987177796,0.028781282058,-0.999508592779
117012000000,,601,,117,12000000,"""map""",,,-0.017004435882,0.0181618835777,-0.00242660474032,,0.00872453405822,-0.00882275841026,0.028781829967,-0.999508719219
117044000000,,602,,117,44000000,"""map""",,,-0.017220530659,0.0179134234786,-0.00249324389733,,0.00873421095046,-0.00878432551354,0.0287565418579,-0.999509730744
117076000000,,603,,117,76000000,"""map""",,,-0.017227018252,0.0174397937953,-0.00242677424103,,0.00870491305902,-0.00876625693269,0.0287212227988,-0.999511163737
117112000000,,604,,117,112000000,"""map""",,,-0.0173943936825,0.0169550422579,-0.00228150887415,,0.00868960132299,-0.00881066843345,0.0287158701491,-0.999511037296
117144000000,,605,,117,144000000,"""map""",,,-0.0176039729267,0.016637025401,-0.00220099813305,,0.00869643883627,-0.00878989216711,0.0287427176916,-0.999510405093
117176000000,,606,,117,176000000,"""map""",,,-0.017840012908,0.0163921061903,-0.00206853542477,,0.00868274321733,-0.00876659470686,0.0287429705727,-0.999510657975
117212000000,,607,,117,212000000,"""map""",,,-0.0181018672884,0.0161765459925,-0.00202680146322,,0.00866489256584,-0.0087102866613,0.0287274183856,-0.999511795939
117244000000,,608,,117,244000000,"""map""",,,-0.0184265803546,0.0159956905991,-0.00186414620839,,0.00869155874621,-0.00874830008833,0.0287347097904,-0.999510995149
117276000000,,609,,117,276000000,"""map""",,,-0.0188097339123,0.0158566497266,-0.00177169567905,,0.00870517732316,-0.00872806182198,0.0287280505883,-0.99951124803
117312000000,,610,,117,312000000,"""map""",,,-0.0193317197263,0.0157675854862,-0.0018007394392,,0.00870796101909,-0.00873141312669,0.02865581089,-0.999513271079
117344000000,,611,,117,344000000,"""map""",,,-0.0194009020925,0.0153812905774,-0.00203713867813,,0.00870776197015,-0.00869972940182,0.0286402587029,-0.999513987576
117376000000,,612,,117,376000000,"""map""",,,-0.0194308441132,0.0149690480903,-0.00237277685665,,0.00870967378724,-0.00871134145474,0.0285855942403,-0.999515462715
117412000000,,613,,117,412000000,"""map""",,,-0.0195235572755,0.0146388513967,-0.00276400102302,,0.00867966074413,-0.00869530774877,0.0285249870722,-0.999517570058
117444000000,,614,,117,444000000,"""map""",,,-0.0196863748133,0.0143799353391,-0.00310929655097,,0.00868563043337,-0.0087226762167,0.0285419722521,-0.999516853561
117476000000,,615,,117,476000000,"""map""",,,-0.0199220106006,0.0141782658175,-0.0035295386333,,0.00868480677169,-0.00864719432624,0.0285148718285,-0.999518244407
117512000000,,616,,117,512000000,"""map""",,,-0.0203091017902,0.0140054216608,-0.00396967865527,,0.00875611068086,-0.00869215381577,0.0285332478545,-0.999516727121
117544000000,,617,,117,544000000,"""map""",,,-0.020325999707,0.0137149030343,-0.00418852129951,,0.00871901554592,-0.00870305731854,0.0285174427863,-0.999517443617
117576000000,,618,,117,576000000,"""map""",,,-0.0203196723014,0.0134018315002,-0.00438121985644,,0.0086319148158,-0.00862778072933,0.0284868441743,-0.999519719547
117612000000,,619,,117,612000000,"""map""",,,-0.020413512364,0.013149170205,-0.00459189666435,,0.008631424088,-0.00863310122256,0.0283843008918,-0.999522543386
117644000000,,620,,117,644000000,"""map""",,,-0.0205874219537,0.0129387397319,-0.00498777627945,,0.00865611056227,-0.00863392544543,0.0283813506124,-0.999522459092
117676000000,,621,,117,676000000,"""map""",,,-0.020809231326,0.0127484705299,-0.00533398985863,,0.00861302391287,-0.00853401837455,0.0283370542747,-0.999524945756
117712000000,,622,,117,712000000,"""map""",,,-0.0211740490049,0.0125738317147,-0.00572268106043,,0.00862368382684,-0.00847246482391,0.0283351155196,-0.999525367225
117744000000,,623,,117,744000000,"""map""",,,-0.0210859552026,0.0123717859387,-0.00549305882305,,0.00863766867801,-0.00848830150224,0.0283333032051,-0.999525240784
117776000000,,624,,117,776000000,"""map""",,,-0.0209321267903,0.0121836187318,-0.00524078356102,,0.00864966154523,-0.00852292963492,0.0283460737002,-0.999524439994
117812000000,,625,,117,812000000,"""map""",,,-0.0209184195846,0.0120146144181,-0.00505191320553,,0.00857581848652,-0.00840052906443,0.0283241994859,-0.999526673777
117844000000,,626,,117,844000000,"""map""",,,-0.0210061203688,0.011881348677,-0.00483404006809,,0.00858233492848,-0.00839666919102,0.0283729212427,-0.999525325078
117876000000,,627,,117,876000000,"""map""",,,-0.021165439859,0.0117689101025,-0.00473304372281,,0.00854137052236,-0.00844417162701,0.0283985043798,-0.999524524288
117912000000,,628,,117,912000000,"""map""",,,-0.0214651171118,0.0116580231115,-0.00473153451458,,0.00870579859559,-0.0084702894559,0.0283644075793,-0.999523892085
117944000000,,629,,117,944000000,"""map""",,,-0.0213539041579,0.0114031871781,-0.00459121074528,,0.00872498068002,-0.00844308893354,0.0283688329984,-0.999523849938
117976000000,,630,,117,976000000,"""map""",,,-0.0212177094072,0.0111321620643,-0.00442149071023,,0.00878099082679,-0.00850262568905,0.0283784846267,-0.999522543386
118012000000,,631,,118,12000000,"""map""",,,-0.0211944784969,0.0109062027186,-0.00424810918048,,0.00886108496491,-0.00853205935641,0.0283850173883,-0.999521405421
118044000000,,632,,118,44000000,"""map""",,,-0.0213513709605,0.0106685897335,-0.00380210857838,,0.00882628633094,-0.00842072828114,0.0283424912181,-0.999523892085
118076000000,,633,,118,76000000,"""map""",,,-0.0217702221125,0.0103808837011,-0.00220442237332,,0.00696506824749,-0.00637184756807,0.0281506387637,-0.99955912685
118112000000,,634,,118,112000000,"""map""",,,-0.0227004773915,0.00987926311791,0.00173203006852,,0.00303535665785,-0.00278376717836,0.0278282996663,-0.999604223978
118144000000,,635,,118,144000000,"""map""",,,-0.0234943348914,0.00922172050923,0.00622248044237,,0.000145823588934,-2.32471767787e-05,0.0276667086491,-0.999617289501
118176000000,,636,,118,176000000,"""map""",,,-0.0244728475809,0.00843507889658,0.0115171847865,,-0.00675001450861,0.00688548670396,0.0271988364838,-0.999583614169
118212000000,,637,,118,212000000,"""map""",,,-0.025661598891,0.00756125152111,0.017397178337,,-0.0155348051269,0.0159784382857,0.026767252755,-0.999393279001
118244000000,,638,,118,244000000,"""map""",,,-0.0270513575524,0.00652381964028,0.0238509494811,,-0.0190285734643,0.0195492957197,0.026552767443,-0.999275141385
118276000000,,639,,118,276000000,"""map""",,,-0.0290842112154,0.00493421079591,0.0327025838196,,-0.0283331448252,0.029372945115,0.0261574721508,-0.998824465134
118312000000,,640,,118,312000000,"""map""",,,-0.0310251358896,0.00334872188978,0.0404064804316,,-0.0398312650923,0.0412883738416,0.0257953885752,-0.998019755355
118344000000,,641,,118,344000000,"""map""",,,-0.0327014513314,0.00142145180143,0.0481699109077,,-0.0443246384882,0.0459713176705,0.0257188920452,-0.997627494636
