rosbagTimestamp,header,seq,stamp,secs,nsecs,frame_id,pose,position,x,y,z,orientation,x,y,z,w
104744000000,,255,,104,744000000,"""map""",,,-0.0072905914858,-0.00485460320488,0.00840890873224,,0.00868190431651,-0.0101632410829,0.0360992393649,-0.999258830555
104776000000,,256,,104,776000000,"""map""",,,-0.00690748170018,-0.00498251803219,0.00818426348269,,0.00861391190097,-0.0101912005778,0.0360222370727,-0.999261907275
104812000000,,257,,104,812000000,"""map""",,,-0.00630568061024,-0.00518961111084,0.00786022096872,,0.00865798705012,-0.0101866183428,0.036009635165,-0.999262033715
104844000000,,258,,104,844000000,"""map""",,,-0.00589899113402,-0.00527733005583,0.00781803019345,,0.00863370684338,-0.0101839640791,0.0359835884126,-0.999263213827
104876000000,,259,,104,876000000,"""map""",,,-0.00554669462144,-0.00528486957774,0.00781408604234,,0.00872887179314,-0.0101895235118,0.0358507836929,-0.99926704919
104912000000,,260,,104,912000000,"""map""",,,-0.00519664958119,-0.0052921124734,0.00769517105073,,0.00871921843615,-0.0101593006818,0.0357855825183,-0.999269873029
104944000000,,261,,104,944000000,"""map""",,,-0.00482016708702,-0.00530925393105,0.00753627857193,,0.00869175326122,-0.0101799380673,0.0357452058374,-0.999271306022
104976000000,,262,,104,976000000,"""map""",,,-0.00446371827275,-0.00530077796429,0.00749966362491,,0.00872557865901,-0.010142909509,0.0356877175361,-0.999273413364
105012000000,,263,,105,12000000,"""map""",,,-0.00400797976181,-0.00530499266461,0.0074788723141,,0.00874667126338,-0.0101623121235,0.0356494481976,-0.999274424889
105044000000,,264,,105,44000000,"""map""",,,-0.00370996352285,-0.00524522271007,0.00688923615962,,0.00874169571266,-0.0101938849698,0.0356615443431,-0.999273708392
105076000000,,265,,105,76000000,"""map""",,,-0.00345741887577,-0.00512873893604,0.00576674938202,,0.00876090961302,-0.0101031070378,0.0356769700897,-0.999273961273
105112000000,,266,,105,112000000,"""map""",,,-0.00320753687993,-0.00503974594176,0.00464628404006,,0.0086831893838,-0.0101410156173,0.0357007409122,-0.999273371217
105144000000,,267,,105,144000000,"""map""",,,-0.00292869284749,-0.004934808705,0.00351561862044,,0.00894481713955,-0.0101434444529,0.0356752842157,-0.999271938225
105176000000,,268,,105,176000000,"""map""",,,-0.00258853007108,-0.00483302539214,0.00252512586303,,0.00892713390242,-0.0101437789935,0.0356748627473,-0.999272106812
105212000000,,269,,105,212000000,"""map""",,,-0.00216026394628,-0.00471696769819,0.00126864970662,,0.0088926858508,-0.010138615593,0.0356306507032,-0.99927400342
105244000000,,270,,105,244000000,"""map""",,,-0.00205399817787,-0.00440407777205,0.000269120035227,,0.00885455011457,-0.0101383331597,0.0356209990749,-0.999274719917
105276000000,,271,,105,276000000,"""map""",,,-0.00216144951992,-0.00387831404805,-0.000731506734155,,0.00878994945019,-0.0101554527651,0.0355807909814,-0.999276574378
105312000000,,272,,105,312000000,"""map""",,,-0.00221974984743,-0.00340126780793,-0.00171960168518,,0.00883853011391,-0.0101686146002,0.0355561772219,-0.999276911553
105344000000,,273,,105,344000000,"""map""",,,-0.00222594221123,-0.00297482381575,-0.00268558622338,,0.00885313510821,-0.0101355519205,0.0355238084422,-0.999278260252
105376000000,,274,,105,376000000,"""map""",,,-0.00219149608165,-0.00259204418398,-0.00338836899027,,0.00883009687526,-0.010053960602,0.0354750866853,-0.999281041944
105412000000,,275,,105,412000000,"""map""",,,-0.00211067823693,-0.00214456650428,-0.00420928793028,,0.00883641515706,-0.0100124865802,0.0354227402995,-0.99928323358
105444000000,,276,,105,444000000,"""map""",,,-0.00207371404395,-0.00180766929407,-0.0047793216072,,0.00882998051868,-0.0100386275044,0.0354045750078,-0.999283697195
105476000000,,277,,105,476000000,"""map""",,,-0.00209228694439,-0.0014933173079,-0.00527601223439,,0.00882042569641,-0.0100074724223,0.0353645355017,-0.999285467363
105512000000,,278,,105,512000000,"""map""",,,-0.0020814074669,-0.00122823030688,-0.00575378211215,,0.00882678143293,-0.0100169770717,0.0353066678787,-0.999287363971
105544000000,,279,,105,544000000,"""map""",,,-0.00202124775387,-0.000964866310824,-0.00633086357266,,0.00884908119054,-0.0100138541302,0.0352435318996,-0.99928938702
105576000000,,280,,105,576000000,"""map""",,,-0.00192021031398,-0.000739705108572,-0.00694768177345,,0.00882233551664,-0.00997159882761,0.0351911855137,-0.999291915831
105612000000,,281,,105,612000000,"""map""",,,-0.00171591562685,-0.000489337544423,-0.00771660078317,,0.00881641005664,-0.00994613278801,0.0351790893682,-0.999292716621
105644000000,,282,,105,644000000,"""map""",,,-0.00177264295053,-0.000242628666456,-0.00866494234651,,0.00880278686988,-0.00984786004324,0.0351651809082,-0.999294233907
105676000000,,283,,105,676000000,"""map""",,,-0.0019918247126,7.66848897911e-05,-0.00979060772806,,0.00882119327119,-0.00984522314871,0.0351011176985,-0.99929634125
105712000000,,284,,105,712000000,"""map""",,,-0.00213515292853,0.000420527590904,-0.0108506074175,,0.00883011547914,-0.0096469470042,0.0350393725654,-0.999300429494
105744000000,,285,,105,744000000,"""map""",,,-0.00221515144221,0.00080760801211,-0.0119123244658,,0.00881164618683,-0.00968066423606,0.0350353686148,-0.999300387347
105776000000,,286,,105,776000000,"""map""",,,-0.00225384789519,0.000994740054011,-0.0125253265724,,0.00881302666075,-0.00966750635215,0.0350198164277,-0.99930101955
105812000000,,287,,105,812000000,"""map""",,,-0.00229333643802,0.00126915122382,-0.0135709792376,,0.00879120550036,-0.00969334331694,0.0349418869048,-0.999303674801
105844000000,,288,,105,844000000,"""map""",,,-0.00231804489158,0.0014414365869,-0.0143233686686,,0.00880645483931,-0.00968322667389,0.0349389366254,-0.999303759095
105876000000,,289,,105,876000000,"""map""",,,-0.00232437276281,0.00160559476353,-0.0149338012561,,0.00884065696572,-0.00971638574812,0.034850301803,-0.999306245759
105912000000,,290,,105,912000000,"""map""",,,-0.00230353767984,0.00176104065031,-0.0153962504119,,0.00882979188683,-0.00975620834611,0.0347920548583,-0.999307931633
105944000000,,291,,105,944000000,"""map""",,,-0.00223807338625,0.0018661969807,-0.0158231575042,,0.00878938767057,-0.0097745579068,0.0347465784088,-0.999309743948
105976000000,,292,,105,976000000,"""map""",,,-0.00215979572386,0.00196510320529,-0.0162579957396,,0.00879501752641,-0.00985108938087,0.0346490084545,-0.999312314905
106012000000,,293,,106,12000000,"""map""",,,-0.0020317430608,0.00205454672687,-0.0166837256402,,0.00876144307523,-0.00985147977428,0.0346042063545,-0.999314211514
106044000000,,294,,106,44000000,"""map""",,,-0.0019865471404,0.00195627659559,-0.0165369641036,,0.00874214356409,-0.00987640852388,0.0345900028666,-0.999314590835
106076000000,,295,,106,76000000,"""map""",,,-0.00200956384651,0.00177047925536,-0.0161262024194,,0.00872899839832,-0.00988667980141,0.0344837928083,-0.999318299758
106112000000,,296,,106,112000000,"""map""",,,-0.00199055392295,0.00160746276379,-0.0157788135111,,0.00873848814816,-0.00988827994109,0.0344789459208,-0.999318341905
106144000000,,297,,106,144000000,"""map""",,,-0.00193905842025,0.00145820190664,-0.0155094014481,,0.00870545987734,-0.00988952948814,0.0344572402938,-0.999319395576
106176000000,,298,,106,172000000,"""map""",,,-0.00185962056275,0.00132619473152,-0.0153095861897,,0.00871941093695,-0.00982976217002,0.0344312356882,-0.999320702128
106212000000,,299,,106,212000000,"""map""",,,-0.00173447758425,0.0011926908046,-0.0150625258684,,0.00871705063111,-0.00979127032585,0.0343982768527,-0.999322303709
106244000000,,300,,106,244000000,"""map""",,,-0.00160462735221,0.00137958023697,-0.0146179283038,,0.00869295341743,-0.00976997143242,0.034395705895,-0.999322767324
106276000000,,301,,106,276000000,"""map""",,,-0.00143645948265,0.00182867632248,-0.0141025334597,,0.00861237568127,-0.00967556994154,0.0343070289257,-0.999327403477
106312000000,,302,,106,312000000,"""map""",,,-0.00122033071239,0.00226689456031,-0.0136572886258,,0.00861041741686,-0.0097536651707,0.0342645870492,-0.999328119974
106344000000,,303,,106,344000000,"""map""",,,-0.000974372669589,0.00268113613129,-0.0132357925177,,0.00859172014466,-0.00967508356526,0.0342314596263,-0.999330227316
106376000000,,304,,106,372000000,"""map""",,,-0.00069019338116,0.00305205117911,-0.0128310676664,,0.00863939193464,-0.00969205450418,0.0342034741189,-0.999330564491
106412000000,,305,,106,412000000,"""map""",,,-0.00032529674354,0.00345793529414,-0.012428406626,,0.00856994598789,-0.00963374808474,0.034188132666,-0.999332250365
106444000000,,306,,106,444000000,"""map""",,,-0.000124091107864,0.00369148515165,-0.0122428070754,,0.0085398512859,-0.00964971437286,0.0341985429376,-0.999332039631
106476000000,,307,,106,476000000,"""map""",,,-8.75497426023e-06,0.00385390268639,-0.0121899023652,,0.00855642936187,-0.00959168487138,0.0341802090585,-0.999333009008
106512000000,,308,,106,512000000,"""map""",,,0.000156804599101,0.00398541847244,-0.0121387150139,,0.00852933548256,-0.00958446463056,0.0341807991144,-0.999333346183
106544000000,,309,,106,544000000,"""map""",,,0.000377343560103,0.00410387711599,-0.0121435672045,,0.0085639045829,-0.00950133840947,0.0341813048766,-0.999333851945
106576000000,,310,,106,576000000,"""map""",,,0.000670442299452,0.004195317626,-0.0120649673045,,0.00854641989694,-0.00945585306958,0.0341600207181,-0.999335158497
106612000000,,311,,106,612000000,"""map""",,,0.00104622228537,0.00434140022844,-0.0119294263422,,0.00860324681382,-0.00940855134045,0.0341635610534,-0.99933498991
106644000000,,312,,106,644000000,"""map""",,,0.00124427780975,0.0045706583187,-0.0118342805654,,0.00872716719184,-0.00940578076139,0.0341143335343,-0.999335579966
106676000000,,313,,106,676000000,"""map""",,,0.00130228861235,0.00483338953927,-0.0114937070757,,0.00874337160554,-0.00942763890316,0.0340898462153,-0.999336127875
106712000000,,314,,106,712000000,"""map""",,,0.00132695573848,0.00508113019168,-0.011198759079,,0.00871286652742,-0.00940458192227,0.0340583203726,-0.999337645161
106740000000,,315,,106,744000000,"""map""",,,0.00138012436219,0.00530730374157,-0.0108985099941,,0.00871761121712,-0.00939452672965,0.0340576881699,-0.999337771602
106776000000,,316,,106,776000000,"""map""",,,0.00146810931619,0.0055074961856,-0.01054620184,,0.00865041300626,-0.00936602525262,0.0340296605156,-0.999339499623
106812000000,,317,,106,812000000,"""map""",,,0.00158899999224,0.00573705788702,-0.0100671378896,,0.00866362661949,-0.00937371252498,0.0340572245546,-0.999338403805
106844000000,,318,,106,844000000,"""map""",,,0.00161707599182,0.0058665368706,-0.00960300117731,,0.00864628018672,-0.00935480871677,0.0340417566612,-0.999339288888
106876000000,,319,,106,876000000,"""map""",,,0.00164041121025,0.00594592653215,-0.00905515346676,,0.00857301023665,-0.00936548796262,0.0339836361571,-0.999341775553
106912000000,,320,,106,912000000,"""map""",,,0.00172392197419,0.00604258757085,-0.00859938189387,,0.00854552361786,-0.00933488305327,0.0339862914085,-0.999342239168
106944000000,,321,,106,944000000,"""map""",,,0.00184504454955,0.00617024488747,-0.00818476360291,,0.00855955580192,-0.00933122294521,0.0339639535788,-0.999342829224
106976000000,,322,,106,976000000,"""map""",,,0.00199770438485,0.00630416581407,-0.00780241051689,,0.00864866131902,-0.00932557740778,0.0339916019114,-0.999341227644
107012000000,,323,,107,12000000,"""map""",,,0.00218481663615,0.00644392566755,-0.00736565422267,,0.00865112431664,-0.00927086022054,0.0340180701323,-0.999340806175
107044000000,,324,,107,44000000,"""map""",,,0.00198632944375,0.00650265393779,-0.00714384904131,,0.00867056815193,-0.00926676047229,0.03401368686,-0.999340806175
107076000000,,325,,107,76000000,"""map""",,,0.00150457501877,0.00650720624253,-0.00716128852218,,0.00867315314492,-0.00915785478558,0.0339184349824,-0.99934502086
107112000000,,326,,107,112000000,"""map""",,,0.00109595432878,0.00651580514386,-0.00732825836167,,0.0086613484465,-0.00913003881222,0.0339363052462,-0.999344767979
107144000000,,327,,107,144000000,"""map""",,,0.000742490170524,0.00650984002277,-0.00775329209864,,0.00869106496902,-0.00886553800171,0.0339376539453,-0.999346875321
107176000000,,328,,107,176000000,"""map""",,,0.000504280906171,0.00651027681306,-0.00797035731375,,0.0087573095457,-0.00889078369643,0.0338927675517,-0.999347591818
107212000000,,329,,107,212000000,"""map""",,,0.000259092572378,0.00649815378711,-0.00830650702119,,0.00869453984086,-0.00893903512906,0.0338288307825,-0.999349825601
107244000000,,330,,107,244000000,"""map""",,,0.000333699048497,0.00642555532977,-0.00876484531909,,0.00872677118022,-0.00893103032506,0.0338455209345,-0.999349066957
107276000000,,331,,107,276000000,"""map""",,,0.000637237390038,0.00632643746212,-0.00935245957226,,0.00877504351134,-0.00898476258696,0.0338077573582,-0.999349488426
107312000000,,332,,107,312000000,"""map""",,,0.00094953016378,0.00622495589778,-0.0098387086764,,0.00880344072226,-0.00900423365924,0.0337392687294,-0.999351385034
107344000000,,333,,107,344000000,"""map""",,,0.00130403763615,0.00616172235459,-0.0102587770671,,0.00883900909185,-0.00903913877162,0.0337138963266,-0.999351637915
107376000000,,334,,107,376000000,"""map""",,,0.00169198785443,0.00611798558384,-0.0105442684144,,0.00883375870171,-0.00906440364645,0.0337348433103,-0.999350668538
107412000000,,335,,107,412000000,"""map""",,,0.00216092634946,0.00610771076754,-0.0108604533598,,0.00877190272737,-0.00900463830397,0.0337108196067,-0.999352607293
107444000000,,336,,107,444000000,"""map""",,,0.00252817571163,0.0061312620528,-0.0112290037796,,0.00874861319794,-0.00903008259102,0.0336948880979,-0.999353113055
107476000000,,337,,107,476000000,"""map""",,,0.00289149722084,0.0061792251654,-0.0115483887494,,0.00868825120385,-0.00903651769245,0.0336618871155,-0.999354672488
107512000000,,338,,107,512000000,"""map""",,,0.00327054155059,0.00626369658858,-0.0120470495895,,0.00873367569011,-0.00906232401434,0.0336566609063,-0.99935425102
107544000000,,339,,107,544000000,"""map""",,,0.00353781343438,0.00632549636066,-0.0125363664702,,0.00875435699227,-0.00901974347311,0.0336293918953,-0.999355388985
107576000000,,340,,107,576000000,"""map""",,,0.00347498478368,0.00629597669467,-0.0127909183502,,0.00871369966854,-0.00899046468719,0.0335961801787,-0.999357074859
107612000000,,341,,107,612000000,"""map""",,,0.00344928074628,0.00628690421581,-0.0132299493998,,0.0087456131367,-0.00902653276859,0.0335811337538,-0.999357032712
107644000000,,342,,107,644000000,"""map""",,,0.00346696400084,0.006272720173,-0.0135835390538,,0.00868299160437,-0.0090257601724,0.0335374696187,-0.999358971467
107676000000,,343,,107,676000000,"""map""",,,0.00352198514156,0.00626727612689,-0.0140233887359,,0.00870797812067,-0.00903367849099,0.0334699925143,-0.999360952369
107712000000,,344,,107,712000000,"""map""",,,0.00359507952817,0.0062769097276,-0.0145951258019,,0.00874264475762,-0.0090284422081,0.0334235045404,-0.999362258921
107744000000,,345,,107,744000000,"""map""",,,0.00366252451204,0.00628995150328,-0.0152226621285,,0.00876405181699,-0.00908193800107,0.0333973734943,-0.999362511802
107776000000,,346,,107,776000000,"""map""",,,0.00364783871919,0.00623125815764,-0.0159032233059,,0.00877328347911,-0.00902785418959,0.0333122790071,-0.999365757109
107812000000,,347,,107,812000000,"""map""",,,0.00369986216538,0.00617428543046,-0.016696408391,,0.00880958431484,-0.00907889874614,0.0332323264355,-0.999367569424
107844000000,,348,,107,844000000,"""map""",,,0.00376654672436,0.00617561722174,-0.0173512585461,,0.00880062042308,-0.00903359857044,0.0332209046396,-0.999368454508
107876000000,,349,,107,876000000,"""map""",,,0.00384717085399,0.00620096037164,-0.0181309673935,,0.00882378147459,-0.00904610824075,0.0331914439925,-0.99936908671
107912000000,,350,,107,912000000,"""map""",,,0.00397066073492,0.00621755979955,-0.0188169665635,,0.00889580838074,-0.00902224727991,0.0331579372479,-0.9993698875
107944000000,,351,,107,944000000,"""map""",,,0.00409449217841,0.00622413028032,-0.0193551331758,,0.00889304652225,-0.00903651654514,0.0331487492349,-0.999370056088
107976000000,,352,,107,976000000,"""map""",,,0.00411515589803,0.00612297002226,-0.019654687494,,0.00890730994804,-0.0090053403793,0.0331589487722,-0.9993698875
108012000000,,353,,108,12000000,"""map""",,,0.00416812626645,0.00603713281453,-0.0199660044163,,0.00894388947928,-0.00898546285386,0.0331527110387,-0.9993698875
108044000000,,354,,108,44000000,"""map""",,,0.00423254165798,0.00598695222288,-0.0200982186943,,0.00894810882282,-0.00899126260646,0.033125357734,-0.999370772584
108076000000,,355,,108,76000000,"""map""",,,0.00431383354589,0.00598947051913,-0.0202558729798,,0.00895233710945,-0.00897009787218,0.0330546353222,-0.999373217102
108112000000,,356,,108,112000000,"""map""",,,0.00445616710931,0.00600833166391,-0.0204900857061,,0.00891572867941,-0.00894455682282,0.0330298108284,-0.999374607948
108144000000,,357,,108,144000000,"""map""",,,0.00458094291389,0.00607207417488,-0.0207861829549,,0.00892388542584,-0.00895809253249,0.0330338990727,-0.999374228626
108176000000,,358,,108,176000000,"""map""",,,0.00455371290445,0.00613477779552,-0.0209389477968,,0.00892004049958,-0.00891289433215,0.0330420334145,-0.99937443936
108212000000,,359,,108,212000000,"""map""",,,0.00457798829302,0.00629470543936,-0.0213085487485,,0.00911111030858,-0.00892270035442,0.0329912886089,-0.999374270773
108244000000,,360,,108,244000000,"""map""",,,0.0046476223506,0.00645704381168,-0.0215441454202,,0.00908821779918,-0.00891146050197,0.0329612379059,-0.999375577325
108276000000,,361,,108,276000000,"""map""",,,0.00476095639169,0.00664121797308,-0.021801892668,,0.00905314546794,-0.00897388613789,0.032922252071,-0.999376630996
108312000000,,362,,108,312000000,"""map""",,,0.00489079486579,0.00685854954645,-0.0220088828355,,0.00904945858787,-0.00903977254675,0.0328804002504,-0.999377431786
108344000000,,363,,108,344000000,"""map""",,,0.0050095692277,0.00699856132269,-0.022049644962,,0.0090618389783,-0.00901577674828,0.032824597823,-0.999379454835
108376000000,,364,,108,376000000,"""map""",,,0.00506300665438,0.00691879261285,-0.0219290666282,,0.00907397253996,-0.00898090364476,0.0328355560036,-0.999379286248
108412000000,,365,,108,412000000,"""map""",,,0.00513035804033,0.00683706672862,-0.0218398664147,,0.00915984368774,-0.00903688956944,0.0328208889003,-0.999378443311
108444000000,,366,,108,444000000,"""map""",,,0.00521915126592,0.00675987778232,-0.0217810776085,,0.0090906001714,-0.00899504321273,0.0327766768563,-0.999380929975
108476000000,,367,,108,476000000,"""map""",,,0.00535933859646,0.006691663526,-0.0218832883984,,0.0090855703808,-0.00903182933659,0.0327704812695,-0.999380803534
108512000000,,368,,108,512000000,"""map""",,,0.00553430616856,0.006624547299,-0.0220748856664,,0.00896237211484,-0.00900928116622,0.0327007703821,-0.999384428163
108544000000,,369,,108,544000000,"""map""",,,0.00569852488115,0.00657192058861,-0.0220286939293,,0.00894203493049,-0.00901768420701,0.0326820571813,-0.999385186807
108576000000,,370,,108,576000000,"""map""",,,0.00576887186617,0.00656048255041,-0.0212739575654,,0.00888246037812,-0.00901957552883,0.0326565161912,-0.999386451212
108612000000,,371,,108,612000000,"""map""",,,0.00584928924218,0.00658255070448,-0.0203203633428,,0.00886911289514,-0.00903903693903,0.0325559959575,-0.999389696519
108644000000,,372,,108,644000000,"""map""",,,0.0059544253163,0.00659366929904,-0.0196042377502,,0.00882069039014,-0.00905889046617,0.0324777714066,-0.999392478211
108676000000,,373,,108,676000000,"""map""",,,0.00608298042789,0.00663779769093,-0.0188265163451,,0.00881742042855,-0.00900653712445,0.0324693841838,-0.999393279001
108712000000,,374,,108,712000000,"""map""",,,0.00622787000611,0.00669352011755,-0.0179556310177,,0.00879479604966,-0.00898077955542,0.0324201145179,-0.999395259903
108744000000,,375,,108,744000000,"""map""",,,0.00640652375296,0.00672999676317,-0.0171996597201,,0.00877959600894,-0.0089761152596,0.0324199459305,-0.999395512784
108776000000,,376,,108,776000000,"""map""",,,0.00656840018928,0.00678982539102,-0.016507845372,,0.00878235102475,-0.00877787789205,0.0323887572626,-0.999398210183
108812000000,,377,,108,812000000,"""map""",,,0.006825838238,0.00686896638945,-0.0156537257135,,0.00880550680918,-0.00876480442403,0.0323877457382,-0.999398210183
108844000000,,378,,108,844000000,"""map""",,,0.00704132998362,0.00695917150006,-0.0150543041527,,0.0088189076227,-0.00875964595358,0.0324093249246,-0.999397451539
108876000000,,379,,108,876000000,"""map""",,,0.00728275952861,0.00705930311233,-0.0145750008523,,0.008788812949,-0.00875607978329,0.0324233598252,-0.999397240805
108912000000,,380,,108,908000000,"""map""",,,0.00756970886141,0.00715058669448,-0.0141663197428,,0.00876480850263,-0.00877831933038,0.0324285860344,-0.999397072218
108944000000,,381,,108,944000000,"""map""",,,0.00771842105314,0.00718223396689,-0.0138165429235,,0.00875804003877,-0.00878290406065,0.0324472992351,-0.999396482162
108976000000,,382,,108,976000000,"""map""",,,0.00747696403414,0.00702492287382,-0.0134242838249,,0.00877524490104,-0.00877005217759,0.0324424944944,-0.999396650749
109012000000,,383,,109,12000000,"""map""",,,0.00723799038678,0.00688925106078,-0.0129326777533,,0.00881455461906,-0.00877455805985,0.0324283753002,-0.999396692896
109044000000,,384,,109,44000000,"""map""",,,0.00709749851376,0.00682975165546,-0.0125629035756,,0.00882524719787,-0.00880032645627,0.0324236127063,-0.999396566456
109076000000,,385,,109,76000000,"""map""",,,0.0070119346492,0.00679688155651,-0.0122073153034,,0.00884945479364,-0.00882750245428,0.0324023285478,-0.99939677719
109112000000,,386,,109,112000000,"""map""",,,0.00698088202626,0.00680266227573,-0.0120107103139,,0.00886008511845,-0.00885148918008,0.0324000104711,-0.999396482162
109144000000,,387,,109,144000000,"""map""",,,0.00696912361309,0.00676087336615,-0.0119170378894,,0.00881444735155,-0.00883353262093,0.0324121066166,-0.999396692896
109176000000,,388,,109,176000000,"""map""",,,0.0068940971978,0.00656292727217,-0.0117474682629,,0.00882886087082,-0.00884927780595,0.0323517101827,-0.999398420917
109212000000,,389,,109,212000000,"""map""",,,0.00686411047354,0.00637346925214,-0.0115557964891,,0.00884309321768,-0.00880885382692,0.0323732893692,-0.999397915155
109244000000,,390,,109,244000000,"""map""",,,0.00689558405429,0.00630342820659,-0.011390414089,,0.00888135390502,-0.0087809994599,0.0323486756096,-0.999398673798
109276000000,,391,,109,272000000,"""map""",,,0.00697704730555,0.00629201997072,-0.0112605942413,,0.00882180296508,-0.00874936832726,0.0323483384348,-0.999399432441
109312000000,,392,,109,312000000,"""map""",,,0.00711358245462,0.00636102026328,-0.0111281182617,,0.00878645676164,-0.00873611262892,0.0323045057124,-0.999401286903
109344000000,,393,,109,344000000,"""map""",,,0.00723420036957,0.00644255196676,-0.0108508951962,,0.00874824793983,-0.00870198165362,0.0322911873083,-0.999402382721
109376000000,,394,,109,376000000,"""map""",,,0.00725172134116,0.00644937623292,-0.010440794751,,0.00871540511424,-0.00870045635842,0.0322248060219,-0.999404785091
109412000000,,395,,109,412000000,"""map""",,,0.00733101088554,0.00648488942534,-0.0100679816678,,0.00868872370632,-0.00870350392105,0.0322232465885,-0.999405080119
109444000000,,396,,109,444000000,"""map""",,,0.00741940410808,0.00652530090883,-0.00987446401268,,0.00867156025695,-0.00872791399418,0.0321851879843,-0.999406218084
109476000000,,397,,109,476000000,"""map""",,,0.00751665467396,0.0065940557979,-0.00972079578787,,0.00870890382845,-0.00875153847323,0.0321314507524,-0.999407440343
109512000000,,398,,109,512000000,"""map""",,,0.00764211360365,0.00670239608735,-0.00963359884918,,0.00873908060927,-0.00870112725385,0.0321394165068,-0.999407313902
109544000000,,399,,109,544000000,"""map""",,,0.00779277598485,0.00677860807627,-0.00940436497331,,0.00877175944827,-0.00875079940558,0.0321628923014,-0.999405838762
109576000000,,400,,109,576000000,"""map""",,,0.00799984578043,0.00673992047086,-0.00909803248942,,0.00878969896662,-0.00868148156181,0.0321436311916,-0.999406976727
109612000000,,401,,109,612000000,"""map""",,,0.00830907933414,0.00678427936509,-0.00873779412359,,0.00884056128126,-0.00867992315739,0.0320947408473,-0.999408072545
109644000000,,402,,109,644000000,"""map""",,,0.00860730838031,0.00688526360318,-0.00855073519051,,0.00884336029092,-0.00864130854612,0.0320930549734,-0.99940840972
109676000000,,403,,109,676000000,"""map""",,,0.00893822871149,0.0070339073427,-0.008515721187,,0.0088368269326,-0.00863536248601,0.0320379268956,-0.999410264181
109712000000,,404,,109,712000000,"""map""",,,0.00927182659507,0.00721423747018,-0.00860642828047,,0.00885831089762,-0.00843000499183,0.0320673453958,-0.999410938531
109744000000,,405,,109,744000000,"""map""",,,0.00948938168585,0.00738160638139,-0.00854829605669,,0.00887568219044,-0.00841748322076,0.0320471149085,-0.999411528587
109776000000,,406,,109,776000000,"""map""",,,0.00920641142875,0.00749571248889,-0.00833685323596,,0.00890325419364,-0.00840851773409,0.0320185814921,-0.999412329377
109812000000,,407,,109,812000000,"""map""",,,0.00892583932728,0.00769115705043,-0.00813898257911,,0.0088719882085,-0.00843547815524,0.0319861705656,-0.999413383048
109844000000,,408,,109,844000000,"""map""",,,0.00879348814487,0.00787427928299,-0.00810523889959,,0.00890027360062,-0.00844564122568,0.0320118379963,-0.99941216079
109876000000,,409,,109,876000000,"""map""",,,0.00871758535504,0.00811536796391,-0.00810872763395,,0.00889800896895,-0.00848664671366,0.0319336134455,-0.999414352426
109912000000,,410,,109,912000000,"""map""",,,0.00865900143981,0.00841150339693,-0.00820724479854,,0.00888002970578,-0.00854859435945,0.0318888113455,-0.999415406097
109944000000,,411,,109,944000000,"""map""",,,0.0085633257404,0.00874501094222,-0.00815602671355,,0.00890662452153,-0.00853352012132,0.0318895278419,-0.999415279656
109976000000,,412,,109,976000000,"""map""",,,0.00837770942599,0.00914608873427,-0.00798545405269,,0.00887728436749,-0.00849848359844,0.0317737083022,-0.999419578635
110012000000,,413,,110,12000000,"""map""",,,0.00816685892642,0.00967148505151,-0.00790685322136,,0.00887109532505,-0.00852357023409,0.0317431096902,-0.999420337278
110044000000,,414,,110,44000000,"""map""",,,0.00799499917775,0.0100998328999,-0.00791962537915,,0.00887882535135,-0.00853726924607,0.0317488416616,-0.999420000103
110076000000,,415,,110,76000000,"""map""",,,0.00786111969501,0.0105615034699,-0.00789583288133,,0.00885551118825,-0.00857065650597,0.0317675970092,-0.999419367901
110112000000,,416,,110,112000000,"""map""",,,0.00777354510501,0.0110377836972,-0.0078109591268,,0.00886456864477,-0.00855039984154,0.0317341324115,-0.999420463719
110144000000,,417,,110,144000000,"""map""",,,0.00766383204609,0.0113255102187,-0.00750098843127,,0.00885256430447,-0.00855512726503,0.0317205189794,-0.999421011628
110176000000,,418,,110,176000000,"""map""",,,0.00745114637539,0.0111390883103,-0.00714298756793,,0.00890647680177,-0.00853363491386,0.0317474929625,-0.999419831516
110212000000,,419,,110,212000000,"""map""",,,0.00724682025611,0.0110122943297,-0.00696374243125,,0.00889636157871,-0.00846834942494,0.031628259528,-0.999424256935
110244000000,,420,,110,244000000,"""map""",,,0.00712578510866,0.0109778810292,-0.00696505093947,,0.00893841363797,-0.00841778897063,0.0316073125443,-0.999424973431
110276000000,,421,,110,276000000,"""map""",,,0.00700893206522,0.0109693417326,-0.00692589906976,,0.00892262816148,-0.00841267487862,0.0315743958556,-0.99942619569
110312000000,,422,,110,312000000,"""map""",,,0.00690353987738,0.0110055347905,-0.00682195136324,,0.00892319617669,-0.00838082863345,0.0314626224134,-0.999429988906
110344000000,,423,,110,344000000,"""map""",,,0.00684147048742,0.0110163968056,-0.00676618749276,,0.00890285435423,-0.00836271277374,0.0314533079599,-0.999430621109
110376000000,,424,,110,376000000,"""map""",,,0.00684859463945,0.0109148006886,-0.00684681115672,,0.00892891590328,-0.00835308191016,0.0313548950686,-0.999433529242
110412000000,,425,,110,412000000,"""map""",,,0.00689073186368,0.0109030306339,-0.00701318960637,,0.00892365777523,-0.00818814316138,0.0313528720199,-0.999434962235
110444000000,,426,,110,444000000,"""map""",,,0.0069989617914,0.0110013252124,-0.0070167616941,,0.00888213393041,-0.00819326134872,0.031287165083,-0.999437448899
110476000000,,427,,110,476000000,"""map""",,,0.00711636943743,0.0111580435187,-0.00712510477751,,0.00887858048598,-0.00826980786641,0.0313083649478,-0.999436142346
110512000000,,428,,110,512000000,"""map""",,,0.00725474813953,0.0113320499659,-0.00732833193615,,0.00888080348529,-0.00824841595357,0.0312731723293,-0.999437364605
110544000000,,429,,110,544000000,"""map""",,,0.00749448826537,0.0114403190091,-0.00765501195565,,0.00888529123973,-0.00828429829455,0.0312873758173,-0.999436648109
110576000000,,430,,110,576000000,"""map""",,,0.00797789916396,0.0113729769364,-0.0081961331889,,0.00887968879581,-0.00832406866173,0.0312357459278,-0.999437954661
110612000000,,431,,110,612000000,"""map""",,,0.00858396943659,0.0114106563851,-0.00889439880848,,0.00892442598798,-0.00831885599383,0.0311794377382,-0.999439387654
110644000000,,432,,110,644000000,"""map""",,,0.00908964220434,0.0114885559306,-0.00941404700279,,0.00892639933718,-0.0083399211657,0.0311549925661,-0.999439893416
110676000000,,433,,110,676000000,"""map""",,,0.00956044811755,0.0116021828726,-0.00988068059087,,0.00894173152926,-0.00836939239068,0.031169491082,-0.999439134773
110712000000,,434,,110,712000000,"""map""",,,0.00999281555414,0.0117546841502,-0.0103094950318,,0.00895210247338,-0.00836394340821,0.0311323597085,-0.999440188444
110744000000,,435,,110,744000000,"""map""",,,0.0103355329484,0.0118889566511,-0.0107100205496,,0.00896591653515,-0.00839694395842,0.0310870096995,-0.999441199968
110776000000,,436,,110,776000000,"""map""",,,0.0104750348255,0.011924947612,-0.0110698007047,,0.00895584354126,-0.00842032613683,0.0310488668016,-0.999442253639
110812000000,,437,,110,812000000,"""map""",,,0.0106646111235,0.0120602063835,-0.0114713674411,,0.0089907658684,-0.00836460697412,0.0310454529068,-0.999442548667
110844000000,,438,,110,844000000,"""map""",,,0.0108496500179,0.0122128883377,-0.0116710066795,,0.0089524969827,-0.00836011393074,0.0310565796748,-0.999442548667
110876000000,,439,,110,876000000,"""map""",,,0.0110779935494,0.0124272359535,-0.0118594402447,,0.0090102967962,-0.00835277706579,0.0310241266015,-0.999443138723
110912000000,,440,,110,912000000,"""map""",,,0.0113060623407,0.0126755572855,-0.0120902750641,,0.00892126164046,-0.00837505951603,0.0310508055566,-0.999442927989
110944000000,,441,,110,944000000,"""map""",,,0.0114579461515,0.0128334062174,-0.0122242830694,,0.00897174588882,-0.00839213403165,0.0310138006236,-0.999443518045
110976000000,,442,,110,976000000,"""map""",,,0.0114241940901,0.0126671846956,-0.012208965607,,0.008911732131,-0.00833225976179,0.031019532595,-0.999444360982
111012000000,,443,,111,12000000,"""map""",,,0.0114759504795,0.0125887552276,-0.0121611822397,,0.00897615626429,-0.00835575132032,0.0310217242311,-0.999443518045
111044000000,,444,,111,44000000,"""map""",,,0.0115783084184,0.0126083306968,-0.0120285637677,,0.00898406182357,-0.0083286887013,0.0310066356593,-0.999444192394
111076000000,,445,,111,76000000,"""map""",,,0.0117151737213,0.0126773444936,-0.0119839534163,,0.00898968602004,-0.00831212739764,0.0310000186041,-0.999444403129
111112000000,,446,,111,112000000,"""map""",,,0.0118506774306,0.0128239216283,-0.0119267534465,,0.00890152921862,-0.0082215552196,0.0309774700402,-0.999446636912
111144000000,,447,,111,144000000,"""map""",,,0.0119517920539,0.0129248602316,-0.0118682328612,,0.00883907425689,-0.0082286397591,0.0309668490343,-0.999447479849
111176000000,,448,,111,176000000,"""map""",,,0.011898429133,0.0128342378885,-0.0118051664904,,0.00882167203305,-0.00819770481605,0.030968071293,-0.99944785917
111212000000,,449,,111,212000000,"""map""",,,0.0118839526549,0.0128024630249,-0.0117353759706,,0.00879303825031,-0.00814852629682,0.0309303920104,-0.999449713632
111244000000,,450,,111,244000000,"""map""",,,0.0118964966387,0.0128192203119,-0.0117039941251,,0.00878611495132,-0.00820307290045,0.0309390321143,-0.999448997135
111276000000,,451,,111,276000000,"""map""",,,0.0119335018098,0.0128822401166,-0.0117139387876,,0.00875459435641,-0.00812569130716,0.0308844940924,-0.99945161024
111312000000,,452,,111,312000000,"""map""",,,0.0119856102392,0.013019782491,-0.0115960463881,,0.00871897022661,-0.00809280968597,0.0308831032464,-0.999452242442
111344000000,,453,,111,344000000,"""map""",,,0.0119856828824,0.0131343910471,-0.0115211158991,,0.00869905149841,-0.00805596451176,0.0309056518103,-0.999452031708
111376000000,,454,,111,376000000,"""map""",,,0.0119546512142,0.0130456676707,-0.0114176301286,,0.00893198684038,-0.00805500278982,0.0308423893907,-0.999451905268
111412000000,,455,,111,412000000,"""map""",,,0.0119425933808,0.0130295017734,-0.0111760376021,,0.00890869358606,-0.008073204178,0.0308429794466,-0.999451989561
111444000000,,456,,111,444000000,"""map""",,,0.011930918321,0.0130583569407,-0.0109406383708,,0.00881488054586,-0.00806486774539,0.030821990316,-0.999453506848
111476000000,,457,,111,476000000,"""map""",,,0.0119515229017,0.0131302550435,-0.0107685439289,,0.00887324549344,-0.00814490646287,0.0307805178171,-0.999453591142
111512000000,,458,,111,512000000,"""map""",,,0.0119724655524,0.0132485125214,-0.0106467911974,,0.00885517906573,-0.00816304137921,0.0307596129802,-0.999454265491
111544000000,,459,,111,544000000,"""map""",,,0.0119259087369,0.0133077427745,-0.0105284545571,,0.00886443729601,-0.0081701427116,0.0307693067554,-0.999453844023
111576000000,,460,,111,576000000,"""map""",,,0.0115911951289,0.0130460690707,-0.0103131774813,,0.00876371737927,-0.00816472896125,0.0307943841302,-0.999453970463
111612000000,,461,,111,612000000,"""map""",,,0.01122706756,0.0128178820014,-0.0100411018357,,0.00877547433321,-0.00815042870842,0.0307803913765,-0.999454476225
111644000000,,462,,111,644000000,"""map""",,,0.0109615586698,0.0127255739644,-0.00974910426885,,0.0087477191929,-0.00819121249328,0.0307783683278,-0.999454391932
111676000000,,463,,111,676000000,"""map""",,,0.0106901144609,0.0126959271729,-0.00949294958264,,0.00878282146734,-0.00821034926161,0.0307708240419,-0.999454181198
111712000000,,464,,111,712000000,"""map""",,,0.0104233799502,0.0127557776868,-0.0094235856086,,0.00876273773258,-0.00822416760392,0.0307317960602,-0.999455445603
111744000000,,465,,111,744000000,"""map""",,,0.0101027218625,0.0128310574219,-0.00946711935103,,0.00872669328675,-0.00827534935381,0.0307193627399,-0.999455740631
111776000000,,466,,111,776000000,"""map""",,,0.00957604590803,0.0127996839583,-0.00972339324653,,0.0087327070123,-0.00828834517403,0.030709036762,-0.999455867071
111812000000,,467,,111,812000000,"""map""",,,0.00895886961371,0.0128477681428,-0.0100935474038,,0.00873840350461,-0.00824511823021,0.0306598092429,-0.999457721533
111844000000,,468,,111,844000000,"""map""",,,0.0085168024525,0.012940177694,-0.0103077711537,,0.00874654317647,-0.00826315438545,0.0306337624906,-0.999458311589
111876000000,,469,,111,876000000,"""map""",,,0.00807923544198,0.0130658866838,-0.0104884151369,,0.00872806550829,-0.00821508349692,0.0305965046765,-0.999459997463
111912000000,,470,,111,912000000,"""map""",,,0.00770167680457,0.0132102174684,-0.0106400251389,,0.0087725833434,-0.00804653802335,0.0305501431431,-0.999462357686
111944000000,,471,,111,944000000,"""map""",,,0.00733847217634,0.0133354431018,-0.0108827343211,,0.00878324666071,-0.0079430699798,0.0304995669249,-0.999464633616
111976000000,,472,,111,976000000,"""map""",,,0.00703631760553,0.013344520703,-0.010835910216,,0.00885825171093,-0.00795007479426,0.0305277631666,-0.999463074183
112012000000,,473,,112,12000000,"""map""",,,0.00666124466807,0.0134151438251,-0.0108603592962,,0.00887009682752,-0.00796890468085,0.030524307125,-0.999462905595
112044000000,,474,,112,44000000,"""map""",,,0.00638810265809,0.0135266315192,-0.0108369095251,,0.00891685706842,-0.0079404006108,0.0305086284973,-0.99946324277
112076000000,,475,,112,76000000,"""map""",,,0.00611557904631,0.0136814741418,-0.0107241366059,,0.00889704743223,-0.00792798107876,0.0305606798552,-0.999461851924
112112000000,,476,,112,112000000,"""map""",,,0.00581728806719,0.0138764344156,-0.0105930939317,,0.00887559139362,-0.00803960898268,0.0305723966791,-0.9994608404
112144000000,,477,,112,144000000,"""map""",,,0.0055101364851,0.0140371425077,-0.0103713348508,,0.00885479517544,-0.00807565840875,0.0306013515641,-0.999459871022
112176000000,,478,,112,176000000,"""map""",,,0.00524213677272,0.0139777483419,-0.0100689372048,,0.00884532048981,-0.0081184528123,0.030578845147,-0.999460292491
112212000000,,479,,112,212000000,"""map""",,,0.00492560630664,0.0139893703163,-0.00985872372985,,0.00881384193885,-0.0081608381774,0.0305211039645,-0.999461978364
112244000000,,480,,112,244000000,"""map""",,,0.00466092256829,0.0140383802354,-0.00967538915575,,0.00883981423454,-0.00820021588742,0.0305297019216,-0.999461135428
112276000000,,481,,112,276000000,"""map""",,,0.00439072353765,0.014113554731,-0.00947079341859,,0.00877881298923,-0.00812517764245,0.0305224105168,-0.999462526274
112312000000,,482,,112,312000000,"""map""",,,0.00412167608738,0.0142220677808,-0.00934771820903,,0.00880068582478,-0.00812340753655,0.0305333686974,-0.999462020511
112344000000,,483,,112,344000000,"""map""",,,0.00389718497172,0.0141908498481,-0.00905980076641,,0.00887440346164,-0.00811795462338,0.0305212725519,-0.999461809777
112376000000,,484,,112,376000000,"""map""",,,0.0038203143049,0.0137079488486,-0.00857983250171,,0.00884290861171,-0.0081644642881,0.0304880186884,-0.999462694861
112412000000,,485,,112,412000000,"""map""",,,0.00369540043175,0.0132012693211,-0.00796591863036,,0.00889174882428,-0.00814564711965,0.0304438487912,-0.999463790679
112444000000,,486,,112,444000000,"""map""",,,0.00358493207023,0.0128644220531,-0.00750969815999,,0.00888778467446,-0.00813585559179,0.0304346607782,-0.999464127854
112476000000,,487,,112,476000000,"""map""",,,0.00347366556525,0.0126197021455,-0.00711547397077,,0.0088970894556,-0.00823746682794,0.0304487378256,-0.999462779155
112512000000,,488,,112,512000000,"""map""",,,0.00333541561849,0.0124448481947,-0.00667756004259,,0.00884312064246,-0.00823041885824,0.0303543710318,-0.999466277343
112544000000,,489,,112,544000000,"""map""",,,0.00320109073073,0.0123452087864,-0.006245827768,,0.00886339346181,-0.00826087372234,0.0303268912866,-0.999466614518
112576000000,,490,,112,576000000,"""map""",,,0.00303023261949,0.0122955143452,-0.00588048296049,,0.0089022559019,-0.00831556016379,0.0303181247421,-0.999466108756
112612000000,,491,,112,612000000,"""map""",,,0.00280240853317,0.0123447189108,-0.00560690835118,,0.00893657835674,-0.0083099621033,0.030294775388,-0.999466530224
112644000000,,492,,112,644000000,"""map""",,,0.00276590324938,0.0123742232099,-0.0053063230589,,0.00887742976177,-0.00829801159901,0.0302964191151,-0.999467162427
112676000000,,493,,112,676000000,"""map""",,,0.00285351718776,0.0124010816216,-0.00465922662988,,0.00892575233778,-0.00832271107222,0.0302084586422,-0.999469143329
112712000000,,494,,112,712000000,"""map""",,,0.00288067921065,0.0124862529337,-0.00411779480055,,0.00894383671083,-0.00834749267829,0.0301964467904,-0.999469101182
112744000000,,495,,112,744000000,"""map""",,,0.0029024342075,0.0126135563478,-0.00361960032023,,0.00892012369613,-0.00837546647595,0.0301969946994,-0.999469059035
112776000000,,496,,112,776000000,"""map""",,,0.0029078705702,0.0127679258585,-0.00310078589246,,0.00888269317875,-0.00835363062179,0.030142035209,-0.999471250671
112812000000,,497,,112,812000000,"""map""",,,0.00288103078492,0.0129940165207,-0.00261229532771,,0.00887007371672,-0.00837064784405,0.0301372304683,-0.999471419259
112844000000,,498,,112,844000000,"""map""",,,0.00294396746904,0.0131130069494,-0.00255927210674,,0.00905460288868,-0.00834435111229,0.0300831982085,-0.999471587846
112876000000,,499,,112,876000000,"""map""",,,0.00307178031653,0.0131673095748,-0.00244594109245,,0.00908921082256,-0.00842951266808,0.0300560977849,-0.999471377112
112912000000,,500,,112,912000000,"""map""",,,0.00312758353539,0.0132685350254,-0.00227709463798,,0.00903548949867,-0.00837150269656,0.0300461511286,-0.999472641517
112936000000,,501,,112,936000000,"""map""",,,0.00314150750637,0.0133692240342,-0.00216648331843,,0.00900845945703,-0.00842083764069,0.0300553391416,-0.999472135755
112976000000,,502,,112,976000000,"""map""",,,0.00312333460897,0.013574089855,-0.00209538312629,,0.00900454856699,-0.00843179627405,0.0300712706503,-0.999471629993
113012000000,,503,,113,12000000,"""map""",,,0.0030552467797,0.0137570761144,-0.00206923484802,,0.00899477922385,-0.00842450931444,0.0300427372339,-0.999472683664
113044000000,,504,,113,44000000,"""map""",,,0.00295972498134,0.0138835161924,-0.00204591476358,,0.00901375226155,-0.00844969300308,0.0299916974004,-0.999473821629
113076000000,,505,,113,76000000,"""map""",,,0.00291783292778,0.0137817561626,-0.00172876333818,,0.00895600941215,-0.00842449875715,0.0299630796902,-0.999475381062
113112000000,,506,,113,112000000,"""map""",,,0.00278813578188,0.0137787600979,-0.00130892754532,,0.00894202211202,-0.00845217061216,0.0299439871678,-0.999475844678
113144000000,,507,,113,144000000,"""map""",,,0.00262777972966,0.013834670186,-0.00109412043821,,0.00894405250764,-0.00846492190657,0.0299090474304,-0.999476814055
113176000000,,508,,113,176000000,"""map""",,,0.00246800528839,0.0139717254788,-0.000957625336014,,0.00896091178211,-0.00845340869641,0.0299025989626,-0.999476940496
113212000000,,509,,113,212000000,"""map""",,,0.00229392736219,0.0141393123195,-0.000792902137619,,0.00888960489148,-0.00846734318951,0.0298733490497,-0.999478289195
113244000000,,510,,113,244000000,"""map""",,,0.00214041257277,0.0142543679103,-0.000585761852562,,0.00890266395255,-0.00847483861962,0.0298315815229,-0.99947942716
113276000000,,511,,113,276000000,"""map""",,,0.00208691786975,0.0141609478742,-0.000204283147468,,0.00887012703824,-0.00847927543976,0.0298003507081,-0.999480565125
113312000000,,512,,113,312000000,"""map""",,,0.00192872388288,0.0141217736527,0.000249348464422,,0.00881200636951,-0.00847744880194,0.0297480464691,-0.99948263032
113340000000,,513,,113,344000000,"""map""",,,0.00171229930129,0.0141612673178,0.000498647044878,,0.00883822703938,-0.00847524525027,0.0297380998129,-0.999482714614
113376000000,,514,,113,376000000,"""map""",,,0.00147108873352,0.0142426136881,0.000813036982436,,0.00880690933792,-0.00843281386938,0.029687692182,-0.99948490625
113412000000,,515,,113,412000000,"""map""",,,0.00117686158046,0.0143762286752,0.00107981311157,,0.00881385811435,-0.00845200667573,0.0297060260611,-0.99948410546
113444000000,,516,,113,444000000,"""map""",,,0.000890496768989,0.0144294658676,0.00140597368591,,0.00875657570075,-0.00844532597836,0.0296613925486,-0.999486002068
113476000000,,517,,113,476000000,"""map""",,,0.000691266905051,0.0142595190555,0.00187920720782,,0.00881478604472,-0.00846852885773,0.0297118001794,-0.999483810432
113512000000,,518,,113,512000000,"""map""",,,0.000383462494938,0.0141666270792,0.00244875345379,,0.00879897153053,-0.00839722715314,0.0295743171595,-0.999488615173
113544000000,,519,,113,544000000,"""map""",,,0.000123543461086,0.0141441915184,0.00286642392166,,0.00878567047493,-0.00840331978055,0.0295787847255,-0.999488530879
113576000000,,520,,113,576000000,"""map""",,,-0.000168226921232,0.0141833312809,0.00316097890027,,0.00892590168333,-0.00835451167203,0.029575033656,-0.999487814383
113612000000,,521,,113,612000000,"""map""",,,-0.000454455934232,0.0142749529332,0.00354978721589,,0.00892385305426,-0.00837029622244,0.0295593128815,-0.999488193704
113644000000,,522,,113,644000000,"""map""",,,-0.000730311090592,0.0143252117559,0.0039069801569,,0.00889149055136,-0.00835173479563,0.0295566154832,-0.999488699466
113676000000,,523,,113,676000000,"""map""",,,-0.000867451599333,0.0142014082521,0.00417191069573,,0.00892143967385,-0.00838783110184,0.0295398410375,-0.999488615173
113712000000,,524,,113,712000000,"""map""",,,-0.00110008160118,0.0141526283696,0.00433052657172,,0.00890417547683,-0.00844385459443,0.0295883099133,-0.999486845005
113744000000,,525,,113,744000000,"""map""",,,-0.0013055272866,0.0142223984003,0.00443522119895,,0.00892393780071,-0.00844746006387,0.0295967814298,-0.99948638139
113776000000,,526,,113,776000000,"""map""",,,-0.00153617514297,0.0143200280145,0.00451151328161,,0.00895577692536,-0.00845654684621,0.0295664778457,-0.999486929299
113812000000,,527,,113,812000000,"""map""",,,-0.00176638073754,0.0144720645621,0.00451633380726,,0.00890811246169,-0.00838492124061,0.0295273655703,-0.999489120935
113844000000,,528,,113,844000000,"""map""",,,-0.00193541648332,0.014589516446,0.00451538152993,,0.00889599748591,-0.00844055942292,0.0295194841096,-0.999488994494
113876000000,,529,,113,876000000,"""map""",,,-0.00196472136304,0.014484747313,0.00477920053527,,0.00886400545545,-0.00837164267843,0.0294481294951,-0.999491986921
113912000000,,530,,113,912000000,"""map""",,,-0.00203855428845,0.0144707746804,0.00506492611021,,0.00890698260511,-0.00836905011217,0.0294329987765,-0.999492029067
113944000000,,531,,113,944000000,"""map""",,,-0.00215030531399,0.0145396273583,0.00500167068094,,0.00888870902399,-0.00834196314759,0.0293882388234,-0.999493799235
113976000000,,532,,113,976000000,"""map""",,,-0.00232001813129,0.0146704986691,0.00466113165021,,0.00892678248661,-0.0083638527966,0.0294037067168,-0.999492745564
114012000000,,533,,114,12000000,"""map""",,,-0.00253666192293,0.0148379132152,0.00419366359711,,0.00890719790801,-0.0083697554545,0.0293694834758,-0.999493925676
114044000000,,534,,114,44000000,"""map""",,,-0.00269287126139,0.015004885383,0.0036253714934,,0.0089493566309,-0.00843924373332,0.0294008407311,-0.999492071214
114076000000,,535,,114,76000000,"""map""",,,-0.00264966255054,0.0150574930012,0.00290916371159,,0.00894121335763,-0.00836140085018,0.0293996184725,-0.999492787711
114112000000,,536,,114,112000000,"""map""",,,-0.00261284806766,0.0151998903602,0.00202911393717,,0.00891724521867,-0.00841007231072,0.0293312141373,-0.999494600025
114144000000,,537,,114,144000000,"""map""",,,-0.00261298567057,0.0153627283871,0.00145344785415,,0.00886438134031,-0.00835608734266,0.0293539734355,-0.999494852906
114176000000,,538,,114,176000000,"""map""",,,-0.00263493508101,0.0155970063061,0.00082030048361,,0.00889468992521,-0.00837480871347,0.029342172318,-0.999494768613
114212000000,,539,,114,212000000,"""map""",,,-0.00269689993002,0.0158752240241,-6.80478697177e-05,,0.00911371730107,-0.00832160547889,0.0292994354136,-0.999494515732
114244000000,,540,,114,244000000,"""map""",,,-0.00276381568983,0.0160523634404,-0.000822326343041,,0.00910908468741,-0.0083643994297,0.0292931555331,-0.999494389291
114276000000,,541,,114,276000000,"""map""",,,-0.00273867207579,0.0159589070827,-0.0013475016458,,0.00907559123721,-0.00842828602603,0.029318780817,-0.999493377767
114312000000,,542,,114,312000000,"""map""",,,-0.0027817171067,0.015914933756,-0.00194537453353,,0.0090628229647,-0.00846228577348,0.0292749480946,-0.999494557878
114344000000,,543,,114,344000000,"""map""",,,-0.00286324415356,0.0159585662186,-0.00234006671235,,0.00906203946138,-0.00846534784081,0.0292914696592,-0.999494052116
114376000000,,544,,114,376000000,"""map""",,,-0.00298643042333,0.0160360392183,-0.00270347483456,,0.0090195384394,-0.00847686434368,0.0292640742077,-0.999495063641
114412000000,,545,,114,412000000,"""map""",,,-0.00313066807576,0.0161566305906,-0.00303667644039,,0.00903367545551,-0.0084678442184,0.0292975809522,-0.999494009969
114444000000,,546,,114,444000000,"""map""",,,-0.00325940619223,0.016216956079,-0.00327774393372,,0.00899580768515,-0.00840971200456,0.0292746109198,-0.999495569403
114476000000,,547,,114,476000000,"""map""",,,-0.00327193946578,0.0160495005548,-0.00322772189975,,0.00898667161488,-0.00845647072258,0.0292333070082,-0.999496496633
114512000000,,548,,114,512000000,"""map""",,,-0.00330688315444,0.0159366223961,-0.00316785019822,,0.00893791365863,-0.00840325174467,0.0291853438946,-0.999498772563
114544000000,,549,,114,544000000,"""map""",,,-0.00337803713046,0.0159095283598,-0.00318697863258,,0.00899015998687,-0.00841350787568,0.0291320281313,-0.999499741941
114576000000,,550,,114,576000000,"""map""",,,-0.00350330187939,0.0159441791475,-0.00317806471139,,0.00895099574818,-0.0083372806286,0.0291272655374,-0.999500879906
114612000000,,551,,114,612000000,"""map""",,,-0.00365073722787,0.0160583425313,-0.00335895083845,,0.00896612156887,-0.00836066912491,0.0291306372853,-0.999500458437
114644000000,,552,,114,644000000,"""map""",,,-0.00379196577705,0.0161385424435,-0.00326832896098,,0.00897667311883,-0.00840966843772,0.0291211542444,-0.999500247703
114676000000,,553,,114,676000000,"""map""",,,-0.0037893098779,0.0159528851509,-0.00233673374169,,0.00893869041188,-0.00840336666069,0.0290938430865,-0.999501427815
114712000000,,554,,114,712000000,"""map""",,,-0.00382537557743,0.0157943665981,-0.00128480105195,,0.00894155950508,-0.0084289862029,0.0290468493504,-0.99950256578
114744000000,,555,,114,744000000,"""map""",,,-0.00389818591066,0.0157245397568,-0.000565094058402,,0.00893629236321,-0.00844835805104,0.029074244802,-0.999501638549
114776000000,,556,,114,776000000,"""map""",,,-0.00397754507139,0.0156915877014,-2.34751496464e-06,,0.00891595161088,-0.00837399615186,0.0289819010569,-0.999505136737
114812000000,,557,,114,812000000,"""map""",,,-0.00404927460477,0.015731472522,0.000418615702074,,0.00894479425513,-0.0083929032528,0.0289648737301,-0.999505221031
114844000000,,558,,114,844000000,"""map""",,,-0.00409726984799,0.0157081466168,0.000629282789305,,0.00891543918093,-0.00838469099699,0.0288971858914,-0.999507496961
114876000000,,559,,114,876000000,"""map""",,,-0.00402440689504,0.0154902935028,0.000422202545451,,0.00889067932742,-0.00835919995328,0.0289019063384,-0.999507749842
114912000000,,560,,114,912000000,"""map""",,,-0.00397834740579,0.0153027130291,0.0001156481012,,0.00889535960324,-0.00831955491535,0.0288260420111,-0.999510278653
114944000000,,561,,114,944000000,"""map""",,,-0.00398608064279,0.0152010368183,-0.000107468906208,,0.0089238003707,-0.00833761924395,0.0288356514925,-0.999509604303
114976000000,,562,,114,976000000,"""map""",,,-0.00403170427307,0.0151700396091,-0.000335486925906,,0.00888686752775,-0.00829411482652,0.0288250304867,-0.999510615828
115012000000,,563,,115,12000000,"""map""",,,-0.00410995492712,0.015222392045,-0.00080119346967,,0.00910306085732,-0.00831041536714,0.028764296878,-0.999510236506
115044000000,,564,,115,44000000,"""map""",,,-0.00417138310149,0.0152048710734,-0.00118120328989,,0.00909791881833,-0.00828189656215,0.0287382079788,-0.999511290177
115076000000,,565,,115,76000000,"""map""",,,-0.00421592686325,0.0148911559954,-0.00171863357536,,0.00903015528816,-0.00817652610699,0.0287254796305,-0.999513144639
115112000000,,566,,115,112000000,"""map""",,,-0.00430816458538,0.0146445445716,-0.00218083220534,,0.00903051431839,-0.00822442916957,0.0286838806911,-0.999513945429
115144000000,,567,,115,144000000,"""map""",,,-0.00442105298862,0.0145517122,-0.00254926411435,,0.00895799552065,-0.0082058422859,0.028716165177,-0.999513776841
115176000000,,568,,115,176000000,"""map""",,,-0.00456323241815,0.0145356757566,-0.00298423925415,,0.00898738360439,-0.00829446010964,0.0286901184246,-0.99951352396
115212000000,,569,,115,212000000,"""map""",,,-0.00474555511028,0.0145871937275,-0.00340283871628,,0.00890657978167,-0.00826275028608,0.0287031839477,-0.999514114016
115244000000,,570,,115,244000000,"""map""",,,-0.00491719925776,0.0145554607734,-0.00386685645208,,0.00893963402384,-0.00828490578128,0.0286982527664,-0.999513818988
115276000000,,571,,115,276000000,"""map""",,,-0.00502199726179,0.0141208032146,-0.00457015447319,,0.00894619697551,-0.00829669778214,0.0287391352095,-0.999512470289
115312000000,,572,,115,312000000,"""map""",,,-0.00520250573754,0.013697960414,-0.00530741782859,,0.00896186123865,-0.00828088995629,0.0287361006364,-0.999512638876
115344000000,,573,,115,344000000,"""map""",,,-0.00538812531158,0.0134935025126,-0.00590568175539,,0.00898370020032,-0.00827815141953,0.0287331925038,-0.999512512436
115376000000,,574,,115,376000000,"""map""",,,-0.00559779349715,0.0133887510747,-0.00642435299233,,0.00887824141788,-0.00826565039262,0.0287399781464,-0.999513313226
115412000000,,575,,115,412000000,"""map""",,,-0.00583472615108,0.0133546730503,-0.00692914286628,,0.00882357716115,-0.00825981416539,0.0287205484493,-0.999514451191
115444000000,,576,,115,444000000,"""map""",,,-0.00603759195656,0.0132955815643,-0.00727589707822,,0.00885250979962,-0.0082599378277,0.0286642824065,-0.999515757743
115476000000,,577,,115,476000000,"""map""",,,-0.00607271213084,0.0131149524823,-0.00730935344473,,0.00885082610711,-0.00827438542987,0.028705333437,-0.999514493338
115512000000,,578,,115,512000000,"""map""",,,-0.00619893427938,0.0130309509113,-0.00724893203005,,0.00880415353495,-0.00823874257271,0.028695850396,-0.999515462715
115544000000,,579,,115,544000000,"""map""",,,-0.00631905626506,0.0130468616262,-0.00718896416947,,0.0087916606781,-0.00826849588112,0.0286911720959,-0.999515504862
115576000000,,580,,115,576000000,"""map""",,,-0.00648799119517,0.013144146651,-0.00704142218456,,0.00881937828137,-0.00824345987108,0.0287137206598,-0.999514788366
115612000000,,581,,115,612000000,"""map""",,,-0.00669955415651,0.0133239114657,-0.00697282003239,,0.00884438638558,-0.00824830227232,0.0287339932939,-0.999513987576
115644000000,,582,,115,644000000,"""map""",,,-0.0068837441504,0.0134948566556,-0.00668258359656,,0.00878614003775,-0.008207737968,0.0287198740997,-0.999515209834
115676000000,,583,,115,676000000,"""map""",,,-0.00690553709865,0.0134651754051,-0.00616759434342,,0.0090072182241,-0.00822896464791,0.0287181882257,-0.999513102492
115712000000,,584,,115,712000000,"""map""",,,-0.0069800443016,0.01348812785,-0.00550911482424,,0.00893101231798,-0.00817108825803,0.0287324338605,-0.999513861135
115744000000,,585,,115,744000000,"""map""",,,-0.00708713009953,0.0135523639619,-0.00503692915663,,0.00896954593857,-0.00822736265608,0.0286992642908,-0.999513987576
115776000000,,586,,115,776000000,"""map""",,,-0.00721408007666,0.013664290309,-0.00464551430196,,0.00897090745876,-0.00829122865232,0.0287097167092,-0.999513144639
115812000000,,587,,115,812000000,"""map""",,,-0.00739709148183,0.0138545632362,-0.00429495284334,,0.00891911523812,-0.00833979927323,0.0287085787443,-0.999513271079
115844000000,,588,,115,844000000,"""map""",,,-0.00750431232154,0.0140134487301,-0.00392971048132,,0.00890374501509,-0.00836857219408,0.0287206748898,-0.999512807464
115876000000,,589,,115,876000000,"""map""",,,-0.00735462550074,0.0139323733747,-0.00349343847483,,0.00887457698812,-0.00834048504444,0.028757342648,-0.999512217408
115912000000,,590,,115,912000000,"""map""",,,-0.00724297948182,0.0139627950266,-0.00306383706629,,0.0088974807751,-0.0084154225321,0.0287500512432,-0.999511669499
115944000000,,591,,115,944000000,"""map""",,,-0.00722869159654,0.0140822920948,-0.00284477230161,,0.00885036934476,-0.00839149676637,0.0287487446909,-0.999512301702
115976000000,,592,,115,976000000,"""map""",,,-0.00726955849677,0.0142866484821,-0.00266373693012,,0.00886817745839,-0.00841312229787,0.028721180652,-0.99951272317
116012000000,,593,,116,12000000,"""map""",,,-0.00738348904997,0.0145506272092,-0.00265114963986,,0.00888996050551,-0.00819489410693,0.0287564154173,-0.99951339752
116044000000,,594,,116,44000000,"""map""",,,-0.0075548896566,0.0147661594674,-0.0025858732406,,0.00891098826382,-0.00822672771628,0.028766530661,-0.999512638876
116076000000,,595,,116,76000000,"""map""",,,-0.00790158007294,0.0147139029577,-0.00258030416444,,0.0089196513345,-0.00830621214507,0.0287653505492,-0.999511880233
116112000000,,596,,116,112000000,"""map""",,,-0.00826866272837,0.0147519744933,-0.00259211473167,,0.00889032455715,-0.0083748250536,0.028710601793,-0.999513186785
116144000000,,597,,116,144000000,"""map""",,,-0.00864064041525,0.0148539477959,-0.00275851250626,,0.00885420948242,-0.00842111859224,0.0287343304687,-0.999512470289
116176000000,,598,,116,176000000,"""map""",,,-0.00901527889073,0.0150034250692,-0.00292789773084,,0.00886580803583,-0.00845056448384,0.02873926165,-0.99951192238
116212000000,,599,,116,212000000,"""map""",,,-0.00952649489045,0.0152908507735,-0.00338665419258,,0.00885738529273,-0.00848078109888,0.0287393459437,-0.999511753793
116244000000,,600,,116,244000000,"""map""",,,-0.00982595141977,0.0154242366552,-0.0039217597805,,0.0088777940192,-0.00851298612733,0.0287839373094,-0.999509983625
116276000000,,601,,116,276000000,"""map""",,,-0.0100297536701,0.015463703312,-0.00462326593697,,0.00883266035236,-0.00858597227559,0.0287897957214,-0.999509604303
116312000000,,602,,116,312000000,"""map""",,,-0.0102706365287,0.0155786881223,-0.00528246257454,,0.00884636343909,-0.00862221715561,0.0288565141826,-0.999507286227
116344000000,,603,,116,344000000,"""map""",,,-0.0105341812596,0.0157465972006,-0.00599898723885,,0.00878924770928,-0.00860959433912,0.028869200384,-0.999507496961
116376000000,,604,,116,376000000,"""map""",,,-0.010814011097,0.015975818038,-0.0067899050191,,0.00880637030895,-0.00872641574111,0.0289106728829,-0.999505136737
116412000000,,605,,116,412000000,"""map""",,,-0.0112424530089,0.0163186695427,-0.00764347799122,,0.00880865130905,-0.00873916009251,0.0289371411038,-0.999504209507
116444000000,,606,,116,444000000,"""map""",,,-0.0113918269053,0.0164875015616,-0.00821499619633,,0.00878996352272,-0.00874908528561,0.0289743989178,-0.999503282276
116476000000,,607,,116,476000000,"""map""",,,-0.011428036727,0.0165540166199,-0.00864620599896,,0.00872079385597,-0.00875295104477,0.0289812688542,-0.999503577304
116512000000,,608,,116,512000000,"""map""",,,-0.0115159843117,0.0166767053306,-0.00902326125652,,0.0087646347665,-0.00874711868906,0.0289481835781,-0.999504209507
116544000000,,609,,116,544000000,"""map""",,,-0.011649472639,0.0168361160904,-0.00940591562539,,0.00873516143598,-0.00872081593394,0.028948773634,-0.999504715269
116576000000,,610,,116,576000000,"""map""",,,-0.0118056582287,0.0170598309487,-0.0097815040499,,0.00871826859278,-0.00871507855366,0.028942367313,-0.999505052444
116612000000,,611,,116,612000000,"""map""",,,-0.0120644336566,0.0174368899316,-0.0103296497837,,0.00870694061981,-0.00867935352154,0.0289210831545,-0.999506106115
116644000000,,612,,116,644000000,"""map""",,,-0.012398310937,0.017637103796,-0.0107205333188,,0.00870932200486,-0.00871929152366,0.0289079333377,-0.999506106115
116676000000,,613,,116,676000000,"""map""",,,-0.0128434477374,0.0177271421999,-0.0110270604491,,0.00866834002576,-0.00872799823642,0.0288598859304,-0.999507791989
116712000000,,614,,116,712000000,"""map""",,,-0.0133136156946,0.0178348366171,-0.0113025093451,,0.00867713947689,-0.00874197388855,0.0288788520123,-0.999507033346
116744000000,,615,,116,744000000,"""map""",,,-0.0137939164415,0.0179782938212,-0.0115260854363,,0.00875794218832,-0.0087527734011,0.0288879557315,-0.999506021821
116776000000,,616,,116,776000000,"""map""",,,-0.0143106468022,0.0181820355356,-0.0117319133133,,0.00878263442976,-0.00877178480738,0.0289223897068,-0.999504630975
116812000000,,617,,116,812000000,"""map""",,,-0.0150330960751,0.0184990186244,-0.0120064252988,,0.00873727908231,-0.00877353792296,0.028896174367,-0.999505726793
116844000000,,618,,116,844000000,"""map""",,,-0.0154007486999,0.0185075569898,-0.0121096717194,,0.00874123228512,-0.0087885969001,0.0288985767374,-0.999505516059
