rosbagTimestamp,header,seq,stamp,secs,nsecs,frame_id,pose,position,x,y,z,orientation,x,y,z,w
111176000000,,214,,111,176000000,"""map""",,,0.0116220517084,0.0127473482862,0.000407138868468,,0.00885672071842,-0.00823479968153,0.0309316985627,-0.999448407079
111212000000,,215,,111,212000000,"""map""",,,0.0116291977465,0.0127429747954,0.000286344555207,,0.00881987912505,-0.00814572888206,0.0309037130553,-0.999450261541
111244000000,,216,,111,244000000,"""map""",,,0.0116573367268,0.0127796204761,0.000125666716485,,0.00880623268344,-0.0082329966484,0.0308918697908,-0.999450050806
111276000000,,217,,111,276000000,"""map""",,,0.0117085911334,0.012860913761,-2.61773529928e-05,,0.00881417971044,-0.0081512320504,0.0308689419053,-0.999451399506
111312000000,,218,,111,312000000,"""map""",,,0.011773860082,0.0130152041093,-0.00011853036267,,0.00871925350365,-0.00815894720801,0.0308587845148,-0.999452453177
111344000000,,219,,111,344000000,"""map""",,,0.0117599423975,0.0130530996248,-0.000280412321445,,0.0086845590329,-0.00807959098959,0.0308664552412,-0.99945321182
111376000000,,220,,111,376000000,"""map""",,,0.0117340376601,0.0129830632359,-0.000559571722988,,0.00892209673664,-0.00807628834773,0.0308333278183,-0.999452116002
111412000000,,221,,111,412000000,"""map""",,,0.0117276906967,0.0129880663007,-0.00074584846152,,0.00894711772363,-0.00808959596819,0.030832021266,-0.999451820974
111444000000,,222,,111,444000000,"""map""",,,0.0117200864479,0.0130322622135,-0.000750987324864,,0.00883335741144,-0.00808916202852,0.0308211052322,-0.999453127526
111476000000,,223,,111,476000000,"""map""",,,0.0117442589253,0.0131183378398,-0.000741158844903,,0.00886675541384,-0.00813679002529,0.0307868819912,-0.999453548995
111512000000,,224,,111,512000000,"""map""",,,0.0117683066055,0.0132497474551,-0.000740362447686,,0.00888796281074,-0.00816156352302,0.0307785790621,-0.999453422554
111544000000,,225,,111,544000000,"""map""",,,0.0116265751421,0.0131940590218,-0.000545503222384,,0.00886899771673,-0.00820256615045,0.0307814871946,-0.999453127526
111576000000,,226,,111,576000000,"""map""",,,0.0112975109369,0.0129614528269,-0.000297144171782,,0.0088114908938,-0.00819329260901,0.0307936676338,-0.999453338261
111612000000,,227,,111,612000000,"""map""",,,0.01093926467,0.0127662997693,1.07920059236e-05,,0.00875485894724,-0.0081808274316,0.0308048365487,-0.999453633288
111644000000,,228,,111,644000000,"""map""",,,0.0106776608154,0.0126980487257,0.000194881053176,,0.00875374925859,-0.00820673658934,0.0307892000679,-0.999453928316
111676000000,,229,,111,676000000,"""map""",,,0.0104095712304,0.0126905161887,0.000135116017191,,0.00878456173294,-0.0082120281591,0.0307827937469,-0.999453759729
111712000000,,230,,111,712000000,"""map""",,,0.010145640932,0.0127708315849,5.549018897e-05,,0.00882886051968,-0.0082429549115,0.0307491605618,-0.999454181198
111744000000,,231,,111,744000000,"""map""",,,0.00975379440933,0.0128147294745,-9.49031527853e-05,,0.00873283898874,-0.00828198336655,0.0307329340251,-0.999455234869
111776000000,,232,,111,776000000,"""map""",,,0.00911551341414,0.0128083424643,-0.000445160228992,,0.00876133803739,-0.0083020229994,0.0307067608322,-0.99945561419
111812000000,,233,,111,812000000,"""map""",,,0.00863598659635,0.0128720244393,-0.000741027994081,,0.00875270445715,-0.00826679092996,0.0306528128661,-0.999457637239
111844000000,,234,,111,844000000,"""map""",,,0.00820379517972,0.0129803763703,-0.000982272089459,,0.00875696011581,-0.00828144208412,0.0306206548207,-0.999458438029
111876000000,,235,,111,876000000,"""map""",,,0.00777511391789,0.0131210070103,-0.00121525768191,,0.00872597749003,-0.00823658935855,0.0306211605829,-0.999459112379
111912000000,,236,,111,912000000,"""map""",,,0.00740555906668,0.0132793532684,-0.00138507527299,,0.00876726224204,-0.00817831679241,0.030596926145,-0.999459913169
111944000000,,237,,111,944000000,"""map""",,,0.00704174954444,0.0134751824662,-0.00171821180265,,0.00882211218774,-0.00795519555403,0.0305099350496,-0.999463874973
111976000000,,238,,111,976000000,"""map""",,,0.00671608280391,0.0137141952291,-0.00197582715191,,0.00883752291124,-0.0079572823581,0.0305269202296,-0.99946324277
112012000000,,239,,112,12000000,"""map""",,,0.00631406903267,0.0140466401353,-0.00241853808984,,0.00887733550759,-0.00797329589679,0.0305701207493,-0.999461430455
112044000000,,240,,112,44000000,"""map""",,,0.00605731084943,0.0141544276848,-0.00241491594352,,0.00893508043552,-0.00795210018905,0.0305503538774,-0.999461725483
112076000000,,241,,112,76000000,"""map""",,,0.00581132341176,0.0142454933375,-0.00239097559825,,0.00891048001152,-0.00792599136885,0.0306085165283,-0.999460376784
112112000000,,242,,112,112000000,"""map""",,,0.00553739909083,0.0143837379292,-0.00233494117856,,0.0089063600336,-0.00798417785087,0.0305780865037,-0.999460882546
112144000000,,243,,112,144000000,"""map""",,,0.00524127716199,0.0145895415917,-0.00226895464584,,0.00886213551832,-0.00809447677081,0.0306436248531,-0.999458311589
112176000000,,244,,112,176000000,"""map""",,,0.00495056109503,0.0148478969932,-0.00214089592919,,0.00885763897642,-0.00813419622427,0.030621413464,-0.999458775204
112212000000,,245,,112,212000000,"""map""",,,0.0046081491746,0.0152229368687,-0.00205163680948,,0.00883010580677,-0.00812561086183,0.0306002978928,-0.999459744582
112244000000,,246,,112,244000000,"""map""",,,0.00436668517068,0.0152307935059,-0.00182112248149,,0.00885066910599,-0.00821159347856,0.0305759791613,-0.999459533847
112276000000,,247,,112,276000000,"""map""",,,0.0041312854737,0.0151727758348,-0.00160285702441,,0.00883512617967,-0.00818174293195,0.0305702893367,-0.999460081756
112312000000,,248,,112,312000000,"""map""",,,0.00389423174784,0.0151617713273,-0.00150368653703,,0.00880695642385,-0.00813454358591,0.0305709215394,-0.999460713959
112344000000,,249,,112,344000000,"""map""",,,0.00363919488154,0.0151960942894,-0.00142870680429,,0.00886532476706,-0.00811322232255,0.0305726074134,-0.999460376784
112376000000,,250,,112,376000000,"""map""",,,0.00336064165458,0.0152741204947,-0.00144861254375,,0.00885048356107,-0.00813606879557,0.0305438211158,-0.999461177574
112412000000,,251,,112,412000000,"""map""",,,0.00300427502953,0.0154109764844,-0.00149623351172,,0.00892709183789,-0.00818846411951,0.0305149926715,-0.999460924693
112444000000,,252,,112,444000000,"""map""",,,0.00292923417874,0.0150209851563,-0.00111946696416,,0.00890169366953,-0.00814912341147,0.0304877658073,-0.999462357686
112476000000,,253,,112,476000000,"""map""",,,0.00291521428153,0.0145641705021,-0.000560428015888,,0.00889754442754,-0.00819785084829,0.0305090499658,-0.999461304015
112512000000,,254,,112,512000000,"""map""",,,0.00286560738459,0.0141990324482,-0.000121819903143,,0.00887957933336,-0.00821242048699,0.0304290973942,-0.999463790679
112544000000,,255,,112,544000000,"""map""",,,0.00281240209006,0.0139283174649,0.000299881095998,,0.00890188081965,-0.00827800176529,0.0303620417582,-0.999465012938
112576000000,,256,,112,576000000,"""map""",,,0.00271638808772,0.0137236285955,0.000692088040523,,0.00891712748326,-0.00829152295997,0.0303752337218,-0.999464380735
112612000000,,257,,112,612000000,"""map""",,,0.00257489620708,0.0135976476595,0.00118543661665,,0.00892530224319,-0.00833220166582,0.0303861497556,-0.999463664238
112644000000,,258,,112,644000000,"""map""",,,0.00265746470541,0.0134685421363,0.00176561437547,,0.00889121694669,-0.00832574432823,0.0303541181507,-0.999465012938
112676000000,,259,,112,676000000,"""map""",,,0.00277994549833,0.0133897848427,0.00243225041777,,0.00891663748498,-0.00831732872622,0.0302874839832,-0.999466909546
112712000000,,260,,112,712000000,"""map""",,,0.00284026912414,0.0133781312034,0.00316517520696,,0.00891470912261,-0.00837859853421,0.0302625330489,-0.999467162427
112744000000,,261,,112,744000000,"""map""",,,0.00289353751577,0.0134167158976,0.00383363151923,,0.0089230775152,-0.0084032785392,0.0302793074946,-0.99946631949
112776000000,,262,,112,776000000,"""map""",,,0.00292891054414,0.0134898331016,0.0044056228362,,0.00889404436638,-0.008374206989,0.0302506476376,-0.999467668189
112812000000,,263,,112,812000000,"""map""",,,0.00293733901344,0.0136240599677,0.0050275796093,,0.00887966726963,-0.00836151922356,0.0302093015792,-0.999469227622
112844000000,,264,,112,844000000,"""map""",,,0.00308497273363,0.0136276287958,0.00515156751499,,0.00905835774483,-0.0083734800176,0.0301780707645,-0.999468426832
112876000000,,265,,112,876000000,"""map""",,,0.00322146224789,0.0136333880946,0.00537119293585,,0.00909414507018,-0.00839262979219,0.0301368932935,-0.999469227622
112912000000,,266,,112,912000000,"""map""",,,0.00328611256555,0.013690309599,0.00557548273355,,0.0090581606548,-0.00841737416991,0.0301588939484,-0.999468637567
112944000000,,267,,112,944000000,"""map""",,,0.00330754928291,0.0137889813632,0.00566457258537,,0.00899438238904,-0.00844035428631,0.0301663117937,-0.999468806154
112976000000,,268,,112,976000000,"""map""",,,0.00329653266817,0.0139238759875,0.00565562304109,,0.00901515259471,-0.00843221496431,0.0301927378677,-0.99946792107
113012000000,,269,,113,12000000,"""map""",,,0.00321508198977,0.0141230989248,0.00561602273956,,0.00897458499767,-0.00842852441914,0.0301663539406,-0.999469101182
113044000000,,270,,113,44000000,"""map""",,,0.00317609752528,0.0140517270193,0.00592682557181,,0.00901597886227,-0.00848733336978,0.0300878343618,-0.999470576322
113076000000,,271,,113,76000000,"""map""",,,0.00311032729223,0.0139602776617,0.00632064556703,,0.00899994437364,-0.00846802904303,0.0300692476016,-0.999471461405
113112000000,,272,,113,112000000,"""map""",,,0.00299409753643,0.0139621431008,0.00671672215685,,0.00895741338789,-0.00847180863576,0.0300504079603,-0.999472346489
113144000000,,273,,113,144000000,"""map""",,,0.00282776355743,0.0140111912042,0.00701384805143,,0.00892583685785,-0.00846005425426,0.0299902222607,-0.999474538125
113176000000,,274,,113,176000000,"""map""",,,0.00265595526434,0.0141445007175,0.00723655428737,,0.00892886412522,-0.00848954064634,0.0300117593002,-0.999473653042
113212000000,,275,,113,212000000,"""map""",,,0.00243030372076,0.014357582666,0.00750014511868,,0.00894843493612,-0.00849753914272,0.0299721412626,-0.999474580272
113244000000,,276,,113,244000000,"""map""",,,0.00235851830803,0.0143153388053,0.00792159326375,,0.0088961671846,-0.00848612168905,0.0299208906949,-0.999476687615
113276000000,,277,,113,276000000,"""map""",,,0.00227164034732,0.0142532447353,0.0082964124158,,0.00890028109156,-0.00850614212122,0.0298926101595,-0.999477319817
113312000000,,278,,113,312000000,"""map""",,,0.00212554354221,0.0142480414361,0.00869835354388,,0.00883613895938,-0.00846323520945,0.0298025001974,-0.999480944446
113344000000,,279,,113,344000000,"""map""",,,0.00189818511717,0.0143049200997,0.00902378745377,,0.0088552713237,-0.00847412062089,0.0298002664144,-0.999480733712
113376000000,,280,,113,376000000,"""map""",,,0.00164029921871,0.0144002866,0.00928945466876,,0.008792545978,-0.00844779626113,0.0297787293748,-0.999482124558
113412000000,,281,,113,412000000,"""map""",,,0.0012535242131,0.0145931048319,0.00961725600064,,0.00881303732094,-0.00845420514425,0.0297696678024,-0.999482250999
113444000000,,282,,113,444000000,"""map""",,,0.00102280708961,0.0144840842113,0.00994566082954,,0.00879101077699,-0.00846715035944,0.0297662960545,-0.999482335292
113476000000,,283,,113,476000000,"""map""",,,0.000793677347247,0.014349879697,0.0102657331154,,0.00880082068235,-0.00844295652493,0.0297751047459,-0.999482293145
113512000000,,284,,113,512000000,"""map""",,,0.000524085015059,0.0143035342917,0.0106331305578,,0.00876111765135,-0.0084400240674,0.0297303447927,-0.999483979019
113544000000,,285,,113,544000000,"""map""",,,0.000248610536801,0.0143016763031,0.0109835779294,,0.00879031988148,-0.00841340596592,0.0296359358521,-0.999486760711
113576000000,,286,,113,576000000,"""map""",,,-5.97796242801e-05,0.0143576934934,0.0111775659025,,0.00896742999391,-0.00835425171158,0.0296377481666,-0.999485622747
113612000000,,287,,113,612000000,"""map""",,,-0.000444002798758,0.0144990440458,0.0113710304722,,0.00896016505437,-0.00835633654002,0.0296477791165,-0.999485369865
113644000000,,288,,113,644000000,"""map""",,,-0.000637053104583,0.014406840317,0.0114126792178,,0.00889254502517,-0.00832253017828,0.0296255677273,-0.999486929299
113676000000,,289,,113,676000000,"""map""",,,-0.000812800193671,0.0143217518926,0.0114315804094,,0.0089253016258,-0.00836826549755,0.0296065594987,-0.999486802858
113712000000,,290,,113,712000000,"""map""",,,-0.00103040353861,0.0143102966249,0.0114099979401,,0.00898584658208,-0.0084598574935,0.029639012572,-0.999484526928
113744000000,,291,,113,744000000,"""map""",,,-0.00126105558593,0.0143983028829,0.0112863155082,,0.00891500964528,-0.00845737471897,0.0296429743758,-0.999485032691
113776000000,,292,,113,776000000,"""map""",,,-0.00151333841495,0.0145200276747,0.0111393043771,,0.00894095732787,-0.0084696160324,0.0296234182381,-0.999485285572
113812000000,,293,,113,812000000,"""map""",,,-0.00183230172843,0.0147409634665,0.0108666820452,,0.00892779660399,-0.00840349853423,0.0295862447177,-0.999487055739
113844000000,,294,,113,844000000,"""map""",,,-0.00192058598623,0.0147041678429,0.0108950668946,,0.0088946359863,-0.00843990972761,0.0295695545657,-0.999487561502
113876000000,,295,,113,876000000,"""map""",,,-0.00197862926871,0.0146372364834,0.0109316390008,,0.00889212582043,-0.00837792204437,0.0295428334637,-0.999488825907
113912000000,,296,,113,912000000,"""map""",,,-0.00208961055614,0.0146690672264,0.0108482399955,,0.00890040707936,-0.00837921075423,0.02950102379,-0.999490006019
113944000000,,297,,113,944000000,"""map""",,,-0.00219232775271,0.0147409429774,0.0107077686116,,0.00889314707891,-0.00835098310823,0.0294536928791,-0.99949173404
113976000000,,298,,113,976000000,"""map""",,,-0.00237681856379,0.0148905701935,0.0103952754289,,0.00893062182167,-0.00835569999501,0.0294636816822,-0.999491101837
114012000000,,299,,114,12000000,"""map""",,,-0.00266902078874,0.0151339536533,0.0099270241335,,0.008913425784,-0.0083491634057,0.0294521755926,-0.999491565452
114044000000,,300,,114,44000000,"""map""",,,-0.00271488097496,0.0152117516845,0.00943765416741,,0.00896169680832,-0.0084587863297,0.029487663239,-0.999489205229
114076000000,,301,,114,76000000,"""map""",,,-0.0027018848341,0.0153035791591,0.00903426203877,,0.00894845726489,-0.00839805288564,0.0294757356809,-0.999490174606
114112000000,,302,,114,112000000,"""map""",,,-0.00269733835012,0.0154440654442,0.00865027029067,,0.00895670557602,-0.00837129947384,0.0294256652249,-0.99949186048
114144000000,,303,,114,144000000,"""map""",,,-0.00271987379529,0.015626328066,0.00826474744827,,0.00888876779909,-0.00835330772919,0.0294396158317,-0.999492155508
114176000000,,304,,114,176000000,"""map""",,,-0.00275873905048,0.0158811323345,0.00777795352042,,0.00890708945396,-0.00837695774999,0.0294337995666,-0.999491986921
114212000000,,305,,114,212000000,"""map""",,,-0.00286074983887,0.0162537340075,0.00704087642953,,0.00911974191319,-0.00829682288501,0.0293924113614,-0.999491986921
114244000000,,306,,114,244000000,"""map""",,,-0.00285640591756,0.0162429176271,0.00682776933536,,0.00912541683817,-0.0084044900553,0.0293804838032,-0.999491354718
114276000000,,307,,114,276000000,"""map""",,,-0.00285213394091,0.0161848235875,0.00663630664349,,0.00911124623628,-0.00845102021722,0.0294231364139,-0.999489837431
114312000000,,308,,114,312000000,"""map""",,,-0.00289751193486,0.0161768645048,0.00642937468365,,0.00908493559277,-0.00843054917597,0.0293727287831,-0.999491691893
114344000000,,309,,114,344000000,"""map""",,,-0.00298020127229,0.0162404309958,0.0061629912816,,0.0090663845792,-0.00849163557932,0.0293827175862,-0.99949105969
114376000000,,310,,114,376000000,"""map""",,,-0.00310949934646,0.0163389611989,0.00585669651628,,0.00904483432756,-0.00849073209741,0.0293801466285,-0.999491354718
114412000000,,311,,114,412000000,"""map""",,,-0.00330403517,0.0165176074952,0.00540213566273,,0.00906148533733,-0.00847104388037,0.0293879437954,-0.999491143984
114444000000,,312,,114,444000000,"""map""",,,-0.00335957529023,0.0164028853178,0.00539907580242,,0.00900710020058,-0.00840678827274,0.0293494215759,-0.99949333562
114476000000,,313,,114,476000000,"""map""",,,-0.00339764240198,0.0162637904286,0.00549079244956,,0.00898536325158,-0.00844472541664,0.0293241334668,-0.999493925676
114512000000,,314,,114,512000000,"""map""",,,-0.00344564183615,0.0161923337728,0.00560477515683,,0.00896749883239,-0.0084320636637,0.0293143553979,-0.999494515732
114544000000,,315,,114,544000000,"""map""",,,-0.0035279954318,0.0161759201437,0.00563919777051,,0.00899347355646,-0.00840851238342,0.0292298088198,-0.999496875955
114576000000,,316,,114,576000000,"""map""",,,-0.00366730568931,0.0162185300142,0.00557475350797,,0.00899581054571,-0.00835990210578,0.0292234867925,-0.999497466011
114612000000,,317,,114,612000000,"""map""",,,-0.00387285021134,0.0163817610592,0.00544908409938,,0.00896835955006,-0.00837659775252,0.0292183027302,-0.999497761039
114644000000,,318,,114,644000000,"""map""",,,-0.00393329560757,0.0162913650274,0.00624039350078,,0.00893610257891,-0.00838252084588,0.0292109691785,-0.999498182507
114676000000,,319,,114,676000000,"""map""",,,-0.00394384097308,0.0161358062178,0.00711889145896,,0.00892918611232,-0.00840011100186,0.0292057429693,-0.999498266801
114712000000,,320,,114,712000000,"""map""",,,-0.00398408249021,0.0160301271826,0.00806552730501,,0.00894881744758,-0.00841599497191,0.0291801598323,-0.999498730416
114744000000,,321,,114,744000000,"""map""",,,-0.00406156107783,0.0159795917571,0.00898697040975,,0.0089552525593,-0.00841221906292,0.029199168061,-0.999498182507
114776000000,,322,,114,776000000,"""map""",,,-0.00415336759761,0.015964999795,0.00987263675779,,0.00894955411193,-0.00843466561421,0.0291515421221,-0.999499362619
114812000000,,323,,114,812000000,"""map""",,,-0.00423653516918,0.0160558838397,0.010662637651,,0.00895438052289,-0.00835927089087,0.0290847393672,-0.999501933577
114844000000,,324,,114,844000000,"""map""",,,-0.00419169245288,0.0158864483237,0.0109203765169,,0.00889463314633,-0.00838861458459,0.0290256494856,-0.999503956626
114876000000,,325,,114,876000000,"""map""",,,-0.00411714008078,0.0157200377434,0.011031916365,,0.00888074532757,-0.00835231077512,0.0290295269957,-0.999504209507
114912000000,,326,,114,912000000,"""map""",,,-0.00407736329362,0.0156089384109,0.011174458079,,0.00887917284677,-0.00836861753075,0.028987422294,-0.999505347472
114944000000,,327,,114,944000000,"""map""",,,-0.00407167710364,0.0155399562791,0.0111180292442,,0.00892934494503,-0.00835496435964,0.028958762437,-0.999505853234
114976000000,,328,,114,976000000,"""map""",,,-0.00410137278959,0.0155358696356,0.0110300909728,,0.00894068115077,-0.00832365449897,0.0289406392922,-0.999506527583
115012000000,,329,,115,12000000,"""map""",,,-0.00419320631772,0.0156640782952,0.0105887260288,,0.0090945033184,-0.00830017672872,0.0289066689323,-0.999506274702
115044000000,,330,,115,44000000,"""map""",,,-0.00422699470073,0.0155154559761,0.00989967025816,,0.00909541441472,-0.008273159611,0.0288782198095,-0.999507328373
115076000000,,331,,115,76000000,"""map""",,,-0.0042844126001,0.0153160719201,0.00890493858606,,0.00905686684122,-0.00818585010941,0.028854996896,-0.999509056394
115112000000,,332,,115,112000000,"""map""",,,-0.00436091702431,0.0152233811095,0.00781707372516,,0.00904586606101,-0.00821011134183,0.0288717713417,-0.999508550632
115144000000,,333,,115,144000000,"""map""",,,-0.0044731516391,0.0152243059129,0.00669282395393,,0.00897324523003,-0.00822872493771,0.0288178655225,-0.999510531534
115176000000,,334,,115,176000000,"""map""",,,-0.00461340416223,0.0152984634042,0.00552202481776,,0.00899105811811,-0.00828686330483,0.0288117963763,-0.999510110065
115212000000,,335,,115,212000000,"""map""",,,-0.00484434980899,0.0154901724309,0.00406212452799,,0.00895356787897,-0.00830442598715,0.0288092254185,-0.999510405093
115244000000,,336,,115,244000000,"""map""",,,-0.00494400877506,0.0152230607346,0.0026742531918,,0.00895341301811,-0.00829285875577,0.0288195092496,-0.999510152212
115276000000,,337,,115,276000000,"""map""",,,-0.00506932474673,0.0148641914129,0.00124023982789,,0.00898625241014,-0.00834557746622,0.0288601388115,-0.999508213457
115312000000,,338,,115,312000000,"""map""",,,-0.0052279625088,0.0145942149684,-0.000146478938404,,0.00894743088212,-0.00826785768975,0.0288820551728,-0.999508634926
115344000000,,339,,115,344000000,"""map""",,,-0.00541778281331,0.0144451893866,-0.00154848932289,,0.0089581303988,-0.0082546965337,0.0288468625543,-0.999509688597
115376000000,,340,,115,376000000,"""map""",,,-0.00563590601087,0.0144017692655,-0.00291084544733,,0.00892867816871,-0.00825204867029,0.0288518780292,-0.999509815038
115412000000,,341,,115,412000000,"""map""",,,-0.00594495143741,0.0144460462034,-0.00449371198192,,0.00886625983852,-0.0082868621318,0.0288270535355,-0.999510784415
115444000000,,342,,115,444000000,"""map""",,,-0.006014556624,0.0142830032855,-0.00521654635668,,0.00884081892651,-0.00826642093085,0.0287884470222,-0.999512301702
115476000000,,343,,115,476000000,"""map""",,,-0.00607152655721,0.0141580887139,-0.0058119026944,,0.00887562728429,-0.00826276963082,0.0288175704945,-0.999511163737
115512000000,,344,,115,512000000,"""map""",,,-0.00618803687394,0.0141316447407,-0.00634634960443,,0.00877890961006,-0.00827128580492,0.0287886999033,-0.999512807464
115544000000,,345,,115,544000000,"""map""",,,-0.00631778640673,0.0141842411831,-0.00684011820704,,0.00879589248511,-0.0082732466212,0.0288155474458,-0.999511838086
115576000000,,346,,115,576000000,"""map""",,,-0.0064892238006,0.0143201127648,-0.00719791697338,,0.00880396228951,-0.00827760486875,0.0288358200799,-0.99951112159
115612000000,,347,,115,612000000,"""map""",,,-0.00676643848419,0.0146109266207,-0.00766837922856,,0.00883182728327,-0.00826000394969,0.0288634684126,-0.999510278653
115644000000,,348,,115,644000000,"""map""",,,-0.00684487586841,0.0146330194548,-0.00741416448727,,0.00879145895768,-0.00820733442428,0.0288364944295,-0.999511795939
115676000000,,349,,115,676000000,"""map""",,,-0.00689274817705,0.0146536296234,-0.00720236171037,,0.00900792076762,-0.00822837273988,0.0288283179409,-0.999509941478
115712000000,,350,,115,712000000,"""map""",,,-0.00697101000696,0.0147170927376,-0.00692349532619,,0.00896062496539,-0.00823788125823,0.0288488013093,-0.999509688597
115744000000,,351,,115,744000000,"""map""",,,-0.00708974618465,0.0148243550211,-0.00667151948437,,0.00895779923323,-0.00824666286693,0.0288300038148,-0.999510194359
115776000000,,352,,115,776000000,"""map""",,,-0.00722758099437,0.0149773983285,-0.00646989839152,,0.00895671987878,-0.0082642269075,0.0288334598564,-0.999509941478
115812000000,,353,,115,812000000,"""map""",,,-0.00747278193012,0.0152776744217,-0.00627218279988,,0.00892266987615,-0.00833744713746,0.0288300459617,-0.999509815038
115844000000,,354,,115,844000000,"""map""",,,-0.00739872362465,0.0152597855777,-0.00576244015247,,0.00890755269886,-0.00836141383586,0.0288551654834,-0.999508972101
115876000000,,355,,115,876000000,"""map""",,,-0.00727188494056,0.0152158373967,-0.00531934434548,,0.00885467630816,-0.00833184835669,0.0288871970883,-0.999508719219
115912000000,,356,,115,912000000,"""map""",,,-0.00719913002104,0.0152666689828,-0.00498788105324,,0.00888072161997,-0.00839144939232,0.0288801585646,-0.999508255604
115944000000,,357,,115,944000000,"""map""",,,-0.00718914996833,0.0154087413102,-0.0047426992096,,0.00882711284546,-0.00840532159122,0.0288910324515,-0.999508255604
115976000000,,358,,115,976000000,"""map""",,,-0.00723532680422,0.0156382769346,-0.0044747707434,,0.00883156510024,-0.00841102672693,0.0288708019642,-0.999508761366
116012000000,,359,,116,12000000,"""map""",,,-0.00738332234323,0.0160152688622,-0.00436252076179,,0.00885352862972,-0.00821151301266,0.0288659550766,-0.9995103208
116044000000,,360,,116,44000000,"""map""",,,-0.00767375715077,0.0160466171801,-0.0042443824932,,0.00890189689225,-0.00827083258225,0.0288922547101,-0.999508719219
116076000000,,361,,116,76000000,"""map""",,,-0.00802605599165,0.0160312652588,-0.0042171604,,0.00891576075645,-0.00832782415584,0.0289070061071,-0.999507707695
116112000000,,362,,116,112000000,"""map""",,,-0.00839835312217,0.0161084663123,-0.00429050903767,,0.00888199473056,-0.00840638437916,0.0288465675263,-0.999509056394
116144000000,,363,,116,144000000,"""map""",,,-0.00887036323547,0.016294984147,-0.00455448869616,,0.00884481211403,-0.00846090910677,0.0288516251481,-0.999508803513
116176000000,,364,,116,176000000,"""map""",,,-0.00915363710374,0.0164445992559,-0.00476344441995,,0.00886797516175,-0.00846717377893,0.0288687367686,-0.99950804487
116212000000,,365,,116,212000000,"""map""",,,-0.00966830924153,0.0167887005955,-0.00528719555587,,0.00885011555817,-0.00851854539543,0.0288622040071,-0.999507918429
116244000000,,366,,116,244000000,"""map""",,,-0.00989357940853,0.0168690476567,-0.00586594315246,,0.00888391362636,-0.00855207823483,0.0289178378471,-0.999505726793
116276000000,,367,,116,276000000,"""map""",,,-0.0100986585021,0.0169272832572,-0.0064977039583,,0.00885346812594,-0.00856498406082,0.0289186807841,-0.999505895381
116312000000,,368,,116,312000000,"""map""",,,-0.0103335948661,0.0170631073415,-0.00721430592239,,0.00884299062108,-0.00863723435762,0.0289293439368,-0.999505010297
116344000000,,369,,116,344000000,"""map""",,,-0.0105898445472,0.0172553621233,-0.00805921945721,,0.00877901922685,-0.00864846950765,0.0289700999393,-0.999504378094
116376000000,,370,,116,376000000,"""map""",,,-0.0108618941158,0.017512626946,-0.00898041483015,,0.00881206598322,-0.00871736280693,0.0289908361888,-0.999502860808
116412000000,,371,,116,412000000,"""map""",,,-0.0112778851762,0.0178930554539,-0.0101629858837,,0.00882554480468,-0.0087665458125,0.0290328144499,-0.99950109064
116444000000,,372,,116,444000000,"""map""",,,-0.0113246869296,0.0179936792701,-0.0108929052949,,0.00879062155146,-0.00874294289821,0.0290696507955,-0.999500500584
116480000000,,373,,116,476000000,"""map""",,,-0.0113662192598,0.0180691704154,-0.0114983627573,,0.00878292288448,-0.00879457702058,0.0290660683134,-0.99950028985
116512000000,,374,,116,512000000,"""map""",,,-0.0114577161148,0.0182048417628,-0.0121301328763,,0.00874193806347,-0.00876526089827,0.0290701565577,-0.999500753465
116544000000,,375,,116,544000000,"""map""",,,-0.011593753472,0.0183812081814,-0.0127450749278,,0.00872911923039,-0.00872820552159,0.0290510218884,-0.999501764989
116576000000,,376,,116,576000000,"""map""",,,-0.0117497714236,0.0186240356416,-0.013380185701,,0.00871840138323,-0.00871521313228,0.0290569224472,-0.999501764989
116612000000,,377,,116,612000000,"""map""",,,-0.012007352896,0.0190295353532,-0.0140984533355,,0.00866629749852,-0.00868559954609,0.0290108559418,-0.999503830185
116644000000,,378,,116,644000000,"""map""",,,-0.0123614007607,0.0191598851234,-0.0144555298612,,0.00867539396352,-0.00875179447469,0.029000782845,-0.999503450863
116676000000,,379,,116,676000000,"""map""",,,-0.0128059722483,0.0192617531866,-0.0147404950112,,0.00868092080087,-0.00876953269771,0.0289740617431,-0.999504040919
116712000000,,380,,116,712000000,"""map""",,,-0.0132699823007,0.0193847697228,-0.0148303871974,,0.00868280513595,-0.00869286009704,0.0289750311206,-0.999504673122
116744000000,,381,,116,744000000,"""map""",,,-0.0137360105291,0.0195473134518,-0.014805663377,,0.00871318501086,-0.00875692735837,0.0289918477131,-0.99950336657
116776000000,,382,,116,776000000,"""map""",,,-0.0142574487254,0.0197715368122,-0.0148655064404,,0.00877354370516,-0.00876187257166,0.029011909613,-0.999502186458
116812000000,,383,,116,812000000,"""map""",,,-0.014965464361,0.020118303597,-0.0151178203523,,0.00873710377828,-0.00870414195099,0.0289821117911,-0.999503830185
116844000000,,384,,116,844000000,"""map""",,,-0.0153256179765,0.0199686530977,-0.0151427453384,,0.00873098657764,-0.00875645341469,0.0290039860055,-0.999502860808
116876000000,,385,,116,876000000,"""map""",,,-0.0156669169664,0.0197392571718,-0.0150886029005,,0.00875114202172,-0.00878889592046,0.029001330754,-0.999502397192
116912000000,,386,,116,912000000,"""map""",,,-0.0160540249199,0.0195918343961,-0.015081317164,,0.00867309107839,-0.00865659852832,0.0289662645761,-0.999505347472
116944000000,,387,,116,944000000,"""map""",,,-0.0164893679321,0.0195283070207,-0.015024766326,,0.00879200845134,-0.00869683555788,0.0288606024269,-0.999506991199
116976000000,,388,,116,976000000,"""map""",,,-0.0169605389237,0.0195031892508,-0.0150068625808,,0.00879835179385,-0.00865280371318,0.0288707598174,-0.999507033346
117012000000,,389,,117,12000000,"""map""",,,-0.0176201630384,0.0194999482483,-0.0150647331029,,0.0087794320468,-0.00869548506317,0.0288877449973,-0.999506316849
117044000000,,390,,117,44000000,"""map""",,,-0.01777953282,0.0190960559994,-0.0147449364886,,0.0085723436404,-0.00851360810719,0.0288380117161,-0.99951112159
117072000000,,391,,117,72000000,"""map""",,,-0.0178465135396,0.0186230335385,-0.014290693216,,0.00855081359013,-0.00852246512695,0.028808256041,-0.999512133114
117112000000,,392,,117,112000000,"""map""",,,-0.0180235356092,0.0182432178408,-0.0139230331406,,0.0086184240415,-0.00861245227887,0.0288311839266,-0.999510025772
117144000000,,393,,117,144000000,"""map""",,,-0.0182758476585,0.0179135017097,-0.0136925345287,,0.00861494315981,-0.00859798255437,0.0288542803996,-0.99950952001
117180000000,,394,,117,176000000,"""map""",,,-0.0186067521572,0.0177229195833,-0.0134919825941,,0.00854762965606,-0.0085826566249,0.0288093518591,-0.999511543058
117212000000,,395,,117,212000000,"""map""",,,-0.0192732773721,0.0175939071923,-0.0123694995418,,0.00769129664292,-0.00815932307229,0.0284136772453,-0.999533375126
117244000000,,396,,117,244000000,"""map""",,,-0.02008520253,0.0175120569766,-0.0103969005868,,0.00516263588041,-0.00628241458971,0.0276914067023,-0.999583487729
117276000000,,397,,117,276000000,"""map""",,,-0.021146684885,0.017413219437,-0.00737753184512,,0.00314972445677,-0.00466071943357,0.0272337762212,-0.999613327697
117312000000,,398,,117,312000000,"""map""",,,-0.022418865934,0.0172920841724,-0.00335328700021,,-0.00209042268846,0.000170974041659,0.0261465139702,-0.999655938161
117344000000,,399,,117,344000000,"""map""",,,-0.0236041489989,0.0168363507837,0.00122033490334,,-0.00882239811953,0.0069298087044,0.0249325582925,-0.999626224633
117376000000,,400,,117,376000000,"""map""",,,-0.0247381962836,0.0160653982311,0.00620697345585,,-0.0124856876877,0.0107151145514,0.0243073519417,-0.9995691578
117412000000,,401,,117,412000000,"""map""",,,-0.0264516212046,0.0150139294565,0.01303925924,,-0.0203904637571,0.0191160058668,0.0230490156325,-0.999343587867
117444000000,,402,,117,444000000,"""map""",,,-0.0280731264502,0.014021682553,0.0192370451987,,-0.0293441621102,0.0284298790865,0.0218571449035,-0.998925954745
117480000000,,403,,117,480000000,"""map""",,,-0.0299285184592,0.0128436340019,0.0259833615273,,-0.0341719126325,0.0335453919915,0.0212695335416,-0.998626374946
117512000000,,404,,117,512000000,"""map""",,,-0.0320652723312,0.0114178992808,0.033411603421,,-0.0447090957533,0.0445772010393,0.0202318781312,-0.99779995954
117544000000,,405,,117,544000000,"""map""",,,-0.0341927111149,0.00953887030482,0.0410672910511,,-0.0564899262039,0.056866551677,0.0192749760826,-0.996595992666
117576000000,,406,,117,576000000,"""map""",,,-0.0368480235338,0.00675550755113,0.0488240495324,,-0.0627211406663,0.063319578788,0.0189571888449,-0.995840046791
117612000000,,407,,117,612000000,"""map""",,,-0.0421976000071,0.00149334780872,0.0592281855643,,-0.0745170570442,0.0753061807207,0.0185825033616,-0.994198679922
117644000000,,408,,117,644000000,"""map""",,,-0.0483542382717,-0.00442686397582,0.0685395896435,,-0.0832830845153,0.0838187384854,0.0188150696717,-0.992816431879
117676000000,,409,,117,676000000,"""map""",,,-0.0562871284783,-0.0120491078123,0.0790488421917,,-0.0866872760029,0.0865685242527,0.0190752421675,-0.992283906448
117712000000,,410,,117,712000000,"""map""",,,-0.0660738050938,-0.0214333347976,0.0908686071634,,-0.0919267537171,0.0901045999176,0.0199217616199,-0.991480629662
117744000000,,411,,117,744000000,"""map""",,,-0.077180787921,-0.0322465226054,0.104224063456,,-0.0951834803788,0.0920323149444,0.0210164838631,-0.990973518781
117776000000,,412,,117,776000000,"""map""",,,-0.092977784574,-0.047839615494,0.123077534139,,-0.0962138713847,0.0921084683727,0.0216894425933,-0.990852430885
117812000000,,413,,117,812000000,"""map""",,,-0.107574410737,-0.0622656904161,0.139715790749,,-0.0968639014061,0.0904071273621,0.0228090314771,-0.990920624486
117844000000,,414,,117,844000000,"""map""",,,-0.123806476593,-0.0783269032836,0.157638520002,,-0.0969185036362,0.0884618596547,0.0238066052345,-0.991067421959
117876000000,,415,,117,876000000,"""map""",,,-0.141546279192,-0.0959310904145,0.176845103502,,-0.0968550785561,0.0877557675747,0.02441048528,-0.9911217071
117912000000,,416,,117,912000000,"""map""",,,-0.160727337003,-0.11502892524,0.19737572968,,-0.0968901085141,0.0877395983313,0.0251854393836,-0.991100338648
117944000000,,417,,117,944000000,"""map""",,,-0.179929494858,-0.134453177452,0.218676999211,,-0.0973255460453,0.087938808045,0.026089531431,-0.99101659286
117976000000,,418,,117,976000000,"""map""",,,-0.199246615171,-0.154254049063,0.240752577782,,-0.0975287304043,0.0877941024383,0.0265715227905,-0.990996615254
118012000000,,419,,118,8000000,"""map""",,,-0.225423261523,-0.181066080928,0.270330935717,,-0.097745176862,0.0875211581302,0.0274860672564,-0.990974488158
118044000000,,420,,118,44000000,"""map""",,,-0.247917592525,-0.204149767756,0.295652270317,,-0.0977284053797,0.0874039869279,0.0284956528656,-0.990957966594
118076000000,,421,,118,76000000,"""map""",,,-0.27166929841,-0.228542715311,0.322361707687,,-0.0975317949412,0.0871134640913,0.0289909626293,-0.990988565206
118112000000,,422,,118,112000000,"""map""",,,-0.296599119902,-0.254156470299,0.350423634052,,-0.0967602837083,0.0862854602764,0.0298480609406,-0.991111212535
118144000000,,423,,118,144000000,"""map""",,,-0.321975499392,-0.280322492123,0.379491448402,,-0.0960828024237,0.0856921087112,0.0306925573442,-0.991202797637
118176000000,,424,,118,176000000,"""map""",,,-0.347822904587,-0.307038873434,0.409547656775,,-0.0957412354731,0.0855395881568,0.0311122978086,-0.991235967206
118212000000,,425,,118,212000000,"""map""",,,-0.381553113461,-0.341946363449,0.449254482985,,-0.0950213103364,0.0852149458,0.031794908167,-0.991311494359
118244000000,,426,,118,244000000,"""map""",,,-0.409570813179,-0.371015429497,0.482679069042,,-0.0940288195548,0.0843376127208,0.0322875205324,-0.991465246062
118272000000,,427,,118,276000000,"""map""",,,-0.438436597586,-0.401020050049,0.517613530159,,-0.0935264521696,0.083971818247,0.032482955469,-0.991537443614
118312000000,,428,,118,312000000,"""map""",,,-0.467865079641,-0.431614458561,0.551083683968,,-0.0923347809795,0.0822144322999,0.0328867222777,-0.991783075447
118344000000,,429,,118,344000000,"""map""",,,-0.496960669756,-0.461955785751,0.577192604542,,-0.0912202898887,0.075488461066,0.0330843909972,-0.992414098063
118372000000,,430,,118,376000000,"""map""",,,-0.525753557682,-0.4920142591,0.59460067749,,-0.0904338751351,0.0683048751561,0.0332796994932,-0.992999854963
118412000000,,431,,118,412000000,"""map""",,,-0.561899244785,-0.529715895653,0.60454005003,,-0.0887347381083,0.0533863000685,0.0336229012807,-0.99405508561
118444000000,,432,,118,444000000,"""map""",,,-0.590774357319,-0.560032188892,0.604417979717,,-0.0776217086569,0.0317801304283,0.0333416132137,-0.995918313489
118476000000,,433,,118,476000000,"""map""",,,-0.619289457798,-0.59047216177,0.599899351597,,-0.0619045377179,0.0171307551646,0.0327718721155,-0.997396824934
118512000000,,434,,118,512000000,"""map""",,,-0.646803021431,-0.620864510536,0.596463024616,,-0.0354820764767,-0.000233905789612,0.0319895844603,-0.998858182613
118544000000,,435,,118,544000000,"""map""",,,-0.673033416271,-0.651103675365,0.603754222393,,-0.02468610723,-0.00228830518798,0.0318845966607,-0.999184104192
118576000000,,436,,118,576000000,"""map""",,,-0.69774967432,-0.680910646915,0.627255737782,,-0.0222946555328,-0.00096106668406,0.0321497003378,-0.999233921767
118612000000,,437,,118,608000000,"""map""",,,-0.726413011551,-0.716813981533,0.676078736782,,-0.0170555250157,0.00158942680452,0.0329426932925,-0.999310502591
118644000000,,438,,118,644000000,"""map""",,,-0.747806549072,-0.744359433651,0.728766560555,,-0.0167341118319,0.00748168398398,0.0339710342494,-0.99925474231
118676000000,,439,,118,676000000,"""map""",,,-0.768240988255,-0.771003484726,0.789086937904,,-0.022072972,0.015021810171,0.0343469841381,-0.999053280374
118712000000,,440,,118,712000000,"""map""",,,-0.788326084614,-0.797089099884,0.853140950203,,-0.0380530921878,0.0359339565472,0.0345317559219,-0.998032230822
118744000000,,441,,118,744000000,"""map""",,,-0.809687435627,-0.823695838451,0.913442492485,,-0.051121006072,0.0562370269617,0.034541744725,-0.996509338745
118776000000,,442,,118,776000000,"""map""",,,-0.832374870777,-0.850906014442,0.968611776829,,-0.0558780006791,0.0646460545533,0.0346253219256,-0.995740790963
118812000000,,443,,118,812000000,"""map""",,,-0.861200273037,-0.884916543961,1.03605568409,,-0.0628920080854,0.0755941278251,0.0348719231363,-0.994542176738
118844000000,,444,,118,844000000,"""map""",,,-0.885010302067,-0.912304639816,1.09020745754,,-0.0671195365301,0.0810844719986,0.0352272210692,-0.993820622691
118872000000,,445,,118,872000000,"""map""",,,-0.909714639187,-0.940020620823,1.14626395702,,-0.0687184411072,0.0834575917923,0.0353901607856,-0.993508988893
118912000000,,446,,118,912000000,"""map""",,,-0.935322880745,-0.968179762363,1.20481729507,,-0.07065143124,0.0849096995546,0.0354787113143,-0.993247214817
118944000000,,447,,118,944000000,"""map""",,,-0.962253093719,-0.997266530991,1.26685619354,,-0.0722125281184,0.0840317398703,0.0355600547319,-0.993206669549
118976000000,,448,,118,976000000,"""map""",,,-0.990390658379,-1.02717876434,1.33199179173,,-0.0728230561706,0.0837197590195,0.0355705071503,-0.993188124936
119012000000,,449,,119,12000000,"""map""",,,-1.02645635605,-1.06500947475,1.41556584835,,-0.0737803898952,0.0835182236559,0.0355131031427,-0.993136452899
119044000000,,450,,119,44000000,"""map""",,,-1.05593013763,-1.09560668468,1.48361980915,,-0.0745256525318,0.0826893416718,0.0354433501084,-0.993152679436
119076000000,,451,,119,76000000,"""map""",,,-1.0859143734,-1.12649893761,1.55265891552,,-0.0748090953564,0.0820769743047,0.0353916780721,-0.993184036691
119112000000,,452,,119,112000000,"""map""",,,-1.11636865139,-1.15767538548,1.62307107449,,-0.0743236341258,0.0810961782858,0.0353279098903,-0.993303270126
119144000000,,453,,119,144000000,"""map""",,,-1.14749407768,-1.18903875351,1.69471764565,,-0.0725779040872,0.078677999889,0.0353604472574,-0.993625693517
119176000000,,454,,119,176000000,"""map""",,,-1.17915916443,-1.22052502632,1.76738989353,,-0.0707123541803,0.0762598810905,0.0353566118942,-0.993948749111
119212000000,,455,,119,212000000,"""map""",,,-1.21886181831,-1.26000726223,1.85794115067,,-0.0675051650474,0.0726122435613,0.0354272921591,-0.994442330854
119244000000,,456,,119,244000000,"""map""",,,-1.25054681301,-1.29153859615,1.92881083488,,-0.0638714023924,0.0700604504351,0.0423600694175,-0.994594185949
119276000000,,457,,119,276000000,"""map""",,,-1.28202831745,-1.32291042805,1.99714720249,,-0.0625724193992,0.0687602688909,0.0423580885156,-0.99476762023
119312000000,,458,,119,312000000,"""map""",,,-1.31329119205,-1.3540892601,2.06243538857,,-0.0611463646455,0.0672617011428,0.042286776048,-0.994961748615
119344000000,,459,,119,344000000,"""map""",,,-1.34480988979,-1.38527047634,2.12498521805,,-0.0595031531939,0.0660804731516,0.0420614589958,-0.995150060734
119376000000,,460,,119,376000000,"""map""",,,-1.37652432919,-1.416421175,2.18523573875,,-0.0583715985563,0.0652337916973,0.0419614445243,-0.995277133482
119412000000,,461,,119,412000000,"""map""",,,-1.41586816311,-1.45506811142,2.25744438171,,-0.0553451232561,0.0625152722239,0.041814899932,-0.995630619101
119444000000,,462,,119,444000000,"""map""",,,-1.44709265232,-1.48572051525,2.31316041946,,-0.0515604245048,0.0587244015934,0.0416539411176,-0.996071264402
119476000000,,463,,119,476000000,"""map""",,,-1.47804915905,-1.51611483097,2.36710357666,,-0.0489433827888,0.0561107770649,0.0415303244109,-0.99635908523
119512000000,,464,,119,512000000,"""map""",,,-1.50867819786,-1.54622328281,2.41730928421,,-0.0444475563969,0.0502876851687,0.0413715150857,-0.996887185242
119544000000,,465,,119,544000000,"""map""",,,-1.53992366791,-1.57631993294,2.46152281761,,-0.040264996273,0.0398850280691,0.0413272608948,-0.997537005352
119576000000,,466,,119,576000000,"""map""",,,-1.57170557976,-1.60641765594,2.49864029884,,-0.0374883347898,0.0322040975959,0.0413462269766,-0.997921890373
119612000000,,467,,119,612000000,"""map""",,,-1.61081683636,-1.64373540878,2.53240823746,,-0.0288625714749,0.0143004480903,0.0412229895915,-0.998630631778
119644000000,,468,,119,644000000,"""map""",,,-1.64159727097,-1.67337560654,2.54904270172,,-0.0144075850499,-0.00562802311035,0.040481963701,-0.999060613926
119676000000,,469,,119,676000000,"""map""",,,-1.67175030708,-1.70266973972,2.55768275261,,-0.00533554538438,-0.0161408751827,0.0398350095764,-0.999061709744
119712000000,,470,,119,712000000,"""map""",,,-1.70024883747,-1.73101127148,2.56488466263,,0.0157454870358,-0.0415057383102,0.0377009881957,-0.998302602856
119744000000,,471,,119,744000000,"""map""",,,-1.72680842876,-1.7579010725,2.57920050621,,0.0188083512006,-0.0430455892256,0.0351996148834,-0.998275671019
119776000000,,472,,119,776000000,"""map""",,,-1.75057089329,-1.78280174732,2.60678267479,,0.0154096602883,-0.0361247243788,0.0341424454823,-0.998645003853
119812000000,,473,,119,812000000,"""map""",,,-1.77588474751,-1.81111252308,2.65962052345,,0.011426968155,-0.0263777645083,0.0334442407898,-0.999027107182
119844000000,,474,,119,844000000,"""map""",,,-1.79364645481,-1.83205771446,2.71352601051,,0.00323949337515,-0.00792723379538,0.0332442118468,-0.999410559209
119876000000,,475,,119,876000000,"""map""",,,-1.81017386913,-1.85208308697,2.77107524872,,-0.00361885954582,0.00522431845175,0.033165987296,-0.999429693879
119912000000,,476,,119,912000000,"""map""",,,-1.82621860504,-1.87159979343,2.8264040947,,-0.0205754803137,0.034193754002,0.0328025128744,-0.998664897165
119944000000,,477,,119,944000000,"""map""",,,-1.84367930889,-1.89115321636,2.87419557571,,-0.0395018163484,0.0675646763975,0.032206682877,-0.996412274553
119976000000,,478,,119,976000000,"""map""",,,-1.86259579659,-1.91092836857,2.9144384861,,-0.0480345564649,0.0838395397044,0.0318730062773,-0.994810483575
120012000000,,479,,120,12000000,"""map""",,,-1.88671255112,-1.93588495255,2.95850539207,,-0.0592198835665,0.105080196069,0.0312322898863,-0.992207494211
120044000000,,480,,120,44000000,"""map""",,,-1.90705680847,-1.95620882511,2.99036693573,,-0.0605093584942,0.109014401546,0.0310485717736,-0.991710877895
120076000000,,481,,120,76000000,"""map""",,,-1.92852652073,-1.97694671154,3.02056050301,,-0.0578264323636,0.106489568244,0.0311184091016,-0.992143009533
120112000000,,482,,120,112000000,"""map""",,,-1.95067238808,-1.99797427654,3.04774355888,,-0.0479956601921,0.0905702175558,0.0314525914634,-0.994235558415
120144000000,,483,,120,144000000,"""map""",,,-1.97349083424,-2.0187921524,3.07013487816,,-0.039208729798,0.0659815643763,0.0315602345145,-0.99655060051
120176000000,,484,,120,176000000,"""map""",,,-1.99682617188,-2.03933238983,3.08685827255,,-0.0332586622889,0.0448003989466,0.0316412407574,-0.997940687867
120212000000,,485,,120,212000000,"""map""",,,-2.02545809746,-2.06491041183,3.09921360016,,-0.0180621557357,-0.0024848464793,0.0311372908897,-0.999348856223
120244000000,,486,,120,244000000,"""map""",,,-2.04726743698,-2.08515954018,3.10469961166,,0.0216474643322,-0.0581644737962,0.028188107312,-0.997674193344
120276000000,,487,,120,276000000,"""map""",,,-2.06715130806,-2.10457611084,3.10825610161,,0.0408869198411,-0.0771008223416,0.0265369202279,-0.995831069512
120312000000,,488,,120,312000000,"""map""",,,-2.08411359787,-2.12229537964,3.1117401123,,0.0812672918565,-0.102490038445,0.0215603889431,-0.991174348514
120344000000,,489,,120,344000000,"""map""",,,-2.09802174568,-2.13717412949,3.1190161705,,0.0826981763757,-0.0917685871313,0.0181247885868,-0.992174956844
120376000000,,490,,120,376000000,"""map""",,,-2.10801696777,-2.1481525898,3.13647079468,,0.071777028684,-0.080312055267,0.0174880761463,-0.994028280214
120412000000,,491,,120,412000000,"""map""",,,-2.11532902718,-2.15762376785,3.17402124405,,0.0466143090859,-0.0494059266705,0.0171770324043,-0.997542568736
120444000000,,492,,120,444000000,"""map""",,,-2.11904549599,-2.16338205338,3.21277475357,,0.0230468506675,-0.0139739111009,0.0173878087937,-0.999485496306
120476000000,,493,,120,476000000,"""map""",,,-2.12234044075,-2.16871762276,3.25293326378,,0.00406355810613,0.0127108388689,0.0175308551976,-0.999757259185
120512000000,,494,,120,512000000,"""map""",,,-2.1259200573,-2.17422056198,3.28990364075,,-0.0271654193013,0.0537284495018,0.0174878232652,-0.998032820878
120544000000,,495,,120,544000000,"""map""",,,-2.13173270226,-2.18059778214,3.32060837746,,-0.0594782595529,0.0979687530517,0.0172242790215,-0.993261165424
120576000000,,496,,120,576000000,"""map""",,,-2.14006447792,-2.18812870979,3.34553933144,,-0.0716597471755,0.115136434124,0.0170452813559,-0.99061497554
120612000000,,497,,120,612000000,"""map""",,,-2.15264964104,-2.19910264015,3.37214565277,,-0.0846030706949,0.133421249026,0.0169224654393,-0.987296669863
120644000000,,498,,120,644000000,"""map""",,,-2.1649377346,-2.20934724808,3.39099979401,,-0.0827332336633,0.13062741083,0.0172079681911,-0.987823674057
120676000000,,499,,120,676000000,"""map""",,,-2.17910480499,-2.22088694572,3.40852761269,,-0.0777563362278,0.12351307285,0.0174923751249,-0.989137307032
120712000000,,500,,120,712000000,"""map""",,,-2.19486045837,-2.23354816437,3.42527675629,,-0.0635158525662,0.101320429813,0.0182707009763,-0.992656105267
120744000000,,501,,120,744000000,"""map""",,,-2.21231198311,-2.24612879753,3.44305706024,,-0.0475438143659,0.0748262622946,0.0192701291951,-0.99587616664
120776000000,,502,,120,776000000,"""map""",,,-2.23089122772,-2.25843501091,3.46184372902,,-0.0397450036643,0.0620673470424,0.0198503648585,-0.997082788766
120812000000,,503,,120,812000000,"""map""",,,-2.25436878204,-2.2744166851,3.48489356041,,-0.0247095303411,0.0370798885285,0.0213287498637,-0.998779072978
120844000000,,504,,120,844000000,"""map""",,,-2.27296495438,-2.2874212265,3.50275278091,,-0.015327630338,0.0208429452022,0.0226764374917,-0.999408072545
120876000000,,505,,120,876000000,"""map""",,,-2.29115915298,-2.30042481422,3.51994609833,,-0.0111932803436,0.0138059331898,0.0234643306778,-0.999566713283
120912000000,,506,,120,912000000,"""map""",,,-2.30875277519,-2.31335520744,3.53626608849,,-0.00464604928452,0.00327494447238,0.0252632846128,-0.999664704706
120944000000,,507,,120,944000000,"""map""",,,-2.32595586777,-2.32534956932,3.55221557617,,-0.00155486518484,-0.00121139415561,0.026605619591,-0.999644094897
120976000000,,508,,120,976000000,"""map""",,,-2.34275770187,-2.33643698692,3.56781721115,,-0.000489137802253,-0.00253075040655,0.0273311354413,-0.999623105766
121012000000,,509,,121,12000000,"""map""",,,-2.36276888847,-2.35011911392,3.58628320694,,0.000757250039971,-0.00302789652161,0.0287371121607,-0.999582181176
121044000000,,510,,121,44000000,"""map""",,,-2.37801861763,-2.360902071,3.60039234161,,0.00094309656848,-0.00206067508058,0.0297539891748,-0.999554743578
121076000000,,511,,121,76000000,"""map""",,,-2.39266777039,-2.37156033516,3.61396431923,,0.000867392164578,-0.00140483070797,0.0302910243185,-0.999539823594
121112000000,,512,,121,112000000,"""map""",,,-2.40676307678,-2.38210487366,3.62695336342,,0.000319473327798,7.20577651376e-05,0.0312291710195,-0.999512217408
121144000000,,513,,121,144000000,"""map""",,,-2.42075967789,-2.39176821709,3.64019179344,,-0.000285504068902,0.00152349003566,0.0320315205746,-0.99948570704
121176000000,,514,,121,176000000,"""map""",,,-2.43464159966,-2.40062761307,3.65333580971,,-0.000533468219716,0.00215979129738,0.0324019070793,-0.99947247293
121212000000,,515,,121,212000000,"""map""",,,-2.45131874084,-2.41168665886,3.66875982285,,-0.000977744817633,0.00283116631033,0.0331339978379,-0.999446426177
121244000000,,516,,121,244000000,"""map""",,,-2.46420359612,-2.42050552368,3.68042016029,,-0.00133022615572,0.00313115243151,0.0338244896571,-0.999422023152
121276000000,,517,,121,276000000,"""map""",,,-2.47671580315,-2.42928934097,3.69146180153,,-0.00154720866857,0.00322808754891,0.0341562275017,-0.999410095594
121312000000,,518,,121,312000000,"""map""",,,-2.48887681961,-2.43806862831,3.70130443573,,0.000226857305425,0.0013058772134,0.0346350999945,-0.999399137413
121344000000,,519,,121,344000000,"""map""",,,-2.50093746185,-2.44611644745,3.70876836777,,0.0184316713153,-0.0137987455057,0.0340032765885,-0.999156498006
121376000000,,520,,121,376000000,"""map""",,,-2.51272320747,-2.45331954956,3.71326804161,,0.0317362084731,-0.0249616498254,0.0334099332551,-0.998625869184
121412000000,,521,,121,412000000,"""map""",,,-2.52620577812,-2.46157002449,3.71532392502,,0.0572030409614,-0.0470020284821,0.0319325176274,-0.996744180985
121444000000,,522,,121,444000000,"""map""",,,-2.5355284214,-2.46703934669,3.71561002731,,0.0685819985876,-0.0595423767633,0.0310049076386,-0.995384312918
121476000000,,523,,121,476000000,"""map""",,,-2.5433511734,-2.4712498188,3.71570467949,,0.0700394224504,-0.0619476799564,0.0307409419263,-0.995144202322
121512000000,,524,,121,512000000,"""map""",,,-2.54920506477,-2.47374916077,3.71905732155,,0.0634511912334,-0.0581771957237,0.0303046798974,-0.995826770534
121544000000,,525,,121,544000000,"""map""",,,-2.55321907997,-2.4740190506,3.72866177559,,0.0377728068372,-0.0380759893688,0.0300389018707,-0.998108769499
121576000000,,526,,121,576000000,"""map""",,,-2.55626273155,-2.47296595573,3.74271178246,,0.0241040709412,-0.0270528044038,0.0297457283924,-0.998900624489
121612000000,,527,,121,612000000,"""map""",,,-2.55965590477,-2.47173929214,3.761292696,,-0.000669747173244,-0.00465783476167,0.029503257573,-0.999553689907
121644000000,,528,,121,644000000,"""map""",,,-2.5624396801,-2.47129225731,3.77452874184,,-0.0224493499427,0.0177510122242,0.0295235723539,-0.99915430637
121676000000,,529,,121,676000000,"""map""",,,-2.56550049782,-2.47155475616,3.785197258,,-0.0313552980978,0.0264419133288,0.0295655927619,-0.998720994621
121712000000,,530,,121,712000000,"""map""",,,-2.56919002533,-2.47271943092,3.79344701767,,-0.0437621883833,0.036819056171,0.0299240938553,-0.997914725409
121744000000,,531,,121,744000000,"""map""",,,-2.57419252396,-2.47414708138,3.80048179626,,-0.0460725373608,0.0401524178218,0.0303523479831,-0.997669220016
121776000000,,532,,121,776000000,"""map""",,,-2.58037352562,-2.47592687607,3.80716204643,,-0.0450566040411,0.0398553872484,0.030708193825,-0.997716635221
121812000000,,533,,121,812000000,"""map""",,,-2.58888244629,-2.47974514961,3.81513309479,,-0.0395299019546,0.032098050692,0.0314725690696,-0.998206718775
121844000000,,534,,121,844000000,"""map""",,,-2.59633255005,-2.48385810852,3.82158589363,,-0.0330844746324,0.0239153974458,0.0321273625081,-0.998649766447
121876000000,,535,,121,876000000,"""map""",,,-2.60411810875,-2.48876023293,3.8281712532,,-0.0293212012974,0.0207001641918,0.032442620935,-0.998828974847
121912000000,,536,,121,912000000,"""map""",,,-2.61198616028,-2.49429512024,3.83462119102,,-0.022271184348,0.0142508748353,0.0331649757716,-0.999100105523
121944000000,,537,,121,944000000,"""map""",,,-2.61979198456,-2.49939417839,3.84085273743,,-0.0164842528015,0.00596841653472,0.0338535288357,-0.999273034043
121976000000,,538,,121,976000000,"""map""",,,-2.62754297256,-2.5040140152,3.84714007378,,-0.0134888295212,0.00280144372715,0.0342659357484,-0.999317836143
122012000000,,539,,122,12000000,"""map""",,,-2.63700604439,-2.51026105881,3.85459971428,,-0.00986909024224,0.0010734170113,0.0348217683865,-0.99934422007
122044000000,,540,,122,44000000,"""map""",,,-2.64428853989,-2.51561236382,3.85998392105,,-0.00725288290212,-0.00190616926143,0.0354035213365,-0.99934502086
122076000000,,541,,122,76000000,"""map""",,,-2.65148139,-2.52118873596,3.86477136612,,-0.00620162525497,-0.00418352482988,0.0357686394852,-0.999332081777
122112000000,,542,,122,112000000,"""map""",,,-2.65854859352,-2.52694296837,3.86949944496,,-0.00519486702426,-0.00419899708614,0.03623330849,-0.99932108145
122144000000,,543,,122,144000000,"""map""",,,-2.66530013084,-2.53219485283,3.87462997437,,-0.00458043528478,-0.00269470214116,0.0365510114341,-0.999317709702
122176000000,,544,,122,176000000,"""map""",,,-2.67183017731,-2.53700590134,3.87975621223,,-0.00427033974397,-0.0038813810082,0.0367974862042,-0.999306077172
122212000000,,545,,122,212000000,"""map""",,,-2.67992115021,-2.54335832596,3.88554525375,,-0.00398926737091,-0.00537309065314,0.0370971502971,-0.999289302726
122244000000,,546,,122,244000000,"""map""",,,-2.68627858162,-2.54861497879,3.89019823074,,-0.00376902510391,-0.00276224217779,0.037337850949,-0.99929178939
122276000000,,547,,122,276000000,"""map""",,,-2.69240188599,-2.554033041,3.89478373528,,-0.00366868288302,-0.00198049695746,0.0374277501768,-0.999290651425
122312000000,,548,,122,312000000,"""map""",,,-2.69845890999,-2.55961298943,3.89861488342,,-0.00355067569962,-0.0044875686142,0.0376491897189,-0.999274635623
122344000000,,549,,122,344000000,"""map""",,,-2.70437884331,-2.56457924843,3.90261316299,,-0.00342249725513,-0.00477925048913,0.03782249756,-0.999267217778
122376000000,,550,,122,376000000,"""map""",,,-2.70995497704,-2.56894612312,3.90716600418,,-0.00336659123042,-0.00293913706964,0.037930983548,-0.999270420938
122412000000,,551,,122,412000000,"""map""",,,-2.71657943726,-2.57468318939,3.91245126724,,-0.00322770637511,-0.00385590062468,0.0380646733515,-0.999262665918
122444000000,,552,,122,444000000,"""map""",,,-2.72192978859,-2.57948184013,3.91611552238,,-0.00313782414592,-0.00706323311444,0.03821728709,-0.999239611592
122476000000,,553,,122,476000000,"""map""",,,-2.72730588913,-2.58444643021,3.91978788376,,-0.00325319653391,-0.00614626981462,0.0382942472354,-0.99924230899
122512000000,,554,,122,512000000,"""map""",,,-2.73242235184,-2.58957719803,3.92348456383,,-0.00335620512691,-0.00327970487711,0.0383073127584,-0.999255037338
122544000000,,555,,122,544000000,"""map""",,,-2.73739361763,-2.5948677063,3.9266769886,,-0.00311401331678,-0.0064390032205,0.0383854108687,-0.999237462102
122576000000,,556,,122,576000000,"""map""",,,-2.74249100685,-2.60027599335,3.92932105064,,-0.00301917286483,-0.00811950952929,0.038447914645,-0.999223090027
122612000000,,557,,122,612000000,"""map""",,,-2.74878406525,-2.60718512535,3.93307781219,,-0.00281968178802,-0.00549368990889,0.0383966219304,-0.999243531249
122644000000,,558,,122,644000000,"""map""",,,-2.75304603577,-2.61225175858,3.93660759926,,-0.00246505425339,-0.0044845903055,0.038385874484,-0.999249895423
122676000000,,559,,122,676000000,"""map""",,,-2.75686478615,-2.61689066887,3.94002652168,,-0.00225293772591,-0.00702832976161,0.0383934609168,-0.999235481201
122712000000,,560,,122,712000000,"""map""",,,-2.76089859009,-2.62166261673,3.94329309464,,-0.00192819329468,-0.00872807692992,0.0385281622446,-0.999217526643
122744000000,,561,,122,744000000,"""map""",,,-2.76479053497,-2.62656331062,3.94703674316,,-0.00156388062828,-0.00393560085028,0.0384598000563,-0.999251244122
122776000000,,562,,122,776000000,"""map""",,,-2.76844739914,-2.63159537315,3.95037460327,,-0.00131805773494,-0.00421564896025,0.0384293278848,-0.99925153915
122812000000,,563,,122,812000000,"""map""",,,-2.77323055267,-2.63809466362,3.95355606079,,-0.000986846396642,-0.0097976088579,0.038575071687,-0.999207200665
122844000000,,564,,122,844000000,"""map""",,,-2.77667307854,-2.64253473282,3.95663237572,,-0.000840405854401,-0.00653322282962,0.0386274602197,-0.999232025159
122868000000,,565,,122,868000000,"""map""",,,-2.77934551239,-2.64630675316,3.96049785614,,-0.000653110034067,-0.00339894725078,0.0385712363238,-0.999249895423
122912000000,,566,,122,912000000,"""map""",,,-2.78193712234,-2.65026569366,3.96345686913,,-0.000381174122299,-0.00675965446834,0.0387453871018,-0.999226208894
122944000000,,567,,122,944000000,"""map""",,,-2.78493905067,-2.65437531471,3.96583151817,,-0.000402428646294,-0.00994708759522,0.0389057558604,-0.999193292205
122976000000,,568,,122,976000000,"""map""",,,-2.78804087639,-2.65855360031,3.9686999321,,-0.000560512584708,-0.00587512481481,0.0388548424674,-0.999227431153
123012000000,,569,,123,12000000,"""map""",,,-2.79149699211,-2.66398310661,3.97241353989,,-0.00063154525329,-0.00270951181933,0.0387257888173,-0.99924606006
123044000000,,570,,123,44000000,"""map""",,,-2.79398846626,-2.66751003265,3.97451305389,,-0.000564071359229,-0.00982352916973,0.0388696360112,-0.999195863163
123076000000,,571,,123,76000000,"""map""",,,-2.79652667046,-2.67025256157,3.97696113586,,-0.000636654159265,-0.00992304051324,0.0388806363387,-0.999194472317
123112000000,,572,,123,112000000,"""map""",,,-2.79892706871,-2.67316842079,3.98020339012,,0.000451899168278,-0.00351045678132,0.0386355945615,-0.999247155878
123144000000,,573,,123,144000000,"""map""",,,-2.80108356476,-2.67629742622,3.98293805122,,0.0100325148943,-0.0110237397887,0.0382930249768,-0.999155444335
123172000000,,574,,123,176000000,"""map""",,,-2.80356001854,-2.67949056625,3.9843173027,,0.0178466750336,-0.0203144645516,0.0380977586276,-0.998908084481
123212000000,,575,,123,212000000,"""map""",,,-2.80681157112,-2.6830830574,3.98639655113,,0.0272590883672,-0.0229546616803,0.0375452134436,-0.998659333781
123244000000,,576,,123,244000000,"""map""",,,-2.80798816681,-2.6847178936,3.98914837837,,0.033327117332,-0.0212014584787,0.0368822013697,-0.998538751648
123276000000,,577,,123,276000000,"""map""",,,-2.80821704865,-2.68530344963,3.99101018906,,0.0351747765602,-0.0262086048391,0.0369366129511,-0.998354443479
123312000000,,578,,123,312000000,"""map""",,,-2.80860543251,-2.68539118767,3.99391078949,,0.0167134315587,-0.0338663533315,0.0374237040794,-0.998585618943
123344000000,,579,,123,344000000,"""map""",,,-2.80830073357,-2.68532419205,4.00301647186,,-0.052124569621,-0.0261077415037,0.0382163598593,-0.997567561818
123376000000,,580,,123,376000000,"""map""",,,-2.80694675446,-2.68697738647,4.01811265945,,-0.0948329880098,-0.0251138345221,0.0383300720566,-0.994437989728
123412000000,,581,,123,412000000,"""map""",,,-2.80524015427,-2.69291400909,4.03632164001,,-0.172847829299,-0.0352822016331,0.0385475497949,-0.983561405414
123444000000,,582,,123,444000000,"""map""",,,-2.80441141129,-2.70052146912,4.04791688919,,-0.237263144344,-0.0346569215253,0.0400989331417,-0.96999859171
123476000000,,583,,123,476000000,"""map""",,,-2.80314874649,-2.71149373055,4.05654430389,,-0.263243557585,-0.0280820763779,0.0415321367254,-0.963425832832
123512000000,,584,,123,512000000,"""map""",,,-2.80165052414,-2.72670459747,4.06086683273,,-0.304051147837,-0.024184504415,0.0426643696638,-0.951392570407
123544000000,,585,,123,544000000,"""map""",,,-2.80076670647,-2.74710655212,4.06206560135,,-0.329786255882,-0.0288417417122,0.042840964959,-0.942641957426
123576000000,,586,,123,576000000,"""map""",,,-2.8004629612,-2.77513623238,4.06400203705,,-0.336148006564,-0.0249715019805,0.0440499473086,-0.940446991702
